{"ChIJGzE9DS1l44kRoOhiASS_fHg": {"geometry": {"location": {"lat": 42.3600825, "lng": -71.0588801}, "viewport": {"northeast": {"lat": 42.40081989999999, "lng": -70.749455}, "southwest": {"lat": 42.22788, "lng": -71.191113}}}, "icon": "https://maps.gstatic.com/mapfiles/place_api/icons/geocode-71.png", "id": "06755c25d2b34d13942a4713971756a55b870ced", "name": "Boston", "photos": [{"height": 3024, "html_attributions": ["<a href=\"https://maps.google.com/maps/contrib/104670289779338733432/photos\">Natalia Zalucean</a>"], "photo_reference": "CmRaAAAA5v7yOdxvqtF_nypucPCYIV8KpCv553BdolRKE3QG2zDS4P2jiQIIG0RazdLmyVZNMT8fY7Bchfx3HD88tNgO25A0YBQz91m_xi4xTT8aIIzEl0_65TjUXTzc0viAS1_9EhCIjd_S4n7wNXVCC14YKOSbGhS8FOUqpOsr7sW4aQNfdwFh7PnEzQ", "width": 4032}], "place_id": "ChIJGzE9DS1l44kRoOhiASS_fHg", "reference": "ChIJGzE9DS1l44kRoOhiASS_fHg", "scope": "GOOGLE", "types": ["locality", "political"], "vicinity": "Boston"}, "ChIJ67ATTDd644kR0rZ3uOEX4rQ": {"geometry": {"location": {"lat": 42.326196, "lng": -71.0789794}, "viewport": {"northeast": {"lat": 42.32760753029149, "lng": -71.07755156970849}, "southwest": {"lat": 42.3249095697085, "lng": -71.0802495302915}}}, "icon": "https://maps.gstatic.com/mapfiles/place_api/icons/generic_business-71.png", "id": "8216e0f0e7964c8dd73863c89ff6c776afaea79c", "name": "Boston Carmel", "opening_hours": {"open_now": false}, "photos": [{"height": 1360, "html_attributions": ["<a href=\"https://maps.google.com/maps/contrib/107064709059801595420/photos\">Boston Carmel</a>"], "photo_reference": "CmRaAAAAff0nChy5rTA3FWMh3JvRboZawYiqcsrPG9CzGwELaakobZTFZkJhscTzCb43rA_2yPZyv7Tmqd70X1cvAOoQLds8K6-qbs2NkdKneF7z1bf9e45J4_AMCxgXZF8MJsgUEhB8neE3L1uIU53Eq6I1-SjRGhR-KJEtJqY8b8c3mKZhmDuPz2LcDQ", "width": 2048}], "place_id": "ChIJ67ATTDd644kR0rZ3uOEX4rQ", "plus_code": {"compound_code": "8WGC+FC Boston, Massachusetts, United States", "global_code": "87JC8WGC+FC"}, "rating": 4.5, "reference": "ChIJ67ATTDd644kR0rZ3uOEX4rQ", "scope": "GOOGLE", "types": ["point_of_interest", "establishment"], "user_ratings_total": 8, "vicinity": "61 Mount Pleasant Avenue, Roxbury"}, "ChIJxQvk1jB644kRtq_Vlx7jtGw": {"geometry": {"location": {"lat": 42.3254212, "lng": -71.08008079999999}, "viewport": {"northeast": {"lat": 42.3268832302915, "lng": -71.07858751970849}, "southwest": {"lat": 42.3241852697085, "lng": -71.0812854802915}}}, "icon": "https://maps.gstatic.com/mapfiles/place_api/icons/worship_general-71.png", "id": "f0dab487f396c2edaefd3a947c5dbfc6d31cc820", "name": "Kingdom Hall of Jehovah\u2019s Witnesses", "photos": [{"height": 2358, "html_attributions": ["<a href=\"https://maps.google.com/maps/contrib/100230423935312070892/photos\">Frank YT</a>"], "photo_reference": "CmRaAAAAzaFvphYBreKuJoA7nHipp9TGQDHKd21x6nA2pDsnEVLQqLPgDZ5NmqNCvHrmAfirdVlp5qMJxnHatGGbRJ2NOHV2Hi94PgCYaASG_QBcO6tPdxQGaGP8cMW2Ojl7AeisEhBlUtWsrcLI4PjtX3WTR3BcGhT5B1JjLWc2z-QqZBpLPnL9OaYNaw", "width": 4191}], "place_id": "ChIJxQvk1jB644kRtq_Vlx7jtGw", "plus_code": {"compound_code": "8WG9+5X Boston, Massachusetts, United States", "global_code": "87JC8WG9+5X"}, "rating": 4.9, "reference": "ChIJxQvk1jB644kRtq_Vlx7jtGw", "scope": "GOOGLE", "types": ["church", "place_of_worship", "point_of_interest", "establishment"], "user_ratings_total": 23, "vicinity": "49 Winthrop Street, Roxbury"}, "ChIJ3_RdFDd644kRj_vpZFFrWGQ": {"geometry": {"location": {"lat": 42.3257735, "lng": -71.07772670000001}, "viewport": {"northeast": {"lat": 42.32706573029149, "lng": -71.07645246970849}, "southwest": {"lat": 42.3243677697085, "lng": -71.07915043029149}}}, "icon": "https://maps.gstatic.com/mapfiles/place_api/icons/generic_business-71.png", "id": "5411aec102bf6513fd670576fc4d0a6b3abcd0dd", "name": "Aronova Realty", "place_id": "ChIJ3_RdFDd644kRj_vpZFFrWGQ", "plus_code": {"compound_code": "8WGC+8W Boston, Massachusetts, United States", "global_code": "87JC8WGC+8W"}, "reference": "ChIJ3_RdFDd644kRj_vpZFFrWGQ", "scope": "GOOGLE", "types": ["real_estate_agency", "point_of_interest", "establishment"], "vicinity": "90 Mount Pleasant Avenue, Boston"}, "ChIJGUPtZDd644kR8_BCCHiRi-g": {"geometry": {"location": {"lat": 42.326702, "lng": -71.0773976}, "viewport": {"northeast": {"lat": 42.3280096802915, "lng": -71.07610196970849}, "southwest": {"lat": 42.3253117197085, "lng": -71.0787999302915}}}, "icon": "https://maps.gstatic.com/mapfiles/place_api/icons/worship_general-71.png", "id": "e8329e4c0273739a29e76e6ec6899a4c741bce35", "name": "Salem Hispanic Seventh-day Adventist Church", "photos": [{"height": 1931, "html_attributions": ["<a href=\"https://maps.google.com/maps/contrib/107210670444657235030/photos\">Jonas Laurince</a>"], "photo_reference": "CmRaAAAAuVKaTxMZEJnlasHFIZbFjaRA6TRzYW9XmaRXDPAuYA9PeBqMvN_pN4xWu9AATnqkz8EqnkGoopnZY_60jxi33glRaAml4Mygg-ist9_PWyCf12tviXDGEil2XzqlS6ruEhDlJU3TXvJLwmei92lKAkGnGhTDYWHmnaZUeBQuDs1N778iSDbklA", "width": 1783}], "place_id": "ChIJGUPtZDd644kR8_BCCHiRi-g", "plus_code": {"compound_code": "8WGF+M2 Boston, Massachusetts, United States", "global_code": "87JC8WGF+M2"}, "rating": 5, "reference": "ChIJGUPtZDd644kR8_BCCHiRi-g", "scope": "GOOGLE", "types": ["church", "place_of_worship", "point_of_interest", "establishment"], "user_ratings_total": 1, "vicinity": "44 - 46 Forest Street, Roxbury"}, "ChIJh50X0jB644kROqUIqZO4Lt0": {"geometry": {"location": {"lat": 42.3255032, "lng": -71.0799615}, "viewport": {"northeast": {"lat": 42.3269215302915, "lng": -71.0785239697085}, "southwest": {"lat": 42.3242235697085, "lng": -71.0812219302915}}}, "icon": "https://maps.gstatic.com/mapfiles/place_api/icons/worship_general-71.png", "id": "c423e684fa0b76b4e4e9c1a2f2483206d5782d7c", "name": "Roxbury Portuguese Congregation", "place_id": "ChIJh50X0jB644kROqUIqZO4Lt0", "plus_code": {"compound_code": "8WGC+62 Boston, Massachusetts, United States", "global_code": "87JC8WGC+62"}, "rating": 5, "reference": "ChIJh50X0jB644kROqUIqZO4Lt0", "scope": "GOOGLE", "types": ["church", "place_of_worship", "point_of_interest", "establishment"], "user_ratings_total": 1, "vicinity": "49 Winthrop Street, Boston"}, "ChIJzeWUVTd644kRb-SRULLgEaw": {"geometry": {"location": {"lat": 42.32733319999999, "lng": -71.079226}, "viewport": {"northeast": {"lat": 42.32869098029149, "lng": -71.0779914197085}, "southwest": {"lat": 42.32599301970849, "lng": -71.0806893802915}}}, "icon": "https://maps.gstatic.com/mapfiles/place_api/icons/generic_business-71.png", "id": "2230cfe54ca385685cbc8bac6c5d5dd557b7804f", "name": "Caritas Communities", "place_id": "ChIJzeWUVTd644kRb-SRULLgEaw", "plus_code": {"compound_code": "8WGC+W8 Boston, Massachusetts, United States", "global_code": "87JC8WGC+W8"}, "rating": 5, "reference": "ChIJzeWUVTd644kRb-SRULLgEaw", "scope": "GOOGLE", "types": ["point_of_interest", "establishment"], "user_ratings_total": 1, "vicinity": "28 Mount Pleasant Avenue, Roxbury"}, "ChIJc1_ufzd644kRv21Bz5dN9FM": {"geometry": {"location": {"lat": 42.3267858, "lng": -71.0767228}, "viewport": {"northeast": {"lat": 42.3282279802915, "lng": -71.0752413197085}, "southwest": {"lat": 42.3255300197085, "lng": -71.0779392802915}}}, "icon": "https://maps.gstatic.com/mapfiles/place_api/icons/generic_business-71.png", "id": "50bc20a549e1383ffa2237cc27f9d67f70b92ec4", "name": "Vine Street Community Center", "photos": [{"height": 3024, "html_attributions": ["<a href=\"https://maps.google.com/maps/contrib/111838017832350091399/photos\">Sendy Vaughn Suazo</a>"], "photo_reference": "CmRaAAAAGMgg0P2OD0qA4Wl400ogTK39IjR5J3VQrgBJsHSxbKPpZu1u-FWSNDwXwIxUCxD453IwQg-kGBFKNGK2vLcm_fvygfH8Ju0kYNaBQuaDMn2_Au1EsdIsS2cmzf75kv3IEhBmed8W4Tj0iFShV2V1i1nxGhT1CcJfmBqM6rDXbCUp8hx7LLxtZw", "width": 4032}], "place_id": "ChIJc1_ufzd644kRv21Bz5dN9FM", "plus_code": {"compound_code": "8WGF+P8 Boston, Massachusetts, United States", "global_code": "87JC8WGF+P8"}, "rating": 4.4, "reference": "ChIJc1_ufzd644kRv21Bz5dN9FM", "scope": "GOOGLE", "types": ["point_of_interest", "establishment"], "user_ratings_total": 26, "vicinity": "339 Dudley Street, Roxbury"}, "ChIJiUqXD4FcXEAR9AJTIsnTmHQ": {"geometry": {"location": {"lat": 42.3262174, "lng": -71.0805924}, "viewport": {"northeast": {"lat": 42.3274834302915, "lng": -71.0792779197085}, "southwest": {"lat": 42.3247854697085, "lng": -71.08197588029151}}}, "icon": "https://maps.gstatic.com/mapfiles/place_api/icons/school-71.png", "id": "2dab9754d22c616e85056f8062258a22819d9926", "name": "Dearborn, Henry Stem Academy", "opening_hours": {"open_now": false}, "place_id": "ChIJiUqXD4FcXEAR9AJTIsnTmHQ", "plus_code": {"compound_code": "8WG9+FQ Boston, Massachusetts, United States", "global_code": "87JC8WG9+FQ"}, "rating": 3.2, "reference": "ChIJiUqXD4FcXEAR9AJTIsnTmHQ", "scope": "GOOGLE", "types": ["point_of_interest", "school", "establishment"], "user_ratings_total": 6, "vicinity": "36 Winthrop Street, Roxbury"}, "ChIJ8WlsSDd644kRaG_f0QRElOA": {"geometry": {"location": {"lat": 42.3262171, "lng": -71.07881130000001}, "viewport": {"northeast": {"lat": 42.3275920302915, "lng": -71.0774296197085}, "southwest": {"lat": 42.3248940697085, "lng": -71.08012758029152}}}, "icon": "https://maps.gstatic.com/mapfiles/place_api/icons/generic_business-71.png", "id": "7cf66de90a033f5d77b10643ff8492fab7c12533", "name": "Carmelite House", "place_id": "ChIJ8WlsSDd644kRaG_f0QRElOA", "plus_code": {"compound_code": "8WGC+FF Boston, Massachusetts, United States", "global_code": "87JC8WGC+FF"}, "rating": 4, "reference": "ChIJ8WlsSDd644kRaG_f0QRElOA", "scope": "GOOGLE", "types": ["point_of_interest", "establishment"], "user_ratings_total": 1, "vicinity": "61 Mount Pleasant Avenue, Boston"}, "ChIJWdhfxjB644kRpaoRPQnQlH4": {"geometry": {"location": {"lat": 42.3261806, "lng": -71.0804105}, "viewport": {"northeast": {"lat": 42.3275319302915, "lng": -71.0790221697085}, "southwest": {"lat": 42.3248339697085, "lng": -71.08172013029152}}}, "icon": "https://maps.gstatic.com/mapfiles/place_api/icons/worship_general-71.png", "id": "a4b691c0c9d4f0657aecaaeb797c0121294c6b1c", "name": "PHILADELPHIA HAITIAN MISSIONARY CHURCH", "place_id": "ChIJWdhfxjB644kRpaoRPQnQlH4", "plus_code": {"compound_code": "8WG9+FR Boston, Massachusetts, United States", "global_code": "87JC8WG9+FR"}, "reference": "ChIJWdhfxjB644kRpaoRPQnQlH4", "scope": "GOOGLE", "types": ["church", "place_of_worship", "point_of_interest", "establishment"], "vicinity": "38 Harvard Ave & Winthrop St, Boston"}, "ChIJ05iiuDB644kRpS5_YjPpBH0": {"geometry": {"location": {"lat": 42.3262071, "lng": -71.0805876}, "viewport": {"northeast": {"lat": 42.32747733029151, "lng": -71.0792713697085}, "southwest": {"lat": 42.32477936970851, "lng": -71.0819693302915}}}, "icon": "https://maps.gstatic.com/mapfiles/place_api/icons/school-71.png", "id": "835821f6bcdac1d17f671b8f231d653cb8904098", "name": "Dearborn STEM Academy", "place_id": "ChIJ05iiuDB644kRpS5_YjPpBH0", "plus_code": {"compound_code": "8WG9+FQ Boston, Massachusetts, United States", "global_code": "87JC8WG9+FQ"}, "rating": 1, "reference": "ChIJ05iiuDB644kRpS5_YjPpBH0", "scope": "GOOGLE", "types": ["school", "library", "point_of_interest", "establishment"], "user_ratings_total": 2, "vicinity": "36 Winthrop Street, Roxbury"}, "ChIJmXQbVDd644kREy4m9WyIiPk": {"geometry": {"location": {"lat": 42.32701549999999, "lng": -71.0792115}, "viewport": {"northeast": {"lat": 42.3284731802915, "lng": -71.07779831970849}, "southwest": {"lat": 42.3257752197085, "lng": -71.0804962802915}}}, "icon": "https://maps.gstatic.com/mapfiles/place_api/icons/generic_recreational-71.png", "id": "6e4abc4c32f333197fba84f6088eb6a105afecd0", "name": "Mount Pleasant Play Area", "place_id": "ChIJmXQbVDd644kREy4m9WyIiPk", "reference": "ChIJmXQbVDd644kREy4m9WyIiPk", "scope": "GOOGLE", "types": ["park", "premise", "point_of_interest", "establishment"], "vicinity": "Boston"}, "ChIJ9VxYxTZ644kRLoaletiR2mU": {"geometry": {"location": {"lat": 42.3242195, "lng": -71.07893299999999}, "viewport": {"northeast": {"lat": 42.3256395802915, "lng": -71.0773914697085}, "southwest": {"lat": 42.32294161970851, "lng": -71.08008943029151}}}, "icon": "https://maps.gstatic.com/mapfiles/place_api/icons/generic_recreational-71.png", "id": "066daa05f14bdfb40c581f2c08d3a7cabbf920f7", "name": "Gertrude Howes Playground", "place_id": "ChIJ9VxYxTZ644kRLoaletiR2mU", "reference": "ChIJ9VxYxTZ644kRLoaletiR2mU", "scope": "GOOGLE", "types": ["park", "premise", "point_of_interest", "establishment"], "vicinity": "Boston"}, "ChIJE17-K2t744kRhFqdNEthJJA": {"geometry": {"location": {"lat": 42.3265188, "lng": -71.0776589}, "viewport": {"northeast": {"lat": 42.32786778029149, "lng": -71.07630991970849}, "southwest": {"lat": 42.32516981970849, "lng": -71.07900788029151}}}, "icon": "https://maps.gstatic.com/mapfiles/place_api/icons/generic_business-71.png", "id": "95800e392d663ec5e1d9c630ed8559511576232a", "name": "Tandem Himbis Co", "place_id": "ChIJE17-K2t744kRhFqdNEthJJA", "plus_code": {"compound_code": "8WGC+JW Boston, Massachusetts, United States", "global_code": "87JC8WGC+JW"}, "reference": "ChIJE17-K2t744kRhFqdNEthJJA", "scope": "GOOGLE", "types": ["general_contractor", "point_of_interest", "establishment"], "vicinity": "39 Forest Street #183, Boston"}, "ChIJhwApgeV744kR-bCBQZn12-A": {"geometry": {"location": {"lat": 42.3257797, "lng": -71.08034889999999}, "viewport": {"northeast": {"lat": 42.3271286802915, "lng": -71.07899991970848}, "southwest": {"lat": 42.3244307197085, "lng": -71.0816978802915}}}, "icon": "https://maps.gstatic.com/mapfiles/place_api/icons/generic_business-71.png", "id": "9cb2aa7737d99ab9729aa54e8e4659c1eeb67d27", "name": "Hasang of the Week 2019", "place_id": "ChIJhwApgeV744kR-bCBQZn12-A", "reference": "ChIJhwApgeV744kR-bCBQZn12-A", "scope": "GOOGLE", "types": ["general_contractor", "point_of_interest", "establishment"], "vicinity": "41 Winthrop Street #152, Boston"}, "ChIJh-CN2yx644kRI8h5WPc98wQ": {"geometry": {"location": {"lat": 42.31519779999999, "lng": -71.0913748}, "viewport": {"northeast": {"lat": 42.335885, "lng": -71.06649519999999}, "southwest": {"lat": 42.29179790000001, "lng": -71.1067612}}}, "icon": "https://maps.gstatic.com/mapfiles/place_api/icons/geocode-71.png", "id": "33d978342c31fa28698809200432caaeeab1c79d", "name": "Roxbury", "photos": [{"height": 5312, "html_attributions": ["<a href=\"https://maps.google.com/maps/contrib/108141736953672835093/photos\">Warriorprincess4916</a>"], "photo_reference": "CmRaAAAA43qmDmw6TMgP5GaSKIv2wcE6MfFZ-uEnszvtyWtSubveMc9e0D0pn5sEDF9gG0Hgh0x8sbmoyxHeQH-U6ALVqRy1waAvb4kpITeoNHW1Dr-XoSAWZe9Bf8gwtMK-iOfrEhCudiEBo1KgkbDmE_DmfwitGhT6drqEYceCStrvfpiHvFn1yJRmTQ", "width": 2988}], "place_id": "ChIJh-CN2yx644kRI8h5WPc98wQ", "reference": "ChIJh-CN2yx644kRI8h5WPc98wQ", "scope": "GOOGLE", "types": ["neighborhood", "political"], "vicinity": "Dorchester Center"}}