{"ChIJGzE9DS1l44kRoOhiASS_fHg": {"geometry": {"location": {"lat": 42.3600825, "lng": -71.0588801}, "viewport": {"northeast": {"lat": 42.40081989999999, "lng": -70.749455}, "southwest": {"lat": 42.22788, "lng": -71.191113}}}, "icon": "https://maps.gstatic.com/mapfiles/place_api/icons/geocode-71.png", "id": "06755c25d2b34d13942a4713971756a55b870ced", "name": "Boston", "photos": [{"height": 3024, "html_attributions": ["<a href=\"https://maps.google.com/maps/contrib/104670289779338733432/photos\">Natalia Zalucean</a>"], "photo_reference": "CmRaAAAAXQ_tC7CoEd477yUpSJH27ym5DpraM8RURqGVdgUZJV8ysQ9wnZRip31wx1Ef3FoFdaSqmyQXb6WTD6PkT3e9ADBbaelj9sYqlt-bFIwtg_eJHhAbF8xG6MDp-EijUUFlEhBRWXhwlxBhxtvh-ptMX3qSGhRwe-SBcKYU0qAfdYk6VUAsHp0d6A", "width": 4032}], "place_id": "ChIJGzE9DS1l44kRoOhiASS_fHg", "reference": "ChIJGzE9DS1l44kRoOhiASS_fHg", "scope": "GOOGLE", "types": ["locality", "political"], "vicinity": "Boston"}, "ChIJt83NgzJ644kRjsLBajzZpFA": {"geometry": {"location": {"lat": 42.3205858, "lng": -71.0860221}, "viewport": {"northeast": {"lat": 42.32187948029149, "lng": -71.0849106197085}, "southwest": {"lat": 42.31918151970849, "lng": -71.0876085802915}}}, "icon": "https://maps.gstatic.com/mapfiles/place_api/icons/worship_general-71.png", "id": "2289415d03347b4bea3dd040334f9491a37f3932", "name": "Eliot Church of Roxbury", "opening_hours": {"open_now": false}, "photos": [{"height": 798, "html_attributions": ["<a href=\"https://maps.google.com/maps/contrib/110226723892435360338/photos\">Eliot Church of Roxbury</a>"], "photo_reference": "CmRaAAAAt0gS0yEs6zKNLrdCs4mfo2lZLVselREdTBsRO1fXZnChvdqZquCdYV29oydhsaDUgdIDG0BiOTl2ff8XFDfiV_zTQysYjFGXytbUerrAMphanbmdCmzlPwVF6czDCMyTEhBZVDJ-ukqf2uP4ZWcMXzdrGhQBthAFro26J9Z74uVcqH03cPAcJQ", "width": 1200}], "place_id": "ChIJt83NgzJ644kRjsLBajzZpFA", "plus_code": {"compound_code": "8WC7+6H Boston, Massachusetts, United States", "global_code": "87JC8WC7+6H"}, "rating": 4.3, "reference": "ChIJt83NgzJ644kRjsLBajzZpFA", "scope": "GOOGLE", "types": ["church", "place_of_worship", "point_of_interest", "establishment"], "user_ratings_total": 7, "vicinity": "120 Walnut Avenue, Roxbury"}, "ChIJI0Daay1644kRPMatlXG77-g": {"geometry": {"location": {"lat": 42.32095899999999, "lng": -71.0868644}, "viewport": {"northeast": {"lat": 42.32208088029149, "lng": -71.08542486970848}, "southwest": {"lat": 42.3193829197085, "lng": -71.0881228302915}}}, "icon": "https://maps.gstatic.com/mapfiles/place_api/icons/school-71.png", "id": "e139ae57d9cb4162d3464975c1330f36a724ae77", "name": "Higginson-Lewis K-8 School", "place_id": "ChIJI0Daay1644kRPMatlXG77-g", "plus_code": {"compound_code": "8WC7+97 Boston, Massachusetts, United States", "global_code": "87JC8WC7+97"}, "rating": 3.8, "reference": "ChIJI0Daay1644kRPMatlXG77-g", "scope": "GOOGLE", "types": ["point_of_interest", "school", "establishment"], "user_ratings_total": 17, "vicinity": "131 Walnut Avenue, Boston"}, "ChIJTdbFKC1644kRs0mM52kBYFI": {"geometry": {"location": {"lat": 42.3200056, "lng": -71.0879342}, "viewport": {"northeast": {"lat": 42.3212809802915, "lng": -71.0866435697085}, "southwest": {"lat": 42.31858301970851, "lng": -71.0893415302915}}}, "icon": "https://maps.gstatic.com/mapfiles/place_api/icons/generic_business-71.png", "id": "9e659097d141e61ec3ea30be349d8fd587148058", "name": "Boston Electrolgy & Skin Therapy", "opening_hours": {"open_now": true}, "place_id": "ChIJTdbFKC1644kRs0mM52kBYFI", "plus_code": {"compound_code": "8WC6+2R Boston, Massachusetts, United States", "global_code": "87JC8WC6+2R"}, "reference": "ChIJTdbFKC1644kRs0mM52kBYFI", "scope": "GOOGLE", "types": ["health", "point_of_interest", "establishment"], "vicinity": "210 Martin Luther King Jr Boulevard, Roxbury"}, "ChIJhTKYfi1644kRW6W_AuQKBWE": {"geometry": {"location": {"lat": 42.3211, "lng": -71.0857}, "viewport": {"northeast": {"lat": 42.3224682802915, "lng": -71.08440051970848}, "southwest": {"lat": 42.3197703197085, "lng": -71.0870984802915}}}, "icon": "https://maps.gstatic.com/mapfiles/place_api/icons/worship_general-71.png", "id": "224e85e0ba6166346b09e4d919097b7fb11b3f4e", "name": "Presbyterian Church of Roxbury", "place_id": "ChIJhTKYfi1644kRW6W_AuQKBWE", "plus_code": {"compound_code": "8WC7+CP Boston, Massachusetts, United States", "global_code": "87JC8WC7+CP"}, "reference": "ChIJhTKYfi1644kRW6W_AuQKBWE", "scope": "GOOGLE", "types": ["church", "place_of_worship", "point_of_interest", "establishment"], "vicinity": "Boston"}, "ChIJdQ6YOy1644kRQ2vv7NP9Spw": {"geometry": {"location": {"lat": 42.3200999, "lng": -71.08743299999999}, "viewport": {"northeast": {"lat": 42.3215321802915, "lng": -71.0861254197085}, "southwest": {"lat": 42.3188342197085, "lng": -71.0888233802915}}}, "icon": "https://maps.gstatic.com/mapfiles/place_api/icons/generic_business-71.png", "id": "364d880305635668530d6b68224051e4d7216421", "name": "Dimock-Sheila Daniels House", "place_id": "ChIJdQ6YOy1644kRQ2vv7NP9Spw", "plus_code": {"compound_code": "8WC7+22 Boston, Massachusetts, United States", "global_code": "87JC8WC7+22"}, "rating": 5, "reference": "ChIJdQ6YOy1644kRQ2vv7NP9Spw", "scope": "GOOGLE", "types": ["health", "point_of_interest", "establishment"], "user_ratings_total": 1, "vicinity": "158 Walnut Avenue, Roxbury"}, "ChIJT1jcay1644kRg9bDrtMrEug": {"geometry": {"location": {"lat": 42.3205359, "lng": -71.0865804}, "viewport": {"northeast": {"lat": 42.3219035302915, "lng": -71.0852369697085}, "southwest": {"lat": 42.3192055697085, "lng": -71.08793493029151}}}, "icon": "https://maps.gstatic.com/mapfiles/place_api/icons/generic_business-71.png", "id": "54698bb04c8611becb92817ec65e6750cfba3990", "name": "Coletti Ellen E", "place_id": "ChIJT1jcay1644kRg9bDrtMrEug", "plus_code": {"compound_code": "8WC7+69 Boston, Massachusetts, United States", "global_code": "87JC8WC7+69"}, "reference": "ChIJT1jcay1644kRg9bDrtMrEug", "scope": "GOOGLE", "types": ["doctor", "health", "point_of_interest", "establishment"], "vicinity": "131 Walnut Avenue, Roxbury"}, "ChIJkyy0ZS1644kRiWR-_RFRD4w": {"geometry": {"location": {"lat": 42.320608, "lng": -71.086011}, "viewport": {"northeast": {"lat": 42.32195713029149, "lng": -71.08463071970849}, "southwest": {"lat": 42.31925916970849, "lng": -71.0873286802915}}}, "icon": "https://maps.gstatic.com/mapfiles/place_api/icons/generic_business-71.png", "id": "09c32456b09b280d4e0d75250366d1610528562a", "name": "Humboldt Ave @ Walnut Ave", "place_id": "ChIJkyy0ZS1644kRiWR-_RFRD4w", "plus_code": {"compound_code": "8WC7+6H Boston, Massachusetts, United States", "global_code": "87JC8WC7+6H"}, "reference": "ChIJkyy0ZS1644kRiWR-_RFRD4w", "scope": "GOOGLE", "types": ["transit_station", "point_of_interest", "establishment"], "vicinity": "United States"}, "ChIJ_c6qikZ744kRO517oEKWgqo": {"geometry": {"location": {"lat": 42.321365, "lng": -71.086477}, "viewport": {"northeast": {"lat": 42.3228099802915, "lng": -71.0850602197085}, "southwest": {"lat": 42.3201120197085, "lng": -71.0877581802915}}}, "icon": "https://maps.gstatic.com/mapfiles/place_api/icons/generic_business-71.png", "id": "cad81128ee4f329ac5f2cc8121c4d1abc7fefb7a", "name": "Malcolm X Boyhood Home", "place_id": "ChIJ_c6qikZ744kRO517oEKWgqo", "plus_code": {"compound_code": "8WC7+GC Boston, Massachusetts, United States", "global_code": "87JC8WC7+GC"}, "rating": 5, "reference": "ChIJ_c6qikZ744kRO517oEKWgqo", "scope": "GOOGLE", "types": ["point_of_interest", "establishment"], "user_ratings_total": 1, "vicinity": "72 Dale Street, Boston"}, "ChIJc9wLyXZ744kRguW82aTn6_w": {"geometry": {"location": {"lat": 42.321365, "lng": -71.086477}, "viewport": {"northeast": {"lat": 42.3228099802915, "lng": -71.0850602197085}, "southwest": {"lat": 42.3201120197085, "lng": -71.0877581802915}}}, "icon": "https://maps.gstatic.com/mapfiles/place_api/icons/generic_business-71.png", "id": "2a0a127f12eaa8ea7813313e3e7cb30b934c615d", "name": "Malcolm X, Ella Little-Collins House", "photos": [{"height": 782, "html_attributions": ["<a href=\"https://maps.google.com/maps/contrib/110978709925713004231/photos\">Munir Safi</a>"], "photo_reference": "CmRaAAAAOT_UOcUYqANmnkE5ArT0KUO6im__lAMEANUxs0BDIE9c8LozJEff3nYhFq9WEZ-HN6cUOb65V1_PCdnERtM6N8kK7hcZsjoa2FxulhvshCrdIjRyjKBDZD3tpy5mL25jEhDFYUEe43xxRqVpCJfaG6D2GhRHrOyfDCdHlGGdQB9ZxwkKqjWj_g", "width": 1390}], "place_id": "ChIJc9wLyXZ744kRguW82aTn6_w", "plus_code": {"compound_code": "8WC7+GC Boston, Massachusetts, United States", "global_code": "87JC8WC7+GC"}, "reference": "ChIJc9wLyXZ744kRguW82aTn6_w", "scope": "GOOGLE", "types": ["point_of_interest", "establishment"], "vicinity": "72 Dale Street, Boston"}, "ChIJZRMLZS1644kREDM6WgVjvmk": {"geometry": {"location": {"lat": 42.32069699999999, "lng": -71.086075}, "viewport": {"northeast": {"lat": 42.3220460302915, "lng": -71.0847165197085}, "southwest": {"lat": 42.3193480697085, "lng": -71.0874144802915}}}, "icon": "https://maps.gstatic.com/mapfiles/place_api/icons/bus-71.png", "id": "2cb2fc92a2b919ea87f84f1b5f01a1e861ce3601", "name": "Walnut Ave @ Humboldt Ave", "place_id": "ChIJZRMLZS1644kREDM6WgVjvmk", "plus_code": {"compound_code": "8WC7+7H Boston, Massachusetts, United States", "global_code": "87JC8WC7+7H"}, "reference": "ChIJZRMLZS1644kREDM6WgVjvmk", "scope": "GOOGLE", "types": ["bus_station", "transit_station", "point_of_interest", "establishment"], "vicinity": "United States"}, "ChIJb_gSSi1644kR2qnK6DIMirs": {"geometry": {"location": {"lat": 42.3194153, "lng": -71.0868624}, "viewport": {"northeast": {"lat": 42.3207801302915, "lng": -71.0855032197085}, "southwest": {"lat": 42.3180821697085, "lng": -71.08820118029152}}}, "icon": "https://maps.gstatic.com/mapfiles/place_api/icons/shopping-71.png", "id": "b5f42ca79f2f47bbf1aaaff52410c68ae8a64e0b", "name": "Save A Lote E Marshalls", "place_id": "ChIJb_gSSi1644kR2qnK6DIMirs", "plus_code": {"compound_code": "8W97+Q7 Boston, Massachusetts, United States", "global_code": "87JC8W97+Q7"}, "rating": 3.8, "reference": "ChIJb_gSSi1644kR2qnK6DIMirs", "scope": "GOOGLE", "types": ["supermarket", "grocery_or_supermarket", "store", "point_of_interest", "food", "establishment"], "user_ratings_total": 4, "vicinity": "224-278 Martin Luther King Jr Boulevard, Boston"}, "ChIJQQLUYy1644kR0ZYX4NzIgfM": {"geometry": {"location": {"lat": 42.320478, "lng": -71.085641}, "viewport": {"northeast": {"lat": 42.3218216302915, "lng": -71.0844794697085}, "southwest": {"lat": 42.3191236697085, "lng": -71.0871774302915}}}, "icon": "https://maps.gstatic.com/mapfiles/place_api/icons/generic_business-71.png", "id": "f40c165c4131606c236b8a00dfec50da6bf0b2ea", "name": "West Africa Business Services", "place_id": "ChIJQQLUYy1644kR0ZYX4NzIgfM", "plus_code": {"compound_code": "8WC7+5P Boston, Massachusetts, United States", "global_code": "87JC8WC7+5P"}, "rating": 5, "reference": "ChIJQQLUYy1644kR0ZYX4NzIgfM", "scope": "GOOGLE", "types": ["accounting", "finance", "point_of_interest", "establishment"], "user_ratings_total": 1, "vicinity": "4 Humboldt Avenue, Roxbury"}, "ChIJcQsTudh744kRu1rUKr6O3-0": {"geometry": {"location": {"lat": 42.3213559, "lng": -71.08914639999999}, "viewport": {"northeast": {"lat": 42.3231767802915, "lng": -71.08736256970849}, "southwest": {"lat": 42.32047881970851, "lng": -71.09006053029151}}}, "icon": "https://maps.gstatic.com/mapfiles/place_api/icons/generic_recreational-71.png", "id": "9efcefc75b2db17a4cfa8677385279ec8338983b", "name": "Malcolm X Park", "photos": [{"height": 3096, "html_attributions": ["<a href=\"https://maps.google.com/maps/contrib/111715213281443514529/photos\">Divy Kangeyan</a>"], "photo_reference": "CmRaAAAAeuuKpBeWhOmqfFLrfNyrXiuoX3QB2UAh4FhQ-i1KWOHMbfvayye_2QWTTZN2U9mik_h7zCFmKd8Z3hiTFI2ATVr9A1SHsRa3fIqE_JNZJZ6TlYEyFFhH_F9pu2yNyQT7EhCc4ufpEQDEF8GVi580vdgcGhTpGhrrrvzG7Y6UkudmGmRQY3ggYA", "width": 4128}], "place_id": "ChIJcQsTudh744kRu1rUKr6O3-0", "plus_code": {"compound_code": "8WC6+G8 Boston, Massachusetts, United States", "global_code": "87JC8WC6+G8"}, "rating": 4, "reference": "ChIJcQsTudh744kRu1rUKr6O3-0", "scope": "GOOGLE", "types": ["park", "point_of_interest", "establishment"], "user_ratings_total": 1, "vicinity": "131 Dale Street, Boston"}, "ChIJoXMoZC1644kRkn9W1UlHSGQ": {"geometry": {"location": {"lat": 42.3211534, "lng": -71.085692}, "viewport": {"northeast": {"lat": 42.3225170802915, "lng": -71.08438076970849}, "southwest": {"lat": 42.3198191197085, "lng": -71.08707873029151}}}, "icon": "https://maps.gstatic.com/mapfiles/place_api/icons/bus-71.png", "id": "d59ed00ed3df1da3e30dfab90ddd374b4f3c50bf", "name": "Walnut Ave @ Dale St", "place_id": "ChIJoXMoZC1644kRkn9W1UlHSGQ", "plus_code": {"compound_code": "8WC7+FP Boston, Massachusetts, United States", "global_code": "87JC8WC7+FP"}, "reference": "ChIJoXMoZC1644kRkn9W1UlHSGQ", "scope": "GOOGLE", "types": ["bus_station", "transit_station", "point_of_interest", "establishment"], "vicinity": "United States"}, "ChIJQfW58Cx644kRktYAxWyc0Ls": {"geometry": {"location": {"lat": 42.3213559, "lng": -71.08914639999999}, "viewport": {"northeast": {"lat": 42.32342879999999, "lng": -71.08667}, "southwest": {"lat": 42.3200397, "lng": -71.0919203}}}, "icon": "https://maps.gstatic.com/mapfiles/place_api/icons/generic_recreational-71.png", "id": "0b8449d30d778740e457bedffd9a7a857b51c78a", "name": "Malcolm X Park", "place_id": "ChIJQfW58Cx644kRktYAxWyc0Ls", "reference": "ChIJQfW58Cx644kRktYAxWyc0Ls", "scope": "GOOGLE", "types": ["park", "premise", "point_of_interest", "establishment"], "vicinity": "Boston"}, "ChIJG77pXi1644kRw1ifGOHYafo": {"geometry": {"location": {"lat": 42.3199528, "lng": -71.085711}, "viewport": {"northeast": {"lat": 42.32130233029149, "lng": -71.0843329197085}, "southwest": {"lat": 42.3186043697085, "lng": -71.08703088029151}}}, "icon": "https://maps.gstatic.com/mapfiles/place_api/icons/generic_recreational-71.png", "id": "ed80a92b4260a15a42e021649146b1b1aa660ae1", "name": "Laurel Street Green", "place_id": "ChIJG77pXi1644kRw1ifGOHYafo", "reference": "ChIJG77pXi1644kRw1ifGOHYafo", "scope": "GOOGLE", "types": ["park", "premise", "point_of_interest", "establishment"], "vicinity": "Boston"}, "ChIJ3XbUmS1644kRYYLeNYTcwjE": {"geometry": {"location": {"lat": 42.3220878, "lng": -71.08668589999999}, "viewport": {"northeast": {"lat": 42.32346158029149, "lng": -71.0853680197085}, "southwest": {"lat": 42.32076361970849, "lng": -71.0880659802915}}}, "icon": "https://maps.gstatic.com/mapfiles/place_api/icons/generic_recreational-71.png", "id": "31fba974d5ebbac334915d50389a73c0e092e521", "name": "Wakullah St. CG", "place_id": "ChIJ3XbUmS1644kRYYLeNYTcwjE", "reference": "ChIJ3XbUmS1644kRYYLeNYTcwjE", "scope": "GOOGLE", "types": ["park", "premise", "point_of_interest", "establishment"], "vicinity": "Boston"}, "ChIJh-CN2yx644kRI8h5WPc98wQ": {"geometry": {"location": {"lat": 42.31519779999999, "lng": -71.0913748}, "viewport": {"northeast": {"lat": 42.335885, "lng": -71.06649519999999}, "southwest": {"lat": 42.29179790000001, "lng": -71.1067612}}}, "icon": "https://maps.gstatic.com/mapfiles/place_api/icons/geocode-71.png", "id": "33d978342c31fa28698809200432caaeeab1c79d", "name": "Roxbury", "photos": [{"height": 5312, "html_attributions": ["<a href=\"https://maps.google.com/maps/contrib/108141736953672835093/photos\">Warriorprincess4916</a>"], "photo_reference": "CmRaAAAAzGZ9yoEtTq9GyHQ-IRL_EVGY47_SZVh54Q-lQNVFEXGl_8RWDlvX6JNQdEYxGf9AYA3kx_CtG-TzjV730EGZXceSwcpmb-cRUbWOyGsxVxvX1MTqWAn9XMJhp7zZKGyZEhAz5aTFX1qOtgqX-NNDcFrdGhTW0YcN6HqS4gHa4Xa0MWipQwuvYQ", "width": 2988}], "place_id": "ChIJh-CN2yx644kRI8h5WPc98wQ", "reference": "ChIJh-CN2yx644kRI8h5WPc98wQ", "scope": "GOOGLE", "types": ["neighborhood", "political"], "vicinity": "Dorchester Center"}}