{"ChIJGzE9DS1l44kRoOhiASS_fHg": {"geometry": {"location": {"lat": 42.3600825, "lng": -71.0588801}, "viewport": {"northeast": {"lat": 42.40081989999999, "lng": -70.749455}, "southwest": {"lat": 42.22788, "lng": -71.191113}}}, "icon": "https://maps.gstatic.com/mapfiles/place_api/icons/geocode-71.png", "id": "06755c25d2b34d13942a4713971756a55b870ced", "name": "Boston", "photos": [{"height": 3024, "html_attributions": ["<a href=\"https://maps.google.com/maps/contrib/104670289779338733432/photos\">Natalia Zalucean</a>"], "photo_reference": "CmRaAAAApUwMWwVkqabrdNATJcEdNYV8bgU7bUS3Jz6BRysjcTctD2N9rzWc2kb0WkU4GarJibi62k2FNTlW1jC09latWYj0UBRj3qELYqcrClxBfOMsN-Rek9nSznEmH0p54whDEhBO17Gr6hq-E7sr45UnPeNaGhSmtrMpN_fCo0dQUCBQPZXnODxODA", "width": 4032}], "place_id": "ChIJGzE9DS1l44kRoOhiASS_fHg", "reference": "ChIJGzE9DS1l44kRoOhiASS_fHg", "scope": "GOOGLE", "types": ["locality", "political"], "vicinity": "Boston"}, "ChIJ2WTJMT5344kRH0XT4_HEUJM": {"geometry": {"location": {"lat": 42.29755970000001, "lng": -71.14453499999999}, "viewport": {"northeast": {"lat": 42.29882818029149, "lng": -71.1431675197085}, "southwest": {"lat": 42.2961302197085, "lng": -71.1458654802915}}}, "icon": "https://maps.gstatic.com/mapfiles/place_api/icons/generic_business-71.png", "id": "ad5fe2db3705e4979af6feb211f38834e48584fe", "name": "MANDARINA STUDIO interior design", "opening_hours": {"open_now": true}, "photos": [{"height": 1367, "html_attributions": ["<a href=\"https://maps.google.com/maps/contrib/115896823540753769006/photos\">MANDARINA STUDIO interior design</a>"], "photo_reference": "CmRaAAAArJDLJSdb7og8GKbacLjuWhgZ0kNhX_Hs23qAQcyaDy3Y-a-0CPc_4owYBOwvHl8ET323PcGJYNnu1Mo0yHHDzS80Lbef6cg_17BdZbF0rXmeNPiCzuoKa32jxi8Cl9gUEhAqCkdFs-i0O8FZIlMwTB_8GhS1xl_TeP-TF-Zj6cE7VwVKBc462Q", "width": 2048}], "place_id": "ChIJ2WTJMT5344kRH0XT4_HEUJM", "plus_code": {"compound_code": "7VX4+25 Boston, Massachusetts, United States", "global_code": "87JC7VX4+25"}, "rating": 4, "reference": "ChIJ2WTJMT5344kRH0XT4_HEUJM", "scope": "GOOGLE", "types": ["general_contractor", "point_of_interest", "establishment"], "user_ratings_total": 1, "vicinity": "14 Crehore Road, Chestnut Hill"}, "ChIJe8mdic1444kRJfX70bjioQg": {"geometry": {"location": {"lat": 42.29610940000001, "lng": -71.14295460000001}, "viewport": {"northeast": {"lat": 42.2974432802915, "lng": -71.1416087197085}, "southwest": {"lat": 42.2947453197085, "lng": -71.1443066802915}}}, "icon": "https://maps.gstatic.com/mapfiles/place_api/icons/generic_business-71.png", "id": "cad0cc3162ee72c1a0fcde2d9b2278a257322ec2", "name": "Passion For Details Services and Marketing", "place_id": "ChIJe8mdic1444kRJfX70bjioQg", "plus_code": {"compound_code": "7VW4+CR Boston, Massachusetts, United States", "global_code": "87JC7VW4+CR"}, "reference": "ChIJe8mdic1444kRJfX70bjioQg", "scope": "GOOGLE", "types": ["point_of_interest", "establishment"], "vicinity": "242 VFW Parkway, Chestnut Hill"}, "ChIJ05E92il544kRWZDpHiWVH-w": {"geometry": {"location": {"lat": 42.2972198, "lng": -71.1444441}, "viewport": {"northeast": {"lat": 42.2986590302915, "lng": -71.1431158697085}, "southwest": {"lat": 42.2959610697085, "lng": -71.1458138302915}}}, "icon": "https://maps.gstatic.com/mapfiles/place_api/icons/generic_business-71.png", "id": "18c58812532b56e18a1f156ebdb997bb9f755cc2", "name": "Sybertz Appraisal Services", "place_id": "ChIJ05E92il544kRWZDpHiWVH-w", "plus_code": {"compound_code": "7VW4+V6 Boston, Massachusetts, United States", "global_code": "87JC7VW4+V6"}, "reference": "ChIJ05E92il544kRWZDpHiWVH-w", "scope": "GOOGLE", "types": ["finance", "point_of_interest", "establishment"], "vicinity": "23 Crehore Road, Chestnut Hill"}, "ChIJzxYuijx_44kRRILba9QQn0k": {"geometry": {"location": {"lat": 42.27975539999999, "lng": -71.1626756}, "viewport": {"northeast": {"lat": 42.303697, "lng": -71.12789599999999}, "southwest": {"lat": 42.25289799999999, "lng": -71.191198}}}, "icon": "https://maps.gstatic.com/mapfiles/place_api/icons/geocode-71.png", "id": "20de47f271a3ccaf647bdac7b9ee10bd6e83a6c4", "name": "West Roxbury", "photos": [{"height": 603, "html_attributions": ["<a href=\"https://maps.google.com/maps/contrib/117808102006877461743/photos\">Andri Kyrychok</a>"], "photo_reference": "CmRaAAAAzjxzwzfR0mSxhkkZyOKnXz89QXdewisdvSb7ceMrLNEimKqdAA2Xk9_k4FMzZ5U1VH0nRWLIzKjmJN5QlObZLFSaNMFq1IOYAPuaAfMBTcgF_CSqroklsk3y6Llr_yW4EhCI2lmAqDE8UJSJjA5VUb1OGhRJRXLIta_kAgyoHUauAUtFphLoHQ", "width": 546}], "place_id": "ChIJzxYuijx_44kRRILba9QQn0k", "reference": "ChIJzxYuijx_44kRRILba9QQn0k", "scope": "GOOGLE", "types": ["neighborhood", "political"], "vicinity": "Boston"}}