{"ChIJGzE9DS1l44kRoOhiASS_fHg": {"geometry": {"location": {"lat": 42.3600825, "lng": -71.0588801}, "viewport": {"northeast": {"lat": 42.40081989999999, "lng": -70.749455}, "southwest": {"lat": 42.22788, "lng": -71.191113}}}, "icon": "https://maps.gstatic.com/mapfiles/place_api/icons/geocode-71.png", "id": "06755c25d2b34d13942a4713971756a55b870ced", "name": "Boston", "photos": [{"height": 3024, "html_attributions": ["<a href=\"https://maps.google.com/maps/contrib/104670289779338733432/photos\">Natalia Zalucean</a>"], "photo_reference": "CmRaAAAAQdQQFXFYPVwD8pCDrBWGNADNplthbJm9v7qbqeJKtBj7EhsUQTDx4Gs_qddvnY0qOegHtjd_5YimuTKDwD2J2hprPn_18yz9nCE99XDtu6FnKN8-3v2fXo8qmRDy8GP4EhCnOD_QIGAEhG445eoedYpEGhS9yFGvwKLMzvGhgZcu7DfqIuNBrw", "width": 4032}], "place_id": "ChIJGzE9DS1l44kRoOhiASS_fHg", "reference": "ChIJGzE9DS1l44kRoOhiASS_fHg", "scope": "GOOGLE", "types": ["locality", "political"], "vicinity": "Boston"}, "ChIJIclsSut744kRaj32Yt9M5tI": {"geometry": {"location": {"lat": 42.2943181, "lng": -71.073824}, "viewport": {"northeast": {"lat": 42.2956017802915, "lng": -71.07244686970849}, "southwest": {"lat": 42.2929038197085, "lng": -71.0751448302915}}}, "icon": "https://maps.gstatic.com/mapfiles/place_api/icons/shopping-71.png", "id": "3bd1a85e4b3296dfdac08b411d243b66d294f8e4", "name": "Denise Boutique", "opening_hours": {"open_now": true}, "photos": [{"height": 500, "html_attributions": ["<a href=\"https://maps.google.com/maps/contrib/100436332014036736334/photos\">Denise Henry</a>"], "photo_reference": "CmRaAAAA9nQl3HHpahy09nhbQxP6loySViy4bcAFbgkLCpHSSdYRTyjCXmO4EeZauuq9TaZSE_4TRMzsq3cwTQeBr0brVR9I3HYqRp7db47asgcDxpx_5S4V8KOGLnlx7ehlcDyjEhCg4qfH72bFfloqSxYJw1QeGhRYPNxXLuhVN_RYtSS1a5tcpCAmFg", "width": 500}], "place_id": "ChIJIclsSut744kRaj32Yt9M5tI", "plus_code": {"compound_code": "7WVG+PF Boston, Massachusetts, United States", "global_code": "87JC7WVG+PF"}, "rating": 5, "reference": "ChIJIclsSut744kRaj32Yt9M5tI", "scope": "GOOGLE", "types": ["clothing_store", "store", "point_of_interest", "establishment"], "user_ratings_total": 1, "vicinity": "37 West Tremlett Street, Boston"}, "ChIJwym-OOt744kRzkR2tneJwQM": {"geometry": {"location": {"lat": 42.294559, "lng": -71.0745692}, "viewport": {"northeast": {"lat": 42.2959316802915, "lng": -71.07310896970849}, "southwest": {"lat": 42.2932337197085, "lng": -71.07580693029149}}}, "icon": "https://maps.gstatic.com/mapfiles/place_api/icons/school-71.png", "id": "09a25f749ddf8921ffd7fbf933305ed423ba5a28", "name": "Haiti - Jeunesse - Action", "place_id": "ChIJwym-OOt744kRzkR2tneJwQM", "plus_code": {"compound_code": "7WVG+R5 Boston, Massachusetts, United States", "global_code": "87JC7WVG+R5"}, "reference": "ChIJwym-OOt744kRzkR2tneJwQM", "scope": "GOOGLE", "types": ["school", "point_of_interest", "establishment"], "vicinity": "3 Herbert Street, Dorchester Center"}, "ChIJZzbuLut744kR3kIhJdwZ-Qk": {"geometry": {"location": {"lat": 42.2951383, "lng": -71.0740266}, "viewport": {"northeast": {"lat": 42.2965181802915, "lng": -71.07268886970849}, "southwest": {"lat": 42.2938202197085, "lng": -71.0753868302915}}}, "icon": "https://maps.gstatic.com/mapfiles/place_api/icons/generic_business-71.png", "id": "2eb05b8cdca2bd892126a509153714730f66f9ce", "name": "Winn Residential", "place_id": "ChIJZzbuLut744kR3kIhJdwZ-Qk", "plus_code": {"compound_code": "7WWG+39 Boston, Massachusetts, United States", "global_code": "87JC7WWG+39"}, "reference": "ChIJZzbuLut744kR3kIhJdwZ-Qk", "scope": "GOOGLE", "types": ["point_of_interest", "establishment"], "vicinity": "526 Park Street, Dorchester Center"}, "ChIJjS2hSet744kREv6LXLs6Fz8": {"geometry": {"location": {"lat": 42.2942666, "lng": -71.0740347}, "viewport": {"northeast": {"lat": 42.2955510802915, "lng": -71.07265791970849}, "southwest": {"lat": 42.2928531197085, "lng": -71.07535588029151}}}, "icon": "https://maps.gstatic.com/mapfiles/place_api/icons/generic_business-71.png", "id": "d057f6146a3f0281cf91ad18c3359e4c1d6691a9", "name": "Jim's Financial Consultants", "place_id": "ChIJjS2hSet744kREv6LXLs6Fz8", "plus_code": {"compound_code": "7WVG+P9 Boston, Massachusetts, United States", "global_code": "87JC7WVG+P9"}, "reference": "ChIJjS2hSet744kREv6LXLs6Fz8", "scope": "GOOGLE", "types": ["finance", "point_of_interest", "establishment"], "vicinity": "39 West Tremlett Street, Dorchester Center"}, "ChIJCce0ypR744kRtgAI8OHmdGA": {"geometry": {"location": {"lat": 42.2943813, "lng": -71.07354389999999}, "viewport": {"northeast": {"lat": 42.2956660802915, "lng": -71.07216791970849}, "southwest": {"lat": 42.2929681197085, "lng": -71.0748658802915}}}, "icon": "https://maps.gstatic.com/mapfiles/place_api/icons/generic_business-71.png", "id": "28587cc0c401990419566073cd2ac07aedc80ae7", "name": "Cindy's Family Child Care", "opening_hours": {"open_now": true}, "place_id": "ChIJCce0ypR744kRtgAI8OHmdGA", "plus_code": {"compound_code": "7WVG+QH Boston, Massachusetts, United States", "global_code": "87JC7WVG+QH"}, "reference": "ChIJCce0ypR744kRtgAI8OHmdGA", "scope": "GOOGLE", "types": ["health", "point_of_interest", "establishment"], "vicinity": "29 West Tremlett Street, Dorchester Center"}, "ChIJrUtyI-t744kR982EWtC3yTA": {"geometry": {"location": {"lat": 42.2952558, "lng": -71.0747779}, "viewport": {"northeast": {"lat": 42.2965945802915, "lng": -71.0734942197085}, "southwest": {"lat": 42.2938966197085, "lng": -71.0761921802915}}}, "icon": "https://maps.gstatic.com/mapfiles/place_api/icons/generic_business-71.png", "id": "9b9cf508cd2f6c0b789e167c1da2ad7f5b04b95b", "name": "Dawn A. Fuentes Duarte-Hairston, MS", "place_id": "ChIJrUtyI-t744kR982EWtC3yTA", "plus_code": {"compound_code": "7WWG+43 Boston, Massachusetts, United States", "global_code": "87JC7WWG+43"}, "reference": "ChIJrUtyI-t744kR982EWtC3yTA", "scope": "GOOGLE", "types": ["health", "point_of_interest", "establishment"], "vicinity": "4 Herbert Street, Boston"}, "ChIJdRkAnut744kRLimzIr72ujo": {"geometry": {"location": {"lat": 42.294535, "lng": -71.076521}, "viewport": {"northeast": {"lat": 42.2959774802915, "lng": -71.0752040197085}, "southwest": {"lat": 42.29327951970851, "lng": -71.07790198029151}}}, "icon": "https://maps.gstatic.com/mapfiles/place_api/icons/generic_business-71.png", "id": "fdb08023e932994704ff7e7ae1045009914884cb", "name": "John's Realty", "photos": [{"height": 4032, "html_attributions": ["<a href=\"https://maps.google.com/maps/contrib/115800359875274426674/photos\">Robert Mackerron</a>"], "photo_reference": "CmRaAAAAkY0_l--Q5saDSz1XFMKXC1pJtLnghWyP4vJQUUJWIt_8HelPD7IBCCCcM78T-p84rZVaPPiRmw4dmXo0zvnTPCgQElBycjdnRKpw1WMmq_VRHF2DlO6t3Qwo6uUsTkvvEhCCU4ZnHfcKPigj9I5tP8j-GhT6FSbU1ZwGeOvUek04XYAucmaSYw", "width": 3024}], "place_id": "ChIJdRkAnut744kRLimzIr72ujo", "plus_code": {"compound_code": "7WVF+R9 Boston, Massachusetts, United States", "global_code": "87JC7WVF+R9"}, "reference": "ChIJdRkAnut744kRLimzIr72ujo", "scope": "GOOGLE", "types": ["real_estate_agency", "point_of_interest", "establishment"], "vicinity": "586 Park Street, Dorchester Center"}, "ChIJZzbuLut744kRJ6E6sW3GP-s": {"geometry": {"location": {"lat": 42.2951383, "lng": -71.0740266}, "viewport": {"northeast": {"lat": 42.2965181802915, "lng": -71.07268886970849}, "southwest": {"lat": 42.2938202197085, "lng": -71.0753868302915}}}, "icon": "https://maps.gstatic.com/mapfiles/place_api/icons/generic_business-71.png", "id": "ae3d33334d6c32ec446c4593bec172e8fdb2d87a", "name": "530 Park Street Inc", "photos": [{"height": 4128, "html_attributions": ["<a href=\"https://maps.google.com/maps/contrib/109731535639304011882/photos\">decima jno baptiste</a>"], "photo_reference": "CmRaAAAALoob7mls7xrIGUD9_RHuqUAWdevMm2RwCV51XreYwCqbxBgnFnBg7NGTUGR2ki2fdxJVsjGCMSu-cFMGEcoxE6BlqFbPferwSwzh2e-Oms0uDmpqgO1pN2IF4LVwhqLMEhAzyYXYpG03Y_ifJERnCiqBGhQf1OmZlXgOnem8gHD02_2pAutIDg", "width": 3096}], "place_id": "ChIJZzbuLut744kRJ6E6sW3GP-s", "plus_code": {"compound_code": "7WWG+39 Boston, Massachusetts, United States", "global_code": "87JC7WWG+39"}, "rating": 3.7, "reference": "ChIJZzbuLut744kRJ6E6sW3GP-s", "scope": "GOOGLE", "types": ["point_of_interest", "establishment"], "user_ratings_total": 3, "vicinity": "526 Park Street, Dorchester Center"}, "ChIJoRTYd-B744kRxS4xfTpyIBc": {"geometry": {"location": {"lat": 42.29233550000001, "lng": -71.07454779999999}, "viewport": {"northeast": {"lat": 42.29366963029151, "lng": -71.07327546970849}, "southwest": {"lat": 42.29097166970851, "lng": -71.0759734302915}}}, "icon": "https://maps.gstatic.com/mapfiles/place_api/icons/school-71.png", "id": "3d321c5789c6570a79e9a7f94cfaf41acae16bb2", "name": "Little Ones Child Care of Boston", "opening_hours": {"open_now": true}, "place_id": "ChIJoRTYd-B744kRxS4xfTpyIBc", "plus_code": {"compound_code": "7WRG+W5 Boston, Massachusetts, United States", "global_code": "87JC7WRG+W5"}, "reference": "ChIJoRTYd-B744kRxS4xfTpyIBc", "scope": "GOOGLE", "types": ["point_of_interest", "establishment"], "vicinity": "83 Whitfield Street #2, Dorchester"}, "ChIJ6aCYLut744kRAHlambNGeRI": {"geometry": {"location": {"lat": 42.2952065, "lng": -71.07394699999999}, "viewport": {"northeast": {"lat": 42.29653808029149, "lng": -71.07259166970849}, "southwest": {"lat": 42.29384011970849, "lng": -71.0752896302915}}}, "icon": "https://maps.gstatic.com/mapfiles/place_api/icons/generic_business-71.png", "id": "a6a88c7746ebfa9bbcc34781fdbb12e6a32d8157", "name": "Odell Cleaning Services", "place_id": "ChIJ6aCYLut744kRAHlambNGeRI", "plus_code": {"compound_code": "7WWG+3C Boston, Massachusetts, United States", "global_code": "87JC7WWG+3C"}, "reference": "ChIJ6aCYLut744kRAHlambNGeRI", "scope": "GOOGLE", "types": ["point_of_interest", "establishment"], "vicinity": "520 Park Street #2, Dorchester Center"}, "ChIJTzq-fOt744kRwV6yt9H8P3k": {"geometry": {"location": {"lat": 42.29378029999999, "lng": -71.07582239999999}, "viewport": {"northeast": {"lat": 42.2951114302915, "lng": -71.07451606970848}, "southwest": {"lat": 42.29241346970851, "lng": -71.0772140302915}}}, "icon": "https://maps.gstatic.com/mapfiles/place_api/icons/generic_recreational-71.png", "id": "cd55d9813309c17b66cf145b85c8bf0b57233f26", "name": "Spencer Street Garden", "place_id": "ChIJTzq-fOt744kRwV6yt9H8P3k", "reference": "ChIJTzq-fOt744kRwV6yt9H8P3k", "scope": "GOOGLE", "types": ["park", "premise", "point_of_interest", "establishment"], "vicinity": "Boston"}, "ChIJ659czZR744kRP5X5nfpTzWg": {"geometry": {"location": {"lat": 42.29482549999999, "lng": -71.0734547}, "viewport": {"northeast": {"lat": 42.29621803029149, "lng": -71.07212871970849}, "southwest": {"lat": 42.29352006970849, "lng": -71.07482668029151}}}, "icon": "https://maps.gstatic.com/mapfiles/place_api/icons/generic_recreational-71.png", "id": "e6608f7bf52383c66ef8812a929eee39aa90f81f", "name": "Nightingale Community Garden", "place_id": "ChIJ659czZR744kRP5X5nfpTzWg", "reference": "ChIJ659czZR744kRP5X5nfpTzWg", "scope": "GOOGLE", "types": ["park", "premise", "point_of_interest", "establishment"], "vicinity": "Dorchester Center"}, "ChIJNd-qjux744kRy9moM9L60hk": {"geometry": {"location": {"lat": 42.29271290000001, "lng": -71.076101}, "viewport": {"northeast": {"lat": 42.2940408302915, "lng": -71.07479411970849}, "southwest": {"lat": 42.2913428697085, "lng": -71.0774920802915}}}, "icon": "https://maps.gstatic.com/mapfiles/place_api/icons/generic_recreational-71.png", "id": "dcbbd348f3445f7e37560736df00842429cb38ba", "name": "Wheatland Avenue Community Garden", "place_id": "ChIJNd-qjux744kRy9moM9L60hk", "reference": "ChIJNd-qjux744kRy9moM9L60hk", "scope": "GOOGLE", "types": ["park", "premise", "point_of_interest", "establishment"], "vicinity": "Boston"}, "ChIJs4veGkl644kROEK8ix2v_oY": {"geometry": {"location": {"lat": 42.30163049999999, "lng": -71.067605}, "viewport": {"northeast": {"lat": 42.3358969, "lng": -71.0325551}, "southwest": {"lat": 42.267598, "lng": -71.0800369}}}, "icon": "https://maps.gstatic.com/mapfiles/place_api/icons/geocode-71.png", "id": "9e12301fdeebf54c1266b9986602466425a9c326", "name": "Dorchester", "photos": [{"height": 1944, "html_attributions": ["<a href=\"https://maps.google.com/maps/contrib/118366960396286562471/photos\">Michael Laferriere</a>"], "photo_reference": "CmRaAAAALE83HHkxqdMicrCAXiOrTyPXELVNRLr7_QeRKEE7m2gCBAmK0taYRAR9rg7w0egixRq2YU1H96yKtzKUQI-MorRIWiAV2Rh5PlCFRKOzsyGPFiGEE9e_IUb6Tb3cqk10EhBKCcOyh6Q9ITXi2gsN_bPUGhR6hxn0xaPjn774dlBP_j15qNP_Tg", "width": 2592}], "place_id": "ChIJs4veGkl644kROEK8ix2v_oY", "reference": "ChIJs4veGkl644kROEK8ix2v_oY", "scope": "GOOGLE", "types": ["neighborhood", "political"], "vicinity": "Dorchester Center"}}