{"ChIJGzE9DS1l44kRoOhiASS_fHg": {"geometry": {"location": {"lat": 42.3600825, "lng": -71.0588801}, "viewport": {"northeast": {"lat": 42.40081989999999, "lng": -70.749455}, "southwest": {"lat": 42.22788, "lng": -71.191113}}}, "icon": "https://maps.gstatic.com/mapfiles/place_api/icons/geocode-71.png", "id": "06755c25d2b34d13942a4713971756a55b870ced", "name": "Boston", "photos": [{"height": 3024, "html_attributions": ["<a href=\"https://maps.google.com/maps/contrib/104670289779338733432/photos\">Natalia Zalucean</a>"], "photo_reference": "CmRaAAAAoghULjX0OxksRb3Fwp1m0Rp0SrBHR5KaqWf4tUW82EJroVrQgzzA6R-VqtVEVmU7n3uv7wL1pFFyyJ4V5HvuxT7Na28g56VtarbH0HK8fgdSXQSwNDEblOmJ2p0nLYEZEhCU6gTTQmFrmULrPGD2SWqyGhQeGFtcJCoE8u0SVLPmAqWdrPRF3g", "width": 4032}], "place_id": "ChIJGzE9DS1l44kRoOhiASS_fHg", "reference": "ChIJGzE9DS1l44kRoOhiASS_fHg", "scope": "GOOGLE", "types": ["locality", "political"], "vicinity": "Boston"}, "ChIJ3fQIGq9744kR0bakxUZ5SGw": {"geometry": {"location": {"lat": 42.3278762, "lng": -71.07544109999999}, "viewport": {"northeast": {"lat": 42.3292150302915, "lng": -71.0739405197085}, "southwest": {"lat": 42.3265170697085, "lng": -71.0766384802915}}}, "icon": "https://maps.gstatic.com/mapfiles/place_api/icons/generic_business-71.png", "id": "5631fe36094058437d695cf32994811fbf9b95c6", "name": "R G Mearn Co Inc", "photos": [{"height": 1224, "html_attributions": ["<a href=\"https://maps.google.com/maps/contrib/115506517974719824863/photos\">R G Mearn Co Inc</a>"], "photo_reference": "CmRaAAAA-jXXqtNh9Gh5nI6-mDQMX4NMopYo7ejBiAzduz0OFBQhJR7UH2wGFSfu_Za-ft9uqQykZC-5pYa0wmidkLye-QvXuWziZNQy7b6fH6_P7-_54U7shASj7J1sUETzIcN5EhDzbqH5EDwNP_uyXnRnyRPDGhScGytxOX9rHRPT5jyvftueszpX4g", "width": 1632}], "place_id": "ChIJ3fQIGq9744kR0bakxUZ5SGw", "plus_code": {"compound_code": "8WHF+5R Boston, Massachusetts, United States", "global_code": "87JC8WHF+5R"}, "rating": 4.8, "reference": "ChIJ3fQIGq9744kR0bakxUZ5SGw", "scope": "GOOGLE", "types": ["point_of_interest", "establishment"], "user_ratings_total": 4, "vicinity": "157 Hampden Street, Roxbury"}, "ChIJgdsYajh644kR4UanCK54QRw": {"geometry": {"location": {"lat": 42.3281143, "lng": -71.074949}, "viewport": {"northeast": {"lat": 42.3294684802915, "lng": -71.0736780197085}, "southwest": {"lat": 42.3267705197085, "lng": -71.0763759802915}}}, "icon": "https://maps.gstatic.com/mapfiles/place_api/icons/generic_business-71.png", "id": "22ca1462e74483fd33edbc2fb269e2c5aa47fec5", "name": "Catering First & Fresh", "place_id": "ChIJgdsYajh644kR4UanCK54QRw", "plus_code": {"compound_code": "8WHG+62 Boston, Massachusetts, United States", "global_code": "87JC8WHG+62"}, "reference": "ChIJgdsYajh644kR4UanCK54QRw", "scope": "GOOGLE", "types": ["point_of_interest", "food", "establishment"], "vicinity": "148 Hampden Street, Roxbury"}, "ChIJN_QYkzh644kROcn9XbJ2ULk": {"geometry": {"location": {"lat": 42.3298064, "lng": -71.0751623}, "viewport": {"northeast": {"lat": 42.3311491302915, "lng": -71.0736993197085}, "southwest": {"lat": 42.3284511697085, "lng": -71.0763972802915}}}, "icon": "https://maps.gstatic.com/mapfiles/place_api/icons/generic_business-71.png", "id": "8a0b337bb02d63b0db4f005be91336bbdaf29065", "name": "Max Ultimate Food", "place_id": "ChIJN_QYkzh644kROcn9XbJ2ULk", "plus_code": {"compound_code": "8WHF+WW Boston, Massachusetts, United States", "global_code": "87JC8WHF+WW"}, "rating": 4.8, "reference": "ChIJN_QYkzh644kROcn9XbJ2ULk", "scope": "GOOGLE", "types": ["point_of_interest", "food", "establishment"], "user_ratings_total": 9, "vicinity": "101 Hampden Street, Roxbury"}, "ChIJFQwZxDl644kRY0GuCQEX0ek": {"geometry": {"location": {"lat": 42.3279626, "lng": -71.0774706}, "viewport": {"northeast": {"lat": 42.3292453302915, "lng": -71.07619296970849}, "southwest": {"lat": 42.3265473697085, "lng": -71.07889093029151}}}, "icon": "https://maps.gstatic.com/mapfiles/place_api/icons/restaurant-71.png", "id": "f3fc32d819cc6dc0674b9b009393f571cc86fd70", "name": "Maxine's On Saint James", "opening_hours": {"open_now": true}, "photos": [{"height": 3024, "html_attributions": ["<a href=\"https://maps.google.com/maps/contrib/103048046165757292931/photos\">Staff Staff</a>"], "photo_reference": "CmRaAAAAatoD6YI8mkYK664oSqpLS-sAvN1qHi305_NddLGUBcnadwLPLFJbsKZGayLnBrpFeg5SedbNaU2gaWZAxg22Z2rsSDkJ3wKTI_NVex2yBVsBcCV-9-MmXnxMPCn_XayuEhBBFdFxSHdE7X9qC_i-E1dEGhS1BxCJAwdt5KF5TMKWEKgQetphKw", "width": 3024}], "place_id": "ChIJFQwZxDl644kRY0GuCQEX0ek", "plus_code": {"compound_code": "8WHF+52 Boston, Massachusetts, United States", "global_code": "87JC8WHF+52"}, "rating": 4.4, "reference": "ChIJFQwZxDl644kRY0GuCQEX0ek", "scope": "GOOGLE", "types": ["restaurant", "point_of_interest", "food", "establishment"], "user_ratings_total": 45, "vicinity": "304 Dudley Street, Boston"}, "ChIJx2YDYTh644kR-CPwrNgRcJg": {"geometry": {"location": {"lat": 42.328436, "lng": -71.0747331}, "viewport": {"northeast": {"lat": 42.3299094302915, "lng": -71.07322851970848}, "southwest": {"lat": 42.3272114697085, "lng": -71.0759264802915}}}, "icon": "https://maps.gstatic.com/mapfiles/place_api/icons/generic_business-71.png", "id": "d345e31ba00fc4ad962426e77ebd7bfcf2487586", "name": "Howard Storage", "place_id": "ChIJx2YDYTh644kR-CPwrNgRcJg", "plus_code": {"compound_code": "8WHG+94 Boston, Massachusetts, United States", "global_code": "87JC8WHG+94"}, "reference": "ChIJx2YDYTh644kR-CPwrNgRcJg", "scope": "GOOGLE", "types": ["storage", "point_of_interest", "establishment"], "vicinity": "Norfolk Avenue, Boston"}, "ChIJCR9LaTh644kR1wAbUOA0htI": {"geometry": {"location": {"lat": 42.328252, "lng": -71.07456499999999}, "viewport": {"northeast": {"lat": 42.3295460802915, "lng": -71.07328541970848}, "southwest": {"lat": 42.3268481197085, "lng": -71.07598338029149}}}, "icon": "https://maps.gstatic.com/mapfiles/place_api/icons/generic_business-71.png", "id": "d3a0fa4320fc7651f81efaf4e2f69d93713e60d6", "name": "E a Spry Inc", "place_id": "ChIJCR9LaTh644kR1wAbUOA0htI", "plus_code": {"compound_code": "8WHG+85 Boston, Massachusetts, United States", "global_code": "87JC8WHG+85"}, "reference": "ChIJCR9LaTh644kR1wAbUOA0htI", "scope": "GOOGLE", "types": ["storage", "point_of_interest", "establishment"], "vicinity": "6 Howard Street, Roxbury"}, "ChIJI4Qr0zl644kRcqMCC9RQBVE": {"geometry": {"location": {"lat": 42.3273581, "lng": -71.0765323}, "viewport": {"northeast": {"lat": 42.32862893029149, "lng": -71.0752940197085}, "southwest": {"lat": 42.32593096970849, "lng": -71.0779919802915}}}, "icon": "https://maps.gstatic.com/mapfiles/place_api/icons/worship_general-71.png", "id": "5e30432c9cc7fcf95a7c6b90c26bc36da05ff2b5", "name": "Boston Missionary Baptist Community Center", "place_id": "ChIJI4Qr0zl644kRcqMCC9RQBVE", "plus_code": {"compound_code": "8WGF+W9 Boston, Massachusetts, United States", "global_code": "87JC8WGF+W9"}, "reference": "ChIJI4Qr0zl644kRcqMCC9RQBVE", "scope": "GOOGLE", "types": ["church", "place_of_worship", "point_of_interest", "establishment"], "vicinity": "336 Dudley Street #617, Boston"}, "ChIJc5Jl0zl644kRzT0f9jx_8NM": {"geometry": {"location": {"lat": 42.3272506, "lng": -71.0766501}, "viewport": {"northeast": {"lat": 42.32856883029149, "lng": -71.0753447197085}, "southwest": {"lat": 42.3258708697085, "lng": -71.07804268029152}}}, "icon": "https://maps.gstatic.com/mapfiles/place_api/icons/worship_general-71.png", "id": "b5bd52729a12a264392bf659cb1c5b9c713e9680", "name": "Boston Missionary Baptist Church", "photos": [{"height": 3456, "html_attributions": ["<a href=\"https://maps.google.com/maps/contrib/107210670444657235030/photos\">Jonas Laurince</a>"], "photo_reference": "CmRaAAAAGOz8Uilrigo66W_krk7tMtY-dvpi7m6g0-b1CzwiVDxR27gQXx5hldQ3F56bsgt2as5y4-b_pKFjXCB9SFPlh-mYn_cED0nWXZfkN9rAmnOwrlu1kyk-VPbIy-DFnwUOEhBsgbyFN5zEYEeJtbqlqrhEGhRNapw9iOre_aX85oCB6BhxuiZbHA", "width": 4608}], "place_id": "ChIJc5Jl0zl644kRzT0f9jx_8NM", "plus_code": {"compound_code": "8WGF+W8 Boston, Massachusetts, United States", "global_code": "87JC8WGF+W8"}, "rating": 5, "reference": "ChIJc5Jl0zl644kRzT0f9jx_8NM", "scope": "GOOGLE", "types": ["church", "place_of_worship", "point_of_interest", "establishment"], "user_ratings_total": 7, "vicinity": "336 Dudley Street, Roxbury"}, "ChIJ9_TgFDh644kR0ULkXcZRdB0": {"geometry": {"location": {"lat": 42.327749, "lng": -71.0748349}, "viewport": {"northeast": {"lat": 42.3290327302915, "lng": -71.07355981970849}, "southwest": {"lat": 42.3263347697085, "lng": -71.0762577802915}}}, "icon": "https://maps.gstatic.com/mapfiles/place_api/icons/generic_business-71.png", "id": "df1ede00ec14c8457e727ff20e61739c4b2b86e9", "name": "Feldman", "opening_hours": {"open_now": false}, "photos": [{"height": 2832, "html_attributions": ["<a href=\"https://maps.google.com/maps/contrib/105741035537069032911/photos\">Feldman</a>"], "photo_reference": "CmRaAAAAqoobq_v50zafvxF8gFULYhYQzNTGG6kfji3nkFM5IlfCfPsFDulX17N-_vC_gnk4g1SfvkuwhkoclwjRq0kP2GgeZakmNFxA1YsDkEvTpUm6MtmLKtC7btW-k1v63hV-EhDiUuyuKYukLhtrSkz6kKWhGhS8Xu5qCgZZ1td_Wsu83TeEwWlc8A", "width": 4256}], "place_id": "ChIJ9_TgFDh644kR0ULkXcZRdB0", "plus_code": {"compound_code": "8WHG+33 Boston, Massachusetts, United States", "global_code": "87JC8WHG+33"}, "rating": 4.3, "reference": "ChIJ9_TgFDh644kR0ULkXcZRdB0", "scope": "GOOGLE", "types": ["local_government_office", "point_of_interest", "establishment"], "user_ratings_total": 4, "vicinity": "152 Hampden Street, Boston"}, "ChIJqWfhFDh644kRBBD-zmvee7E": {"geometry": {"location": {"lat": 42.3277367, "lng": -71.07483069999999}, "viewport": {"northeast": {"lat": 42.3290232802915, "lng": -71.07355241970849}, "southwest": {"lat": 42.3263253197085, "lng": -71.07625038029151}}}, "icon": "https://maps.gstatic.com/mapfiles/place_api/icons/generic_business-71.png", "id": "e668597e19a6c349ad71e508b2991ffd16388fa3", "name": "Backlash Beer Company", "opening_hours": {"open_now": true}, "photos": [{"height": 2160, "html_attributions": ["<a href=\"https://maps.google.com/maps/contrib/108656169623273761854/photos\">Jay Rashbaum</a>"], "photo_reference": "CmRaAAAA8wT-SgkJ6-_f6uub8FA6VoZhOxBI4K8_x-AU7lll_pDEm-EuzAoKHPaAdhn29FQkX_5jvKsnUJ8uZY0DQHyp77_PxHTwrNQfA8vVff8RiKvz_cQuN8NawgQqvuxxgTjqEhAfACK0tJZWD0FYMuGFwmCQGhQZMudPlNL0EFvseyw_uDu3RHFYxA", "width": 3840}], "place_id": "ChIJqWfhFDh644kRBBD-zmvee7E", "plus_code": {"compound_code": "8WHG+33 Boston, Massachusetts, United States", "global_code": "87JC8WHG+33"}, "rating": 4.9, "reference": "ChIJqWfhFDh644kRBBD-zmvee7E", "scope": "GOOGLE", "types": ["point_of_interest", "food", "establishment"], "user_ratings_total": 38, "vicinity": "152 Hampden Street, Boston"}, "ChIJ8bxm2zl644kRQebo8sRcYy0": {"geometry": {"location": {"lat": 42.327617, "lng": -71.07760499999999}, "viewport": {"northeast": {"lat": 42.3289698302915, "lng": -71.0762615197085}, "southwest": {"lat": 42.3262718697085, "lng": -71.0789594802915}}}, "icon": "https://maps.gstatic.com/mapfiles/place_api/icons/generic_business-71.png", "id": "4e3729db6a07c1990b6ab2174c6e553e9c429bf4", "name": "Eppsdeals", "place_id": "ChIJ8bxm2zl644kRQebo8sRcYy0", "plus_code": {"compound_code": "8WHC+2X Boston, Massachusetts, United States", "global_code": "87JC8WHC+2X"}, "reference": "ChIJ8bxm2zl644kRQebo8sRcYy0", "scope": "GOOGLE", "types": ["travel_agency", "point_of_interest", "establishment"], "vicinity": "33 Adams Street, Boston"}, "ChIJ6xzz8LB544kRn9yI11nvTp8": {"geometry": {"location": {"lat": 42.3276838, "lng": -71.0777955}, "viewport": {"northeast": {"lat": 42.32910903029149, "lng": -71.0763604197085}, "southwest": {"lat": 42.32641106970849, "lng": -71.0790583802915}}}, "icon": "https://maps.gstatic.com/mapfiles/place_api/icons/generic_business-71.png", "id": "5ef09983e91309344eab6d1d39d660da9a5f73cb", "name": "Isalia Property Group", "opening_hours": {"open_now": false}, "photos": [{"height": 1000, "html_attributions": ["<a href=\"https://maps.google.com/maps/contrib/113549008579119787375/photos\">Isalia Property Group</a>"], "photo_reference": "CmRaAAAAjNF29Is5qxknmao2k9k-9p78Dza-M-25VllDuaLOdZO-_mK9VkdWX2PLHtOSm9pPHTk0pJGLFd9FAXuul2nFIPNLiYPjeMv9LP_i4Iy_YFAokDo4S4ktTJuPQqYm2DS5EhA_2-F6C_a5ALMtNoWcvH6NGhQfMLOkfqbOfMA6f4xMUaBPWnwjQw", "width": 1500}], "place_id": "ChIJ6xzz8LB544kRn9yI11nvTp8", "plus_code": {"compound_code": "8WHC+3V Boston, Massachusetts, United States", "global_code": "87JC8WHC+3V"}, "rating": 5, "reference": "ChIJ6xzz8LB544kRn9yI11nvTp8", "scope": "GOOGLE", "types": ["general_contractor", "point_of_interest", "establishment"], "user_ratings_total": 2, "vicinity": "305 Dudley Street, Boston"}, "ChIJAQDc3Dl644kRQLAK5msGdks": {"geometry": {"location": {"lat": 42.3276838, "lng": -71.0777955}, "viewport": {"northeast": {"lat": 42.32910903029149, "lng": -71.0763604197085}, "southwest": {"lat": 42.32641106970849, "lng": -71.0790583802915}}}, "icon": "https://maps.gstatic.com/mapfiles/place_api/icons/shopping-71.png", "id": "5138b7f12dbc641173f72a13cbd1d01d4aeb5edc", "name": "Distinguished Gentleman", "opening_hours": {"open_now": false}, "photos": [{"height": 1526, "html_attributions": ["<a href=\"https://maps.google.com/maps/contrib/114374777320630922953/photos\">Distinguished Gentleman</a>"], "photo_reference": "CmRaAAAAM9sjy2jUSehtQraqQ-zQY3MPo1fImll4fdBhdvXe5Yh7ESoT8Bk4mKS9ulMG99f4b5jLgOo1Rje8yvqh2u8_wj4S2u_r7K8eWMnVX13-jTyaPHdo93Y6w3IvGiuHk9KZEhA4jPaut1PiZwzz9RpDsY1SGhT9cIwrUfNtGxZTrKtXitdlq5oHAQ", "width": 2048}], "place_id": "ChIJAQDc3Dl644kRQLAK5msGdks", "plus_code": {"compound_code": "8WHC+3V Boston, Massachusetts, United States", "global_code": "87JC8WHC+3V"}, "reference": "ChIJAQDc3Dl644kRQLAK5msGdks", "scope": "GOOGLE", "types": ["store", "point_of_interest", "establishment"], "vicinity": "305 Dudley Street, Boston"}, "ChIJqU6yRTh644kR4hE1ScGMy8Q": {"geometry": {"location": {"lat": 42.3283199, "lng": -71.075659}, "viewport": {"northeast": {"lat": 42.3296768302915, "lng": -71.07433126970848}, "southwest": {"lat": 42.3269788697085, "lng": -71.0770292302915}}}, "icon": "https://maps.gstatic.com/mapfiles/place_api/icons/generic_recreational-71.png", "id": "851d908b313cee2a3bea1093d33fdfff60a99aee", "name": "Orchard Park Maintenance", "photos": [{"height": 1440, "html_attributions": ["<a href=\"https://maps.google.com/maps/contrib/115694250965307031931/photos\">Edward Reignolds</a>"], "photo_reference": "CmRaAAAAZ8G4N9AQbsPxaHq9CgbJj8aJpfYO97M3HzFQ7VkY5yaq8GXS6B0MhKHghr_LP8J2TStK7MmGfubjayKm9kC7ti_wtwTmGACwqODWXiOI61uq9P1WzUA_P7ku5JM1eRHCEhB6HUwraA9cOp1ULPAIxt5LGhRU-lv-PpVCLBzpglmSIvttFPy3zQ", "width": 2560}], "place_id": "ChIJqU6yRTh644kR4hE1ScGMy8Q", "plus_code": {"compound_code": "8WHF+8P Boston, Massachusetts, United States", "global_code": "87JC8WHF+8P"}, "rating": 3.9, "reference": "ChIJqU6yRTh644kR4hE1ScGMy8Q", "scope": "GOOGLE", "types": ["park", "point_of_interest", "establishment"], "user_ratings_total": 7, "vicinity": "20 Prescott Street, Roxbury"}, "ChIJfyQtyTl644kR1IkVnZfOsmQ": {"geometry": {"location": {"lat": 42.3279773, "lng": -71.0771317}, "viewport": {"northeast": {"lat": 42.3293461802915, "lng": -71.0758105197085}, "southwest": {"lat": 42.3266482197085, "lng": -71.0785084802915}}}, "icon": "https://maps.gstatic.com/mapfiles/place_api/icons/generic_business-71.png", "id": "b48e68c2248d50df21a200d9cb15fb1b33a4fab7", "name": "Limerick Meats & Provisions", "place_id": "ChIJfyQtyTl644kR1IkVnZfOsmQ", "plus_code": {"compound_code": "8WHF+54 Boston, Massachusetts, United States", "global_code": "87JC8WHF+54"}, "rating": 1, "reference": "ChIJfyQtyTl644kR1IkVnZfOsmQ", "scope": "GOOGLE", "types": ["point_of_interest", "food", "establishment"], "user_ratings_total": 1, "vicinity": "Adams Street, Roxbury"}, "ChIJtbMmxjl644kRhWeal6kijfU": {"geometry": {"location": {"lat": 42.3280426, "lng": -71.0772812}, "viewport": {"northeast": {"lat": 42.3293690802915, "lng": -71.07590081970848}, "southwest": {"lat": 42.3266711197085, "lng": -71.0785987802915}}}, "icon": "https://maps.gstatic.com/mapfiles/place_api/icons/worship_general-71.png", "id": "474c07ca3b1ccd9827060f414fa0f316ba93b86f", "name": "Iglesia Jehova", "place_id": "ChIJtbMmxjl644kRhWeal6kijfU", "plus_code": {"compound_code": "8WHF+63 Boston, Massachusetts, United States", "global_code": "87JC8WHF+63"}, "reference": "ChIJtbMmxjl644kRhWeal6kijfU", "scope": "GOOGLE", "types": ["church", "place_of_worship", "point_of_interest", "establishment"], "vicinity": "50 Adams Street, Boston"}, "ChIJMecMxjl644kR-3Tq7Cvscyw": {"geometry": {"location": {"lat": 42.3279869, "lng": -71.0773482}, "viewport": {"northeast": {"lat": 42.3292414802915, "lng": -71.07610581970849}, "southwest": {"lat": 42.3265435197085, "lng": -71.07880378029151}}}, "icon": "https://maps.gstatic.com/mapfiles/place_api/icons/generic_business-71.png", "id": "e9c0a364cb8b3151bfe3a897d65f6ab964f54243", "name": "Yinnet Beauty Salon", "place_id": "ChIJMecMxjl644kR-3Tq7Cvscyw", "plus_code": {"compound_code": "8WHF+53 Boston, Massachusetts, United States", "global_code": "87JC8WHF+53"}, "reference": "ChIJMecMxjl644kR-3Tq7Cvscyw", "scope": "GOOGLE", "types": ["beauty_salon", "point_of_interest", "establishment"], "vicinity": "301 Dudley Street, Boston"}, "ChIJe8Vzxjl644kRuLZlj8YjEf8": {"geometry": {"location": {"lat": 42.3279902, "lng": -71.0773742}, "viewport": {"northeast": {"lat": 42.3293121802915, "lng": -71.0759875697085}, "southwest": {"lat": 42.3266142197085, "lng": -71.07868553029151}}}, "icon": "https://maps.gstatic.com/mapfiles/place_api/icons/generic_business-71.png", "id": "ae265872749eaa4ac0fa50d94fe17a7127401c9f", "name": "Dominic hair salon", "opening_hours": {"open_now": true}, "photos": [{"height": 1440, "html_attributions": ["<a href=\"https://maps.google.com/maps/contrib/112888312717002729915/photos\">Dominic hair salon</a>"], "photo_reference": "CmRaAAAAuceVgk2gFYYJna6ezhd41E40nCOimud8DA976xhafX9O5IsPHtkj8F8JPWzuu08wV1LD3xHWPErYpBE_OlD3BR5FlE6cuSxpeiXLlGSyEHuMivcWFwt-s0iIiusIiVjfEhCrHrW08NBY6T0hP6ZSCK39GhQG8bQb2AAxrzVcjxkv_zZ0rsiLmw", "width": 1440}], "place_id": "ChIJe8Vzxjl644kRuLZlj8YjEf8", "plus_code": {"compound_code": "8WHF+53 Boston, Massachusetts, United States", "global_code": "87JC8WHF+53"}, "rating": 5, "reference": "ChIJe8Vzxjl644kRuLZlj8YjEf8", "scope": "GOOGLE", "types": ["hair_care", "point_of_interest", "establishment"], "user_ratings_total": 1, "vicinity": "55 Adams Street, Boston"}, "ChIJh-CN2yx644kRI8h5WPc98wQ": {"geometry": {"location": {"lat": 42.31519779999999, "lng": -71.0913748}, "viewport": {"northeast": {"lat": 42.335885, "lng": -71.06649519999999}, "southwest": {"lat": 42.29179790000001, "lng": -71.1067612}}}, "icon": "https://maps.gstatic.com/mapfiles/place_api/icons/geocode-71.png", "id": "33d978342c31fa28698809200432caaeeab1c79d", "name": "Roxbury", "photos": [{"height": 5312, "html_attributions": ["<a href=\"https://maps.google.com/maps/contrib/108141736953672835093/photos\">Warriorprincess4916</a>"], "photo_reference": "CmRaAAAA5b-Mazg84ezVE-g0ftWcKGn1AXJ0sTimGFipJpFZQ2Dg1xsJBVTScA77lodXsoSvPYUmdy6iaE_r69D7VCM-V00pTG8wpqd0cD5pYqYLXV-lnjybEVPccnhycMB9ECVfEhCrXuxjEFM8y3_iP5m2b4bEGhQismLMKTnrnV0yEm7JMeaUY6CbuQ", "width": 2988}], "place_id": "ChIJh-CN2yx644kRI8h5WPc98wQ", "reference": "ChIJh-CN2yx644kRI8h5WPc98wQ", "scope": "GOOGLE", "types": ["neighborhood", "political"], "vicinity": "Dorchester Center"}, "ChIJtRnGxDl644kRvtQvcsqHMVU": {"geometry": {"location": {"lat": 42.327844, "lng": -71.077494}, "viewport": {"northeast": {"lat": 42.32918748029149, "lng": -71.0761373197085}, "southwest": {"lat": 42.32648951970849, "lng": -71.0788352802915}}}, "icon": "https://maps.gstatic.com/mapfiles/place_api/icons/bus-71.png", "id": "e4f4253707e10c5e86861d3cc3ba5cbb259b3407", "name": "Dudley St @ Adams St", "place_id": "ChIJtRnGxDl644kRvtQvcsqHMVU", "plus_code": {"compound_code": "8WHF+42 Boston, Massachusetts, United States", "global_code": "87JC8WHF+42"}, "rating": 5, "reference": "ChIJtRnGxDl644kRvtQvcsqHMVU", "scope": "GOOGLE", "types": ["bus_station", "transit_station", "point_of_interest", "establishment"], "user_ratings_total": 1, "vicinity": "United States"}, "ChIJFXTYxDl644kRL0JXDOj0Iwk": {"geometry": {"location": {"lat": 42.327723, "lng": -71.0774485}, "viewport": {"northeast": {"lat": 42.3290496802915, "lng": -71.0761267697085}, "southwest": {"lat": 42.32635171970851, "lng": -71.0788247302915}}}, "icon": "https://maps.gstatic.com/mapfiles/place_api/icons/generic_business-71.png", "id": "295aadf3cec505232b67bc85a4830748ea30fe18", "name": "Dudley St @ Adams St", "place_id": "ChIJFXTYxDl644kRL0JXDOj0Iwk", "plus_code": {"compound_code": "8WHF+32 Boston, Massachusetts, United States", "global_code": "87JC8WHF+32"}, "reference": "ChIJFXTYxDl644kRL0JXDOj0Iwk", "scope": "GOOGLE", "types": ["transit_station", "point_of_interest", "establishment"], "vicinity": "United States"}, "ChIJAQDc3Dl644kR1M_MFDmEibc": {"geometry": {"location": {"lat": 42.3276838, "lng": -71.0777955}, "viewport": {"northeast": {"lat": 42.32910903029149, "lng": -71.0763604197085}, "southwest": {"lat": 42.32641106970849, "lng": -71.0790583802915}}}, "icon": "https://maps.gstatic.com/mapfiles/place_api/icons/generic_business-71.png", "id": "a55a3004953259976a67e4d570c8817a97f10aac", "name": "Brian Keith", "place_id": "ChIJAQDc3Dl644kR1M_MFDmEibc", "plus_code": {"compound_code": "8WHC+3V Boston, Massachusetts, United States", "global_code": "87JC8WHC+3V"}, "reference": "ChIJAQDc3Dl644kR1M_MFDmEibc", "scope": "GOOGLE", "types": ["point_of_interest", "establishment"], "vicinity": "305 Dudley Street, Boston"}, "ChIJIUnd2jl644kRjR4cSwE0Usw": {"geometry": {"location": {"lat": 42.327602, "lng": -71.077403}, "viewport": {"northeast": {"lat": 42.3289736302915, "lng": -71.07602341970849}, "southwest": {"lat": 42.3262756697085, "lng": -71.07872138029151}}}, "icon": "https://maps.gstatic.com/mapfiles/place_api/icons/bus-71.png", "id": "c192fbf6a115aa4e68091740eebde33e42fb110a", "name": "Dudley St @ Adams St", "place_id": "ChIJIUnd2jl644kRjR4cSwE0Usw", "plus_code": {"compound_code": "8WHF+22 Boston, Massachusetts, United States", "global_code": "87JC8WHF+22"}, "reference": "ChIJIUnd2jl644kRjR4cSwE0Usw", "scope": "GOOGLE", "types": ["bus_station", "transit_station", "point_of_interest", "establishment"], "vicinity": "United States"}, "ChIJffuoxDl644kR_PAggsp45jQ": {"geometry": {"location": {"lat": 42.32773329999999, "lng": -71.07762939999999}, "viewport": {"northeast": {"lat": 42.32911373029149, "lng": -71.07624491970849}, "southwest": {"lat": 42.32641576970849, "lng": -71.0789428802915}}}, "icon": "https://maps.gstatic.com/mapfiles/place_api/icons/shopping-71.png", "id": "cb8923a82ebb7f5153ae716397e2760b95091824", "name": "Nunez Mini Mart", "place_id": "ChIJffuoxDl644kR_PAggsp45jQ", "plus_code": {"compound_code": "8WHC+3W Boston, Massachusetts, United States", "global_code": "87JC8WHC+3W"}, "rating": 5, "reference": "ChIJffuoxDl644kR_PAggsp45jQ", "scope": "GOOGLE", "types": ["convenience_store", "store", "point_of_interest", "food", "establishment"], "user_ratings_total": 1, "vicinity": "305 Dudley Street, Roxbury"}, "ChIJ2V3iDDh644kRV5wqOopuhNM": {"geometry": {"location": {"lat": 42.3278371, "lng": -71.0745623}, "viewport": {"northeast": {"lat": 42.32924198029149, "lng": -71.0731439197085}, "southwest": {"lat": 42.3265440197085, "lng": -71.0758418802915}}}, "icon": "https://maps.gstatic.com/mapfiles/place_api/icons/generic_business-71.png", "id": "7c6780a97f9891039a4c32da335f4e660fabad79", "name": "New England Storage Warehouse Company.", "place_id": "ChIJ2V3iDDh644kRV5wqOopuhNM", "plus_code": {"compound_code": "8WHG+45 Boston, Massachusetts, United States", "global_code": "87JC8WHG+45"}, "reference": "ChIJ2V3iDDh644kRV5wqOopuhNM", "scope": "GOOGLE", "types": ["storage", "point_of_interest", "establishment"], "vicinity": "Boston"}, "ChIJqQPWATl644kRsHQMozRll2Y": {"geometry": {"location": {"lat": 42.3294846, "lng": -71.07670449999999}, "viewport": {"northeast": {"lat": 42.3308223302915, "lng": -71.07517076970849}, "southwest": {"lat": 42.3281243697085, "lng": -71.0778687302915}}}, "icon": "https://maps.gstatic.com/mapfiles/place_api/icons/generic_recreational-71.png", "id": "d48dbfd98268da18d08a1515ca151fb707bfa0a3", "name": "Orchard Park", "place_id": "ChIJqQPWATl644kRsHQMozRll2Y", "reference": "ChIJqQPWATl644kRsHQMozRll2Y", "scope": "GOOGLE", "types": ["park", "premise", "point_of_interest", "establishment"], "vicinity": "Boston"}}