{"ChIJGzE9DS1l44kRoOhiASS_fHg": {"geometry": {"location": {"lat": 42.3600825, "lng": -71.0588801}, "viewport": {"northeast": {"lat": 42.40081989999999, "lng": -70.749455}, "southwest": {"lat": 42.22788, "lng": -71.191113}}}, "icon": "https://maps.gstatic.com/mapfiles/place_api/icons/geocode-71.png", "id": "06755c25d2b34d13942a4713971756a55b870ced", "name": "Boston", "photos": [{"height": 3024, "html_attributions": ["<a href=\"https://maps.google.com/maps/contrib/104670289779338733432/photos\">Natalia Zalucean</a>"], "photo_reference": "CmRaAAAAkRg5vpfjuckY2nK9KbSE4YHrPOFN8HF5Orc9LK1d52RN-N8r8TjiORwq7Ubltc_udkOX4rRLaHnT4QQhgoPyU2WjE5_r_wSDvF1UQ5mGdaHzUYeY-_2kmg3LxFh0X39aEhDIEM01PR_4OEKz4RJBi8QUGhQ78UW6EUAwmBtrsBBeIj00Mq6BSA", "width": 4032}], "place_id": "ChIJGzE9DS1l44kRoOhiASS_fHg", "reference": "ChIJGzE9DS1l44kRoOhiASS_fHg", "scope": "GOOGLE", "types": ["locality", "political"], "vicinity": "Boston"}, "ChIJ7U3m8DV_44kRgDKfy4nyqvE": {"geometry": {"location": {"lat": 42.290915, "lng": -71.1681399}, "viewport": {"northeast": {"lat": 42.2921934302915, "lng": -71.1669214697085}, "southwest": {"lat": 42.28949546970851, "lng": -71.16961943029152}}}, "icon": "https://maps.gstatic.com/mapfiles/place_api/icons/generic_business-71.png", "id": "f88d93585a3f831ddc25470e13a92cd5bc90237e", "name": "Thomas Carrigg & Son", "photos": [{"height": 4618, "html_attributions": ["<a href=\"https://maps.google.com/maps/contrib/115431054074211842098/photos\">Rick Hamilton</a>"], "photo_reference": "CmRaAAAA9tUh37FbUQ-9dw8dRN99ttaa73IpwvEfmy3lupqGWBnkpZCHjVir0Z8nCrVUAIKe8UwY6a2egGJVGU43iRQwP0Stp0Oni2ZnwCYiVOba-bV5G_AP6DwQzxs84LXDBlGXEhAldxizehmTq0R8gqldybKSGhSxZFTSveLlEDqFwJ_HRZ5amLZDGw", "width": 3464}], "place_id": "ChIJ7U3m8DV_44kRgDKfy4nyqvE", "plus_code": {"compound_code": "7RRJ+9P Boston, Massachusetts, United States", "global_code": "87JC7RRJ+9P"}, "rating": 3, "reference": "ChIJ7U3m8DV_44kRgDKfy4nyqvE", "scope": "GOOGLE", "types": ["point_of_interest", "establishment"], "user_ratings_total": 2, "vicinity": "771 Lagrange Street, West Roxbury"}, "ChIJub9_eEp_44kRocRJGuv_YGs": {"geometry": {"location": {"lat": 42.2922129, "lng": -71.1686185}, "viewport": {"northeast": {"lat": 42.29361873029149, "lng": -71.1673487197085}, "southwest": {"lat": 42.2909207697085, "lng": -71.1700466802915}}}, "icon": "https://maps.gstatic.com/mapfiles/place_api/icons/generic_business-71.png", "id": "2d8803116c4dce0ce7ced8fa9e8cee58c78bdfb0", "name": "Metro Group", "place_id": "ChIJub9_eEp_44kRocRJGuv_YGs", "plus_code": {"compound_code": "7RRJ+VH Boston, Massachusetts, United States", "global_code": "87JC7RRJ+VH"}, "reference": "ChIJub9_eEp_44kRocRJGuv_YGs", "scope": "GOOGLE", "types": ["point_of_interest", "establishment"], "vicinity": "9 Furbush Road, West Roxbury"}, "ChIJ3fFsBEp_44kR2HMqkKkV6Bk": {"geometry": {"location": {"lat": 42.2904663, "lng": -71.1691506}, "viewport": {"northeast": {"lat": 42.2918712302915, "lng": -71.16787511970848}, "southwest": {"lat": 42.2891732697085, "lng": -71.1705730802915}}}, "icon": "https://maps.gstatic.com/mapfiles/place_api/icons/generic_business-71.png", "id": "1cc9c9ba0f0cc44c9f7c89dc3fbb5cc11a794439", "name": "OCCU-MED", "place_id": "ChIJ3fFsBEp_44kR2HMqkKkV6Bk", "plus_code": {"compound_code": "7RRJ+58 Boston, Massachusetts, United States", "global_code": "87JC7RRJ+58"}, "reference": "ChIJ3fFsBEp_44kR2HMqkKkV6Bk", "scope": "GOOGLE", "types": ["health", "point_of_interest", "establishment"], "vicinity": "158 Brook Farm Road, West Roxbury"}, "ChIJ00DO9zV_44kRF_N9kxh6yPI": {"geometry": {"location": {"lat": 42.290994, "lng": -71.168567}, "viewport": {"northeast": {"lat": 42.2923434802915, "lng": -71.1672171197085}, "southwest": {"lat": 42.2896455197085, "lng": -71.1699150802915}}}, "icon": "https://maps.gstatic.com/mapfiles/place_api/icons/bus-71.png", "id": "d078ee7c2cbc838be3cf30e1555a57634e83cfc1", "name": "LaGrange @ Brookfarm Rd", "place_id": "ChIJ00DO9zV_44kRF_N9kxh6yPI", "plus_code": {"compound_code": "7RRJ+9H Boston, Massachusetts, United States", "global_code": "87JC7RRJ+9H"}, "reference": "ChIJ00DO9zV_44kRF_N9kxh6yPI", "scope": "GOOGLE", "types": ["bus_station", "transit_station", "point_of_interest", "establishment"], "vicinity": "United States"}, "ChIJb2bB9zV_44kRdpq3nuf5hMI": {"geometry": {"location": {"lat": 42.291049, "lng": -71.168277}, "viewport": {"northeast": {"lat": 42.29232828029151, "lng": -71.1670570197085}, "southwest": {"lat": 42.28963031970851, "lng": -71.1697549802915}}}, "icon": "https://maps.gstatic.com/mapfiles/place_api/icons/generic_business-71.png", "id": "8bdd7c8bf10bccaefc6601228478af426867b386", "name": "Jeffries Lee", "place_id": "ChIJb2bB9zV_44kRdpq3nuf5hMI", "plus_code": {"compound_code": "7RRJ+CM Boston, Massachusetts, United States", "global_code": "87JC7RRJ+CM"}, "reference": "ChIJb2bB9zV_44kRdpq3nuf5hMI", "scope": "GOOGLE", "types": ["painter", "point_of_interest", "establishment"], "vicinity": "777 Lagrange Street, West Roxbury"}, "ChIJzxYuijx_44kRRILba9QQn0k": {"geometry": {"location": {"lat": 42.27975539999999, "lng": -71.1626756}, "viewport": {"northeast": {"lat": 42.303697, "lng": -71.12789599999999}, "southwest": {"lat": 42.25289799999999, "lng": -71.191198}}}, "icon": "https://maps.gstatic.com/mapfiles/place_api/icons/geocode-71.png", "id": "20de47f271a3ccaf647bdac7b9ee10bd6e83a6c4", "name": "West Roxbury", "photos": [{"height": 603, "html_attributions": ["<a href=\"https://maps.google.com/maps/contrib/117808102006877461743/photos\">Andri Kyrychok</a>"], "photo_reference": "CmRaAAAA4ZySeTWBgrsMZCIXtSPAHyN9kV2Whuw6ufOIYkcbX5HAsABTGkbfCUxLoB0-9eXdSdN4N34Ma08REAXppFx56VIfVxK_IU-Zm-FTc7bSg11xdK1yyN8C51PuSYz2ReF2EhCMZJ_7AHVqsck87OFp3xyCGhRv6ZaGnZYmGmnMXH3QRv8v4oYHoA", "width": 546}], "place_id": "ChIJzxYuijx_44kRRILba9QQn0k", "reference": "ChIJzxYuijx_44kRRILba9QQn0k", "scope": "GOOGLE", "types": ["neighborhood", "political"], "vicinity": "Boston"}}