{"ChIJGzE9DS1l44kRoOhiASS_fHg": {"geometry": {"location": {"lat": 42.3600825, "lng": -71.0588801}, "viewport": {"northeast": {"lat": 42.40081989999999, "lng": -70.749455}, "southwest": {"lat": 42.22788, "lng": -71.191113}}}, "icon": "https://maps.gstatic.com/mapfiles/place_api/icons/geocode-71.png", "id": "06755c25d2b34d13942a4713971756a55b870ced", "name": "Boston", "photos": [{"height": 3024, "html_attributions": ["<a href=\"https://maps.google.com/maps/contrib/104670289779338733432/photos\">Natalia Zalucean</a>"], "photo_reference": "CmRaAAAAU7mOPnGvdUSoUq5XGAyuxCeUXFmmX3q4eUD-LBBB06OYkynLOSZufKGHP4Q_tP0xETNC6iEkXdamSt_9uGbai_Mgmc6miVKraCkG7CGoF6UML-Rn91BBBF15yUcvle5YEhCJmPJch1USpmWNFuFMjSkgGhRmK7pfE8mWaStM_Ead9fS8p4H2sw", "width": 4032}], "place_id": "ChIJGzE9DS1l44kRoOhiASS_fHg", "reference": "ChIJGzE9DS1l44kRoOhiASS_fHg", "scope": "GOOGLE", "types": ["locality", "political"], "vicinity": "Boston"}, "ChIJ1WzipoRw44kRwZ86TQ13Rus": {"geometry": {"location": {"lat": 42.3264102, "lng": -71.0873166}, "viewport": {"northeast": {"lat": 42.3277891302915, "lng": -71.08609751970849}, "southwest": {"lat": 42.3250911697085, "lng": -71.08879548029151}}}, "icon": "https://maps.gstatic.com/mapfiles/place_api/icons/worship_general-71.png", "id": "a8f0144aa6b9442af8c40cff771c68a4d886655a", "name": "Ethiopian Evangelical Church", "photos": [{"height": 3024, "html_attributions": ["<a href=\"https://maps.google.com/maps/contrib/102491651737675999912/photos\">Amex o</a>"], "photo_reference": "CmRaAAAAZ9B_1O8519nBvhqte32mWnovuuw3GEdsU7zyCfwwuvLcLFXSxBv98lulcmERTTqnX8n_gCA7Jb8OZqCPocEga1afko-JIIkTrMeCcXNTWVOIqbFAAUx5h6C1o9OLgdB1EhCMuEO0wI-GrHjAKpk66qInGhRz57JZUxPYZmppvaWgdXiTxF2cyA", "width": 4032}], "place_id": "ChIJ1WzipoRw44kRwZ86TQ13Rus", "plus_code": {"compound_code": "8WG7+H3 Boston, Massachusetts, United States", "global_code": "87JC8WG7+H3"}, "rating": 5, "reference": "ChIJ1WzipoRw44kRwZ86TQ13Rus", "scope": "GOOGLE", "types": ["church", "place_of_worship", "point_of_interest", "establishment"], "user_ratings_total": 6, "vicinity": "2566 Washington Street, Boston"}, "ChIJbzi71C9644kRDo_HOvbF_uE": {"geometry": {"location": {"lat": 42.326177, "lng": -71.085754}, "viewport": {"northeast": {"lat": 42.32759103029151, "lng": -71.0842475697085}, "southwest": {"lat": 42.32489306970851, "lng": -71.0869455302915}}}, "icon": "https://maps.gstatic.com/mapfiles/place_api/icons/generic_business-71.png", "id": "9f3716222c858eb2dab0eb879d811f0f762b03c2", "name": "WFtransportation Livery Service", "opening_hours": {"open_now": true}, "place_id": "ChIJbzi71C9644kRDo_HOvbF_uE", "plus_code": {"compound_code": "8WG7+FM Boston, Massachusetts, United States", "global_code": "87JC8WG7+FM"}, "rating": 2.3, "reference": "ChIJbzi71C9644kRDo_HOvbF_uE", "scope": "GOOGLE", "types": ["point_of_interest", "establishment"], "user_ratings_total": 3, "vicinity": "16 Akron Street, Roxbury"}, "ChIJbzi71C9644kRIPRCU9909sE": {"geometry": {"location": {"lat": 42.326177, "lng": -71.085754}, "viewport": {"northeast": {"lat": 42.32759103029151, "lng": -71.0842475697085}, "southwest": {"lat": 42.32489306970851, "lng": -71.0869455302915}}}, "icon": "https://maps.gstatic.com/mapfiles/place_api/icons/shopping-71.png", "id": "dc02b93cdd62050881ec597dc16bff3ad2f31342", "name": "Feel-T-Baskets", "opening_hours": {"open_now": true}, "photos": [{"height": 1474, "html_attributions": ["<a href=\"https://maps.google.com/maps/contrib/113245233118669861013/photos\">Feel-T-Baskets</a>"], "photo_reference": "CmRaAAAAd3IbjsnW4WhyPI8Kkt5kOwa0iT9KNuQQR_QJIZ3eLuIQ2lxPOrwokxcnukbSooqyxVyw0kB1zNtPm4hXjmXJr0nSOaFbRXC24xXS96qhxCwA31fiF5EcX7FT75XgxUbNEhCASfc7_y3FrKb3J3P56yW7GhSZxXGn5R0YRElT9uEtHZTpcVt0fA", "width": 1905}], "place_id": "ChIJbzi71C9644kRIPRCU9909sE", "plus_code": {"compound_code": "8WG7+FM Boston, Massachusetts, United States", "global_code": "87JC8WG7+FM"}, "reference": "ChIJbzi71C9644kRIPRCU9909sE", "scope": "GOOGLE", "types": ["store", "point_of_interest", "establishment"], "vicinity": "16 Akron Street, Roxbury"}, "ChIJEcfCXi5644kRRgAWaQfiH3c": {"geometry": {"location": {"lat": 42.3255771, "lng": -71.08816759999999}, "viewport": {"northeast": {"lat": 42.32690238029149, "lng": -71.0867213697085}, "southwest": {"lat": 42.3242044197085, "lng": -71.0894193302915}}}, "icon": "https://maps.gstatic.com/mapfiles/place_api/icons/generic_business-71.png", "id": "f3ef9d2f9abf7520c25d6307815ad1ef7dbf6215", "name": "res sober house", "place_id": "ChIJEcfCXi5644kRRgAWaQfiH3c", "plus_code": {"compound_code": "8WG6+6P Boston, Massachusetts, United States", "global_code": "87JC8WG6+6P"}, "reference": "ChIJEcfCXi5644kRRgAWaQfiH3c", "scope": "GOOGLE", "types": ["point_of_interest", "establishment"], "vicinity": "2599 Washington Street, Boston"}, "ChIJc9usUS5644kRShGZxhkXHfo": {"geometry": {"location": {"lat": 42.326035, "lng": -71.087812}, "viewport": {"northeast": {"lat": 42.32738253029149, "lng": -71.0864565697085}, "southwest": {"lat": 42.3246845697085, "lng": -71.08915453029151}}}, "icon": "https://maps.gstatic.com/mapfiles/place_api/icons/bus-71.png", "id": "028f3b2f64604df63dab3b015e62ece45f39502a", "name": "Washington St @ Guild St", "place_id": "ChIJc9usUS5644kRShGZxhkXHfo", "plus_code": {"compound_code": "8WG6+CV Boston, Massachusetts, United States", "global_code": "87JC8WG6+CV"}, "reference": "ChIJc9usUS5644kRShGZxhkXHfo", "scope": "GOOGLE", "types": ["bus_station", "transit_station", "point_of_interest", "establishment"], "vicinity": "United States"}, "ChIJF8OWWi5644kRT7yK_zf3ACM": {"geometry": {"location": {"lat": 42.325827, "lng": -71.087772}, "viewport": {"northeast": {"lat": 42.3271827302915, "lng": -71.0864520697085}, "southwest": {"lat": 42.3244847697085, "lng": -71.0891500302915}}}, "icon": "https://maps.gstatic.com/mapfiles/place_api/icons/bus-71.png", "id": "9b99ef057d6cf1fe5427562130e90cbaf61778b0", "name": "Washington St @ Circuit Terr", "place_id": "ChIJF8OWWi5644kRT7yK_zf3ACM", "plus_code": {"compound_code": "8WG6+8V Boston, Massachusetts, United States", "global_code": "87JC8WG6+8V"}, "reference": "ChIJF8OWWi5644kRT7yK_zf3ACM", "scope": "GOOGLE", "types": ["bus_station", "transit_station", "point_of_interest", "establishment"], "vicinity": "United States"}, "ChIJT_L_vXJ744kRhgaYIFMPV6U": {"geometry": {"location": {"lat": 42.3263643, "lng": -71.087947}, "viewport": {"northeast": {"lat": 42.32764523029149, "lng": -71.0866230697085}, "southwest": {"lat": 42.3249472697085, "lng": -71.0893210302915}}}, "icon": "https://maps.gstatic.com/mapfiles/place_api/icons/generic_business-71.png", "id": "04c3d854e297dbce752a9b17530c8c9b5b8744d3", "name": "Jason Ryan Personal Trainer", "opening_hours": {"open_now": true}, "place_id": "ChIJT_L_vXJ744kRhgaYIFMPV6U", "plus_code": {"compound_code": "8WG6+GR Boston, Massachusetts, United States", "global_code": "87JC8WG6+GR"}, "rating": 5, "reference": "ChIJT_L_vXJ744kRhgaYIFMPV6U", "scope": "GOOGLE", "types": ["health", "point_of_interest", "establishment"], "user_ratings_total": 9, "vicinity": "12 Guild Street, Boston"}, "ChIJ5xWyOS5644kR0WlkEF_76IM": {"geometry": {"location": {"lat": 42.325594, "lng": -71.08666269999999}, "viewport": {"northeast": {"lat": 42.3269626302915, "lng": -71.0853716697085}, "southwest": {"lat": 42.3242646697085, "lng": -71.0880696302915}}}, "icon": "https://maps.gstatic.com/mapfiles/place_api/icons/generic_business-71.png", "id": "d6ae442d28f245e951616275ceb5216d280f080f", "name": "Cross Winds Enterprise Inc", "place_id": "ChIJ5xWyOS5644kR0WlkEF_76IM", "plus_code": {"compound_code": "8WG7+68 Boston, Massachusetts, United States", "global_code": "87JC8WG7+68"}, "rating": 5, "reference": "ChIJ5xWyOS5644kR0WlkEF_76IM", "scope": "GOOGLE", "types": ["point_of_interest", "establishment"], "user_ratings_total": 1, "vicinity": "24 Alpine Street, Roxbury"}, "ChIJLygPay5644kRzMVNJE_t3uA": {"geometry": {"location": {"lat": 42.3249684, "lng": -71.08707679999999}, "viewport": {"northeast": {"lat": 42.3263174302915, "lng": -71.08570401970849}, "southwest": {"lat": 42.3236194697085, "lng": -71.0884019802915}}}, "icon": "https://maps.gstatic.com/mapfiles/place_api/icons/generic_business-71.png", "id": "5e40c57700fb550b481ab52b8e04d100024efca8", "name": "97 Circuit", "place_id": "ChIJLygPay5644kRzMVNJE_t3uA", "plus_code": {"compound_code": "8WF7+X5 Boston, Massachusetts, United States", "global_code": "87JC8WF7+X5"}, "rating": 2, "reference": "ChIJLygPay5644kRzMVNJE_t3uA", "scope": "GOOGLE", "types": ["point_of_interest", "establishment"], "user_ratings_total": 1, "vicinity": "97 Circuit Street, Roxbury"}, "ChIJT_7Nvi9644kRaw_hT3Xbs3U": {"geometry": {"location": {"lat": 42.327276, "lng": -71.087149}, "viewport": {"northeast": {"lat": 42.32863088029149, "lng": -71.08582411970849}, "southwest": {"lat": 42.32593291970849, "lng": -71.0885220802915}}}, "icon": "https://maps.gstatic.com/mapfiles/place_api/icons/bus-71.png", "id": "8f79ed254bc20adbc00afecfae4e3d3eab242535", "name": "Washington St @ St James St", "place_id": "ChIJT_7Nvi9644kRaw_hT3Xbs3U", "plus_code": {"compound_code": "8WG7+W4 Boston, Massachusetts, United States", "global_code": "87JC8WG7+W4"}, "reference": "ChIJT_7Nvi9644kRaw_hT3Xbs3U", "scope": "GOOGLE", "types": ["bus_station", "transit_station", "point_of_interest", "establishment"], "vicinity": "United States"}, "ChIJoyGk_S5644kRmnjXriWJ21Q": {"geometry": {"location": {"lat": 42.326571, "lng": -71.0889365}, "viewport": {"northeast": {"lat": 42.3279233802915, "lng": -71.0875930697085}, "southwest": {"lat": 42.3252254197085, "lng": -71.09029103029151}}}, "icon": "https://maps.gstatic.com/mapfiles/place_api/icons/generic_business-71.png", "id": "e4a1c66b4a0b58f09637b995cfce6f1f02e17ce4", "name": "D L S Wholesale", "place_id": "ChIJoyGk_S5644kRmnjXriWJ21Q", "plus_code": {"compound_code": "8WG6+JC Boston, Massachusetts, United States", "global_code": "87JC8WG6+JC"}, "reference": "ChIJoyGk_S5644kRmnjXriWJ21Q", "scope": "GOOGLE", "types": ["point_of_interest", "establishment"], "vicinity": "3 Thornton Street, Roxbury"}, "ChIJ9W4wjC5644kRT3fG6agRt9k": {"geometry": {"location": {"lat": 42.32521629999999, "lng": -71.0889031}, "viewport": {"northeast": {"lat": 42.3265561802915, "lng": -71.08753166970848}, "southwest": {"lat": 42.32385821970851, "lng": -71.09022963029149}}}, "icon": "https://maps.gstatic.com/mapfiles/place_api/icons/generic_business-71.png", "id": "f604ccc4643d0df45bcb3016cae2ee2bc06dd2b3", "name": "Owen Electrical Contracting Co", "place_id": "ChIJ9W4wjC5644kRT3fG6agRt9k", "plus_code": {"compound_code": "8WG6+3C Boston, Massachusetts, United States", "global_code": "87JC8WG6+3C"}, "reference": "ChIJ9W4wjC5644kRT3fG6agRt9k", "scope": "GOOGLE", "types": ["electrician", "point_of_interest", "establishment"], "vicinity": "22 Juniper Street, Roxbury"}, "ChIJ0frAPy5644kRE7qhJRLNJjw": {"geometry": {"location": {"lat": 42.3249558, "lng": -71.0867323}, "viewport": {"northeast": {"lat": 42.3265337302915, "lng": -71.0854619197085}, "southwest": {"lat": 42.3238357697085, "lng": -71.0881598802915}}}, "icon": "https://maps.gstatic.com/mapfiles/place_api/icons/generic_recreational-71.png", "id": "e0a3aa8eaf34d7d1c5aac34a30576a45477f5cf6", "name": "Alpine Street Park", "place_id": "ChIJ0frAPy5644kRE7qhJRLNJjw", "reference": "ChIJ0frAPy5644kRE7qhJRLNJjw", "scope": "GOOGLE", "types": ["park", "premise", "point_of_interest", "establishment"], "vicinity": "Boston"}, "ChIJOdXIJjB644kRYBDmkF8aTI0": {"geometry": {"location": {"lat": 42.3269894, "lng": -71.0851539}, "viewport": {"northeast": {"lat": 42.3282398302915, "lng": -71.08382791970848}, "southwest": {"lat": 42.3255418697085, "lng": -71.0865258802915}}}, "icon": "https://maps.gstatic.com/mapfiles/place_api/icons/generic_recreational-71.png", "id": "2764668d06173b73629b1558dc5e6fa67f8a0a8c", "name": "St. James Street Park", "place_id": "ChIJOdXIJjB644kRYBDmkF8aTI0", "reference": "ChIJOdXIJjB644kRYBDmkF8aTI0", "scope": "GOOGLE", "types": ["park", "premise", "point_of_interest", "establishment"], "vicinity": "Boston"}, "ChIJh-CN2yx644kRI8h5WPc98wQ": {"geometry": {"location": {"lat": 42.31519779999999, "lng": -71.0913748}, "viewport": {"northeast": {"lat": 42.335885, "lng": -71.06649519999999}, "southwest": {"lat": 42.29179790000001, "lng": -71.1067612}}}, "icon": "https://maps.gstatic.com/mapfiles/place_api/icons/geocode-71.png", "id": "33d978342c31fa28698809200432caaeeab1c79d", "name": "Roxbury", "photos": [{"height": 5312, "html_attributions": ["<a href=\"https://maps.google.com/maps/contrib/108141736953672835093/photos\">Warriorprincess4916</a>"], "photo_reference": "CmRaAAAAcO-0BIlMWMvZAZa1bp-qT2guXWahVRx3zoibpQBJvUDrDtv99XhMZIeJzkFFkT7O_mpRBlxpvrziOQMZix8zM3zaNtwFgiIEhQu3BGmf-s4AWqncKy40gnx9EH0REP__EhCAZrMAWzntLIW5jzcyzXQCGhTYGIMNre0IC0eZ9ZZ_unX365sRZA", "width": 2988}], "place_id": "ChIJh-CN2yx644kRI8h5WPc98wQ", "reference": "ChIJh-CN2yx644kRI8h5WPc98wQ", "scope": "GOOGLE", "types": ["neighborhood", "political"], "vicinity": "Dorchester Center"}}