{"ChIJGzE9DS1l44kRoOhiASS_fHg": {"geometry": {"location": {"lat": 42.3600825, "lng": -71.0588801}, "viewport": {"northeast": {"lat": 42.40081989999999, "lng": -70.749455}, "southwest": {"lat": 42.22788, "lng": -71.191113}}}, "icon": "https://maps.gstatic.com/mapfiles/place_api/icons/geocode-71.png", "id": "06755c25d2b34d13942a4713971756a55b870ced", "name": "Boston", "photos": [{"height": 3024, "html_attributions": ["<a href=\"https://maps.google.com/maps/contrib/104670289779338733432/photos\">Natalia Zalucean</a>"], "photo_reference": "CmRaAAAAtQZwitF8IkX3vbxE-KmIGhPwD4gWpN1BbNbvslfJ84lN7Nc1XpRwyhqfpERD9Muq4NflobyAAU6_Z3JG2IT2n17ppeYA_SRuviMxJ4n2-5vdDb4hCWFtwaAtImCkC1c6EhDPwRsQlRMAVAopiNCG_f4GGhRIqrvy8VIyQ76oCfREGEN3TW0giw", "width": 4032}], "place_id": "ChIJGzE9DS1l44kRoOhiASS_fHg", "reference": "ChIJGzE9DS1l44kRoOhiASS_fHg", "scope": "GOOGLE", "types": ["locality", "political"], "vicinity": "Boston"}, "ChIJlQNcQ7t-44kRHtF5ouocOHQ": {"geometry": {"location": {"lat": 42.27224289999999, "lng": -71.0764956}, "viewport": {"northeast": {"lat": 42.2735881802915, "lng": -71.07503151970849}, "southwest": {"lat": 42.27089021970851, "lng": -71.0777294802915}}}, "icon": "https://maps.gstatic.com/mapfiles/place_api/icons/generic_business-71.png", "id": "fb6a233609fcbfbc78d2502545394f41ce442437", "name": "United Air Conditioning & Heating", "place_id": "ChIJlQNcQ7t-44kRHtF5ouocOHQ", "plus_code": {"compound_code": "7WCF+VC Boston, Massachusetts, United States", "global_code": "87JC7WCF+VC"}, "reference": "ChIJlQNcQ7t-44kRHtF5ouocOHQ", "scope": "GOOGLE", "types": ["general_contractor", "point_of_interest", "establishment"], "vicinity": "20 Idaho Street, Mattapan"}, "ChIJT92olgx844kR2LINnEa9WDE": {"geometry": {"location": {"lat": 42.2735479, "lng": -71.0754278}, "viewport": {"northeast": {"lat": 42.2748189802915, "lng": -71.07405731970849}, "southwest": {"lat": 42.2721210197085, "lng": -71.0767552802915}}}, "icon": "https://maps.gstatic.com/mapfiles/place_api/icons/generic_business-71.png", "id": "72d86af9f0a3a7a75df9e41c1be83bbffc06c396", "name": "Terri R. Nelson, LICSW", "place_id": "ChIJT92olgx844kR2LINnEa9WDE", "plus_code": {"compound_code": "7WFF+CR Boston, Massachusetts, United States", "global_code": "87JC7WFF+CR"}, "rating": 4, "reference": "ChIJT92olgx844kR2LINnEa9WDE", "scope": "GOOGLE", "types": ["doctor", "health", "point_of_interest", "establishment"], "user_ratings_total": 4, "vicinity": "Mattapan"}, "ChIJifEhKw1844kR962DcK8Libk": {"geometry": {"location": {"lat": 42.271569, "lng": -71.073655}, "viewport": {"northeast": {"lat": 42.2728009302915, "lng": -71.0722120197085}, "southwest": {"lat": 42.2701029697085, "lng": -71.07490998029151}}}, "icon": "https://maps.gstatic.com/mapfiles/place_api/icons/restaurant-71.png", "id": "44be38e7f86315c9fdf367eef818242e411c06e5", "name": "River Street Grill", "opening_hours": {"open_now": true}, "photos": [{"height": 1365, "html_attributions": ["<a href=\"https://maps.google.com/maps/contrib/104111246635874032234/photos\">ZAGAT</a>"], "photo_reference": "CmRaAAAA-Owonn5NvvOoW_Hh8u54K2Rh-6UBcpEiriaFat2Wa8Jy3BZpOp4FqBYbPr0rntz8L6gJaKAO5M9I3X6Cc8fWI20b3sJdf2ZiMd1rI7ZbarrD9uVhAHmENZ9lFDX8sIWqEhBZENM7DolwPRmOLoXALYLFGhS_2VkOvXM6A51lQz450wnDXvt_qw", "width": 2048}], "place_id": "ChIJifEhKw1844kR962DcK8Libk", "plus_code": {"compound_code": "7WCG+JG Boston, Massachusetts, United States", "global_code": "87JC7WCG+JG"}, "price_level": 1, "rating": 4.1, "reference": "ChIJifEhKw1844kR962DcK8Libk", "scope": "GOOGLE", "types": ["restaurant", "point_of_interest", "food", "establishment"], "user_ratings_total": 163, "vicinity": "73 River Street, Mattapan"}, "ChIJZxgmLA1844kRiUU2znjIk-0": {"geometry": {"location": {"lat": 42.2713709, "lng": -71.0739988}, "viewport": {"northeast": {"lat": 42.2726754802915, "lng": -71.07264221970848}, "southwest": {"lat": 42.2699775197085, "lng": -71.0753401802915}}}, "icon": "https://maps.gstatic.com/mapfiles/place_api/icons/restaurant-71.png", "id": "450379e40d6525dac796952ab71d0e9d2af9f2cb", "name": "Chinatown Express", "opening_hours": {"open_now": true}, "photos": [{"height": 2210, "html_attributions": ["<a href=\"https://maps.google.com/maps/contrib/116992083054326192872/photos\">Chris Godfrey</a>"], "photo_reference": "CmRaAAAA0qKBMEH-9mLHorxnPYBzzsW0_sF6mW8oaYVFaMVjXPLBrYQgX0pqngUJZjV41hXbUN6SNLJfDRLYnCXP2kIyDaEBVHksVWn5Ue6f8N9m0owgV63oE1nYyQe3fny0hKHIEhCaeF4QGB4s8783zPzn1pDxGhSMpSFKbOwF6iNLfXifgTU822_pig", "width": 3928}], "place_id": "ChIJZxgmLA1844kRiUU2znjIk-0", "plus_code": {"compound_code": "7WCG+GC Boston, Massachusetts, United States", "global_code": "87JC7WCG+GC"}, "price_level": 2, "rating": 3.8, "reference": "ChIJZxgmLA1844kRiUU2znjIk-0", "scope": "GOOGLE", "types": ["meal_takeaway", "restaurant", "point_of_interest", "food", "establishment"], "user_ratings_total": 82, "vicinity": "79 River Street, Mattapan"}, "ChIJJQHMow1844kRga0h1k6U994": {"geometry": {"location": {"lat": 42.27128, "lng": -71.076959}, "viewport": {"northeast": {"lat": 42.2727454302915, "lng": -71.0756049197085}, "southwest": {"lat": 42.2700474697085, "lng": -71.0783028802915}}}, "icon": "https://maps.gstatic.com/mapfiles/place_api/icons/worship_general-71.png", "id": "3a6096b765b554743c12828b7ea893a0e32611a2", "name": "Dorchester Nazarene", "place_id": "ChIJJQHMow1844kRga0h1k6U994", "plus_code": {"compound_code": "7WCF+G6 Boston, Massachusetts, United States", "global_code": "87JC7WCF+G6"}, "rating": 5, "reference": "ChIJJQHMow1844kRga0h1k6U994", "scope": "GOOGLE", "types": ["church", "place_of_worship", "point_of_interest", "establishment"], "user_ratings_total": 4, "vicinity": "130 River Street, Mattapan"}, "ChIJ6yd95Ax844kRh_iN0vI2RP0": {"geometry": {"location": {"lat": 42.2724666, "lng": -71.0754809}, "viewport": {"northeast": {"lat": 42.2738342802915, "lng": -71.07403636970851}, "southwest": {"lat": 42.2711363197085, "lng": -71.07673433029152}}}, "icon": "https://maps.gstatic.com/mapfiles/place_api/icons/generic_business-71.png", "id": "c83484a848e46df3b27d964c2dc572a8a673a477", "name": "Jovan J Lacet Law Office", "place_id": "ChIJ6yd95Ax844kRh_iN0vI2RP0", "plus_code": {"compound_code": "7WCF+XR Boston, Massachusetts, United States", "global_code": "87JC7WCF+XR"}, "reference": "ChIJ6yd95Ax844kRh_iN0vI2RP0", "scope": "GOOGLE", "types": ["lawyer", "point_of_interest", "establishment"], "vicinity": "30 Cedar Street, Mattapan"}, "ChIJXTEBGg1844kRJtUlQhVtUdk": {"geometry": {"location": {"lat": 42.2715047, "lng": -71.07541429999999}, "viewport": {"northeast": {"lat": 42.2728346802915, "lng": -71.07407041970848}, "southwest": {"lat": 42.2701367197085, "lng": -71.0767683802915}}}, "icon": "https://maps.gstatic.com/mapfiles/place_api/icons/shopping-71.png", "id": "011aefce9c85b242c1d860930cba3b2ce2b335d5", "name": "Bill Plumber", "place_id": "ChIJXTEBGg1844kRJtUlQhVtUdk", "plus_code": {"compound_code": "7WCF+JR Boston, Massachusetts, United States", "global_code": "87JC7WCF+JR"}, "reference": "ChIJXTEBGg1844kRJtUlQhVtUdk", "scope": "GOOGLE", "types": ["plumber", "home_goods_store", "store", "point_of_interest", "establishment"], "vicinity": "105 River Street, Mattapan"}, "ChIJs3HZIg1844kRWioVbIVEiOo": {"geometry": {"location": {"lat": 42.271399, "lng": -71.07486899999999}, "viewport": {"northeast": {"lat": 42.2727547802915, "lng": -71.07351821970849}, "southwest": {"lat": 42.2700568197085, "lng": -71.07621618029151}}}, "icon": "https://maps.gstatic.com/mapfiles/place_api/icons/bus-71.png", "id": "e2646a307a0e591cedaaf2c85ec61dfcbcbbb2b0", "name": "River St @ Cedar St", "place_id": "ChIJs3HZIg1844kRWioVbIVEiOo", "plus_code": {"compound_code": "7WCG+H3 Boston, Massachusetts, United States", "global_code": "87JC7WCG+H3"}, "rating": 5, "reference": "ChIJs3HZIg1844kRWioVbIVEiOo", "scope": "GOOGLE", "types": ["bus_station", "transit_station", "point_of_interest", "establishment"], "user_ratings_total": 1, "vicinity": "United States"}, "ChIJMwLbPA1844kRQfNw1SshCb0": {"geometry": {"location": {"lat": 42.27129499999999, "lng": -71.074811}, "viewport": {"northeast": {"lat": 42.2726778302915, "lng": -71.0734529697085}, "southwest": {"lat": 42.2699798697085, "lng": -71.0761509302915}}}, "icon": "https://maps.gstatic.com/mapfiles/place_api/icons/bus-71.png", "id": "5aae9df80a4c15c9ac9b342540b6ab96ff228462", "name": "River St opp Cedar St", "place_id": "ChIJMwLbPA1844kRQfNw1SshCb0", "plus_code": {"compound_code": "7WCG+G3 Boston, Massachusetts, United States", "global_code": "87JC7WCG+G3"}, "reference": "ChIJMwLbPA1844kRQfNw1SshCb0", "scope": "GOOGLE", "types": ["bus_station", "transit_station", "point_of_interest", "establishment"], "vicinity": "United States"}, "ChIJ78V9EQ1844kR8dDqYeO_Bas": {"geometry": {"location": {"lat": 42.2711797, "lng": -71.075563}, "viewport": {"northeast": {"lat": 42.2725808802915, "lng": -71.0740478197085}, "southwest": {"lat": 42.2698829197085, "lng": -71.0767457802915}}}, "icon": "https://maps.gstatic.com/mapfiles/place_api/icons/school-71.png", "id": "d130412b8d36a034deebf1fe7b59ce5a341be9f4", "name": "Eddys Bball Practice in Match Mattapan", "place_id": "ChIJ78V9EQ1844kR8dDqYeO_Bas", "plus_code": {"compound_code": "7WCF+FQ Boston, Massachusetts, United States", "global_code": "87JC7WCF+FQ"}, "reference": "ChIJ78V9EQ1844kR8dDqYeO_Bas", "scope": "GOOGLE", "types": ["school", "point_of_interest", "establishment"], "vicinity": "110 River Street, Boston"}, "ChIJSfpczAx844kRMxlp6Git0K0": {"geometry": {"location": {"lat": 42.272566, "lng": -71.07377}, "viewport": {"northeast": {"lat": 42.2738646802915, "lng": -71.0724049697085}, "southwest": {"lat": 42.2711667197085, "lng": -71.07510293029151}}}, "icon": "https://maps.gstatic.com/mapfiles/place_api/icons/generic_business-71.png", "id": "a796b91d4fe59c9ba7a78b7d84fa971353375670", "name": "Benskin Electric", "place_id": "ChIJSfpczAx844kRMxlp6Git0K0", "plus_code": {"compound_code": "7WFG+2F Boston, Massachusetts, United States", "global_code": "87JC7WFG+2F"}, "rating": 5, "reference": "ChIJSfpczAx844kRMxlp6Git0K0", "scope": "GOOGLE", "types": ["electrician", "point_of_interest", "establishment"], "user_ratings_total": 1, "vicinity": "17 Monson Street, Mattapan"}, "ChIJgwWlqA1844kRIYUx5cpT_Os": {"geometry": {"location": {"lat": 42.271717, "lng": -71.07683500000002}, "viewport": {"northeast": {"lat": 42.2729626802915, "lng": -71.0754872197085}, "southwest": {"lat": 42.2702647197085, "lng": -71.07818518029151}}}, "icon": "https://maps.gstatic.com/mapfiles/place_api/icons/generic_business-71.png", "id": "adcb04c68d7369e82d8db0bc1597780a3a1262ff", "name": "Onochie Construction Co", "place_id": "ChIJgwWlqA1844kRIYUx5cpT_Os", "plus_code": {"compound_code": "7WCF+M7 Boston, Massachusetts, United States", "global_code": "87JC7WCF+M7"}, "reference": "ChIJgwWlqA1844kRIYUx5cpT_Os", "scope": "GOOGLE", "types": ["general_contractor", "point_of_interest", "establishment"], "vicinity": "135 River Street, Boston"}, "ChIJWafPImN944kRL6lO2Tip89o": {"geometry": {"location": {"lat": 42.2717261, "lng": -71.0768438}, "viewport": {"northeast": {"lat": 42.2729672802915, "lng": -71.07549606970849}, "southwest": {"lat": 42.2702693197085, "lng": -71.0781940302915}}}, "icon": "https://maps.gstatic.com/mapfiles/place_api/icons/generic_business-71.png", "id": "3bc25ffe48f763359e3b7995643465b47a6a3439", "name": "Onochie Construction Company", "opening_hours": {"open_now": false}, "photos": [{"height": 438, "html_attributions": ["<a href=\"https://maps.google.com/maps/contrib/110122225188717385905/photos\">Onochie Construction Company</a>"], "photo_reference": "CmRaAAAA7gd7ulsTu2uZEi-HE5K_zWbj5Yys5fNj8rNkHIu2DAWwR6gyjOA6r2LfTLV7UdLpBTrTxX8Fr2WqZhVwYmWBZv7aoo-sl9AHY_Hg7-SwLuFlb7GOPx0v9PPa_uIwbrVSEhCFEXWp71Kf986ZTdfh1CYHGhTUGZmOUfuJFSfCAelhaBhQ0DMl6Q", "width": 800}], "place_id": "ChIJWafPImN944kRL6lO2Tip89o", "plus_code": {"compound_code": "7WCF+M7 Boston, Massachusetts, United States", "global_code": "87JC7WCF+M7"}, "reference": "ChIJWafPImN944kRL6lO2Tip89o", "scope": "GOOGLE", "types": ["general_contractor", "home_goods_store", "store", "point_of_interest", "establishment"], "vicinity": "135 River Street #2, Mattapan"}, "ChIJ7fvEz3d944kRPHChr-3A23M": {"geometry": {"location": {"lat": 42.27361459999999, "lng": -71.07580999999999}, "viewport": {"northeast": {"lat": 42.2749748802915, "lng": -71.07440266970849}, "southwest": {"lat": 42.2722769197085, "lng": -71.0771006302915}}}, "icon": "https://maps.gstatic.com/mapfiles/place_api/icons/generic_business-71.png", "id": "27827b901cdcbe21110c9e689b3a5a87ef408c99", "name": "Cedar Street", "place_id": "ChIJ7fvEz3d944kRPHChr-3A23M", "plus_code": {"compound_code": "7WFF+CM Boston, Massachusetts, United States", "global_code": "87JC7WFF+CM"}, "reference": "ChIJ7fvEz3d944kRPHChr-3A23M", "scope": "GOOGLE", "types": ["point_of_interest", "establishment"], "vicinity": "56 Cedar Street, Boston"}, "ChIJJQHMow1844kRjcVyClzJAc0": {"geometry": {"location": {"lat": 42.27128, "lng": -71.076959}, "viewport": {"northeast": {"lat": 42.2727454302915, "lng": -71.0756049197085}, "southwest": {"lat": 42.2700474697085, "lng": -71.0783028802915}}}, "icon": "https://maps.gstatic.com/mapfiles/place_api/icons/school-71.png", "id": "7bae902b29a6e49155c47787af5bac7996676515", "name": "Laronde De Marie-Claire Early", "place_id": "ChIJJQHMow1844kRjcVyClzJAc0", "plus_code": {"compound_code": "7WCF+G6 Boston, Massachusetts, United States", "global_code": "87JC7WCF+G6"}, "rating": 1, "reference": "ChIJJQHMow1844kRjcVyClzJAc0", "scope": "GOOGLE", "types": ["point_of_interest", "establishment"], "user_ratings_total": 1, "vicinity": "130 River Street, Mattapan"}, "ChIJ176b1XJ844kR_p-4SKaeI3c": {"geometry": {"location": {"lat": 42.271669, "lng": -71.0735009}, "viewport": {"northeast": {"lat": 42.2729328802915, "lng": -71.07209541970849}, "southwest": {"lat": 42.2702349197085, "lng": -71.0747933802915}}}, "icon": "https://maps.gstatic.com/mapfiles/place_api/icons/shopping-71.png", "id": "72acd5d0cbc27a6114a44bc5645d39956d2e2006", "name": "Budget Liquors", "opening_hours": {"open_now": true}, "place_id": "ChIJ176b1XJ844kR_p-4SKaeI3c", "plus_code": {"compound_code": "7WCG+MH Boston, Massachusetts, United States", "global_code": "87JC7WCG+MH"}, "rating": 3.8, "reference": "ChIJ176b1XJ844kR_p-4SKaeI3c", "scope": "GOOGLE", "types": ["liquor_store", "store", "point_of_interest", "establishment"], "user_ratings_total": 12, "vicinity": "69 River Street, Mattapan"}, "ChIJJQHMow1844kRQ3kRoQYKfkw": {"geometry": {"location": {"lat": 42.27128, "lng": -71.076959}, "viewport": {"northeast": {"lat": 42.2727454302915, "lng": -71.0756049197085}, "southwest": {"lat": 42.2700474697085, "lng": -71.0783028802915}}}, "icon": "https://maps.gstatic.com/mapfiles/place_api/icons/worship_general-71.png", "id": "7778c1a4a2323b908871b4bfb46ed3b7054abd17", "name": "Nazarene Humble Friends", "place_id": "ChIJJQHMow1844kRQ3kRoQYKfkw", "plus_code": {"compound_code": "7WCF+G6 Boston, Massachusetts, United States", "global_code": "87JC7WCF+G6"}, "rating": 5, "reference": "ChIJJQHMow1844kRQ3kRoQYKfkw", "scope": "GOOGLE", "types": ["church", "place_of_worship", "point_of_interest", "establishment"], "user_ratings_total": 2, "vicinity": "130 River Street, Mattapan"}, "ChIJJQHMow1844kR_SWa6t6n2Nc": {"geometry": {"location": {"lat": 42.27128, "lng": -71.076959}, "viewport": {"northeast": {"lat": 42.2727454302915, "lng": -71.0756049197085}, "southwest": {"lat": 42.2700474697085, "lng": -71.0783028802915}}}, "icon": "https://maps.gstatic.com/mapfiles/place_api/icons/school-71.png", "id": "04e7ea4999b5a62b97607763d2f4f4164f1c72e4", "name": "dare to create new calm confidence", "place_id": "ChIJJQHMow1844kR_SWa6t6n2Nc", "plus_code": {"compound_code": "7WCF+G6 Boston, Massachusetts, United States", "global_code": "87JC7WCF+G6"}, "reference": "ChIJJQHMow1844kR_SWa6t6n2Nc", "scope": "GOOGLE", "types": ["point_of_interest", "establishment"], "vicinity": "130 River Street, Mattapan"}, "ChIJ1aKJnQd844kRhKw4NxUCnrc": {"geometry": {"location": {"lat": 42.2771417, "lng": -71.0913748}, "viewport": {"northeast": {"lat": 42.298298, "lng": -71.0675939}, "southwest": {"lat": 42.2628979, "lng": -71.1091958}}}, "icon": "https://maps.gstatic.com/mapfiles/place_api/icons/geocode-71.png", "id": "7c0a81020a91ce611773eac0f6b1e8dc62406dab", "name": "Mattapan", "photos": [{"height": 1932, "html_attributions": ["<a href=\"https://maps.google.com/maps/contrib/105123441827892866459/photos\">Alonzo Mcneal</a>"], "photo_reference": "CmRaAAAAIqKRgqRjtl7FJ8s66M7TaYlcuYZFRqSdKhkeBCWcbxuXYK8IAUWW9qh8qhFSAOi1-qqtAoR6lVqQo8jFMJHMgzLUaZomAw0Ez-_TQkcPFbWR4ntlmzkoMMtK43RrIAdyEhCVxiIyz7VgKFTKrGcXM8E7GhQjhJMvt9bZD6DlVlkleijSN14mug", "width": 2576}], "place_id": "ChIJ1aKJnQd844kRhKw4NxUCnrc", "reference": "ChIJ1aKJnQd844kRhKw4NxUCnrc", "scope": "GOOGLE", "types": ["neighborhood", "political"], "vicinity": "Dorchester Center"}}