{"ChIJGzE9DS1l44kRoOhiASS_fHg": {"geometry": {"location": {"lat": 42.3600825, "lng": -71.0588801}, "viewport": {"northeast": {"lat": 42.40081989999999, "lng": -70.749455}, "southwest": {"lat": 42.22788, "lng": -71.191113}}}, "icon": "https://maps.gstatic.com/mapfiles/place_api/icons/geocode-71.png", "id": "06755c25d2b34d13942a4713971756a55b870ced", "name": "Boston", "photos": [{"height": 3024, "html_attributions": ["<a href=\"https://maps.google.com/maps/contrib/104670289779338733432/photos\">Natalia Zalucean</a>"], "photo_reference": "CmRaAAAAnxgMIfm7fn4CAB22pbjHG90zizK3iS9-dxBm87Iao6i5m7qpfhucKE6wa1Xoixa0w_sT_hGl4oCGl7ArIXkTZU3EVlZP_BcpQOUpFEnQmXSkQF2lPS2T9U5mG2ATag-aEhBESbpPCSZ3wVZASoypk4r3GhTNi8pI8qgnaPqMkMdSjs94x-9xHQ", "width": 4032}], "place_id": "ChIJGzE9DS1l44kRoOhiASS_fHg", "reference": "ChIJGzE9DS1l44kRoOhiASS_fHg", "scope": "GOOGLE", "types": ["locality", "political"], "vicinity": "Boston"}, "ChIJ6XlKgMB-44kRhcPD_5rv4pM": {"geometry": {"location": {"lat": 42.2705148, "lng": -71.12123509999999}, "viewport": {"northeast": {"lat": 42.27191438029151, "lng": -71.1198246197085}, "southwest": {"lat": 42.26921641970851, "lng": -71.1225225802915}}}, "icon": "https://maps.gstatic.com/mapfiles/place_api/icons/generic_business-71.png", "id": "db28551e9dd48c635f73644fbb94ad1762870ba7", "name": "J & D Cycles", "opening_hours": {"open_now": true}, "place_id": "ChIJ6XlKgMB-44kRhcPD_5rv4pM", "plus_code": {"compound_code": "7VCH+6G Boston, Massachusetts, United States", "global_code": "87JC7VCH+6G"}, "rating": 3.8, "reference": "ChIJ6XlKgMB-44kRhcPD_5rv4pM", "scope": "GOOGLE", "types": ["car_repair", "point_of_interest", "establishment"], "user_ratings_total": 4, "vicinity": "445 Metropolitan Avenue, Hyde Park"}, "ChIJ_4VOEMB-44kRV6YyAL5ma18": {"geometry": {"location": {"lat": 42.26909939999999, "lng": -71.121796}, "viewport": {"northeast": {"lat": 42.27041098029149, "lng": -71.1204583197085}, "southwest": {"lat": 42.26771301970849, "lng": -71.12315628029151}}}, "icon": "https://maps.gstatic.com/mapfiles/place_api/icons/generic_business-71.png", "id": "df57dbb245bb88a8e483d269530f64b1df88e17c", "name": "Clean Way Waste Services, Inc.", "photos": [{"height": 336, "html_attributions": ["<a href=\"https://maps.google.com/maps/contrib/107033880288068992784/photos\">Clean Way Waste Services, Inc.</a>"], "photo_reference": "CmRaAAAAqtWrduY9sNfZlfipw2T3kkdNS8zEvY85NquaK3jG-qW-ocMAHM3hAg0hcEcvNsQ9BgidqrQE38byBMM336J3c9acZ1ep4S6fvDo9ggMnvoMwoqYKsqKNkHfGz9P5iATEEhALXShLj_-wAGR7W3egMY4HGhR0g1OEnKZ3mRQBqDZAvsFK62ZJTQ", "width": 448}], "place_id": "ChIJ_4VOEMB-44kRV6YyAL5ma18", "plus_code": {"compound_code": "7V9H+J7 Boston, Massachusetts, United States", "global_code": "87JC7V9H+J7"}, "reference": "ChIJ_4VOEMB-44kRV6YyAL5ma18", "scope": "GOOGLE", "types": ["general_contractor", "point_of_interest", "establishment"], "vicinity": "198 Providence Street, Hyde Park"}, "ChIJMxMT9b9-44kRh3gMz0BhBv8": {"geometry": {"location": {"lat": 42.268991, "lng": -71.121196}, "viewport": {"northeast": {"lat": 42.2703356802915, "lng": -71.1196816697085}, "southwest": {"lat": 42.2676377197085, "lng": -71.1223796302915}}}, "icon": "https://maps.gstatic.com/mapfiles/place_api/icons/generic_business-71.png", "id": "b2d16949cb39d1d57fbe822dfd673f6ff509c717", "name": "Rocket Cleansers & Launderers", "opening_hours": {"open_now": true}, "place_id": "ChIJMxMT9b9-44kRh3gMz0BhBv8", "plus_code": {"compound_code": "7V9H+HG Boston, Massachusetts, United States", "global_code": "87JC7V9H+HG"}, "rating": 4.8, "reference": "ChIJMxMT9b9-44kRh3gMz0BhBv8", "scope": "GOOGLE", "types": ["laundry", "point_of_interest", "establishment"], "user_ratings_total": 8, "vicinity": "899 Hyde Park Avenue, Hyde Park"}, "ChIJER9VGsB-44kROYJ8ZE8eZOI": {"geometry": {"location": {"lat": 42.26853570000001, "lng": -71.12202309999999}, "viewport": {"northeast": {"lat": 42.2698865302915, "lng": -71.1206903197085}, "southwest": {"lat": 42.2671885697085, "lng": -71.12338828029151}}}, "icon": "https://maps.gstatic.com/mapfiles/place_api/icons/generic_business-71.png", "id": "53fb85063b907cc1ad62f9b4e661dc6ffe23bbbe", "name": "Boston Pain Clinic", "photos": [{"height": 698, "html_attributions": ["<a href=\"https://maps.google.com/maps/contrib/109775144252530732905/photos\">Boston Pain Clinic</a>"], "photo_reference": "CmRaAAAACUl7M4Q_wA7hezwILW9E4b3Yw3SdPV0giXHNXjO7CTJnjqMMY55obGZNI_EOAREzyqnjmUBiLMnCIHQkM20OptcQKTHqkV3DtIUzA0-YdRQa-iQaoWDwe4bqFwb5MbgaEhC-DdBETmJwGBxvw1ZECBSZGhSE2SGAzfrfSWmARzSPrBO71EVeGA", "width": 2048}], "place_id": "ChIJER9VGsB-44kROYJ8ZE8eZOI", "plus_code": {"compound_code": "7V9H+C5 Boston, Massachusetts, United States", "global_code": "87JC7V9H+C5"}, "rating": 4, "reference": "ChIJER9VGsB-44kROYJ8ZE8eZOI", "scope": "GOOGLE", "types": ["doctor", "health", "point_of_interest", "establishment"], "user_ratings_total": 4, "vicinity": "188 Providence Street, Hyde Park"}, "ChIJ16fsdcB-44kRiJkjS76Rl78": {"geometry": {"location": {"lat": 42.2695278, "lng": -71.1214985}, "viewport": {"northeast": {"lat": 42.27079458029149, "lng": -71.1201247697085}, "southwest": {"lat": 42.2680966197085, "lng": -71.1228227302915}}}, "icon": "https://maps.gstatic.com/mapfiles/place_api/icons/generic_business-71.png", "id": "11ed28eb10dcc61fbf89817610b6cab5575250ea", "name": "Boston Allied Health Training", "opening_hours": {"open_now": true}, "place_id": "ChIJ16fsdcB-44kRiJkjS76Rl78", "plus_code": {"compound_code": "7V9H+RC Boston, Massachusetts, United States", "global_code": "87JC7V9H+RC"}, "rating": 3.3, "reference": "ChIJ16fsdcB-44kRiJkjS76Rl78", "scope": "GOOGLE", "types": ["health", "point_of_interest", "establishment"], "user_ratings_total": 3, "vicinity": "891 Hyde Park Avenue #2, Hyde Park"}, "ChIJacMwc8B-44kRl52KNtO-bCk": {"geometry": {"location": {"lat": 42.26922899999999, "lng": -71.121577}, "viewport": {"northeast": {"lat": 42.27062318029149, "lng": -71.1202280197085}, "southwest": {"lat": 42.2679252197085, "lng": -71.12292598029151}}}, "icon": "https://maps.gstatic.com/mapfiles/place_api/icons/generic_business-71.png", "id": "10ef0de38c4ea7bbdf37169bba78549db6f78668", "name": "Fine Line Auto Body", "opening_hours": {"open_now": true}, "place_id": "ChIJacMwc8B-44kRl52KNtO-bCk", "plus_code": {"compound_code": "7V9H+M9 Boston, Massachusetts, United States", "global_code": "87JC7V9H+M9"}, "rating": 3, "reference": "ChIJacMwc8B-44kRl52KNtO-bCk", "scope": "GOOGLE", "types": ["car_repair", "car_dealer", "store", "point_of_interest", "establishment"], "user_ratings_total": 2, "vicinity": "200 Providence Street, Hyde Park"}, "ChIJdUFPh79-44kRxaf8UWrk0UA": {"geometry": {"location": {"lat": 42.26999000000001, "lng": -71.1210493}, "viewport": {"northeast": {"lat": 42.2713332302915, "lng": -71.1196529197085}, "southwest": {"lat": 42.2686352697085, "lng": -71.1223508802915}}}, "icon": "https://maps.gstatic.com/mapfiles/place_api/icons/generic_business-71.png", "id": "421315981bbf1b85aadce689c8846ac73c3a58c5", "name": "Kery auto service", "opening_hours": {"open_now": true}, "photos": [{"height": 569, "html_attributions": ["<a href=\"https://maps.google.com/maps/contrib/109238860153362343328/photos\">Kery auto service</a>"], "photo_reference": "CmRaAAAA5YAwqaNNJRa5oy73f5MDdXdxXQA_4GqfxDZLf_PwB1e02CJkRoiYQVAU0oCt6chQwleL66ULxbHn7muqjdY5eWaYlV3QbXhEYU466213jbljxcVaNomQT3GhgUMMRYO9EhD8R9miG1m18Ehi3XEPTGjNGhTskrxDqOP3DgJsOGJqVMFe6f7t8A", "width": 844}], "place_id": "ChIJdUFPh79-44kRxaf8UWrk0UA", "plus_code": {"compound_code": "7V9H+XH Boston, Massachusetts, United States", "global_code": "87JC7V9H+XH"}, "rating": 3.9, "reference": "ChIJdUFPh79-44kRxaf8UWrk0UA", "scope": "GOOGLE", "types": ["car_repair", "point_of_interest", "establishment"], "user_ratings_total": 25, "vicinity": "875 Hyde Park Avenue, Hyde Park"}, "ChIJ16fsdcB-44kRzNeufn9sSN8": {"geometry": {"location": {"lat": 42.26959490000001, "lng": -71.1215028}, "viewport": {"northeast": {"lat": 42.27095358029151, "lng": -71.1202734197085}, "southwest": {"lat": 42.26825561970851, "lng": -71.1229713802915}}}, "icon": "https://maps.gstatic.com/mapfiles/place_api/icons/generic_business-71.png", "id": "4ce084fb7ccfa458070c9565580037fcb6d01f04", "name": "Fair Wealth Management", "place_id": "ChIJ16fsdcB-44kRzNeufn9sSN8", "plus_code": {"compound_code": "7V9H+R9 Boston, Massachusetts, United States", "global_code": "87JC7V9H+R9"}, "reference": "ChIJ16fsdcB-44kRzNeufn9sSN8", "scope": "GOOGLE", "types": ["finance", "point_of_interest", "establishment"], "vicinity": "891 Hyde Park Avenue, Hyde Park"}, "ChIJVVWleMB-44kRHgorWW5O2vU": {"geometry": {"location": {"lat": 42.2699779, "lng": -71.1211314}, "viewport": {"northeast": {"lat": 42.2713171302915, "lng": -71.11969621970849}, "southwest": {"lat": 42.2686191697085, "lng": -71.12239418029151}}}, "icon": "https://maps.gstatic.com/mapfiles/place_api/icons/shopping-71.png", "id": "3617e44daff8ec95f90857b5a6d04bcc68bdda4c", "name": "boston auto leasing | faq", "place_id": "ChIJVVWleMB-44kRHgorWW5O2vU", "plus_code": {"compound_code": "7V9H+XG Boston, Massachusetts, United States", "global_code": "87JC7V9H+XG"}, "reference": "ChIJVVWleMB-44kRHgorWW5O2vU", "scope": "GOOGLE", "types": ["store", "point_of_interest", "establishment"], "vicinity": "875 Hyde Park Avenue, Boston"}, "ChIJVVVVVfF-44kRZlZaHBpoPBU": {"geometry": {"location": {"lat": 42.2684495, "lng": -71.1219509}, "viewport": {"northeast": {"lat": 42.2698007302915, "lng": -71.1206219697085}, "southwest": {"lat": 42.2671027697085, "lng": -71.1233199302915}}}, "icon": "https://maps.gstatic.com/mapfiles/place_api/icons/generic_business-71.png", "id": "a72e93b25631e0990f6c5b58f31add5958e34a42", "name": "Dr. Roberto F. Feliz, MD", "opening_hours": {"open_now": false}, "place_id": "ChIJVVVVVfF-44kRZlZaHBpoPBU", "plus_code": {"compound_code": "7V9H+96 Boston, Massachusetts, United States", "global_code": "87JC7V9H+96"}, "rating": 4.7, "reference": "ChIJVVVVVfF-44kRZlZaHBpoPBU", "scope": "GOOGLE", "types": ["doctor", "health", "point_of_interest", "establishment"], "user_ratings_total": 11, "vicinity": "188 Providence Street, Hyde Park"}, "ChIJMyvUAMB-44kR4uyyIgKjC4U": {"geometry": {"location": {"lat": 42.2682258, "lng": -71.12149529999999}, "viewport": {"northeast": {"lat": 42.2695310302915, "lng": -71.1201553197085}, "southwest": {"lat": 42.2668330697085, "lng": -71.12285328029151}}}, "icon": "https://maps.gstatic.com/mapfiles/place_api/icons/generic_business-71.png", "id": "352bf5b9cad2e9df3dd69d32451418280d2698e0", "name": "Hyde Park Pain Management", "photos": [{"height": 562, "html_attributions": ["<a href=\"https://maps.google.com/maps/contrib/108267175459492569223/photos\">Hyde Park Pain Management</a>"], "photo_reference": "CmRaAAAAqZ3tzNIYfvOiADHS-ytH9T_PpXlcVae8BR_NRM66_lhRxQkjl0c2jOdjOs-afHx81A3-IqHIYLIYuSvro3YCFjziDnSgEhuKxLSzm40NwhUuuVyeDI8ihNHCoCiGYGkUEhAvX7PKBMY1lbbZZofWCcx_GhQRux4Xoa5LDD0Ux6Euqy6oSQm0MQ", "width": 881}], "place_id": "ChIJMyvUAMB-44kR4uyyIgKjC4U", "plus_code": {"compound_code": "7V9H+7C Boston, Massachusetts, United States", "global_code": "87JC7V9H+7C"}, "rating": 4.6, "reference": "ChIJMyvUAMB-44kR4uyyIgKjC4U", "scope": "GOOGLE", "types": ["doctor", "health", "point_of_interest", "establishment"], "user_ratings_total": 10, "vicinity": "923 Hyde Park Avenue, Hyde Park"}, "ChIJMyvUAMB-44kR6D_QQABeKYM": {"geometry": {"location": {"lat": 42.2682438, "lng": -71.1217581}, "viewport": {"northeast": {"lat": 42.2695547302915, "lng": -71.1204169697085}, "southwest": {"lat": 42.2668567697085, "lng": -71.12311493029151}}}, "icon": "https://maps.gstatic.com/mapfiles/place_api/icons/generic_business-71.png", "id": "0ab78a94f8bfb586988787b5786cf7d44d5e007d", "name": "The Feliz Center for Complex Regional Pain Syndrome CRPS/ RSD", "place_id": "ChIJMyvUAMB-44kR6D_QQABeKYM", "plus_code": {"compound_code": "7V9H+77 Boston, Massachusetts, United States", "global_code": "87JC7V9H+77"}, "rating": 1, "reference": "ChIJMyvUAMB-44kR6D_QQABeKYM", "scope": "GOOGLE", "types": ["health", "point_of_interest", "establishment"], "user_ratings_total": 1, "vicinity": "923 Hyde Park Avenue, Hyde Park"}, "ChIJ__87CMB-44kR-oEVlOQSurE": {"geometry": {"location": {"lat": 42.2686246, "lng": -71.1211546}, "viewport": {"northeast": {"lat": 42.2699700302915, "lng": -71.1196696197085}, "southwest": {"lat": 42.2672720697085, "lng": -71.12236758029151}}}, "icon": "https://maps.gstatic.com/mapfiles/place_api/icons/generic_business-71.png", "id": "a7b424cbcd1a562501eaa8ea21795664abf52abd", "name": "Ultimate Vision Realty LLC", "place_id": "ChIJ__87CMB-44kR-oEVlOQSurE", "plus_code": {"compound_code": "7V9H+CG Boston, Massachusetts, United States", "global_code": "87JC7V9H+CG"}, "reference": "ChIJ__87CMB-44kR-oEVlOQSurE", "scope": "GOOGLE", "types": ["real_estate_agency", "point_of_interest", "establishment"], "vicinity": "911 Hyde Park Avenue, Boston"}, "ChIJ16fsdcB-44kRY9a2JaE2IhU": {"geometry": {"location": {"lat": 42.26959490000001, "lng": -71.1215028}, "viewport": {"northeast": {"lat": 42.27095358029151, "lng": -71.1202734197085}, "southwest": {"lat": 42.26825561970851, "lng": -71.1229713802915}}}, "icon": "https://maps.gstatic.com/mapfiles/place_api/icons/generic_business-71.png", "id": "ca3050b54d7cb5ad2e2d062926f3e7234e397729", "name": "Law Office of Portia C. Charles", "place_id": "ChIJ16fsdcB-44kRY9a2JaE2IhU", "plus_code": {"compound_code": "7V9H+R9 Boston, Massachusetts, United States", "global_code": "87JC7V9H+R9"}, "reference": "ChIJ16fsdcB-44kRY9a2JaE2IhU", "scope": "GOOGLE", "types": ["point_of_interest", "establishment"], "vicinity": "891 Hyde Park Avenue, Hyde Park"}, "ChIJ16fsdcB-44kR_Ask01RaEeg": {"geometry": {"location": {"lat": 42.2695278, "lng": -71.1214985}, "viewport": {"northeast": {"lat": 42.27079458029149, "lng": -71.1201247697085}, "southwest": {"lat": 42.2680966197085, "lng": -71.1228227302915}}}, "icon": "https://maps.gstatic.com/mapfiles/place_api/icons/worship_general-71.png", "id": "8b60e85a9bf58f8df06b2cac64bbfd36fd9d0699", "name": "True Vine Evangel Ministries", "place_id": "ChIJ16fsdcB-44kR_Ask01RaEeg", "plus_code": {"compound_code": "7V9H+RC Boston, Massachusetts, United States", "global_code": "87JC7V9H+RC"}, "reference": "ChIJ16fsdcB-44kR_Ask01RaEeg", "scope": "GOOGLE", "types": ["church", "place_of_worship", "point_of_interest", "establishment"], "vicinity": "891 Hyde Park Avenue, Hyde Park"}, "ChIJtYwObIB544kR1sk_fFMJHRY": {"geometry": {"location": {"lat": 42.2695278, "lng": -71.1214985}, "viewport": {"northeast": {"lat": 42.27079458029149, "lng": -71.1201247697085}, "southwest": {"lat": 42.2680966197085, "lng": -71.1228227302915}}}, "icon": "https://maps.gstatic.com/mapfiles/place_api/icons/generic_business-71.png", "id": "2a0fd743240e198a0605188abc75474c4dc64914", "name": "Secure Home Health Care Inc.", "opening_hours": {"open_now": false}, "photos": [{"height": 506, "html_attributions": ["<a href=\"https://maps.google.com/maps/contrib/111892791330856584452/photos\">Secure Home Health Care Inc.</a>"], "photo_reference": "CmRZAAAAbXvexXBq7hKur2jo-OZCnCEKEq6wjK3O3rI81u0N74WBWMjjd65jA9jAGFwDz9f8dEBbMFZHjei8vHYuT7Nwc3-AVzyeXK0vYZzATp3TWe_kxA4zF_xDP1dBFjH8mGWmEhB-OxSdhBnwz4_3IFsQdWtBGhQbZi04E6yL73pKsYvCfqzgPDNb9w", "width": 506}], "place_id": "ChIJtYwObIB544kR1sk_fFMJHRY", "plus_code": {"compound_code": "7V9H+RC Boston, Massachusetts, United States", "global_code": "87JC7V9H+RC"}, "rating": 4.5, "reference": "ChIJtYwObIB544kR1sk_fFMJHRY", "scope": "GOOGLE", "types": ["health", "point_of_interest", "establishment"], "user_ratings_total": 2, "vicinity": "891 Hyde Park Avenue, Hyde Park"}, "ChIJ16fsdcB-44kRBd5pi81x7Nk": {"geometry": {"location": {"lat": 42.2695278, "lng": -71.1214985}, "viewport": {"northeast": {"lat": 42.27079458029149, "lng": -71.1201247697085}, "southwest": {"lat": 42.2680966197085, "lng": -71.1228227302915}}}, "icon": "https://maps.gstatic.com/mapfiles/place_api/icons/shopping-71.png", "id": "1dcfa94ca72cd589dd8690ee20ca340095928655", "name": "Romance Records", "place_id": "ChIJ16fsdcB-44kRBd5pi81x7Nk", "plus_code": {"compound_code": "7V9H+RC Boston, Massachusetts, United States", "global_code": "87JC7V9H+RC"}, "reference": "ChIJ16fsdcB-44kRBd5pi81x7Nk", "scope": "GOOGLE", "types": ["electronics_store", "home_goods_store", "store", "point_of_interest", "establishment"], "vicinity": "891 Hyde Park Avenue, Hyde Park"}, "ChIJ16fsdcB-44kRgKVvtMukOxs": {"geometry": {"location": {"lat": 42.2695278, "lng": -71.1214984}, "viewport": {"northeast": {"lat": 42.27079458029149, "lng": -71.1201247197085}, "southwest": {"lat": 42.2680966197085, "lng": -71.1228226802915}}}, "icon": "https://maps.gstatic.com/mapfiles/place_api/icons/school-71.png", "id": "3db10b7cfe6df5dd812e7233550e6720304dad9e", "name": "C&S HEALTHCARE TRAINING & STAFFING LLC", "opening_hours": {"open_now": true}, "place_id": "ChIJ16fsdcB-44kRgKVvtMukOxs", "plus_code": {"compound_code": "7V9H+RC Boston, Massachusetts, United States", "global_code": "87JC7V9H+RC"}, "rating": 4.8, "reference": "ChIJ16fsdcB-44kRgKVvtMukOxs", "scope": "GOOGLE", "types": ["school", "point_of_interest", "establishment"], "user_ratings_total": 5, "vicinity": "891 Hyde Park Avenue, Hyde Park"}, "ChIJKaX9WPN-44kRuBkSMPi0ovg": {"geometry": {"location": {"lat": 42.2565289, "lng": -71.1240559}, "viewport": {"northeast": {"lat": 42.280099, "lng": -71.09799509999999}, "southwest": {"lat": 42.227798, "lng": -71.1460957}}}, "icon": "https://maps.gstatic.com/mapfiles/place_api/icons/geocode-71.png", "id": "c0e96efb3074e45bd87b53a676a6308f74ca332d", "name": "Hyde Park", "photos": [{"height": 2448, "html_attributions": ["<a href=\"https://maps.google.com/maps/contrib/109826948244288350691/photos\">Bayoan Martinez-Yung</a>"], "photo_reference": "CmRaAAAAkqfCY1sAVm1YO7YzkT6Gv_EOSLVYiP6gOGwJO4AB24s_4mO9EyeTOhiukR0u-pq8gwDxzk5lKLl8R4NsTtqMAoxn_bGAomXT60A0Oal9zhpsubxU9eLz8Q4HTCqg_tfqEhDtaIVnIKv2qJ0fbtAu8AwPGhRgOmQFCBg_MYAY7E3Sld1h2IbK3g", "width": 3264}], "place_id": "ChIJKaX9WPN-44kRuBkSMPi0ovg", "reference": "ChIJKaX9WPN-44kRuBkSMPi0ovg", "scope": "GOOGLE", "types": ["neighborhood", "political"], "vicinity": "Boston"}, "ChIJ16fsdcB-44kRhuCwSf0j9Pk": {"geometry": {"location": {"lat": 42.2695278, "lng": -71.1214984}, "viewport": {"northeast": {"lat": 42.27079458029149, "lng": -71.1201247197085}, "southwest": {"lat": 42.2680966197085, "lng": -71.1228226802915}}}, "icon": "https://maps.gstatic.com/mapfiles/place_api/icons/generic_business-71.png", "id": "a88b4778140b6e4b20b36afb3a1875f1239f8fd8", "name": "Bonita Beauty Salon", "opening_hours": {"open_now": false}, "place_id": "ChIJ16fsdcB-44kRhuCwSf0j9Pk", "plus_code": {"compound_code": "7V9H+RC Boston, Massachusetts, United States", "global_code": "87JC7V9H+RC"}, "rating": 4.5, "reference": "ChIJ16fsdcB-44kRhuCwSf0j9Pk", "scope": "GOOGLE", "types": ["hair_care", "point_of_interest", "establishment"], "user_ratings_total": 8, "vicinity": "604 Hyde Park Avenue, Roslindale"}, "ChIJ16fsdcB-44kRVFgUEDTwkW4": {"geometry": {"location": {"lat": 42.2695278, "lng": -71.1214984}, "viewport": {"northeast": {"lat": 42.27079458029149, "lng": -71.1201247197085}, "southwest": {"lat": 42.2680966197085, "lng": -71.1228226802915}}}, "icon": "https://maps.gstatic.com/mapfiles/place_api/icons/generic_business-71.png", "id": "5637791c7ad86f0d6a8e5f964769aed87e56d58d", "name": "Boston's Hair Flow", "opening_hours": {"open_now": true}, "photos": [{"height": 375, "html_attributions": ["<a href=\"https://maps.google.com/maps/contrib/112220705545954775728/photos\">Boston&#39;s Hair Flow</a>"], "photo_reference": "CmRaAAAA8RXc11D_a_eUPyBYn-3lfR5g_BNSXC-hcA0HwVKYbZRxcqvtbq22OGf8uuyUxy80wmjIcb6zt3ANBAy28srCZZ--4JilR7Wgkq1tNscfSVrSwOBFq2rH5V0628YQcvGAEhAJ0DZAwpXlI-2P4oklHlw2GhSILDWO_oKXJijf3xHPB1aExYfz5A", "width": 666}], "place_id": "ChIJ16fsdcB-44kRVFgUEDTwkW4", "plus_code": {"compound_code": "7V9H+RC Boston, Massachusetts, United States", "global_code": "87JC7V9H+RC"}, "rating": 4.8, "reference": "ChIJ16fsdcB-44kRVFgUEDTwkW4", "scope": "GOOGLE", "types": ["hair_care", "health", "point_of_interest", "establishment"], "user_ratings_total": 9, "vicinity": "891 Hyde Park Avenue, Hyde Park"}, "ChIJAZHBQG5544kR4szPKw-yGQ0": {"geometry": {"location": {"lat": 42.269528, "lng": -71.121498}, "viewport": {"northeast": {"lat": 42.2707946802915, "lng": -71.1201245197085}, "southwest": {"lat": 42.2680967197085, "lng": -71.1228224802915}}}, "icon": "https://maps.gstatic.com/mapfiles/place_api/icons/generic_business-71.png", "id": "5112e5d40e5731b3ca96188d138391c9a0eea8a8", "name": "ABATEC LLC", "opening_hours": {"open_now": false}, "photos": [{"height": 2048, "html_attributions": ["<a href=\"https://maps.google.com/maps/contrib/108903978924771027296/photos\">ABATEC LLC</a>"], "photo_reference": "CmRaAAAABBmFonTKe-27IKjJRUUJwxVSz7T_qXLC7y4DGaa4pZwMA98GHJzDkOxYwjhEigcBI4Tcx89L8DDIzU0NvvaOTMpp3nntIf1tpQ7S4HUKAtpRDr0RKP0pX28hsWZOxlsrEhDUu3duIJ9TvQc3nu1yAY-2GhRGYbcO_q86wAQsChib7gUUSvq7gw", "width": 1536}], "place_id": "ChIJAZHBQG5544kR4szPKw-yGQ0", "plus_code": {"compound_code": "7V9H+RC Boston, Massachusetts, United States", "global_code": "87JC7V9H+RC"}, "reference": "ChIJAZHBQG5544kR4szPKw-yGQ0", "scope": "GOOGLE", "types": ["point_of_interest", "establishment"], "vicinity": "891 Hyde Park Avenue, Hyde Park"}, "ChIJt07nd8B-44kRwlezaUgfz7U": {"geometry": {"location": {"lat": 42.2696382, "lng": -71.1209658}, "viewport": {"northeast": {"lat": 42.2709787802915, "lng": -71.11953656970849}, "southwest": {"lat": 42.2682808197085, "lng": -71.1222345302915}}}, "icon": "https://maps.gstatic.com/mapfiles/place_api/icons/school-71.png", "id": "13e45b7df8e70e4972337a5f0eb94c0b5fa7142c", "name": "La Ronde De Marie Claire Early Learning Center", "place_id": "ChIJt07nd8B-44kRwlezaUgfz7U", "plus_code": {"compound_code": "7V9H+VJ Boston, Massachusetts, United States", "global_code": "87JC7V9H+VJ"}, "reference": "ChIJt07nd8B-44kRwlezaUgfz7U", "scope": "GOOGLE", "types": ["point_of_interest", "establishment"], "vicinity": "883 Hyde Park Avenue, Hyde Park"}, "ChIJ4-g0gL9-44kRKTfEo26O3m0": {"geometry": {"location": {"lat": 42.2699779, "lng": -71.1211314}, "viewport": {"northeast": {"lat": 42.2713171302915, "lng": -71.11969621970849}, "southwest": {"lat": 42.2686191697085, "lng": -71.12239418029151}}}, "icon": "https://maps.gstatic.com/mapfiles/place_api/icons/generic_business-71.png", "id": "afc4cab1d506c80cfe195301d4e3a94ecc2f6b67", "name": "Kery's Transportation Boston>New York", "opening_hours": {"open_now": true}, "place_id": "ChIJ4-g0gL9-44kRKTfEo26O3m0", "plus_code": {"compound_code": "7V9H+XG Boston, Massachusetts, United States", "global_code": "87JC7V9H+XG"}, "rating": 5, "reference": "ChIJ4-g0gL9-44kRKTfEo26O3m0", "scope": "GOOGLE", "types": ["point_of_interest", "establishment"], "user_ratings_total": 1, "vicinity": "875 Hyde Park Avenue, Boston"}, "ChIJVVWleMB-44kR0QM1mL4cjQs": {"geometry": {"location": {"lat": 42.2699779, "lng": -71.1211314}, "viewport": {"northeast": {"lat": 42.2713171302915, "lng": -71.11969621970849}, "southwest": {"lat": 42.2686191697085, "lng": -71.12239418029151}}}, "icon": "https://maps.gstatic.com/mapfiles/place_api/icons/generic_business-71.png", "id": "49b26c8106e04b05c1ebacb8733bea6c3113833e", "name": "KERY'S TRANSIT", "place_id": "ChIJVVWleMB-44kR0QM1mL4cjQs", "plus_code": {"compound_code": "7V9H+XG Boston, Massachusetts, United States", "global_code": "87JC7V9H+XG"}, "reference": "ChIJVVWleMB-44kR0QM1mL4cjQs", "scope": "GOOGLE", "types": ["point_of_interest", "establishment"], "vicinity": "875 Hyde Park Avenue, Hyde Park"}, "ChIJt3v0-yt_44kRHe41WJEkVhk": {"geometry": {"location": {"lat": 42.26887050000001, "lng": -71.1219321}, "viewport": {"northeast": {"lat": 42.2702153302915, "lng": -71.12054091970849}, "southwest": {"lat": 42.26751736970851, "lng": -71.12323888029151}}}, "icon": "https://maps.gstatic.com/mapfiles/place_api/icons/generic_business-71.png", "id": "b9fcf5fec0081481e603384b5dd047e715f99496", "name": "Private Livery Service", "opening_hours": {"open_now": true}, "photos": [{"height": 960, "html_attributions": ["<a href=\"https://maps.google.com/maps/contrib/114378269047641857774/photos\">Private Livery Service</a>"], "photo_reference": "CmRaAAAAEud3AoM6DrLLDoeWHWagxi4TOMbS7kEDynw6W5DeS_W7nQBkIaLEp2BmyGnG_XK0PtGW6O3Mpuze_VE3u620Wdi5Z0hbBvMUpkjv3NksBFI9KS5WnnVvD_tT1uv1QDQpEhAiFVAgEMAo7hZE7vvCqAgIGhQ2IVsabgwootnkT96rPxedynPftA", "width": 1280}], "place_id": "ChIJt3v0-yt_44kRHe41WJEkVhk", "plus_code": {"compound_code": "7V9H+G6 Boston, Massachusetts, United States", "global_code": "87JC7V9H+G6"}, "rating": 4.2, "reference": "ChIJt3v0-yt_44kRHe41WJEkVhk", "scope": "GOOGLE", "types": ["point_of_interest", "establishment"], "user_ratings_total": 5, "vicinity": "200 Providence Street, Boston"}, "ChIJ24u7f8B-44kRAJDulLbd5ds": {"geometry": {"location": {"lat": 42.2703053, "lng": -71.1213337}, "viewport": {"northeast": {"lat": 42.2716651302915, "lng": -71.12003991970849}, "southwest": {"lat": 42.2689671697085, "lng": -71.1227378802915}}}, "icon": "https://maps.gstatic.com/mapfiles/place_api/icons/generic_business-71.png", "id": "c1aa537503f26b93bfcf9ab31a4e5a6dc56f39fb", "name": "Susi & Dimascio Co Inc", "place_id": "ChIJ24u7f8B-44kRAJDulLbd5ds", "plus_code": {"compound_code": "7VCH+4F Boston, Massachusetts, United States", "global_code": "87JC7VCH+4F"}, "reference": "ChIJ24u7f8B-44kRAJDulLbd5ds", "scope": "GOOGLE", "types": ["general_contractor", "point_of_interest", "establishment"], "vicinity": "222 Providence Street, Hyde Park"}, "ChIJzxhVGsB-44kRil-vu_q96MQ": {"geometry": {"location": {"lat": 42.268544, "lng": -71.1220931}, "viewport": {"northeast": {"lat": 42.2698875302915, "lng": -71.12069616970851}, "southwest": {"lat": 42.2671895697085, "lng": -71.12339413029152}}}, "icon": "https://maps.gstatic.com/mapfiles/place_api/icons/generic_business-71.png", "id": "0d1336cf89b5833f849f02e0e83db61645ed535e", "name": "John R. Meisner, MS", "place_id": "ChIJzxhVGsB-44kRil-vu_q96MQ", "plus_code": {"compound_code": "7V9H+C5 Boston, Massachusetts, United States", "global_code": "87JC7V9H+C5"}, "reference": "ChIJzxhVGsB-44kRil-vu_q96MQ", "scope": "GOOGLE", "types": ["physiotherapist", "health", "point_of_interest", "establishment"], "vicinity": "188 Providence Street, Hyde Park"}, "ChIJj8TtgcB-44kRj1YYkrE2q7s": {"geometry": {"location": {"lat": 42.27049969999999, "lng": -71.1212475}, "viewport": {"northeast": {"lat": 42.2719068302915, "lng": -71.1198308197085}, "southwest": {"lat": 42.2692088697085, "lng": -71.1225287802915}}}, "icon": "https://maps.gstatic.com/mapfiles/place_api/icons/shopping-71.png", "id": "66e8659ed010fa2eac86ef083e693cbe9984dbc6", "name": "American Motorcycle Specialists", "place_id": "ChIJj8TtgcB-44kRj1YYkrE2q7s", "plus_code": {"compound_code": "7VCH+5G Boston, Massachusetts, United States", "global_code": "87JC7VCH+5G"}, "reference": "ChIJj8TtgcB-44kRj1YYkrE2q7s", "scope": "GOOGLE", "types": ["store", "point_of_interest", "establishment"], "vicinity": "445 Metropolitan Avenue, Hyde Park"}, "ChIJER9VGsB-44kR4F6vpsPTAEs": {"geometry": {"location": {"lat": 42.2685347, "lng": -71.1220237}, "viewport": {"northeast": {"lat": 42.2698854802915, "lng": -71.1206905697085}, "southwest": {"lat": 42.2671875197085, "lng": -71.1233885302915}}}, "icon": "https://maps.gstatic.com/mapfiles/place_api/icons/generic_business-71.png", "id": "e3cedede87b0607341bf92e229e20a22f05aef80", "name": "Hyde Park Surgical Center", "place_id": "ChIJER9VGsB-44kR4F6vpsPTAEs", "plus_code": {"compound_code": "7V9H+C5 Boston, Massachusetts, United States", "global_code": "87JC7V9H+C5"}, "reference": "ChIJER9VGsB-44kR4F6vpsPTAEs", "scope": "GOOGLE", "types": ["health", "point_of_interest", "establishment"], "vicinity": "188 Providence Street, Hyde Park"}, "ChIJiSBGeb9-44kRuigReXBUb5I": {"geometry": {"location": {"lat": 42.270468, "lng": -71.120666}, "viewport": {"northeast": {"lat": 42.2718143802915, "lng": -71.1193054197085}, "southwest": {"lat": 42.2691164197085, "lng": -71.1220033802915}}}, "icon": "https://maps.gstatic.com/mapfiles/place_api/icons/bus-71.png", "id": "5a21228675979fe124aeddc5eb23c8ca83afb32f", "name": "Hyde Park Ave @ Metropolitan Ave", "place_id": "ChIJiSBGeb9-44kRuigReXBUb5I", "plus_code": {"compound_code": "7VCH+5P Boston, Massachusetts, United States", "global_code": "87JC7VCH+5P"}, "rating": 5, "reference": "ChIJiSBGeb9-44kRuigReXBUb5I", "scope": "GOOGLE", "types": ["bus_station", "transit_station", "point_of_interest", "establishment"], "user_ratings_total": 1, "vicinity": "United States"}, "ChIJm9J2kb9-44kR83zBtK9sXLQ": {"geometry": {"location": {"lat": 42.2692991, "lng": -71.1201339}, "viewport": {"northeast": {"lat": 42.2706750802915, "lng": -71.11870701970851}, "southwest": {"lat": 42.2679771197085, "lng": -71.12140498029152}}}, "icon": "https://maps.gstatic.com/mapfiles/place_api/icons/generic_business-71.png", "id": "e4aec60edc7df0e730b2c9d2615e0bf1e0a8d8c8", "name": "Mais Gate P A P", "place_id": "ChIJm9J2kb9-44kR83zBtK9sXLQ", "plus_code": {"compound_code": "7V9H+PW Boston, Massachusetts, United States", "global_code": "87JC7V9H+PW"}, "reference": "ChIJm9J2kb9-44kR83zBtK9sXLQ", "scope": "GOOGLE", "types": ["point_of_interest", "establishment"], "vicinity": "491 Metropolitan Avenue, Hyde Park"}, "ChIJrUK4e79-44kR84xFwe5Vr1s": {"geometry": {"location": {"lat": 42.2705533, "lng": -71.1207328}, "viewport": {"northeast": {"lat": 42.2718874802915, "lng": -71.1193104197085}, "southwest": {"lat": 42.2691895197085, "lng": -71.1220083802915}}}, "icon": "https://maps.gstatic.com/mapfiles/place_api/icons/shopping-71.png", "id": "0253a9e3be73e59303cf79b6c274d73097f6cea3", "name": "Kelly's Liquor Mart", "opening_hours": {"open_now": true}, "photos": [{"height": 4048, "html_attributions": ["<a href=\"https://maps.google.com/maps/contrib/112610327686646009690/photos\">franco 4</a>"], "photo_reference": "CmRaAAAA52Bbd75LPoJZZs3HYsZK2nJCytQ9Ghr9aPNhuNqxOVoaWmyf4H1am4puEzym2iEnrbO0gTBkRr0mcdzTazCDatd1H4CG6pkhx8KwJoeAPkD_qg0-flLgrPSzvwl8uc4dEhDcLyAT3eKE7xtd_c3cBaBRGhTCdv340SgKOUiZ48PiLbpE9tuhBg", "width": 3036}], "place_id": "ChIJrUK4e79-44kR84xFwe5Vr1s", "plus_code": {"compound_code": "7VCH+6P Boston, Massachusetts, United States", "global_code": "87JC7VCH+6P"}, "rating": 4.1, "reference": "ChIJrUK4e79-44kR84xFwe5Vr1s", "scope": "GOOGLE", "types": ["liquor_store", "store", "point_of_interest", "establishment"], "user_ratings_total": 48, "vicinity": "871 Hyde Park Avenue, Hyde Park"}, "ChIJs47yeb9-44kReAwX2h7uz5c": {"geometry": {"location": {"lat": 42.270456, "lng": -71.12042500000001}, "viewport": {"northeast": {"lat": 42.2718096802915, "lng": -71.1191027197085}, "southwest": {"lat": 42.26911171970851, "lng": -71.12180068029151}}}, "icon": "https://maps.gstatic.com/mapfiles/place_api/icons/bus-71.png", "id": "a899cdda6cdc88bc03c3b19f70feda1a0ee3a6dc", "name": "Hyde Park Ave @ Collins Street", "place_id": "ChIJs47yeb9-44kReAwX2h7uz5c", "plus_code": {"compound_code": "7VCH+5R Boston, Massachusetts, United States", "global_code": "87JC7VCH+5R"}, "rating": 5, "reference": "ChIJs47yeb9-44kReAwX2h7uz5c", "scope": "GOOGLE", "types": ["bus_station", "transit_station", "point_of_interest", "establishment"], "user_ratings_total": 1, "vicinity": "United States"}, "ChIJHxApdr9-44kRRjIFQDfywLo": {"geometry": {"location": {"lat": 42.270153, "lng": -71.120125}, "viewport": {"northeast": {"lat": 42.2714407802915, "lng": -71.1189171197085}, "southwest": {"lat": 42.26874281970851, "lng": -71.1216150802915}}}, "icon": "https://maps.gstatic.com/mapfiles/place_api/icons/generic_business-71.png", "id": "979e718e0d01a89f598aa70da132f8a290664760", "name": "Hyde Park On Time Taxi Livery", "opening_hours": {"open_now": true}, "photos": [{"height": 1365, "html_attributions": ["<a href=\"https://maps.google.com/maps/contrib/109096576494133908191/photos\">Hyde Park On Time Taxi Livery</a>"], "photo_reference": "CmRaAAAAgTp-BpEpLx7vZb8xx6OWCNTRpi9r9oazqVUF44FbckmmyJXO0b-ob4mvu0LYFjN3mLvl63zi5qKq2SBSj_1UMV5GBbZY1UlFNq7uV8XsebyGDfT6OcJoGthb_G3AjbsDEhDbjuvuLMWyErNBw1YRp37mGhQSFdW5lDtv8vxEB_PK6p9QX8M7Jw", "width": 1370}], "place_id": "ChIJHxApdr9-44kRRjIFQDfywLo", "plus_code": {"compound_code": "7VCH+3W Boston, Massachusetts, United States", "global_code": "87JC7VCH+3W"}, "rating": 5, "reference": "ChIJHxApdr9-44kRRjIFQDfywLo", "scope": "GOOGLE", "types": ["point_of_interest", "establishment"], "user_ratings_total": 1, "vicinity": "468 Metropolitan Avenue, Hyde Park"}, "ChIJy-BL_79-44kRE-7v6j3GAAo": {"geometry": {"location": {"lat": 42.268191, "lng": -71.121011}, "viewport": {"northeast": {"lat": 42.2695582802915, "lng": -71.1196818697085}, "southwest": {"lat": 42.2668603197085, "lng": -71.12237983029151}}}, "icon": "https://maps.gstatic.com/mapfiles/place_api/icons/bus-71.png", "id": "a53f85bfc5ed76124527b58b8732a576f59d9565", "name": "Hyde Park Ave @ Willow Ave", "place_id": "ChIJy-BL_79-44kRE-7v6j3GAAo", "plus_code": {"compound_code": "7V9H+7H Boston, Massachusetts, United States", "global_code": "87JC7V9H+7H"}, "rating": 5, "reference": "ChIJy-BL_79-44kRE-7v6j3GAAo", "scope": "GOOGLE", "types": ["bus_station", "transit_station", "point_of_interest", "establishment"], "user_ratings_total": 1, "vicinity": "United States"}, "ChIJC1CC-cB-44kRDGLy74UNzLM": {"geometry": {"location": {"lat": 42.2710446, "lng": -71.1236845}, "viewport": {"northeast": {"lat": 42.2723348302915, "lng": -71.1221411197085}, "southwest": {"lat": 42.2696368697085, "lng": -71.12483908029152}}}, "icon": "https://maps.gstatic.com/mapfiles/place_api/icons/generic_recreational-71.png", "id": "f13d46ce20e879fe7ef8877865636c7d85e94af3", "name": "Weider Park", "place_id": "ChIJC1CC-cB-44kRDGLy74UNzLM", "reference": "ChIJC1CC-cB-44kRDGLy74UNzLM", "scope": "GOOGLE", "types": ["park", "premise", "point_of_interest", "establishment"], "vicinity": "Boston"}}