{"ChIJGzE9DS1l44kRoOhiASS_fHg": {"geometry": {"location": {"lat": 42.3600825, "lng": -71.0588801}, "viewport": {"northeast": {"lat": 42.40081989999999, "lng": -70.749455}, "southwest": {"lat": 42.22788, "lng": -71.191113}}}, "icon": "https://maps.gstatic.com/mapfiles/place_api/icons/geocode-71.png", "id": "06755c25d2b34d13942a4713971756a55b870ced", "name": "Boston", "photos": [{"height": 3024, "html_attributions": ["<a href=\"https://maps.google.com/maps/contrib/104670289779338733432/photos\">Natalia Zalucean</a>"], "photo_reference": "CmRaAAAAuB4vJq8Pi6oNZbItCEtjXLUTjfTIz6IhWg5G4T1ynEZG5u09zEruAC9d-3dBjQU814asHDEbDBu29RVz-EjxV-VhOnUb3LKllXw-tmlak0KQCK1lGME3fj1bO09ayiULEhCG_8AesO7i4aQwTLXxQRxaGhSjPmvO5CSlz6voXZrQ_u195WluBA", "width": 4032}], "place_id": "ChIJGzE9DS1l44kRoOhiASS_fHg", "reference": "ChIJGzE9DS1l44kRoOhiASS_fHg", "scope": "GOOGLE", "types": ["locality", "political"], "vicinity": "Boston"}, "ChIJQYnLza5644kR_RM-2-yNDtE": {"geometry": {"location": {"lat": 42.33930670000001, "lng": -71.0099377}, "viewport": {"northeast": {"lat": 42.3406556802915, "lng": -71.0085887197085}, "southwest": {"lat": 42.33795771970851, "lng": -71.0112866802915}}}, "icon": "https://maps.gstatic.com/mapfiles/place_api/icons/generic_business-71.png", "id": "7ced49ff95cb9c913373191e737a62a6c32943a0", "name": "Lt. John J. McCorkle Fishing Pier", "opening_hours": {"open_now": true}, "photos": [{"height": 2988, "html_attributions": ["<a href=\"https://maps.google.com/maps/contrib/115597446324714699326/photos\">Owen Tucker</a>"], "photo_reference": "CmRaAAAAXO7SwaiRnnci5V2n4GQ0O8k1tzNNvwUL1_gNZajO--iy9hmt6KEWn9sjG86838SN-32n7u7zFox6ZTd9AqMQTPMStCtbSeik7AzDr9G_4zCl1bofz1w5WnYAzXKJ7wWnEhDOfRRXxJX5mxCxDQrCWZa5GhSJA2BIDGboucQk2OxQhT7tBJ64MA", "width": 5312}], "place_id": "ChIJQYnLza5644kR_RM-2-yNDtE", "plus_code": {"compound_code": "8XQR+P2 Boston, Massachusetts, United States", "global_code": "87JC8XQR+P2"}, "rating": 4.8, "reference": "ChIJQYnLza5644kR_RM-2-yNDtE", "scope": "GOOGLE", "types": ["point_of_interest", "establishment"], "user_ratings_total": 15, "vicinity": "42\u00b020'20. 71\u00b000'36., 8 West 8th Street, Boston"}, "ChIJi-ZQy6F744kRPK9A8jT6QeI": {"geometry": {"location": {"lat": 42.3391099, "lng": -71.0102824}, "viewport": {"northeast": {"lat": 42.34046498029149, "lng": -71.00892681970849}, "southwest": {"lat": 42.3377670197085, "lng": -71.0116247802915}}}, "icon": "https://maps.gstatic.com/mapfiles/place_api/icons/generic_business-71.png", "id": "a85b41a90e11f01a78c0a98ce6bf98a786db5643", "name": "Clipper Ship Monument to Donald McKay", "photos": [{"height": 4032, "html_attributions": ["<a href=\"https://maps.google.com/maps/contrib/101471698219617327724/photos\">Evgenii Kozhemiakin</a>"], "photo_reference": "CmRaAAAAea59iPy8qnAj0l2G64xwCCHsnYFvK9bVg2Kc4IkPHgl5wg9XqWjPVTN8-RDL-jUtLKOuCIDYHU1dunEY32UHfxZ9oh7KyHgKKSbvNXL9_X5NuIEjghTXSm2YGuKua8maEhBoj8V8nNhMvXN_Byvft2mcGhSMCbSJBYbW88nzEN2YQaRUJRYpoQ", "width": 3024}], "place_id": "ChIJi-ZQy6F744kRPK9A8jT6QeI", "plus_code": {"compound_code": "8XQQ+JV Boston, Massachusetts, United States", "global_code": "87JC8XQQ+JV"}, "reference": "ChIJi-ZQy6F744kRPK9A8jT6QeI", "scope": "GOOGLE", "types": ["point_of_interest", "establishment"], "vicinity": "Harborwalk, Boston"}, "ChIJExwK4K5644kR8tg5wtJFzr4": {"geometry": {"location": {"lat": 42.3388294, "lng": -71.0110534}, "viewport": {"northeast": {"lat": 42.3401783802915, "lng": -71.00970441970848}, "southwest": {"lat": 42.33748041970851, "lng": -71.0124023802915}}}, "icon": "https://maps.gstatic.com/mapfiles/place_api/icons/museum-71.png", "id": "d4d096178226b2cd30667bb4322b1aa369d9d851", "name": "Fort Independence", "place_id": "ChIJExwK4K5644kR8tg5wtJFzr4", "reference": "ChIJExwK4K5644kR8tg5wtJFzr4", "scope": "GOOGLE", "types": ["premise", "point_of_interest", "establishment"], "vicinity": "Boston"}, "ChIJySFSPZJ644kRQd1ylK2wP54": {"geometry": {"location": {"lat": 42.3381437, "lng": -71.0475773}, "viewport": {"northeast": {"lat": 42.3551665, "lng": -71.0091984}, "southwest": {"lat": 42.32115, "lng": -71.0652948}}}, "icon": "https://maps.gstatic.com/mapfiles/place_api/icons/geocode-71.png", "id": "56a2680fff3ada55ed539f65fc2e901a748193c6", "name": "South Boston", "photos": [{"height": 1836, "html_attributions": ["<a href=\"https://maps.google.com/maps/contrib/100381122114234243821/photos\">Gary Stephens</a>"], "photo_reference": "CmRaAAAA7FP88WqBLkkrKsFh1TndRIVj-0X4zlfEvxi-JWI9b4VX3iTv6YSqQEGT8Z54LanmQTOYj3HyCnIju2mAbSdhtKhTv4KHLj2gSyW3_oQmfnJiVhJ7FwzaNL3Cn8jtMX9tEhB4VvX5tUOUa8ZcQqwnuoPDGhSOnhtCMHwADursdF1aHfGLnkzLmQ", "width": 3264}], "place_id": "ChIJySFSPZJ644kRQd1ylK2wP54", "reference": "ChIJySFSPZJ644kRQd1ylK2wP54", "scope": "GOOGLE", "types": ["neighborhood", "political"], "vicinity": "Boston"}}