{"ChIJhZirQQB544kRB9LbXEfedZQ": {"geometry": {"location": {"lat": 42.33176419999999, "lng": -71.1211635}, "viewport": {"northeast": {"lat": 42.3518109, "lng": -71.1056969}, "southwest": {"lat": 42.29459689999999, "lng": -71.1789959}}}, "icon": "https://maps.gstatic.com/mapfiles/place_api/icons/geocode-71.png", "id": "92986b2d1f69af2f2a7e29d34ced8adfa8573beb", "name": "Brookline", "photos": [{"height": 651, "html_attributions": ["<a href=\"https://maps.google.com/maps/contrib/114772942214832951419/photos\">Michael Ahn</a>"], "photo_reference": "CmRaAAAANI0LqrivLbo2u1mvcOGnoHVnJ-GXtEKaMFcVxbDK3q1CFgQNEjQrZEG8joKdDdzJsZ1F3QwYlSY7nR79m1XvcSHHa8mFym83VeCIPgML2Fkple2sFAf1UsX_weic-oVfEhBFO0wcGMHZfnbBqsYCRs-DGhS5seT7A4k5w7xEXRttYZnXXa51lA", "width": 1608}], "place_id": "ChIJhZirQQB544kRB9LbXEfedZQ", "reference": "ChIJhZirQQB544kRB9LbXEfedZQ", "scope": "GOOGLE", "types": ["locality", "political"], "vicinity": "Brookline"}, "ChIJ-wZGEwN544kRVKXk3ZzQk4U": {"geometry": {"location": {"lat": 42.3203277, "lng": -71.14038959999999}, "viewport": {"northeast": {"lat": 42.3216879302915, "lng": -71.13908696970849}, "southwest": {"lat": 42.3189899697085, "lng": -71.14178493029151}}}, "icon": "https://maps.gstatic.com/mapfiles/place_api/icons/generic_business-71.png", "id": "1391548b02617167da114ba16bb902d637e6d0f9", "name": "Dr. Robert M. Amick, MD", "place_id": "ChIJ-wZGEwN544kRVKXk3ZzQk4U", "plus_code": {"compound_code": "8VC5+4R Brookline, Massachusetts, United States", "global_code": "87JC8VC5+4R"}, "reference": "ChIJ-wZGEwN544kRVKXk3ZzQk4U", "scope": "GOOGLE", "types": ["doctor", "health", "point_of_interest", "establishment"], "vicinity": "260 Lee Street, Brookline"}, "ChIJeSx7dAN544kRN3In0pNPB6w": {"geometry": {"location": {"lat": 42.3209014, "lng": -71.14015970000001}, "viewport": {"northeast": {"lat": 42.3222420302915, "lng": -71.1387897697085}, "southwest": {"lat": 42.3195440697085, "lng": -71.1414877302915}}}, "icon": "https://maps.gstatic.com/mapfiles/place_api/icons/generic_business-71.png", "id": "e0f4a168db8b418b3d5d5f56410ac34717763738", "name": "Morse Richard P", "photos": [{"height": 1836, "html_attributions": ["<a href=\"https://maps.google.com/maps/contrib/113216514755433566994/photos\">Sean Woods</a>"], "photo_reference": "CmRaAAAArXcmXJc7LKXsSagH6AR5GmXQ8_qDcyvaUywbO-m8SlOdPpxcfhtQgFP49qTSUeV3Qpbat83Pxh45f-bG-qzrtvvz54koFrd75M84blnMnDu8AggNQLtEJI-3kg7_whDrEhBFpnWY2F16XaabMtTtSR9UGhThh9PDrdjEJqIrlddkbyA9JJ4Xqw", "width": 3264}], "place_id": "ChIJeSx7dAN544kRN3In0pNPB6w", "plus_code": {"compound_code": "8VC5+9W Brookline, Massachusetts, United States", "global_code": "87JC8VC5+9W"}, "reference": "ChIJeSx7dAN544kRN3In0pNPB6w", "scope": "GOOGLE", "types": ["lawyer", "point_of_interest", "establishment"], "vicinity": "240 Lee Street, Brookline"}}