{"ChIJGzE9DS1l44kRoOhiASS_fHg": {"geometry": {"location": {"lat": 42.3600825, "lng": -71.0588801}, "viewport": {"northeast": {"lat": 42.40081989999999, "lng": -70.749455}, "southwest": {"lat": 42.22788, "lng": -71.191113}}}, "icon": "https://maps.gstatic.com/mapfiles/place_api/icons/geocode-71.png", "id": "06755c25d2b34d13942a4713971756a55b870ced", "name": "Boston", "photos": [{"height": 3024, "html_attributions": ["<a href=\"https://maps.google.com/maps/contrib/104670289779338733432/photos\">Natalia Zalucean</a>"], "photo_reference": "CmRaAAAALWQRzX3x7tMyzpZhCVC6Mdn0a08BWmJWSI1vMvV0D2MtmGESYBTi8sg4ILUbUJh1nL-ERRedhO2W6ghbUJR8eTDjfJqrA5DKSjcL7QazzulY92g83rAfRZhiCl_jQrKuEhA5M7GFxFa_F4Ki7WZBZyN7GhTCyUw-ZHnx2bYXB1B3pikBpbDnkQ", "width": 4032}], "place_id": "ChIJGzE9DS1l44kRoOhiASS_fHg", "reference": "ChIJGzE9DS1l44kRoOhiASS_fHg", "scope": "GOOGLE", "types": ["locality", "political"], "vicinity": "Boston"}, "ChIJY7WZbJ9w44kRPd0C-HX5J1M": {"geometry": {"location": {"lat": 42.3579144, "lng": -71.07201859999999}, "viewport": {"northeast": {"lat": 42.35925143029149, "lng": -71.07059291970849}, "southwest": {"lat": 42.35655346970849, "lng": -71.0732908802915}}}, "icon": "https://maps.gstatic.com/mapfiles/place_api/icons/lodging-71.png", "id": "1b4f414080f2e921252f4cd8645e09aac9ee0a37", "name": "Beacon Hill Bed and Breakfast", "photos": [{"height": 2048, "html_attributions": ["<a href=\"https://maps.google.com/maps/contrib/116328011306726615106/photos\">Beacon Hill Bed and Breakfast</a>"], "photo_reference": "CmRaAAAAGn_Pygvp1LeatVYwVkZhkjOZ4UgF8vSQgn0xEAKEapo339-mZlhiz-wiYG0Yv1GEZBspyvpfMt8GPP3hOOPCkytU4tKJ5vquUoTCDMjDdGZ7-maRxhnuP5ilsVtok4wuEhBWivOfaEsqbVD6ZZVLYpgMGhQC04nDL7wD6JA_cM02453H54DDbA", "width": 1536}], "place_id": "ChIJY7WZbJ9w44kRPd0C-HX5J1M", "plus_code": {"compound_code": "9W5H+55 Boston, Massachusetts, United States", "global_code": "87JC9W5H+55"}, "reference": "ChIJY7WZbJ9w44kRPd0C-HX5J1M", "scope": "GOOGLE", "types": ["lodging", "point_of_interest", "establishment"], "vicinity": "27 Brimmer Street, Boston"}, "ChIJj21-3qFw44kRR_YPsqfgZwg": {"geometry": {"location": {"lat": 42.357726, "lng": -71.0733619}, "viewport": {"northeast": {"lat": 42.3590890802915, "lng": -71.07207691970851}, "southwest": {"lat": 42.3563911197085, "lng": -71.07477488029151}}}, "icon": "https://maps.gstatic.com/mapfiles/place_api/icons/generic_recreational-71.png", "id": "3404f69786ad2762d9001a7f6145158c9e30a167", "name": "The Esplanade", "opening_hours": {"open_now": true}, "photos": [{"height": 2992, "html_attributions": ["<a href=\"https://maps.google.com/maps/contrib/103864825399746491709/photos\">Vivian van Zyl</a>"], "photo_reference": "CmRaAAAAAjVNCIIUM-qQ8xK6fbzD77zciY3dZfjGhdkxekzQOqSGOHUm_fA-VPs6mJltmXcph4QbOKqumulRBqgL3_jch4QGU-Gf2o3E2CnX3K2Ego7pPx21o_dzMCtefwpfPxQgEhCVf7r8l369OrlZbygv9MWJGhSpK0LO1MDawkUbrVek3o6gSDSnXQ", "width": 4000}], "place_id": "ChIJj21-3qFw44kRR_YPsqfgZwg", "plus_code": {"compound_code": "9W5G+3M Boston, Massachusetts, United States", "global_code": "87JC9W5G+3M"}, "rating": 4.7, "reference": "ChIJj21-3qFw44kRR_YPsqfgZwg", "scope": "GOOGLE", "types": ["park", "point_of_interest", "establishment"], "user_ratings_total": 435, "vicinity": "Boston"}, "ChIJJ6Im5Jhw44kRap5Y5x2_XJw": {"geometry": {"location": {"lat": 42.3572889, "lng": -71.07369890000001}, "viewport": {"northeast": {"lat": 42.3585691302915, "lng": -71.0724223197085}, "southwest": {"lat": 42.3558711697085, "lng": -71.0751202802915}}}, "icon": "https://maps.gstatic.com/mapfiles/place_api/icons/generic_business-71.png", "id": "0b9ef63f5f1219197166fcf4f5842e7532d1d5c0", "name": "Hatch Memorial Shell", "photos": [{"height": 2952, "html_attributions": ["<a href=\"https://maps.google.com/maps/contrib/114881961949012930044/photos\">N NC</a>"], "photo_reference": "CmRaAAAAZ2OaYMce7io4h-XIzfyBjuh2TJGmLYrT18WMJZ_6B_IIocJ8Spf8v4QxL6x0EMTJq48g3GXsnY9566Xkmkb-qN4AFGaFF5MppcxgfC0fQbEAKZZq8onKeE06CFAoP4WsEhAnE11cEkk-X12_oHCh4MJUGhSQ7xKNonbKpaF7fo4FJtI5GguQhw", "width": 5248}], "place_id": "ChIJJ6Im5Jhw44kRap5Y5x2_XJw", "plus_code": {"compound_code": "9W4G+WG Boston, Massachusetts, United States", "global_code": "87JC9W4G+WG"}, "rating": 4.6, "reference": "ChIJJ6Im5Jhw44kRap5Y5x2_XJw", "scope": "GOOGLE", "types": ["point_of_interest", "establishment"], "user_ratings_total": 308, "vicinity": "47 David G Mugar Way, Boston"}, "ChIJK8GRFZ9w44kREObMxB7vI7w": {"geometry": {"location": {"lat": 42.35831, "lng": -71.072068}, "viewport": {"northeast": {"lat": 42.35963528029149, "lng": -71.07056476970851}, "southwest": {"lat": 42.35693731970849, "lng": -71.07326273029152}}}, "icon": "https://maps.gstatic.com/mapfiles/place_api/icons/school-71.png", "id": "6d89dadb929870d8367000c3f5cc53fb383daa54", "name": "The Advent School", "opening_hours": {"open_now": true}, "photos": [{"height": 2640, "html_attributions": ["<a href=\"https://maps.google.com/maps/contrib/105108648117675896323/photos\">The Advent School</a>"], "photo_reference": "CmRaAAAAmlbcImLNWnIOsCXcr0SnLIWSc2Vws38xs4_7CD19kNPvPVt1mkU3Z7cNLR_PirOdABH5qdWxOcY_6lmW5m2Yy7GidCub50japz6n1lp064WyRXciVoIaspqI8tq5XIDaEhB3KVpfCc2wDXRSZiGsaM-AGhQ4dCoRT_mwyjl5OIFblbgX_Pu7ng", "width": 3960}], "place_id": "ChIJK8GRFZ9w44kREObMxB7vI7w", "plus_code": {"compound_code": "9W5H+85 Boston, Massachusetts, United States", "global_code": "87JC9W5H+85"}, "rating": 4.6, "reference": "ChIJK8GRFZ9w44kREObMxB7vI7w", "scope": "GOOGLE", "types": ["point_of_interest", "school", "establishment"], "user_ratings_total": 11, "vicinity": "15 Brimmer Street, Boston"}, "ChIJm8IzK6Bw44kRpcLw6oNvJ_c": {"geometry": {"location": {"lat": 42.3572605, "lng": -71.073499}, "viewport": {"northeast": {"lat": 42.3585728802915, "lng": -71.0720930197085}, "southwest": {"lat": 42.3558749197085, "lng": -71.07479098029151}}}, "icon": "https://maps.gstatic.com/mapfiles/place_api/icons/generic_business-71.png", "id": "1d969231b3db2b950b4459346d48a830892c10d9", "name": "Esplanade Hatch", "photos": [{"height": 821, "html_attributions": ["<a href=\"https://maps.google.com/maps/contrib/100706772005621762587/photos\">Triggercell HD</a>"], "photo_reference": "CmRaAAAAjNVQIH9ZX91RNZKS6sGa_Twugg6qlBCqZMYyXvmEW14ALu_thoNxO8J6E4uB6v83aDJziJydDwCh80Z0Qb3JtVUW2zD_FWALlJkK0vljiVu457UTNPYCCzZmt4lQCeyYEhD_ffg8KRDlrQErBs3eAcKCGhQrDXMpshTHJvbPJobo53GXz6M9Ww", "width": 1280}], "place_id": "ChIJm8IzK6Bw44kRpcLw6oNvJ_c", "plus_code": {"compound_code": "9W4G+WJ Boston, Massachusetts, United States", "global_code": "87JC9W4G+WJ"}, "rating": 5, "reference": "ChIJm8IzK6Bw44kRpcLw6oNvJ_c", "scope": "GOOGLE", "types": ["point_of_interest", "establishment"], "user_ratings_total": 7, "vicinity": "1 David G Mugar Way, Boston"}, "ChIJp2MWrJhw44kRs15thXRnCxE": {"geometry": {"location": {"lat": 42.3598546, "lng": -71.073094}, "viewport": {"northeast": {"lat": 42.3611174802915, "lng": -71.07170191970849}, "southwest": {"lat": 42.3584195197085, "lng": -71.07439988029151}}}, "icon": "https://maps.gstatic.com/mapfiles/place_api/icons/school-71.png", "id": "84444f7387377a129d2c0f8ad25f2545be1e0228", "name": "Community Boating Inc.", "opening_hours": {"open_now": true}, "photos": [{"height": 2448, "html_attributions": ["<a href=\"https://maps.google.com/maps/contrib/100581050902638889845/photos\">Richard Sailor</a>"], "photo_reference": "CmRaAAAAHhy7jGndbxsVzDap3zUCswuOaUXwgQET_DmOij7MZj-4TdOcXYXRmf4ZwzjxJGwvN9cMHX90_6C1xhNFskmdxmVBQk0OSC0qrVtru41ZS5RsHbWGAGEi_2ARV5NDUAcfEhBx-0JqR93Qi-SpQ8d3dW7iGhSgFE-4QKw5tTOQS2fJwwPpqMr0gA", "width": 3264}], "place_id": "ChIJp2MWrJhw44kRs15thXRnCxE", "plus_code": {"compound_code": "9W5G+WQ Boston, Massachusetts, United States", "global_code": "87JC9W5G+WQ"}, "rating": 4.5, "reference": "ChIJp2MWrJhw44kRs15thXRnCxE", "scope": "GOOGLE", "types": ["point_of_interest", "establishment"], "user_ratings_total": 52, "vicinity": "21 David G Mugar Way, Boston"}, "ChIJg48DE59w44kRNwv1EFm9AmU": {"geometry": {"location": {"lat": 42.357788, "lng": -71.0718977}, "viewport": {"northeast": {"lat": 42.35914298029149, "lng": -71.0705873197085}, "southwest": {"lat": 42.3564450197085, "lng": -71.0732852802915}}}, "icon": "https://maps.gstatic.com/mapfiles/place_api/icons/generic_business-71.png", "id": "ab332605472651a103d9fdabf295ed61b0a0c734", "name": "Beacon Services", "place_id": "ChIJg48DE59w44kRNwv1EFm9AmU", "plus_code": {"compound_code": "9W5H+46 Boston, Massachusetts, United States", "global_code": "87JC9W5H+46"}, "reference": "ChIJg48DE59w44kRNwv1EFm9AmU", "scope": "GOOGLE", "types": ["point_of_interest", "establishment"], "vicinity": "31 Brimmer Street, Boston"}, "ChIJOxvShNNz44kROHF5QY9k3RU": {"geometry": {"location": {"lat": 42.3578898, "lng": -71.0733695}, "viewport": {"northeast": {"lat": 42.35924308029149, "lng": -71.0720401697085}, "southwest": {"lat": 42.3565451197085, "lng": -71.07473813029151}}}, "icon": "https://maps.gstatic.com/mapfiles/place_api/icons/generic_business-71.png", "id": "7ebbeefd2211d3524f3ae5a20f1ccd6a671f6a59", "name": "Dragon Boat Club of Boston", "opening_hours": {"open_now": false}, "photos": [{"height": 479, "html_attributions": ["<a href=\"https://maps.google.com/maps/contrib/112343960964782271541/photos\">ZX</a>"], "photo_reference": "CmRaAAAAOUr4ZrLgjZabtuAa-zxH6u5ZOqz26CNQrPBIjX7l3vz3hu926GZGbveaiuErvBUJL81Wpe8xCEGome6twuk1mMwtxSbrCQbFh-jgeH_uylY0Nwyp0rfhMx7E4t8D0-21EhDwWyXHUOV4YqmGUtcdUBftGhQxW0v-3L4qYWWWJGUNdTZVHYIldw", "width": 720}], "place_id": "ChIJOxvShNNz44kROHF5QY9k3RU", "plus_code": {"compound_code": "9W5G+5M Boston, Massachusetts, United States", "global_code": "87JC9W5G+5M"}, "rating": 5, "reference": "ChIJOxvShNNz44kROHF5QY9k3RU", "scope": "GOOGLE", "types": ["point_of_interest", "establishment"], "user_ratings_total": 2, "vicinity": "David G Mugar Way, Boston"}, "ChIJBc3nfJ9w44kROlXJKsHWWJU": {"geometry": {"location": {"lat": 42.3577841, "lng": -71.0733189}, "viewport": {"northeast": {"lat": 42.3591491302915, "lng": -71.07204296970849}, "southwest": {"lat": 42.3564511697085, "lng": -71.0747409302915}}}, "icon": "https://maps.gstatic.com/mapfiles/place_api/icons/generic_business-71.png", "id": "583d325b69ebaff512d8d9d0d20ad667289cb560", "name": "Union Boat Club Boathouse", "photos": [{"height": 3648, "html_attributions": ["<a href=\"https://maps.google.com/maps/contrib/102250840529781048793/photos\">Stephen Gard</a>"], "photo_reference": "CmRaAAAALCJL1tY26VPNsyHdJDyzimlpgAEdUc1UM2kP0-t62yukJgrydAELLuoB9EI2Cq1JyNRAooXUBI2rJ1_qAPLln70_mDAzDYXizQnxJKZlcWYEEE9S-LIfftec3ulajozxEhAT95kdGeAXnECsfjrEK9NnGhRYN-gXuC40pS-5Z0154MFI5jwbfQ", "width": 5472}], "place_id": "ChIJBc3nfJ9w44kROlXJKsHWWJU", "plus_code": {"compound_code": "9W5G+4M Boston, Massachusetts, United States", "global_code": "87JC9W5G+4M"}, "rating": 4.7, "reference": "ChIJBc3nfJ9w44kROlXJKsHWWJU", "scope": "GOOGLE", "types": ["point_of_interest", "establishment"], "user_ratings_total": 7, "vicinity": "144 Chestnut Street, Boston"}, "ChIJe75iOJ9w44kR8USmQG-_8_A": {"geometry": {"location": {"lat": 42.3587115, "lng": -71.07200430000002}, "viewport": {"northeast": {"lat": 42.36007083029151, "lng": -71.07065596970851}, "southwest": {"lat": 42.35737286970851, "lng": -71.07335393029152}}}, "icon": "https://maps.gstatic.com/mapfiles/place_api/icons/generic_business-71.png", "id": "70ded844c69c72f8d91a3391c5fe30326d0e3e89", "name": "Keady Communications", "place_id": "ChIJe75iOJ9w44kR8USmQG-_8_A", "plus_code": {"compound_code": "9W5H+F5 Boston, Massachusetts, United States", "global_code": "87JC9W5H+F5"}, "reference": "ChIJe75iOJ9w44kR8USmQG-_8_A", "scope": "GOOGLE", "types": ["point_of_interest", "establishment"], "vicinity": "145 Pinckney Street # 229, Boston"}, "ChIJycNhMJ9w44kR4NMPW2AXb0s": {"geometry": {"location": {"lat": 42.3588672, "lng": -71.0716673}, "viewport": {"northeast": {"lat": 42.36016473029149, "lng": -71.07031696970849}, "southwest": {"lat": 42.3574667697085, "lng": -71.07301493029149}}}, "icon": "https://maps.gstatic.com/mapfiles/place_api/icons/generic_business-71.png", "id": "1d694ec5fd4fad527a168fe82bb74d70eff4bb82", "name": "Big Bash Events", "opening_hours": {"open_now": false}, "photos": [{"height": 527, "html_attributions": ["<a href=\"https://maps.google.com/maps/contrib/106992566816877117630/photos\">Big Bash Events</a>"], "photo_reference": "CmRaAAAAqEI3raezAx-PLxx6LlPJe3p4T8RsFT-LNcCCFDrOc9NkhWQERuLR584nxKNcSvLKE2Ot7eyTxY1Nc3k_EufYCZeu4wnVLqNuMZcxLCdHQPqc2UsN0iQXMOq1JDEe9OV2EhASf8cp94ynNRHwGhjw2hhPGhTlfrfA5vwa5zQskYx9KAEo1W4Cpg", "width": 800}], "place_id": "ChIJycNhMJ9w44kR4NMPW2AXb0s", "plus_code": {"compound_code": "9W5H+G8 Boston, Massachusetts, United States", "global_code": "87JC9W5H+G8"}, "rating": 1, "reference": "ChIJycNhMJ9w44kR4NMPW2AXb0s", "scope": "GOOGLE", "types": ["point_of_interest", "establishment"], "user_ratings_total": 1, "vicinity": "145 Pinckney Street, Boston"}, "ChIJ3500C59w44kRRgCv4xCqmtc": {"geometry": {"location": {"lat": 42.3572619, "lng": -71.0720546}, "viewport": {"northeast": {"lat": 42.3585482802915, "lng": -71.07067666970849}, "southwest": {"lat": 42.35585031970851, "lng": -71.0733746302915}}}, "icon": "https://maps.gstatic.com/mapfiles/place_api/icons/generic_business-71.png", "id": "7a82aacae387434c5d126b4ed826349710c829fe", "name": "Daniel A Mullin & Associates Real Estate", "opening_hours": {"open_now": true}, "place_id": "ChIJ3500C59w44kRRgCv4xCqmtc", "plus_code": {"compound_code": "9W4H+W5 Boston, Massachusetts, United States", "global_code": "87JC9W4H+W5"}, "reference": "ChIJ3500C59w44kRRgCv4xCqmtc", "scope": "GOOGLE", "types": ["real_estate_agency", "point_of_interest", "establishment"], "vicinity": "1 Otis Place, Boston"}, "ChIJKQYNEZ9w44kRKF7iZpSk1uI": {"geometry": {"location": {"lat": 42.35775, "lng": -71.0715869}, "viewport": {"northeast": {"lat": 42.3591227302915, "lng": -71.0703903197085}, "southwest": {"lat": 42.3564247697085, "lng": -71.0730882802915}}}, "icon": "https://maps.gstatic.com/mapfiles/place_api/icons/worship_general-71.png", "id": "36ffdce501701e3a8149a6c84c66302f21a414e3", "name": "Church of the Advent", "photos": [{"height": 4032, "html_attributions": ["<a href=\"https://maps.google.com/maps/contrib/101325932789672254515/photos\">Alexandra L\u00f3pez Espinosa</a>"], "photo_reference": "CmRaAAAAKHeNa6dMidZt9mHWAd_kKCEz6rzdgYk69XirHeatcohlHP_miaN3wtf9Mhrf4skh771vM-eKbsp-_64on-jD9he5LQxPuHWNl59jsuO_9nPpekA8hHxoCf58dCpq6yPQEhBMFuMEpaUA1tDS_ZneQ4peGhQtvmQlZjfnM8cr54hyyhjnSYCgFA", "width": 3024}], "place_id": "ChIJKQYNEZ9w44kRKF7iZpSk1uI", "plus_code": {"compound_code": "9W5H+49 Boston, Massachusetts, United States", "global_code": "87JC9W5H+49"}, "rating": 4.8, "reference": "ChIJKQYNEZ9w44kRKF7iZpSk1uI", "scope": "GOOGLE", "types": ["church", "place_of_worship", "point_of_interest", "establishment"], "user_ratings_total": 8, "vicinity": "30 Brimmer Street, Boston"}, "ChIJOyNiMJ9w44kR8fo7z3tETsc": {"geometry": {"location": {"lat": 42.3590418, "lng": -71.0715153}, "viewport": {"northeast": {"lat": 42.36025313029149, "lng": -71.07016276970849}, "southwest": {"lat": 42.3575551697085, "lng": -71.07286073029151}}}, "icon": "https://maps.gstatic.com/mapfiles/place_api/icons/generic_business-71.png", "id": "157c8fe202c0c3fc3bc05280048b72c68c8452e8", "name": "Picture Perfect Parties", "place_id": "ChIJOyNiMJ9w44kR8fo7z3tETsc", "plus_code": {"compound_code": "9W5H+J9 Boston, Massachusetts, United States", "global_code": "87JC9W5H+J9"}, "reference": "ChIJOyNiMJ9w44kR8fo7z3tETsc", "scope": "GOOGLE", "types": ["point_of_interest", "establishment"], "vicinity": "145 Pinckney Street, Boston"}, "ChIJ3xZ9FJ9w44kRlqQNtr_ZttA": {"geometry": {"location": {"lat": 42.3579617, "lng": -71.071975}, "viewport": {"northeast": {"lat": 42.3593009802915, "lng": -71.07056371970849}, "southwest": {"lat": 42.3566030197085, "lng": -71.0732616802915}}}, "icon": "https://maps.gstatic.com/mapfiles/place_api/icons/generic_business-71.png", "id": "f2ade87c77daad115294e70d80500d9716f673e6", "name": "Katherine fortier Interiors", "place_id": "ChIJ3xZ9FJ9w44kRlqQNtr_ZttA", "plus_code": {"compound_code": "9W5H+56 Boston, Massachusetts, United States", "global_code": "87JC9W5H+56"}, "reference": "ChIJ3xZ9FJ9w44kRlqQNtr_ZttA", "scope": "GOOGLE", "types": ["general_contractor", "point_of_interest", "establishment"], "vicinity": "25 Brimmer Street # 3, Boston"}, "ChIJrSnDaJ9w44kRkC2hV21rICc": {"geometry": {"location": {"lat": 42.3581174, "lng": -71.0726676}, "viewport": {"northeast": {"lat": 42.3595350302915, "lng": -71.0716288697085}, "southwest": {"lat": 42.3568370697085, "lng": -71.07432683029151}}}, "icon": "https://maps.gstatic.com/mapfiles/place_api/icons/generic_recreational-71.png", "id": "6f26519993500eedd219bfa95094c91408a00355", "name": "Parque", "place_id": "ChIJrSnDaJ9w44kRkC2hV21rICc", "plus_code": {"compound_code": "9W5G+6W Boston, Massachusetts, United States", "global_code": "87JC9W5G+6W"}, "reference": "ChIJrSnDaJ9w44kRkC2hV21rICc", "scope": "GOOGLE", "types": ["park", "point_of_interest", "establishment"], "vicinity": "33 Massachusetts 28, Boston"}, "ChIJpYdZ1qFw44kRHpUCAuGjKIE": {"geometry": {"location": {"lat": 42.357741, "lng": -71.0737106}, "viewport": {"northeast": {"lat": 42.3590183802915, "lng": -71.07235826970849}, "southwest": {"lat": 42.3563204197085, "lng": -71.0750562302915}}}, "icon": "https://maps.gstatic.com/mapfiles/place_api/icons/generic_business-71.png", "id": "0877df7566a2107eaabf254e163086738126fd68", "name": "Dock by Hatch Shell", "photos": [{"height": 3264, "html_attributions": ["<a href=\"https://maps.google.com/maps/contrib/101284260604903462213/photos\">Jack Good</a>"], "photo_reference": "CmRaAAAAxoq0mg443tUjLCUodQHYRW5GmvF7_3N0DZN56sP7i3akaqiqV5teeCCy6FktWQUvtgLSZ5uSAs-GeGnX3Bqju3NLX3JCd58qYJpLBUEet8-EOk7h7kZpWLWuL22xsV6iEhBgUlZSRyjBB8HD1Y2Xe542GhTJCwV2_ntDm-SL46XmqiDhCPOWrw", "width": 2448}], "place_id": "ChIJpYdZ1qFw44kRHpUCAuGjKIE", "plus_code": {"compound_code": "9W5G+3G Boston, Massachusetts, United States", "global_code": "87JC9W5G+3G"}, "reference": "ChIJpYdZ1qFw44kRHpUCAuGjKIE", "scope": "GOOGLE", "types": ["gym", "health", "point_of_interest", "establishment"], "vicinity": "Charles River Road, Watertown"}, "ChIJGUQGc59w44kRDgP5vDHJ-Po": {"geometry": {"location": {"lat": 42.35820139999999, "lng": -71.07201549999999}, "viewport": {"northeast": {"lat": 42.3595327802915, "lng": -71.0705520697085}, "southwest": {"lat": 42.3568348197085, "lng": -71.0732500302915}}}, "icon": "https://maps.gstatic.com/mapfiles/place_api/icons/generic_business-71.png", "id": "5a9087b405cb5f7b2876f8674e040cf1c2535190", "name": "27 Brimmer St Parking", "place_id": "ChIJGUQGc59w44kRDgP5vDHJ-Po", "plus_code": {"compound_code": "9W5H+75 Boston, Massachusetts, United States", "global_code": "87JC9W5H+75"}, "reference": "ChIJGUQGc59w44kRDgP5vDHJ-Po", "scope": "GOOGLE", "types": ["parking", "point_of_interest", "establishment"], "vicinity": "27 Brimmer Street, Boston"}, "ChIJT84qgp5w44kR2MRBT4FBDq0": {"geometry": {"location": {"lat": 42.3587999, "lng": -71.0707389}, "viewport": {"northeast": {"lat": 42.3611918, "lng": -71.0604501}, "southwest": {"lat": 42.3554044, "lng": -71.0730243}}}, "icon": "https://maps.gstatic.com/mapfiles/place_api/icons/geocode-71.png", "id": "fac7126b486af397364666a201134b34436961e1", "name": "Beacon Hill", "photos": [{"height": 533, "html_attributions": ["<a href=\"https://maps.google.com/maps/contrib/107493965504695166609/photos\">Alan Pembshaw</a>"], "photo_reference": "CmRaAAAARadwTbxB5iixA4-MdCFiGxD84_CmjKiWa7O-8ZvKobVTMnp4e5_-8gV5csTA8Y4egLLoBa4ayKPubOL9G3GDSGdNzBOQvTIMhDTBw3RBzRXZ513V8F6r8AfQeFhny_JqEhDIdT7lUOORmvJTeFrR1ldTGhQ9A1cokaAwritc4SSqwGKo5QLOKQ", "width": 799}], "place_id": "ChIJT84qgp5w44kR2MRBT4FBDq0", "reference": "ChIJT84qgp5w44kR2MRBT4FBDq0", "scope": "GOOGLE", "types": ["neighborhood", "political"], "vicinity": "Boston"}, "ChIJe75iOJ9w44kRE-dqEJj81Xk": {"geometry": {"location": {"lat": 42.3587115, "lng": -71.07200430000002}, "viewport": {"northeast": {"lat": 42.36007083029151, "lng": -71.07065596970851}, "southwest": {"lat": 42.35737286970851, "lng": -71.07335393029152}}}, "icon": "https://maps.gstatic.com/mapfiles/place_api/icons/generic_business-71.png", "id": "0ad9dbf93f0e516d964b2622c8a625ae7f964872", "name": "Riverho", "place_id": "ChIJe75iOJ9w44kRE-dqEJj81Xk", "plus_code": {"compound_code": "9W5H+F5 Boston, Massachusetts, United States", "global_code": "87JC9W5H+F5"}, "reference": "ChIJe75iOJ9w44kRE-dqEJj81Xk", "scope": "GOOGLE", "types": ["point_of_interest", "establishment"], "vicinity": "145 Pinckney Street # 710, Boston"}, "ChIJt2iqU59w44kRdbR6KoEwD2s": {"geometry": {"location": {"lat": 42.3594432, "lng": -71.07300529999999}, "viewport": {"northeast": {"lat": 42.36077428029149, "lng": -71.07157306970849}, "southwest": {"lat": 42.35807631970849, "lng": -71.0742710302915}}}, "icon": "https://maps.gstatic.com/mapfiles/place_api/icons/generic_recreational-71.png", "id": "31b611735377cb04b2c3bc57d2dab6e741ab8a59", "name": "Charles Eliot Memorial", "photos": [{"height": 2988, "html_attributions": ["<a href=\"https://maps.google.com/maps/contrib/103936480942665538584/photos\">Pierre-Louis Maurin</a>"], "photo_reference": "CmRaAAAA8PhA3KSOGomhNF2KCBC48xdRdjcnYfgLNBUhHevt9vzbbj09t_rZEtnricZohaNdLV8A5Krcd1fSnRKk1B3StfAx9RaUGu6wrkXzPZYpkOF30mueNYimCH9uDm7nYf8gEhAXfcMrOd7JT3zvUUMVVVNBGhRMHHL5qgD5cKhLjds4psvFGuanKg", "width": 5312}], "place_id": "ChIJt2iqU59w44kRdbR6KoEwD2s", "plus_code": {"compound_code": "9W5G+QQ Boston, Massachusetts, United States", "global_code": "87JC9W5G+QQ"}, "rating": 5, "reference": "ChIJt2iqU59w44kRdbR6KoEwD2s", "scope": "GOOGLE", "types": ["park", "point_of_interest", "establishment"], "user_ratings_total": 1, "vicinity": "Boston"}, "ChIJCcd0w59w44kRR_qbVMpz-Zk": {"geometry": {"location": {"lat": 42.3569187, "lng": -71.0734279}, "viewport": {"northeast": {"lat": 42.3582676802915, "lng": -71.0720789197085}, "southwest": {"lat": 42.3555697197085, "lng": -71.07477688029151}}}, "icon": "https://maps.gstatic.com/mapfiles/place_api/icons/generic_business-71.png", "id": "763b1d00e204c1db75a100a58f13542b6cc5a511", "name": "General George Patton Statue", "photos": [{"height": 5472, "html_attributions": ["<a href=\"https://maps.google.com/maps/contrib/102250840529781048793/photos\">Stephen Gard</a>"], "photo_reference": "CmRaAAAAGiA4-MdzNjBgcXleS8TBB1eAee4nbodl-h2MYLX7cP3fhq-IeBQLIUycZVtgTXbXFpBQo4-zfMblt-PGXWASlnByuDuGVchDaqP2hPud6GgjnlPlIJlDcVfIEkMaTDgWEhCsbC4zCB5iCp1sojHOcp-7GhRE1Bf-fZoEqj8v6fvM15FxuahAXg", "width": 3648}], "place_id": "ChIJCcd0w59w44kRR_qbVMpz-Zk", "plus_code": {"compound_code": "9W4G+QJ Boston, Massachusetts, United States", "global_code": "87JC9W4G+QJ"}, "rating": 4.3, "reference": "ChIJCcd0w59w44kRR_qbVMpz-Zk", "scope": "GOOGLE", "types": ["point_of_interest", "establishment"], "user_ratings_total": 3, "vicinity": "Boston"}, "ChIJl49eO59w44kRZgOe3StSiyI": {"geometry": {"location": {"lat": 42.3584426, "lng": -71.0714988}, "viewport": {"northeast": {"lat": 42.3598025302915, "lng": -71.0702522197085}, "southwest": {"lat": 42.3571045697085, "lng": -71.0729501802915}}}, "icon": "https://maps.gstatic.com/mapfiles/place_api/icons/generic_business-71.png", "id": "5b3af0cdc4f04c25133e574b1fc0c3835561943d", "name": "Rob Rose", "place_id": "ChIJl49eO59w44kRZgOe3StSiyI", "plus_code": {"compound_code": "9W5H+9C Boston, Massachusetts, United States", "global_code": "87JC9W5H+9C"}, "reference": "ChIJl49eO59w44kRZgOe3StSiyI", "scope": "GOOGLE", "types": ["real_estate_agency", "point_of_interest", "establishment"], "vicinity": "10 Brimmer Street, Boston"}, "ChIJc4eKdZ9w44kR2MNc5MVL4vM": {"geometry": {"location": {"lat": 42.3570742, "lng": -71.07238989999999}, "viewport": {"northeast": {"lat": 42.3584390802915, "lng": -71.0709649697085}, "southwest": {"lat": 42.3557411197085, "lng": -71.0736629302915}}}, "icon": "https://maps.gstatic.com/mapfiles/place_api/icons/generic_business-71.png", "id": "100c1ba3514ce01424830e918fe238a800f8d58b", "name": "10 Otis Place Condo Association", "place_id": "ChIJc4eKdZ9w44kR2MNc5MVL4vM", "plus_code": {"compound_code": "9W4H+R2 Boston, Massachusetts, United States", "global_code": "87JC9W4H+R2"}, "reference": "ChIJc4eKdZ9w44kR2MNc5MVL4vM", "scope": "GOOGLE", "types": ["point_of_interest", "establishment"], "vicinity": "10 Otis Place, Boston"}, "ChIJs4P6R59w44kRpbG28WQVrWo": {"geometry": {"location": {"lat": 42.3588055, "lng": -71.0715008}, "viewport": {"northeast": {"lat": 42.3601470802915, "lng": -71.0701516197085}, "southwest": {"lat": 42.3574491197085, "lng": -71.07284958029152}}}, "icon": "https://maps.gstatic.com/mapfiles/place_api/icons/generic_business-71.png", "id": "a130210961072432424fd36e6c6697d016a6ec2f", "name": "Barberry Hill Ventures LLC", "place_id": "ChIJs4P6R59w44kRpbG28WQVrWo", "plus_code": {"compound_code": "9W5H+G9 Boston, Massachusetts, United States", "global_code": "87JC9W5H+G9"}, "reference": "ChIJs4P6R59w44kRpbG28WQVrWo", "scope": "GOOGLE", "types": ["point_of_interest", "establishment"], "vicinity": "145 Pinckney Street # 126, Boston"}, "ChIJ8aDwMJ9w44kR0m-Bn67ZYLk": {"geometry": {"location": {"lat": 42.35888600000001, "lng": -71.0714799}, "viewport": {"northeast": {"lat": 42.36017543029151, "lng": -71.0701293697085}, "southwest": {"lat": 42.35747746970851, "lng": -71.0728273302915}}}, "icon": "https://maps.gstatic.com/mapfiles/place_api/icons/generic_business-71.png", "id": "35dcb035c1160ce17a1ca544f3dbba344353a720", "name": "River House Condominium", "photos": [{"height": 537, "html_attributions": ["<a href=\"https://maps.google.com/maps/contrib/110417044691073598182/photos\">Highrise Condos</a>"], "photo_reference": "CmRaAAAAzYcu3RINTvozLTFIFA1IhjzvpQF8wQT5NE-RX8Vel8jUDUNIcQBpefiYcI_9N3kBJW5VFaa_nii2oUutjtBnOn6Ccw6lkuygkp-FP55Cx687ysY96JGYGsTO6x5s-YUsEhCSDG6pHBeZg51G_kK6alCVGhSm9SfyN_cH9C6Nm-ePVA6-9TamLQ", "width": 800}], "place_id": "ChIJ8aDwMJ9w44kR0m-Bn67ZYLk", "plus_code": {"compound_code": "9W5H+HC Boston, Massachusetts, United States", "global_code": "87JC9W5H+HC"}, "rating": 4.7, "reference": "ChIJ8aDwMJ9w44kR0m-Bn67ZYLk", "scope": "GOOGLE", "types": ["point_of_interest", "establishment"], "user_ratings_total": 3, "vicinity": "145 Pinckney Street, Boston"}, "ChIJ__8vMp9w44kRG27gnbUphiw": {"geometry": {"location": {"lat": 42.35905899999999, "lng": -71.0715634}, "viewport": {"northeast": {"lat": 42.36026138029149, "lng": -71.0702106197085}, "southwest": {"lat": 42.3575634197085, "lng": -71.07290858029153}}}, "icon": "https://maps.gstatic.com/mapfiles/place_api/icons/generic_business-71.png", "id": "712cc6976e734d52271887b437cd6a6fd67121f1", "name": "ML Smith Partners", "place_id": "ChIJ__8vMp9w44kRG27gnbUphiw", "plus_code": {"compound_code": "9W5H+J9 Boston, Massachusetts, United States", "global_code": "87JC9W5H+J9"}, "reference": "ChIJ__8vMp9w44kRG27gnbUphiw", "scope": "GOOGLE", "types": ["point_of_interest", "establishment"], "vicinity": "145 Pinckney Street, Boston"}}