{"ChIJGzE9DS1l44kRoOhiASS_fHg": {"geometry": {"location": {"lat": 42.3600825, "lng": -71.0588801}, "viewport": {"northeast": {"lat": 42.40081989999999, "lng": -70.749455}, "southwest": {"lat": 42.22788, "lng": -71.191113}}}, "icon": "https://maps.gstatic.com/mapfiles/place_api/icons/geocode-71.png", "id": "06755c25d2b34d13942a4713971756a55b870ced", "name": "Boston", "photos": [{"height": 3024, "html_attributions": ["<a href=\"https://maps.google.com/maps/contrib/104670289779338733432/photos\">Natalia Zalucean</a>"], "photo_reference": "CmRaAAAAsCLKHY2c6Fwv3f_fGDxqkGayWk_mRmPfN9ACYk3fAkTogWxs_yO8B4xcRfZxcC88TWGuDedtDgeVV3uXi-4r6EfLDBaL1q-BDDXiFdXkeDLKPK2dnHTn40mgMSEciOeuEhCmUzqm5cRIBeGRkqmjR8-ZGhTrhUhaaUh2eKNpFD9_HaAK_jb5WQ", "width": 4032}], "place_id": "ChIJGzE9DS1l44kRoOhiASS_fHg", "reference": "ChIJGzE9DS1l44kRoOhiASS_fHg", "scope": "GOOGLE", "types": ["locality", "political"], "vicinity": "Boston"}, "ChIJVQYNFjl644kR86lHXzZ7QEs": {"geometry": {"location": {"lat": 42.33057059999999, "lng": -71.0772767}, "viewport": {"northeast": {"lat": 42.33204768029149, "lng": -71.07607481970848}, "southwest": {"lat": 42.32934971970849, "lng": -71.0787727802915}}}, "icon": "https://maps.gstatic.com/mapfiles/place_api/icons/school-71.png", "id": "e91a502a9a454d0d5d320c1a726b28aa8bfaa6d7", "name": "Orchard Gardens", "place_id": "ChIJVQYNFjl644kR86lHXzZ7QEs", "plus_code": {"compound_code": "8WJF+63 Boston, Massachusetts, United States", "global_code": "87JC8WJF+63"}, "rating": 4.4, "reference": "ChIJVQYNFjl644kR86lHXzZ7QEs", "scope": "GOOGLE", "types": ["school", "point_of_interest", "establishment"], "user_ratings_total": 18, "vicinity": "906 Albany Street, Boston"}, "ChIJR8Pg5Dt644kRsx16lCArqoQ": {"geometry": {"location": {"lat": 42.3311959, "lng": -71.080128}, "viewport": {"northeast": {"lat": 42.3326440302915, "lng": -71.0788976197085}, "southwest": {"lat": 42.3299460697085, "lng": -71.08159558029152}}}, "icon": "https://maps.gstatic.com/mapfiles/place_api/icons/shopping-71.png", "id": "18ebe36dbe43f1adcfa519cbfc0a339a9b0c4235", "name": "Morgan Memorial Goodwill Industries", "opening_hours": {"open_now": true}, "photos": [{"height": 3024, "html_attributions": ["<a href=\"https://maps.google.com/maps/contrib/104707052119508987800/photos\">Robert Schepis</a>"], "photo_reference": "CmRaAAAAQYBKRK9Sl7QsSqDqyXclVYWKbRj7F2AxpYi7f3MoHCZ4vvNTUONAKonIS5o1Gmrc4aQzL0sW47LlAaM3-lqMgBa8oOyQXK3Q1ZsWOsMGxCZQSalgy_6i2CQUo1XuaHwMEhDQl9jYfSqSl0llFcHvh1ObGhTWTJM43Oae6O43peBGSEiqU0gxdQ", "width": 4032}], "place_id": "ChIJR8Pg5Dt644kRsx16lCArqoQ", "plus_code": {"compound_code": "8WJ9+FW Boston, Massachusetts, United States", "global_code": "87JC8WJ9+FW"}, "rating": 4, "reference": "ChIJR8Pg5Dt644kRsx16lCArqoQ", "scope": "GOOGLE", "types": ["store", "point_of_interest", "establishment"], "user_ratings_total": 258, "vicinity": "1010 Harrison Avenue, Boston"}, "ChIJ8SPg6Bl644kRHQQJyCN2SUk": {"geometry": {"location": {"lat": 42.3307089, "lng": -71.0798825}, "viewport": {"northeast": {"lat": 42.3323386302915, "lng": -71.0788694697085}, "southwest": {"lat": 42.3296406697085, "lng": -71.08156743029151}}}, "icon": "https://maps.gstatic.com/mapfiles/place_api/icons/generic_business-71.png", "id": "fa986166fcc611b42b3641464fbe0f6b8a5fa531", "name": "MassHire Boston Career Center", "opening_hours": {"open_now": true}, "photos": [{"height": 516, "html_attributions": ["<a href=\"https://maps.google.com/maps/contrib/112631300340560494975/photos\">Morgan Memorial Goodwill Industries</a>"], "photo_reference": "CmRaAAAALURUPGMG8SI9JuocWB5QTNskrFQysm01I5GlBQnCp8TdW2QOzb71fJjPGfdyFq1Cm8P1ibj0axwPdth85ohdkY3JdgfG2X1OsBBm8qg6UQx2O_5ubMsgFsUABdo8mRqKEhCQ-D0y-YmRo736l80_khWcGhTmhDvgfEkT5cXJ9OYfVs5mv_6OhQ", "width": 721}], "place_id": "ChIJ8SPg6Bl644kRHQQJyCN2SUk", "plus_code": {"compound_code": "8WJC+72 Boston, Massachusetts, United States", "global_code": "87JC8WJC+72"}, "rating": 3.7, "reference": "ChIJ8SPg6Bl644kRHQQJyCN2SUk", "scope": "GOOGLE", "types": ["point_of_interest", "establishment"], "user_ratings_total": 7, "vicinity": "1010 Harrison Avenue, Boston"}, "ChIJNyILxT5644kRidQ5lExfq8s": {"geometry": {"location": {"lat": 42.3322682, "lng": -71.07886549999999}, "viewport": {"northeast": {"lat": 42.3336484802915, "lng": -71.07755481970848}, "southwest": {"lat": 42.3309505197085, "lng": -71.08025278029149}}}, "icon": "https://maps.gstatic.com/mapfiles/place_api/icons/civic_building-71.png", "id": "f618bf614ecad680f11123a5807f734b8ba53e1c", "name": "Boston Water and Sewer Commission", "opening_hours": {"open_now": true}, "photos": [{"height": 2988, "html_attributions": ["<a href=\"https://maps.google.com/maps/contrib/106679647344802723960/photos\">Guadalupe Sgarcia</a>"], "photo_reference": "CmRaAAAAlPECniUHvYgrdIk6D8JROiN6jLCvPJmylVDj8heoR7CXM65PzecyzH07oxaXJWRHDJ92r84qmwpZixnuT2WW1FDHe8x1AHOWM5XBJYGgsZUY2FOw9zIt50vvsyGivW3oEhBFdHt7b8-z2h_g9929zj_tGhQq2Qpy6YMWGYGt2AzO4kzd0bB7zg", "width": 5312}], "place_id": "ChIJNyILxT5644kRidQ5lExfq8s", "plus_code": {"compound_code": "8WJC+WF Boston, Massachusetts, United States", "global_code": "87JC8WJC+WF"}, "rating": 4.1, "reference": "ChIJNyILxT5644kRidQ5lExfq8s", "scope": "GOOGLE", "types": ["local_government_office", "point_of_interest", "establishment"], "user_ratings_total": 10, "vicinity": "980 Harrison Avenue, Roxbury"}, "ChIJGTw1KCp644kRw3ifJFU6dsI": {"geometry": {"location": {"lat": 42.3322293, "lng": -71.07764159999999}, "viewport": {"northeast": {"lat": 42.3338456802915, "lng": -71.07661231970849}, "southwest": {"lat": 42.3311477197085, "lng": -71.0793102802915}}}, "icon": "https://maps.gstatic.com/mapfiles/place_api/icons/generic_recreational-71.png", "id": "cb25cd425c4bc7672861403af3e7c74a653a6cd0", "name": "Highland Park", "opening_hours": {"open_now": true}, "photos": [{"height": 5312, "html_attributions": ["<a href=\"https://maps.google.com/maps/contrib/104949228059015518123/photos\">Joseph Fritz</a>"], "photo_reference": "CmRZAAAA0YQZsBhy9nzeSzpDQ3OnN0lH1RB2Mn0wrt_vW95BWy0Wpc1jY5fy4fsxk-myug_Kxewdb9K8N7uDffe11umyWG-bMlJuOr2hpyadeuaQctPqb5V-Vtj6WkUs7hQbzQJpEhBixYrWlg8NBo4Evkg_DfD0GhRtWm_6exX_FfW7TE1W4oTpzMkJQg", "width": 2988}], "place_id": "ChIJGTw1KCp644kRw3ifJFU6dsI", "plus_code": {"compound_code": "8WJC+VW Boston, Massachusetts, United States", "global_code": "87JC8WJC+VW"}, "rating": 4.5, "reference": "ChIJGTw1KCp644kRw3ifJFU6dsI", "scope": "GOOGLE", "types": ["park", "point_of_interest", "establishment"], "user_ratings_total": 14, "vicinity": "980 Harrison Avenue, Boston"}, "ChIJTU_nyD5644kRtF9AjLitILU": {"geometry": {"location": {"lat": 42.3323543, "lng": -71.07773019999999}, "viewport": {"northeast": {"lat": 42.33391933029149, "lng": -71.07663956970849}, "southwest": {"lat": 42.33122136970849, "lng": -71.0793375302915}}}, "icon": "https://maps.gstatic.com/mapfiles/place_api/icons/atm-71.png", "id": "28392bb450fa5ba6dee0b8980499ee8f2c6246f7", "name": "City of Boston Credit Union", "place_id": "ChIJTU_nyD5644kRtF9AjLitILU", "plus_code": {"compound_code": "8WJC+WW Boston, Massachusetts, United States", "global_code": "87JC8WJC+WW"}, "reference": "ChIJTU_nyD5644kRtF9AjLitILU", "scope": "GOOGLE", "types": ["atm", "finance", "point_of_interest", "establishment"], "vicinity": "980 Harrison Avenue, Boston"}, "ChIJmcC0PBR644kRkDAUt0V4tEY": {"geometry": {"location": {"lat": 42.33057059999999, "lng": -71.0772767}, "viewport": {"northeast": {"lat": 42.33204768029149, "lng": -71.07607481970848}, "southwest": {"lat": 42.32934971970849, "lng": -71.0787727802915}}}, "icon": "https://maps.gstatic.com/mapfiles/place_api/icons/school-71.png", "id": "a0379b32729f9b815d5aad59d7f6241eaa896810", "name": "Orchard Gardens K-8 School", "place_id": "ChIJmcC0PBR644kRkDAUt0V4tEY", "plus_code": {"compound_code": "8WJF+63 Boston, Massachusetts, United States", "global_code": "87JC8WJF+63"}, "rating": 3.8, "reference": "ChIJmcC0PBR644kRkDAUt0V4tEY", "scope": "GOOGLE", "types": ["school", "point_of_interest", "establishment"], "user_ratings_total": 5, "vicinity": "906 Albany Street, Boston"}, "ChIJjwYNFjl644kRXIXAJmRNyjU": {"geometry": {"location": {"lat": 42.33057059999999, "lng": -71.0772767}, "viewport": {"northeast": {"lat": 42.33204768029149, "lng": -71.07607481970848}, "southwest": {"lat": 42.32934971970849, "lng": -71.0787727802915}}}, "icon": "https://maps.gstatic.com/mapfiles/place_api/icons/school-71.png", "id": "7d53762511581b3f9dd1811a590b4d0a13417b61", "name": "City of Boston School", "place_id": "ChIJjwYNFjl644kRXIXAJmRNyjU", "plus_code": {"compound_code": "8WJF+63 Boston, Massachusetts, United States", "global_code": "87JC8WJF+63"}, "rating": 5, "reference": "ChIJjwYNFjl644kRXIXAJmRNyjU", "scope": "GOOGLE", "types": ["school", "point_of_interest", "establishment"], "user_ratings_total": 1, "vicinity": "906 Albany Street, Roxbury"}, "ChIJ1cJicDl644kRsUY8rw7dQ2s": {"geometry": {"location": {"lat": 42.3301285, "lng": -71.0786957}, "viewport": {"northeast": {"lat": 42.3314993302915, "lng": -71.07737151970849}, "southwest": {"lat": 42.3288013697085, "lng": -71.0800694802915}}}, "icon": "https://maps.gstatic.com/mapfiles/place_api/icons/generic_business-71.png", "id": "83e441aa2007c5cf3baa3381cc4a571dee044ba2", "name": "Bahai Centre", "place_id": "ChIJ1cJicDl644kRsUY8rw7dQ2s", "plus_code": {"compound_code": "8WJC+3G Boston, Massachusetts, United States", "global_code": "87JC8WJC+3G"}, "reference": "ChIJ1cJicDl644kRsUY8rw7dQ2s", "scope": "GOOGLE", "types": ["place_of_worship", "point_of_interest", "establishment"], "vicinity": "959 Albany Street, Boston"}, "ChIJJaVydzl644kRtqFpKEjCfSQ": {"geometry": {"location": {"lat": 42.3298857, "lng": -71.0783549}, "viewport": {"northeast": {"lat": 42.3312688802915, "lng": -71.0771870697085}, "southwest": {"lat": 42.3285709197085, "lng": -71.0798850302915}}}, "icon": "https://maps.gstatic.com/mapfiles/place_api/icons/school-71.png", "id": "abd333610087ed35a03af32e28871c334123cf0c", "name": "Orchard Garden Boys & Girls Club of Boston", "place_id": "ChIJJaVydzl644kRtqFpKEjCfSQ", "plus_code": {"compound_code": "8WHC+XM Boston, Massachusetts, United States", "global_code": "87JC8WHC+XM"}, "reference": "ChIJJaVydzl644kRtqFpKEjCfSQ", "scope": "GOOGLE", "types": ["point_of_interest", "establishment"], "vicinity": "2 Dearborn Street, Roxbury"}, "ChIJBwMXVTl644kRcZ_JVYVgi1c": {"geometry": {"location": {"lat": 42.332081, "lng": -71.07936149999999}, "viewport": {"northeast": {"lat": 42.33343828029149, "lng": -71.0780232697085}, "southwest": {"lat": 42.33074031970849, "lng": -71.0807212302915}}}, "icon": "https://maps.gstatic.com/mapfiles/place_api/icons/generic_business-71.png", "id": "0a1f44d102b27711e4f120e473be7ee142d62b28", "name": "Harrison Ave @ Melnea Cass Blvd", "place_id": "ChIJBwMXVTl644kRcZ_JVYVgi1c", "plus_code": {"compound_code": "8WJC+R7 Boston, Massachusetts, United States", "global_code": "87JC8WJC+R7"}, "reference": "ChIJBwMXVTl644kRcZ_JVYVgi1c", "scope": "GOOGLE", "types": ["transit_station", "point_of_interest", "establishment"], "vicinity": "United States"}, "ChIJe-flPzl644kRI7qi9vNKjd0": {"geometry": {"location": {"lat": 42.33076739999999, "lng": -71.0779369}, "viewport": {"northeast": {"lat": 42.3320668802915, "lng": -71.0765310697085}, "southwest": {"lat": 42.3293689197085, "lng": -71.0792290302915}}}, "icon": "https://maps.gstatic.com/mapfiles/place_api/icons/generic_business-71.png", "id": "551455cbb2b39f084584a93828c57fa1d07626be", "name": "Cuenca Enterprises Of America", "place_id": "ChIJe-flPzl644kRI7qi9vNKjd0", "plus_code": {"compound_code": "8WJC+8R Boston, Massachusetts, United States", "global_code": "87JC8WJC+8R"}, "rating": 3, "reference": "ChIJe-flPzl644kRI7qi9vNKjd0", "scope": "GOOGLE", "types": ["point_of_interest", "establishment"], "user_ratings_total": 1, "vicinity": "Boston"}, "ChIJg8mjVDl644kRIW-6xYV7sn0": {"geometry": {"location": {"lat": 42.332066, "lng": -71.07914699999999}, "viewport": {"northeast": {"lat": 42.3334023302915, "lng": -71.0778097197085}, "southwest": {"lat": 42.3307043697085, "lng": -71.08050768029152}}}, "icon": "https://maps.gstatic.com/mapfiles/place_api/icons/bus-71.png", "id": "c37dcf5d8eaef9b4a85569063114e634072bca43", "name": "Melnea Cass Blvd @ Harrison Ave", "place_id": "ChIJg8mjVDl644kRIW-6xYV7sn0", "plus_code": {"compound_code": "8WJC+R8 Boston, Massachusetts, United States", "global_code": "87JC8WJC+R8"}, "reference": "ChIJg8mjVDl644kRIW-6xYV7sn0", "scope": "GOOGLE", "types": ["bus_station", "transit_station", "point_of_interest", "establishment"], "vicinity": "United States"}, "ChIJzQHVVDl644kRkMW_eK-S2Sk": {"geometry": {"location": {"lat": 42.332146, "lng": -71.07929299999999}, "viewport": {"northeast": {"lat": 42.3334922802915, "lng": -71.0779409697085}, "southwest": {"lat": 42.3307943197085, "lng": -71.0806389302915}}}, "icon": "https://maps.gstatic.com/mapfiles/place_api/icons/bus-71.png", "id": "39c19221d8e2a38b5cb1b0a02eac6d36ee3e3864", "name": "Harrison Ave @ Melnea Cass Blvd", "place_id": "ChIJzQHVVDl644kRkMW_eK-S2Sk", "plus_code": {"compound_code": "8WJC+V7 Boston, Massachusetts, United States", "global_code": "87JC8WJC+V7"}, "reference": "ChIJzQHVVDl644kRkMW_eK-S2Sk", "scope": "GOOGLE", "types": ["bus_station", "transit_station", "point_of_interest", "establishment"], "vicinity": "United States"}, "ChIJ5yM4_jt644kRBDPu9wNfNIA": {"geometry": {"location": {"lat": 42.332016, "lng": -71.079576}, "viewport": {"northeast": {"lat": 42.33339373029149, "lng": -71.07820251970851}, "southwest": {"lat": 42.3306957697085, "lng": -71.08090048029152}}}, "icon": "https://maps.gstatic.com/mapfiles/place_api/icons/bus-71.png", "id": "659702fda3ec285c3c780395a43ed9ec6f6b947d", "name": "Melnea Cass Blvd @ Harrison Ave", "place_id": "ChIJ5yM4_jt644kRBDPu9wNfNIA", "plus_code": {"compound_code": "8WJC+R5 Boston, Massachusetts, United States", "global_code": "87JC8WJC+R5"}, "reference": "ChIJ5yM4_jt644kRBDPu9wNfNIA", "scope": "GOOGLE", "types": ["bus_station", "transit_station", "point_of_interest", "establishment"], "vicinity": "United States"}, "ChIJI5AVuj5644kRPP5zdJvr9Wk": {"geometry": {"location": {"lat": 42.33268169999999, "lng": -71.0784618}, "viewport": {"northeast": {"lat": 42.3340341802915, "lng": -71.07711701970851}, "southwest": {"lat": 42.3313362197085, "lng": -71.07981498029152}}}, "icon": "https://maps.gstatic.com/mapfiles/place_api/icons/generic_business-71.png", "id": "3291f26abccf250eb568ff3fa304faa5c15eb6c8", "name": "Always Available Roxbury", "place_id": "ChIJI5AVuj5644kRPP5zdJvr9Wk", "plus_code": {"compound_code": "8WMC+3J Boston, Massachusetts, United States", "global_code": "87JC8WMC+3J"}, "reference": "ChIJI5AVuj5644kRPP5zdJvr9Wk", "scope": "GOOGLE", "types": ["point_of_interest", "establishment"], "vicinity": "945 Harrison Avenue, Roxbury"}, "ChIJUU39LT9644kRrETKr-WvlW0": {"geometry": {"location": {"lat": 42.3313904, "lng": -71.0764428}, "viewport": {"northeast": {"lat": 42.3327802302915, "lng": -71.07513981970848}, "southwest": {"lat": 42.3300822697085, "lng": -71.07783778029149}}}, "icon": "https://maps.gstatic.com/mapfiles/place_api/icons/shopping-71.png", "id": "accb599eb60bc6d5a84c71ebfb01cbd57da4ca92", "name": "American Canvas Co", "place_id": "ChIJUU39LT9644kRrETKr-WvlW0", "plus_code": {"compound_code": "8WJF+HC Boston, Massachusetts, United States", "global_code": "87JC8WJF+HC"}, "reference": "ChIJUU39LT9644kRrETKr-WvlW0", "scope": "GOOGLE", "types": ["store", "point_of_interest", "establishment"], "vicinity": "850 Albany Street, Roxbury"}, "ChIJL43WKj9644kRk_UvvF_Htww": {"geometry": {"location": {"lat": 42.331675, "lng": -71.076347}, "viewport": {"northeast": {"lat": 42.3329981802915, "lng": -71.07496896970848}, "southwest": {"lat": 42.3303002197085, "lng": -71.0776669302915}}}, "icon": "https://maps.gstatic.com/mapfiles/place_api/icons/bus-71.png", "id": "e7c24a719dc524939923f0e3e3749737f0297a4b", "name": "Albany St @ Randall St", "place_id": "ChIJL43WKj9644kRk_UvvF_Htww", "plus_code": {"compound_code": "8WJF+MF Boston, Massachusetts, United States", "global_code": "87JC8WJF+MF"}, "reference": "ChIJL43WKj9644kRk_UvvF_Htww", "scope": "GOOGLE", "types": ["bus_station", "transit_station", "point_of_interest", "establishment"], "vicinity": "United States"}, "ChIJh-CN2yx644kRI8h5WPc98wQ": {"geometry": {"location": {"lat": 42.31519779999999, "lng": -71.0913748}, "viewport": {"northeast": {"lat": 42.335885, "lng": -71.06649519999999}, "southwest": {"lat": 42.29179790000001, "lng": -71.1067612}}}, "icon": "https://maps.gstatic.com/mapfiles/place_api/icons/geocode-71.png", "id": "33d978342c31fa28698809200432caaeeab1c79d", "name": "Roxbury", "photos": [{"height": 5312, "html_attributions": ["<a href=\"https://maps.google.com/maps/contrib/108141736953672835093/photos\">Warriorprincess4916</a>"], "photo_reference": "CmRaAAAA7sfmQlODUd2XxcyVUVyyn0VBgOFeHHqZi-uXN4A0Cmt5HtVbY8tH3uCv9aidH29rGEXrywnxvmV7tubXZYPjxUkO9yGufZZcK-37gbZbsYEtYX312EUNY_Juv7eKx3l8EhBLPrY71tIEzYySfnEZr5dTGhT7kft-fxqRzDnFZ9iIBUMtnkXGDQ", "width": 2988}], "place_id": "ChIJh-CN2yx644kRI8h5WPc98wQ", "reference": "ChIJh-CN2yx644kRI8h5WPc98wQ", "scope": "GOOGLE", "types": ["neighborhood", "political"], "vicinity": "Dorchester Center"}, "ChIJDf_4JDx644kRHep990bT2ns": {"geometry": {"location": {"lat": 42.3339371, "lng": -71.0819042}, "viewport": {"northeast": {"lat": 42.3365341, "lng": -71.0724291}, "southwest": {"lat": 42.3312491, "lng": -71.08768669999999}}}, "icon": "https://maps.gstatic.com/mapfiles/place_api/icons/generic_recreational-71.png", "id": "619ceb86b3d396ce9c40c3eb039cb78d2b095087", "name": "Melnea Cass Boulevard", "place_id": "ChIJDf_4JDx644kRHep990bT2ns", "reference": "ChIJDf_4JDx644kRHep990bT2ns", "scope": "GOOGLE", "types": ["park", "premise", "point_of_interest", "establishment"], "vicinity": "Boston"}}