{"ChIJGzE9DS1l44kRoOhiASS_fHg": {"geometry": {"location": {"lat": 42.3600825, "lng": -71.0588801}, "viewport": {"northeast": {"lat": 42.40081989999999, "lng": -70.749455}, "southwest": {"lat": 42.22788, "lng": -71.191113}}}, "icon": "https://maps.gstatic.com/mapfiles/place_api/icons/geocode-71.png", "id": "06755c25d2b34d13942a4713971756a55b870ced", "name": "Boston", "photos": [{"height": 3024, "html_attributions": ["<a href=\"https://maps.google.com/maps/contrib/104670289779338733432/photos\">Natalia Zalucean</a>"], "photo_reference": "CmRaAAAAg1Okj5_aCn1cDZzQG_HoR0JQItfheTOb7fg_Oh9z_k_0cBUOGUqdYi44KVD7On3nx8GtJrAGTF2huAcitgvQm17xL33lv2zLa7TfUEblq1H37NIj3GeqgwcVpbLsCu1tEhBFWF87-8gmRx2OOchs3T80GhSQ-X7YI0d2rbiAMtbY2wKSXiUa6Q", "width": 4032}], "place_id": "ChIJGzE9DS1l44kRoOhiASS_fHg", "reference": "ChIJGzE9DS1l44kRoOhiASS_fHg", "scope": "GOOGLE", "types": ["locality", "political"], "vicinity": "Boston"}, "ChIJ_zwF5FN644kRHlch5-Lb47Y": {"geometry": {"location": {"lat": 42.3182516, "lng": -71.0572725}, "viewport": {"northeast": {"lat": 42.3197208802915, "lng": -71.05592941970849}, "southwest": {"lat": 42.3170229197085, "lng": -71.0586273802915}}}, "icon": "https://maps.gstatic.com/mapfiles/place_api/icons/school-71.png", "id": "f9a2fbee7cecacb02a576bf96b1003ee90adb3cb", "name": "Little House", "photos": [{"height": 1080, "html_attributions": ["<a href=\"https://maps.google.com/maps/contrib/108701809767284452785/photos\">Faybio</a>"], "photo_reference": "CmRaAAAA5XZkqgwu1zmH_YeTAkV22FcdKBPq8mwr-nZGvUw93j9zHb0svXHxQqet_C9CKCCCceaDNUzMsXSx5cO-SdNTosajqRzyUZoBjUD9T2fM_rI-R0DRvqFEXtw4EYpCbgjVEhCL03DAfTKmmi8ORszA1vUxGhQCI8y4viif3cQKgfsssZ3FdFtJwQ", "width": 1920}], "place_id": "ChIJ_zwF5FN644kRHlch5-Lb47Y", "plus_code": {"compound_code": "8W9V+83 Boston, Massachusetts, United States", "global_code": "87JC8W9V+83"}, "reference": "ChIJ_zwF5FN644kRHlch5-Lb47Y", "scope": "GOOGLE", "types": ["point_of_interest", "school", "establishment"], "vicinity": "275 East Cottage Street, Dorchester"}, "ChIJr7erFlJ644kR-tBgtxeWi_s": {"geometry": {"location": {"lat": 42.318515, "lng": -71.0604535}, "viewport": {"northeast": {"lat": 42.3198776802915, "lng": -71.05915096970848}, "southwest": {"lat": 42.3171797197085, "lng": -71.06184893029149}}}, "icon": "https://maps.gstatic.com/mapfiles/place_api/icons/generic_business-71.png", "id": "92d41431a80578d5907154da7dac020cb3db5b60", "name": "Soul Food Design", "place_id": "ChIJr7erFlJ644kR-tBgtxeWi_s", "plus_code": {"compound_code": "8W9Q+CR Boston, Massachusetts, United States", "global_code": "87JC8W9Q+CR"}, "reference": "ChIJr7erFlJ644kR-tBgtxeWi_s", "scope": "GOOGLE", "types": ["point_of_interest", "establishment"], "vicinity": "20 Dawes Street # 2, Dorchester"}, "ChIJf9mE0lN644kRWZaUzoeqQ0c": {"geometry": {"location": {"lat": 42.3185334, "lng": -71.0585749}, "viewport": {"northeast": {"lat": 42.3199024302915, "lng": -71.05737001970849}, "southwest": {"lat": 42.3172044697085, "lng": -71.06006798029149}}}, "icon": "https://maps.gstatic.com/mapfiles/place_api/icons/generic_business-71.png", "id": "5929ff76cd603d8c27d04a38e76b3af95602ca61", "name": "Boston Sales Training: WINNING, Inc.", "opening_hours": {"open_now": true}, "photos": [{"height": 360, "html_attributions": ["<a href=\"https://maps.google.com/maps/contrib/109846668480939246773/photos\">Boston Sales Training: WINNING, Inc.</a>"], "photo_reference": "CmRaAAAA-YVu7ZEWenn1FXB8c-t3vQVwlB3pWvHebgb7rf_d3BrkMXa0Z3b4oWV8b3Uur_vjlF_ZFhxe7Ri1dB1YK1Yf_Ha_AbPW0GS0z3eMGoaUuPT0wUc_7Yp_4OzPKDLsREWnEhDwUCSswZ4q5jAl0cq-DHvzGhRzGvEbn5TrwKYBNNA38LnUS9ScAQ", "width": 283}], "place_id": "ChIJf9mE0lN644kRWZaUzoeqQ0c", "plus_code": {"compound_code": "8W9R+CH Boston, Massachusetts, United States", "global_code": "87JC8W9R+CH"}, "reference": "ChIJf9mE0lN644kRWZaUzoeqQ0c", "scope": "GOOGLE", "types": ["point_of_interest", "establishment"], "vicinity": "2 Pleasant Street, Dorchester"}, "ChIJV46xVVJ644kROjSw4YvkznE": {"geometry": {"location": {"lat": 42.316921, "lng": -71.058931}, "viewport": {"northeast": {"lat": 42.3183014802915, "lng": -71.0577712697085}, "southwest": {"lat": 42.3156035197085, "lng": -71.0604692302915}}}, "icon": "https://maps.gstatic.com/mapfiles/place_api/icons/generic_business-71.png", "id": "aa6792a2de519df6ff537486cc9a05168e27d7a8", "name": "Bay Cove Human Services", "photos": [{"height": 3264, "html_attributions": ["<a href=\"https://maps.google.com/maps/contrib/116040212339842113912/photos\">Qiusheng Jin</a>"], "photo_reference": "CmRaAAAAN640sP2S-WvrK6nTC3US-AWv7BcnEE6-JEqz83DoTtOVlQvcJ-LdoycSxJ40ZiANI3U0YYAcCbntwYi0qe_pLXqdtMxK6chWK6DYdmUFNv3_HVltetgzUbFo4BUgueVlEhBXlJimc5phMLmxn-zjk3RJGhRdMPgnNdzmGYd91EGDBFmEokuhVQ", "width": 2448}], "place_id": "ChIJV46xVVJ644kROjSw4YvkznE", "plus_code": {"compound_code": "8W8R+QC Boston, Massachusetts, United States", "global_code": "87JC8W8R+QC"}, "reference": "ChIJV46xVVJ644kROjSw4YvkznE", "scope": "GOOGLE", "types": ["point_of_interest", "establishment"], "vicinity": "30 Pleasant Street, Dorchester"}, "ChIJ1XXIwlN644kRZ9Dhsw8OATE": {"geometry": {"location": {"lat": 42.3182614, "lng": -71.05730539999999}, "viewport": {"northeast": {"lat": 42.3197253802915, "lng": -71.05596201970849}, "southwest": {"lat": 42.3170274197085, "lng": -71.05865998029151}}}, "icon": "https://maps.gstatic.com/mapfiles/place_api/icons/generic_business-71.png", "id": "05d3d781102a3512188c1e59c11dfc94a2f40fe2", "name": "Dot Art", "place_id": "ChIJ1XXIwlN644kRZ9Dhsw8OATE", "plus_code": {"compound_code": "8W9V+83 Boston, Massachusetts, United States", "global_code": "87JC8W9V+83"}, "reference": "ChIJ1XXIwlN644kRZ9Dhsw8OATE", "scope": "GOOGLE", "types": ["point_of_interest", "establishment"], "vicinity": "The Little House, 275 East Cottage Street, Dorchester"}, "ChIJ7TJL6VN644kRdHaStxHL1E0": {"geometry": {"location": {"lat": 42.3179634, "lng": -71.056838}, "viewport": {"northeast": {"lat": 42.3193129802915, "lng": -71.05543296970849}, "southwest": {"lat": 42.3166150197085, "lng": -71.0581309302915}}}, "icon": "https://maps.gstatic.com/mapfiles/place_api/icons/shopping-71.png", "id": "3b0a35c3278e6349fec33b3df3f6e2ab09b11896", "name": "Art Studio Sign & Neon", "place_id": "ChIJ7TJL6VN644kRdHaStxHL1E0", "plus_code": {"compound_code": "8W9V+57 Boston, Massachusetts, United States", "global_code": "87JC8W9V+57"}, "reference": "ChIJ7TJL6VN644kRdHaStxHL1E0", "scope": "GOOGLE", "types": ["store", "point_of_interest", "establishment"], "vicinity": "963 Dorchester Avenue, Dorchester"}, "ChIJP86T61N644kRmfPirJcVI2A": {"geometry": {"location": {"lat": 42.31784020000001, "lng": -71.0568938}, "viewport": {"northeast": {"lat": 42.3191901302915, "lng": -71.05545966970848}, "southwest": {"lat": 42.3164921697085, "lng": -71.0581576302915}}}, "icon": "https://maps.gstatic.com/mapfiles/place_api/icons/generic_business-71.png", "id": "07c0d577a8a5769e6ac2bc7a684a7e3c0e908521", "name": "Lauchlin Group Real Estate", "opening_hours": {"open_now": true}, "photos": [{"height": 1000, "html_attributions": ["<a href=\"https://maps.google.com/maps/contrib/108382244231207414064/photos\">Lauchlin Group Real Estate</a>"], "photo_reference": "CmRaAAAAUIGIXXT6jhstUxdTRG97TwcxhAJYMflSXK-CGmAbkbqFD7aEZQCw7HWKYZuE7rOy-mRvM9DGHl5v4Grf78WnX5LeORQ1nYP5DEYJNCJINuHKBV6SnVw-SHquI3sr3hKSEhCbTDohIU7AZ1puJGGJ5i-zGhT9skJAbuWeProYAQqwvIdplQBqiw", "width": 1000}], "place_id": "ChIJP86T61N644kRmfPirJcVI2A", "plus_code": {"compound_code": "8W9V+46 Boston, Massachusetts, United States", "global_code": "87JC8W9V+46"}, "reference": "ChIJP86T61N644kRmfPirJcVI2A", "scope": "GOOGLE", "types": ["real_estate_agency", "point_of_interest", "establishment"], "vicinity": "969 Dorchester Avenue, Boston"}, "ChIJ74HlYVJ644kRywANsp5GIYE": {"geometry": {"location": {"lat": 42.3170952, "lng": -71.0604898}, "viewport": {"northeast": {"lat": 42.3183630302915, "lng": -71.05916776970851}, "southwest": {"lat": 42.3156650697085, "lng": -71.06186573029152}}}, "icon": "https://maps.gstatic.com/mapfiles/place_api/icons/generic_business-71.png", "id": "33e8aa6e2bcd09bd67af996c51be4bfdaa5c3c46", "name": "JM Custom Design", "place_id": "ChIJ74HlYVJ644kRywANsp5GIYE", "plus_code": {"compound_code": "8W8Q+RR Boston, Massachusetts, United States", "global_code": "87JC8W8Q+RR"}, "reference": "ChIJ74HlYVJ644kRywANsp5GIYE", "scope": "GOOGLE", "types": ["general_contractor", "point_of_interest", "establishment"], "vicinity": "77 Mayfield Street, Dorchester"}, "ChIJ___LN1J644kRgMY-uqE533k": {"geometry": {"location": {"lat": 42.31810649999999, "lng": -71.0592587}, "viewport": {"northeast": {"lat": 42.3194365802915, "lng": -71.05777401970849}, "southwest": {"lat": 42.3167386197085, "lng": -71.06047198029151}}}, "icon": "https://maps.gstatic.com/mapfiles/place_api/icons/generic_business-71.png", "id": "373e2234209547fee0a576264f6bd4b8068a6778", "name": "boston kickers", "place_id": "ChIJ___LN1J644kRgMY-uqE533k", "plus_code": {"compound_code": "8W9R+67 Boston, Massachusetts, United States", "global_code": "87JC8W9R+67"}, "reference": "ChIJ___LN1J644kRgMY-uqE533k", "scope": "GOOGLE", "types": ["point_of_interest", "establishment"], "vicinity": "9 Pleasant Street, Dorchester"}, "ChIJZWxSiS9744kR6yY2e8Vu-q0": {"geometry": {"location": {"lat": 42.3171912, "lng": -71.05811059999999}, "viewport": {"northeast": {"lat": 42.3186052302915, "lng": -71.05674196970848}, "southwest": {"lat": 42.3159072697085, "lng": -71.0594399302915}}}, "icon": "https://maps.gstatic.com/mapfiles/place_api/icons/generic_business-71.png", "id": "2ea7247a565b736e2a7a7c00f5b4a19f47521508", "name": "Title 5 Specialists", "opening_hours": {"open_now": true}, "photos": [{"height": 2573, "html_attributions": ["<a href=\"https://maps.google.com/maps/contrib/111209149854833331142/photos\">Title 5 Specialists</a>"], "photo_reference": "CmRaAAAAszrg3xUdLbedXo4qryMeRT_COnfFpZuCUGo0RxglA8-XIMhK5lvGJmC7oRyMNar_WGg-SJqZ8Me0jeVWfpz-VVoBVJWh9R4nNokJV0dysa_KSRRD15gRQot0Va48E9XlEhAAGQ5xhNDYBD9xBO1XCe2WGhQ_UJEWktYyD9AskpqjzIFZ7bcIKw", "width": 2572}], "place_id": "ChIJZWxSiS9744kR6yY2e8Vu-q0", "plus_code": {"compound_code": "8W8R+VQ Boston, Massachusetts, United States", "global_code": "87JC8W8R+VQ"}, "rating": 5, "reference": "ChIJZWxSiS9744kR6yY2e8Vu-q0", "scope": "GOOGLE", "types": ["point_of_interest", "establishment"], "user_ratings_total": 5, "vicinity": "22 Taft Street, Dorchester"}, "ChIJKVT9f1F644kRd-LRab0dFC4": {"geometry": {"location": {"lat": 42.319122, "lng": -71.058646}, "viewport": {"northeast": {"lat": 42.32053268029151, "lng": -71.05726036970849}, "southwest": {"lat": 42.31783471970851, "lng": -71.05995833029151}}}, "icon": "https://maps.gstatic.com/mapfiles/place_api/icons/generic_business-71.png", "id": "ed2df47d031036c7ce43fb29a0c6edc5ab684b41", "name": "HRV Homes", "opening_hours": {"open_now": true}, "photos": [{"height": 799, "html_attributions": ["<a href=\"https://maps.google.com/maps/contrib/100864763937661672545/photos\">HRV Homes</a>"], "photo_reference": "CmRaAAAA2Iunfmo3JKDn5LJSt75QtD5gAUNmtksYJT8-4SSfuvugukBDUWrKdv0wN1JfYFqNxbgFIbPFvx1Mq5rnLZNFy-oOdSrnNfeL0NksqqpOk_TzKhb63XQO6bLONoEPIFlFEhCZpdQb-YHG3x1PU7hQcGbDGhS4KLB-wIJPh_QmD-S733c0k73VSA", "width": 960}], "place_id": "ChIJKVT9f1F644kRd-LRab0dFC4", "plus_code": {"compound_code": "8W9R+JG Boston, Massachusetts, United States", "global_code": "87JC8W9R+JG"}, "rating": 5, "reference": "ChIJKVT9f1F644kRd-LRab0dFC4", "scope": "GOOGLE", "types": ["real_estate_agency", "point_of_interest", "establishment"], "user_ratings_total": 1, "vicinity": "34 Edison Green, Dorchester"}, "ChIJoW5QP-5744kRaBBIzjFi2F4": {"geometry": {"location": {"lat": 42.31864820000001, "lng": -71.0575071}, "viewport": {"northeast": {"lat": 42.3199208302915, "lng": -71.0561713697085}, "southwest": {"lat": 42.3172228697085, "lng": -71.05886933029151}}}, "icon": "https://maps.gstatic.com/mapfiles/place_api/icons/generic_business-71.png", "id": "29e7b797b5e4f546e1ed42a8f6390fa23c75b7ff", "name": "Takeleft", "opening_hours": {"open_now": true}, "place_id": "ChIJoW5QP-5744kRaBBIzjFi2F4", "plus_code": {"compound_code": "8W9R+FX Boston, Massachusetts, United States", "global_code": "87JC8W9R+FX"}, "reference": "ChIJoW5QP-5744kRaBBIzjFi2F4", "scope": "GOOGLE", "types": ["point_of_interest", "establishment"], "vicinity": "268 East Cottage Street, Boston"}, "ChIJ4xrPJlJ644kRZPGn8DQVygg": {"geometry": {"location": {"lat": 42.3191153, "lng": -71.0597682}, "viewport": {"northeast": {"lat": 42.3204383802915, "lng": -71.05846086970848}, "southwest": {"lat": 42.3177404197085, "lng": -71.06115883029149}}}, "icon": "https://maps.gstatic.com/mapfiles/place_api/icons/generic_business-71.png", "id": "f13b75303cdf02fa84b5003198e216613431e727", "name": "Duo", "photos": [{"height": 1080, "html_attributions": ["<a href=\"https://maps.google.com/maps/contrib/108701809767284452785/photos\">Faybio</a>"], "photo_reference": "CmRaAAAAWK4NqcawNkTn1jLuT_C0rt2A0MXCSq6HXaRkhpK8VYOTFJJFFdCi0ufy1BARbdq_QZwC2Whba6eSWBRPGdcNkv37jSvqGfv2soSKNKeWZG1iaQkMti9dtGHy8d-c4n-ZEhAGX_JKB4WBW3PexhzwpL18GhR3w_WlIvUn2sVKv38hn3qwzMjZhg", "width": 1920}], "place_id": "ChIJ4xrPJlJ644kRZPGn8DQVygg", "plus_code": {"compound_code": "8W9R+J3 Boston, Massachusetts, United States", "global_code": "87JC8W9R+J3"}, "reference": "ChIJ4xrPJlJ644kRZPGn8DQVygg", "scope": "GOOGLE", "types": ["health", "point_of_interest", "establishment"], "vicinity": "220 East Cottage Street #1, Dorchester"}, "ChIJY7zLDn5744kR4Nj8g-E6nEc": {"geometry": {"location": {"lat": 42.3193153, "lng": -71.0581705}, "viewport": {"northeast": {"lat": 42.32071798029151, "lng": -71.05684361970849}, "southwest": {"lat": 42.31802001970851, "lng": -71.0595415802915}}}, "icon": "https://maps.gstatic.com/mapfiles/place_api/icons/generic_recreational-71.png", "id": "29f2346020220171a1db2b88454ca2d6e2b94c60", "name": "Edison Green", "place_id": "ChIJY7zLDn5744kR4Nj8g-E6nEc", "plus_code": {"compound_code": "8W9R+PP Boston, Massachusetts, United States", "global_code": "87JC8W9R+PP"}, "reference": "ChIJY7zLDn5744kR4Nj8g-E6nEc", "scope": "GOOGLE", "types": ["park", "point_of_interest", "establishment"], "vicinity": "BOST-1301906000, Boston"}, "ChIJQwE971N644kR3uITN7zNQnc": {"geometry": {"location": {"lat": 42.3181665, "lng": -71.0569258}, "viewport": {"northeast": {"lat": 42.3195165302915, "lng": -71.05547891970849}, "southwest": {"lat": 42.3168185697085, "lng": -71.0581768802915}}}, "icon": "https://maps.gstatic.com/mapfiles/place_api/icons/bar-71.png", "id": "376ac79e1ea8bf0501c021aa421b67191d2b8b81", "name": "Tom English Bar", "opening_hours": {"open_now": true}, "photos": [{"height": 1836, "html_attributions": ["<a href=\"https://maps.google.com/maps/contrib/117113169030791337218/photos\">Michael Ferry</a>"], "photo_reference": "CmRaAAAAt-KVOKQC-bV-EzuSOaOb9Pg29I_68B-oJjTL2aRzbbT5Tc1jcbRpr0vt2wWKk2692QRukw9HCkYmL9do3wKfgptcYRtH4dV6K1h_Ue8MkQ8H4F7ixwJuwwZnnxN5UDlVEhDzfvckbfsj3bv9dgxc92-fGhTlpt6xF20bvI3XkeHeYV1Nz3xfbw", "width": 3264}], "place_id": "ChIJQwE971N644kR3uITN7zNQnc", "plus_code": {"compound_code": "8W9V+76 Boston, Massachusetts, United States", "global_code": "87JC8W9V+76"}, "price_level": 1, "rating": 4, "reference": "ChIJQwE971N644kR3uITN7zNQnc", "scope": "GOOGLE", "types": ["bar", "point_of_interest", "establishment"], "user_ratings_total": 65, "vicinity": "957 Dorchester Avenue, Dorchester"}, "ChIJ94T-61N644kRMPMMZjchrUw": {"geometry": {"location": {"lat": 42.317906, "lng": -71.056929}, "viewport": {"northeast": {"lat": 42.3192560802915, "lng": -71.0554779197085}, "southwest": {"lat": 42.3165581197085, "lng": -71.0581758802915}}}, "icon": "https://maps.gstatic.com/mapfiles/place_api/icons/generic_business-71.png", "id": "3573979014db20b1acb4fce9dce7712a6aa01032", "name": "El Nuevo Estilo Barbershop", "opening_hours": {"open_now": true}, "photos": [{"height": 866, "html_attributions": ["<a href=\"https://maps.google.com/maps/contrib/105662179866183501780/photos\">El Nuevo Estilo Barbershop</a>"], "photo_reference": "CmRaAAAAyFdd6wrNMXgLRUvAZ3PrNZKbsOvnjxw_mG8y7dcvGMBpjFS1U0pZlPs_ZGFfjZEfsDNSXXaVtdDYbM12D1Hgloflb_DQFyU0ySNrTlI01m5kIKLONOErxoc6kuRsDmPYEhADE80DspP9bSnQT4GAhyFUGhRvtYigsm0X54WLApjM2DzvnfkbeA", "width": 863}], "place_id": "ChIJ94T-61N644kRMPMMZjchrUw", "plus_code": {"compound_code": "8W9V+56 Boston, Massachusetts, United States", "global_code": "87JC8W9V+56"}, "rating": 4.3, "reference": "ChIJ94T-61N644kRMPMMZjchrUw", "scope": "GOOGLE", "types": ["hair_care", "health", "point_of_interest", "establishment"], "user_ratings_total": 58, "vicinity": "967 Dorchester Avenue, Dorchester"}, "ChIJn4yL61N644kRgOsmDTvBvIA": {"geometry": {"location": {"lat": 42.31783610000001, "lng": -71.05685559999999}, "viewport": {"northeast": {"lat": 42.3191857802915, "lng": -71.05544051970848}, "southwest": {"lat": 42.31648781970851, "lng": -71.05813848029149}}}, "icon": "https://maps.gstatic.com/mapfiles/place_api/icons/generic_business-71.png", "id": "58bc2a266af46ea4457a5c3e2a6719f761be2b0a", "name": "Kim Anh Tailoring", "place_id": "ChIJn4yL61N644kRgOsmDTvBvIA", "plus_code": {"compound_code": "8W9V+47 Boston, Massachusetts, United States", "global_code": "87JC8W9V+47"}, "reference": "ChIJn4yL61N644kRgOsmDTvBvIA", "scope": "GOOGLE", "types": ["point_of_interest", "establishment"], "vicinity": "969 Dorchester Avenue, Boston"}, "ChIJh0mC6FN644kRTasLCcVnLGI": {"geometry": {"location": {"lat": 42.31836240000001, "lng": -71.0568443}, "viewport": {"northeast": {"lat": 42.3197119802915, "lng": -71.05544011970849}, "southwest": {"lat": 42.3170140197085, "lng": -71.0581380802915}}}, "icon": "https://maps.gstatic.com/mapfiles/place_api/icons/shopping-71.png", "id": "71a34d5f04e2e4c4c9806d37583369de275dfa83", "name": "Dorchester Market", "opening_hours": {"open_now": true}, "photos": [{"height": 2160, "html_attributions": ["<a href=\"https://maps.google.com/maps/contrib/111985559337148359462/photos\">Ronald Sylvestor</a>"], "photo_reference": "CmRaAAAA7lxxL-lEhZJlcJ1t38Adg-HqgYSCP6HvggMN3KfUg-FXkKgcbcEgTEBqKAjfDvymF1Kv0asBF5T7lerbspbjBGEwCAo9wuAsN0LAW9FFVOEixFq0ZC5m0DmuT6ALNppREhB3RV0BuWtTOfBPkCqRKXesGhTvbSpjgmGETkzjKkqxDlCEECxiMQ", "width": 2880}], "place_id": "ChIJh0mC6FN644kRTasLCcVnLGI", "plus_code": {"compound_code": "8W9V+87 Boston, Massachusetts, United States", "global_code": "87JC8W9V+87"}, "rating": 4.5, "reference": "ChIJh0mC6FN644kRTasLCcVnLGI", "scope": "GOOGLE", "types": ["grocery_or_supermarket", "store", "point_of_interest", "food", "establishment"], "user_ratings_total": 46, "vicinity": "951 Dorchester Avenue, Dorchester"}, "ChIJs4veGkl644kROEK8ix2v_oY": {"geometry": {"location": {"lat": 42.30163049999999, "lng": -71.067605}, "viewport": {"northeast": {"lat": 42.3358969, "lng": -71.0325551}, "southwest": {"lat": 42.267598, "lng": -71.0800369}}}, "icon": "https://maps.gstatic.com/mapfiles/place_api/icons/geocode-71.png", "id": "9e12301fdeebf54c1266b9986602466425a9c326", "name": "Dorchester", "photos": [{"height": 1944, "html_attributions": ["<a href=\"https://maps.google.com/maps/contrib/118366960396286562471/photos\">Michael Laferriere</a>"], "photo_reference": "CmRaAAAAfrzyabvn9PWPRIaHcE5YxuKlDqIyGktwupZxNhyiFDlkyIyLPooRJngIIN-Wg5MszfZAnyfcPevg_Nektrp1VTRq_NfoUKAjhbLccS3RWBJYdbrzygZw8k3xpS_xpIVtEhCzrq1p3cZMllKVLlUkisQpGhSmhV7D-uar7uUJhO3U85CFaR2mUA", "width": 2592}], "place_id": "ChIJs4veGkl644kROEK8ix2v_oY", "reference": "ChIJs4veGkl644kROEK8ix2v_oY", "scope": "GOOGLE", "types": ["neighborhood", "political"], "vicinity": "Dorchester Center"}, "ChIJ11Nl7FN644kRBWKhZbIrwMU": {"geometry": {"location": {"lat": 42.317797, "lng": -71.056787}, "viewport": {"northeast": {"lat": 42.3191462302915, "lng": -71.05541621970849}, "southwest": {"lat": 42.3164482697085, "lng": -71.0581141802915}}}, "icon": "https://maps.gstatic.com/mapfiles/place_api/icons/bus-71.png", "id": "79df7060cc14d8e8d99ae91408f512cc625e6120", "name": "Dorchster Ave @ Howes St", "place_id": "ChIJ11Nl7FN644kRBWKhZbIrwMU", "plus_code": {"compound_code": "8W9V+47 Boston, Massachusetts, United States", "global_code": "87JC8W9V+47"}, "reference": "ChIJ11Nl7FN644kRBWKhZbIrwMU", "scope": "GOOGLE", "types": ["bus_station", "transit_station", "point_of_interest", "establishment"], "vicinity": "United States"}, "ChIJsb6VLlJ644kRMCOPUwteV9s": {"geometry": {"location": {"lat": 42.3188052, "lng": -71.0589696}, "viewport": {"northeast": {"lat": 42.3201773802915, "lng": -71.05779001970848}, "southwest": {"lat": 42.3174794197085, "lng": -71.0604879802915}}}, "icon": "https://maps.gstatic.com/mapfiles/place_api/icons/generic_recreational-71.png", "id": "0db7574982d50131e94a9f86e653854677d05325", "name": "William A. Meaney Playground", "photos": [{"height": 2160, "html_attributions": ["<a href=\"https://maps.google.com/maps/contrib/113324491432107057624/photos\">Nicole Truong</a>"], "photo_reference": "CmRaAAAA6vLkPKY5W-b9wUuvjURKYiZq4x0aQifHiT1PlKGj6bV42jY6KfviML9QfCvxJNggQQdLl-Bre31utre5vEQnXaQrfw3JMcUhhBiXI2APowXSFp7SFH6za9QUmZ2pAbOtEhCRgmZEc-Y4EwbU7hJ6qtFvGhSOG4p8iMfrYwE_g0q1AThJEZ9OTQ", "width": 3840}], "place_id": "ChIJsb6VLlJ644kRMCOPUwteV9s", "reference": "ChIJsb6VLlJ644kRMCOPUwteV9s", "scope": "GOOGLE", "types": ["park", "premise", "point_of_interest", "establishment"], "vicinity": "Boston"}, "ChIJyRp0fFF644kRVdK7tGeJXYI": {"geometry": {"location": {"lat": 42.3192726, "lng": -71.05822669999999}, "viewport": {"northeast": {"lat": 42.3206761302915, "lng": -71.0568570697085}, "southwest": {"lat": 42.3179781697085, "lng": -71.05955503029152}}}, "icon": "https://maps.gstatic.com/mapfiles/place_api/icons/generic_recreational-71.png", "id": "cfb68ce82ac3a61f87e3b13cd23f92935ca7104f", "name": "Mullen Square", "place_id": "ChIJyRp0fFF644kRVdK7tGeJXYI", "reference": "ChIJyRp0fFF644kRVdK7tGeJXYI", "scope": "GOOGLE", "types": ["park", "premise", "point_of_interest", "establishment"], "vicinity": "Boston"}, "ChIJh8dk7CR744kRDPWBD_3dJg0": {"geometry": {"location": {"lat": 42.3172142, "lng": -71.0595499}, "viewport": {"northeast": {"lat": 42.3185631802915, "lng": -71.0582009197085}, "southwest": {"lat": 42.3158652197085, "lng": -71.0608988802915}}}, "icon": "https://maps.gstatic.com/mapfiles/place_api/icons/generic_business-71.png", "id": "e269bcd64f895ec675d9e0699943f6b171eb5625", "name": "Same Brain Creative, LLC", "place_id": "ChIJh8dk7CR744kRDPWBD_3dJg0", "plus_code": {"compound_code": "8W8R+V5 Boston, Massachusetts, United States", "global_code": "87JC8W8R+V5"}, "reference": "ChIJh8dk7CR744kRDPWBD_3dJg0", "scope": "GOOGLE", "types": ["point_of_interest", "establishment"], "vicinity": "21 Pleasant Street, Boston"}}