{"ChIJGzE9DS1l44kRoOhiASS_fHg": {"geometry": {"location": {"lat": 42.3600825, "lng": -71.0588801}, "viewport": {"northeast": {"lat": 42.40081989999999, "lng": -70.749455}, "southwest": {"lat": 42.22788, "lng": -71.191113}}}, "icon": "https://maps.gstatic.com/mapfiles/place_api/icons/geocode-71.png", "id": "06755c25d2b34d13942a4713971756a55b870ced", "name": "Boston", "photos": [{"height": 3024, "html_attributions": ["<a href=\"https://maps.google.com/maps/contrib/104670289779338733432/photos\">Natalia Zalucean</a>"], "photo_reference": "CmRaAAAAqXV1ZTmonRPSrZZ71M9WDw-QtK-eaX6GE_uzPB0p__oOWP1Uu6ndErgI-eKfphycPrJpoIecb6Yg-y0BtjVAZFJlxUOoNeNWo2jY3WpOsKbQiIVePyY3AvQ8sDqCAR7AEhA9SO4Y5XunJ0qae6ZKdSfgGhQSUBXF0eHtGiRX2A0Wrb2XLtEasA", "width": 4032}], "place_id": "ChIJGzE9DS1l44kRoOhiASS_fHg", "reference": "ChIJGzE9DS1l44kRoOhiASS_fHg", "scope": "GOOGLE", "types": ["locality", "political"], "vicinity": "Boston"}, "ChIJEb5zns1444kR1ZItN3XJwKo": {"geometry": {"location": {"lat": 42.2965559, "lng": -71.14749979999999}, "viewport": {"northeast": {"lat": 42.2979322802915, "lng": -71.14615116970849}, "southwest": {"lat": 42.29523431970851, "lng": -71.14884913029151}}}, "icon": "https://maps.gstatic.com/mapfiles/place_api/icons/shopping-71.png", "id": "96a8118d468c76fab765a05aa05acd2d29e15f0c", "name": "Signet Electronics Systems", "place_id": "ChIJEb5zns1444kR1ZItN3XJwKo", "plus_code": {"compound_code": "7VW3+J2 Boston, Massachusetts, United States", "global_code": "87JC7VW3+J2"}, "reference": "ChIJEb5zns1444kR1ZItN3XJwKo", "scope": "GOOGLE", "types": ["electronics_store", "store", "point_of_interest", "establishment"], "vicinity": "653 VFW Parkway, Chestnut Hill"}, "ChIJ98p9kdZ444kRCpBQefODI1U": {"geometry": {"location": {"lat": 42.296793, "lng": -71.14740859999999}, "viewport": {"northeast": {"lat": 42.2980960802915, "lng": -71.14604366970849}, "southwest": {"lat": 42.2953981197085, "lng": -71.1487416302915}}}, "icon": "https://maps.gstatic.com/mapfiles/place_api/icons/generic_business-71.png", "id": "50e517279002e54a2655b766c7c808461f424f08", "name": "Greater Boston Home Team", "opening_hours": {"open_now": true}, "photos": [{"height": 1639, "html_attributions": ["<a href=\"https://maps.google.com/maps/contrib/103680846087900339948/photos\">Greater Boston Home Team</a>"], "photo_reference": "CmRaAAAAtw0ka4GpkRZSSFOqOvQ8XVl3kYG9cI9DlmApbI2DVNzHkw3gs5Q4-f1VslxERAsjj63_RWrG8nXoD6FXoJNIk4tuANhUoIGhOkgwvuuK2U8m_fICuvLes-dnYL_geT70EhDChZltdTMIMwShfVXUa-uwGhQNPHkEGGNXlf4LenTJvEE4US145A", "width": 2048}], "place_id": "ChIJ98p9kdZ444kRCpBQefODI1U", "plus_code": {"compound_code": "7VW3+P2 Boston, Massachusetts, United States", "global_code": "87JC7VW3+P2"}, "rating": 5, "reference": "ChIJ98p9kdZ444kRCpBQefODI1U", "scope": "GOOGLE", "types": ["real_estate_agency", "point_of_interest", "establishment"], "user_ratings_total": 17, "vicinity": "675 VFW Parkway # 332, Chestnut Hill"}, "ChIJb1cFC9Z444kRm2qpG_3gvRE": {"geometry": {"location": {"lat": 42.296631, "lng": -71.147665}, "viewport": {"northeast": {"lat": 42.2979574302915, "lng": -71.1463034197085}, "southwest": {"lat": 42.2952594697085, "lng": -71.14900138029151}}}, "icon": "https://maps.gstatic.com/mapfiles/place_api/icons/shopping-71.png", "id": "9c300130923e36699d5dae172c21fea69d6e09bf", "name": "Window Fashions By Lucy", "place_id": "ChIJb1cFC9Z444kRm2qpG_3gvRE", "plus_code": {"compound_code": "7VW2+MW Boston, Massachusetts, United States", "global_code": "87JC7VW2+MW"}, "reference": "ChIJb1cFC9Z444kRm2qpG_3gvRE", "scope": "GOOGLE", "types": ["store", "point_of_interest", "establishment"], "vicinity": "350 VFW Parkway, Chestnut Hill"}, "ChIJe8mdic1444kRRwYr7oqBGps": {"geometry": {"location": {"lat": 42.2967763, "lng": -71.1475116}, "viewport": {"northeast": {"lat": 42.2980780302915, "lng": -71.1461462197085}, "southwest": {"lat": 42.2953800697085, "lng": -71.1488441802915}}}, "icon": "https://maps.gstatic.com/mapfiles/place_api/icons/generic_business-71.png", "id": "d77f93659dafe58cdaddc171537ccc34dd036b82", "name": "Ruhoy Michael K MD", "place_id": "ChIJe8mdic1444kRRwYr7oqBGps", "plus_code": {"compound_code": "7VW2+PX Boston, Massachusetts, United States", "global_code": "87JC7VW2+PX"}, "reference": "ChIJe8mdic1444kRRwYr7oqBGps", "scope": "GOOGLE", "types": ["doctor", "health", "point_of_interest", "establishment"], "vicinity": "675 VFW Parkway # 392, Chestnut Hill"}, "ChIJf1loKdR444kR_IUkh-YJ3ds": {"geometry": {"location": {"lat": 42.2961228, "lng": -71.1482285}, "viewport": {"northeast": {"lat": 42.2973897302915, "lng": -71.1468555197085}, "southwest": {"lat": 42.2946917697085, "lng": -71.1495534802915}}}, "icon": "https://maps.gstatic.com/mapfiles/place_api/icons/generic_business-71.png", "id": "f295a3fbc637a6f13dc35762ed6f6298b803707d", "name": "Dr. Jerold M. Carlson, MD", "place_id": "ChIJf1loKdR444kR_IUkh-YJ3ds", "plus_code": {"compound_code": "7VW2+CP Boston, Massachusetts, United States", "global_code": "87JC7VW2+CP"}, "reference": "ChIJf1loKdR444kR_IUkh-YJ3ds", "scope": "GOOGLE", "types": ["doctor", "health", "point_of_interest", "establishment"], "vicinity": "36 Hollywood Road, West Roxbury"}, "ChIJxyj7JdR444kR-qwH2fM4QDo": {"geometry": {"location": {"lat": 42.2960769, "lng": -71.1486089}, "viewport": {"northeast": {"lat": 42.2973371302915, "lng": -71.14723481970849}, "southwest": {"lat": 42.29463916970851, "lng": -71.1499327802915}}}, "icon": "https://maps.gstatic.com/mapfiles/place_api/icons/generic_business-71.png", "id": "a10b5dae0864ae8aeca98f741785e0406a835350", "name": "Carlson Anita P", "place_id": "ChIJxyj7JdR444kR-qwH2fM4QDo", "plus_code": {"compound_code": "7VW2+CH Boston, Massachusetts, United States", "global_code": "87JC7VW2+CH"}, "reference": "ChIJxyj7JdR444kR-qwH2fM4QDo", "scope": "GOOGLE", "types": ["lawyer", "point_of_interest", "establishment"], "vicinity": "28 Hollywood Road, West Roxbury"}, "ChIJ___zkNZ444kRfmwWf88Xcdo": {"geometry": {"location": {"lat": 42.2971169, "lng": -71.1487739}, "viewport": {"northeast": {"lat": 42.2985628302915, "lng": -71.14741746970849}, "southwest": {"lat": 42.2958648697085, "lng": -71.1501154302915}}}, "icon": "https://maps.gstatic.com/mapfiles/place_api/icons/school-71.png", "id": "f6b73caf950811ec8a76b91bdbd52466779e2d70", "name": "Runkle School", "place_id": "ChIJ___zkNZ444kRfmwWf88Xcdo", "plus_code": {"compound_code": "7VW2+RF Brookline, Massachusetts, United States", "global_code": "87JC7VW2+RF"}, "reference": "ChIJ___zkNZ444kRfmwWf88Xcdo", "scope": "GOOGLE", "types": ["school", "point_of_interest", "establishment"], "vicinity": "45 Clearwater Road, Chestnut Hill"}, "ChIJhZirQQB544kRB9LbXEfedZQ": {"geometry": {"location": {"lat": 42.33176419999999, "lng": -71.1211635}, "viewport": {"northeast": {"lat": 42.3518109, "lng": -71.1056969}, "southwest": {"lat": 42.29459689999999, "lng": -71.1789959}}}, "icon": "https://maps.gstatic.com/mapfiles/place_api/icons/geocode-71.png", "id": "92986b2d1f69af2f2a7e29d34ced8adfa8573beb", "name": "Brookline", "photos": [{"height": 651, "html_attributions": ["<a href=\"https://maps.google.com/maps/contrib/114772942214832951419/photos\">Michael Ahn</a>"], "photo_reference": "CmRaAAAAsy68fVHhwA_T5hCxKeMsIzYr7WJHHYat6yKG2lRV16a9sycSs-2wQbtpK_YzgSsHDbmAPG2v881gDYyAslt1yumWWSu-mvHPYTGoMqX7MGEtDf1TbupOQWrS7YYKyVy6EhCPG853N5z4xjW-2Yq3iB4JGhRlvmLPDd8V44IIDEklta5BdGqJzQ", "width": 1608}], "place_id": "ChIJhZirQQB544kRB9LbXEfedZQ", "reference": "ChIJhZirQQB544kRB9LbXEfedZQ", "scope": "GOOGLE", "types": ["locality", "political"], "vicinity": "Brookline"}}