{"ChIJGzE9DS1l44kRoOhiASS_fHg": {"geometry": {"location": {"lat": 42.3600825, "lng": -71.0588801}, "viewport": {"northeast": {"lat": 42.40081989999999, "lng": -70.749455}, "southwest": {"lat": 42.22788, "lng": -71.191113}}}, "icon": "https://maps.gstatic.com/mapfiles/place_api/icons/geocode-71.png", "id": "06755c25d2b34d13942a4713971756a55b870ced", "name": "Boston", "photos": [{"height": 3024, "html_attributions": ["<a href=\"https://maps.google.com/maps/contrib/104670289779338733432/photos\">Natalia Zalucean</a>"], "photo_reference": "CmRaAAAAbzazU5IhHhAWdW4EdKbEVIdipE1iDoY3ixsHWGcTLwe5_V4FWJrR6Gl4Q0CandbX_R6xCCm9e4ai7ZwMSN-ABWQJKAnn9RKcJfM_9glYQGoPJYeiILKFkNDJfweFKzRVEhBlcbVVCWfftfbm8OV0HKN_GhS4vJUlj-nscPJyGdGpGg5TjPOTcQ", "width": 4032}], "place_id": "ChIJGzE9DS1l44kRoOhiASS_fHg", "reference": "ChIJGzE9DS1l44kRoOhiASS_fHg", "scope": "GOOGLE", "types": ["locality", "political"], "vicinity": "Boston"}, "ChIJ6es83Mt-44kRJZp_AQ1fRMY": {"geometry": {"location": {"lat": 42.2835517, "lng": -71.1250771}, "viewport": {"northeast": {"lat": 42.2850142802915, "lng": -71.1233970697085}, "southwest": {"lat": 42.2823163197085, "lng": -71.12609503029151}}}, "icon": "https://maps.gstatic.com/mapfiles/place_api/icons/school-71.png", "id": "f47e3d6e25fcf0f7e032600f14fdf63b11cd3a91", "name": "Washington Irving Middle School", "photos": [{"height": 3024, "html_attributions": ["<a href=\"https://maps.google.com/maps/contrib/108516089933360265587/photos\">Ian Orbinson Hutchinson</a>"], "photo_reference": "CmRaAAAALwpuksOwU9Oz_NEr5fGeMfFaWN-RBTNQ1NAQI2whh-3WFa_ScKTSzN5FtHbnqZbMWnXPscHTx9FjNxnCsT5zdwwzFwC3zs1o-DntZUuRatYObPi3dPkgw0slAA7oiU25EhALhX-Hdz8tAI_lrnK8qr3vGhQQlZLWTfkV23nh4-yXepg5tf6BIQ", "width": 4032}], "place_id": "ChIJ6es83Mt-44kRJZp_AQ1fRMY", "plus_code": {"compound_code": "7VMF+CX Boston, Massachusetts, United States", "global_code": "87JC7VMF+CX"}, "rating": 2.9, "reference": "ChIJ6es83Mt-44kRJZp_AQ1fRMY", "scope": "GOOGLE", "types": ["point_of_interest", "school", "establishment"], "user_ratings_total": 26, "vicinity": "105 Cummins Highway, Roslindale"}, "ChIJkRKCjsl-44kRKLq13WJkgVY": {"geometry": {"location": {"lat": 42.2818651, "lng": -71.1230003}, "viewport": {"northeast": {"lat": 42.28330853029149, "lng": -71.1215393197085}, "southwest": {"lat": 42.2806105697085, "lng": -71.12423728029151}}}, "icon": "https://maps.gstatic.com/mapfiles/place_api/icons/worship_general-71.png", "id": "0323e00a32a719d252065ca5d7adb8d492de34c6", "name": "Sacred Heart Church", "photos": [{"height": 2988, "html_attributions": ["<a href=\"https://maps.google.com/maps/contrib/105058787517570855045/photos\">Adan Pena</a>"], "photo_reference": "CmRaAAAAHWCZ-OvBuxUgcga-cZ5RqyAVh188F9ALcgYvAOdBFHjZOwl5wymzjkw5OWfUOo9e_lQUSxD6ydO_M9rr6OzMztlj1rumPOozSUjnrCfruAVeIKKQmAYQbjjCckFUDIwrEhA8TQfMMpHTFThAaoWPSZS0GhRf_KQM5uwt0hxO8PFFzJYAPy76pQ", "width": 5312}], "place_id": "ChIJkRKCjsl-44kRKLq13WJkgVY", "plus_code": {"compound_code": "7VJG+PQ Boston, Massachusetts, United States", "global_code": "87JC7VJG+PQ"}, "rating": 4.5, "reference": "ChIJkRKCjsl-44kRKLq13WJkgVY", "scope": "GOOGLE", "types": ["church", "place_of_worship", "point_of_interest", "establishment"], "user_ratings_total": 21, "vicinity": "169 Cummins Highway, Roslindale"}, "ChIJHZN1PM1-44kRdwjXHohVHu4": {"geometry": {"location": {"lat": 42.283419, "lng": -71.1252978}, "viewport": {"northeast": {"lat": 42.2849244802915, "lng": -71.12349271970851}, "southwest": {"lat": 42.2822265197085, "lng": -71.12619068029151}}}, "icon": "https://maps.gstatic.com/mapfiles/place_api/icons/worship_general-71.png", "id": "e392029f2f9746997f00f016d4df7891624caaa5", "name": "Charles River Church", "photos": [{"height": 3024, "html_attributions": ["<a href=\"https://maps.google.com/maps/contrib/116888503703444769126/photos\">Mary Girard</a>"], "photo_reference": "CmRaAAAA2q1PcODLCzGAJFiKtyQoFMG-I3bRI2PF3VsNpZ_jA6YiLPIIZlHpHeXiHeFEcL0QTU4jK-q5-Vjgri7MGqKBcFJ_nAtXBFIVS8LYkG6R_n-A3OulYnCT5zCSeapxWrHcEhBc8UBMbJ1u6BqOb6HbVL6-GhTKkZ8ZG5Byo_Yz5SLqrHBOlCfA8A", "width": 4032}], "place_id": "ChIJHZN1PM1-44kRdwjXHohVHu4", "plus_code": {"compound_code": "7VMF+9V Boston, Massachusetts, United States", "global_code": "87JC7VMF+9V"}, "rating": 4.8, "reference": "ChIJHZN1PM1-44kRdwjXHohVHu4", "scope": "GOOGLE", "types": ["church", "place_of_worship", "point_of_interest", "establishment"], "user_ratings_total": 11, "vicinity": "105 Cummins Highway, Roslindale"}, "ChIJp3b8Qnp544kRCl9v6a6Vr_Q": {"geometry": {"location": {"lat": 42.283643, "lng": -71.12418}, "viewport": {"northeast": {"lat": 42.2849738802915, "lng": -71.1228972697085}, "southwest": {"lat": 42.2822759197085, "lng": -71.12559523029151}}}, "icon": "https://maps.gstatic.com/mapfiles/place_api/icons/generic_business-71.png", "id": "b3ef02fe974c9de555784202a4ab4d481e1a797a", "name": "Leise Jones Photography", "opening_hours": {"open_now": true}, "photos": [{"height": 1363, "html_attributions": ["<a href=\"https://maps.google.com/maps/contrib/105579629251996202545/photos\">Leise Jones Photography</a>"], "photo_reference": "CmRZAAAABsq-u3YIjHz8vFal4OiZpv9JlmcSWfUCd4e0J72msKzikGt0FXsPS_mK4b-jn725gppwTu3Cb9YygB2CBvZQ8PwTksLYlv-ein143e9AKHPe1fOQBt1Lri0TLajrleoiEhBk6YkGF4ceWv076Gf8tlbjGhQCJcB0z8oWFbXrccAMySPxSq0Ndw", "width": 2048}], "place_id": "ChIJp3b8Qnp544kRCl9v6a6Vr_Q", "plus_code": {"compound_code": "7VMG+F8 Boston, Massachusetts, United States", "global_code": "87JC7VMG+F8"}, "reference": "ChIJp3b8Qnp544kRCl9v6a6Vr_Q", "scope": "GOOGLE", "types": ["point_of_interest", "establishment"], "vicinity": "118 Cummins Highway, Boston"}, "ChIJreuJy8t-44kRZtzxbnmxGak": {"geometry": {"location": {"lat": 42.2833946, "lng": -71.1253724}, "viewport": {"northeast": {"lat": 42.2849127802915, "lng": -71.12353036970849}, "southwest": {"lat": 42.2822148197085, "lng": -71.12622833029151}}}, "icon": "https://maps.gstatic.com/mapfiles/place_api/icons/school-71.png", "id": "edbcf5aaf806383f57f516f453ac917aecd00345", "name": "Alliance for Inclusion and Prevention, Inc.", "place_id": "ChIJreuJy8t-44kRZtzxbnmxGak", "plus_code": {"compound_code": "7VMF+9V Boston, Massachusetts, United States", "global_code": "87JC7VMF+9V"}, "reference": "ChIJreuJy8t-44kRZtzxbnmxGak", "scope": "GOOGLE", "types": ["point_of_interest", "school", "establishment"], "vicinity": "105 Cummins Highway, Roslindale"}, "ChIJhX_cs8t-44kRE2PG1Mw3pVk": {"geometry": {"location": {"lat": 42.28434599999999, "lng": -71.124393}, "viewport": {"northeast": {"lat": 42.2855989802915, "lng": -71.12321221970849}, "southwest": {"lat": 42.2829010197085, "lng": -71.1259101802915}}}, "icon": "https://maps.gstatic.com/mapfiles/place_api/icons/worship_general-71.png", "id": "0dbfe705266dc436a3b968de8aafcfa361110a72", "name": "Bethany First United Methodist", "place_id": "ChIJhX_cs8t-44kRE2PG1Mw3pVk", "plus_code": {"compound_code": "7VMG+P6 Boston, Massachusetts, United States", "global_code": "87JC7VMG+P6"}, "reference": "ChIJhX_cs8t-44kRE2PG1Mw3pVk", "scope": "GOOGLE", "types": ["church", "place_of_worship", "point_of_interest", "establishment"], "vicinity": "100 Cummins Highway, Roslindale"}, "ChIJq6CnK8p-44kRPTGD8-FlVVY": {"geometry": {"location": {"lat": 42.28287100000001, "lng": -71.12386099999999}, "viewport": {"northeast": {"lat": 42.2842127302915, "lng": -71.1225256197085}, "southwest": {"lat": 42.2815147697085, "lng": -71.1252235802915}}}, "icon": "https://maps.gstatic.com/mapfiles/place_api/icons/bus-71.png", "id": "3039676ccc1260f1a692b201c5f6919ce90b76de", "name": "Cummins Hwy @ Sherwood St", "photos": [{"height": 800, "html_attributions": ["<a href=\"https://maps.google.com/maps/contrib/106022219313367448292/photos\">james huang</a>"], "photo_reference": "CmRaAAAAnhn0w-MuXszHIxnETB1ZjQNqgToEAI7XdQ7Ugy2YzUE3RqX7TDF5ClBZxmixVRpUqTieYOAK6QvSqzSG7-nan0n_yDTIx5ZZvwClCVjw2dF1x3-JIwuh8Ncs51lcwOGSEhAjwSG-ujVg7kbHHXEIX3T4GhSO1MemF0mVARr-o6Y8fJKA5Jp5bw", "width": 600}], "place_id": "ChIJq6CnK8p-44kRPTGD8-FlVVY", "plus_code": {"compound_code": "7VMG+4F Boston, Massachusetts, United States", "global_code": "87JC7VMG+4F"}, "reference": "ChIJq6CnK8p-44kRPTGD8-FlVVY", "scope": "GOOGLE", "types": ["bus_station", "transit_station", "point_of_interest", "establishment"], "vicinity": "United States"}, "ChIJHay61Mt-44kRVN1WY22BK3g": {"geometry": {"location": {"lat": 42.282976, "lng": -71.12410400000002}, "viewport": {"northeast": {"lat": 42.28433583029149, "lng": -71.1227223697085}, "southwest": {"lat": 42.28163786970849, "lng": -71.1254203302915}}}, "icon": "https://maps.gstatic.com/mapfiles/place_api/icons/bus-71.png", "id": "030768a402e6158d175c048e5eff6ce914eb4ae9", "name": "93 Cummins Hwy opp Sherwood St", "place_id": "ChIJHay61Mt-44kRVN1WY22BK3g", "plus_code": {"compound_code": "7VMG+59 Boston, Massachusetts, United States", "global_code": "87JC7VMG+59"}, "reference": "ChIJHay61Mt-44kRVN1WY22BK3g", "scope": "GOOGLE", "types": ["bus_station", "transit_station", "point_of_interest", "establishment"], "vicinity": "United States"}, "ChIJ-U4BN8p-44kRH0rgDhFCs5w": {"geometry": {"location": {"lat": 42.2836379, "lng": -71.1234836}, "viewport": {"northeast": {"lat": 42.2849903802915, "lng": -71.12214441970849}, "southwest": {"lat": 42.2822924197085, "lng": -71.1248423802915}}}, "icon": "https://maps.gstatic.com/mapfiles/place_api/icons/generic_business-71.png", "id": "ca3ec89f6075a6bcdce4891da4260cd876eca5c4", "name": "Architect", "place_id": "ChIJ-U4BN8p-44kRH0rgDhFCs5w", "plus_code": {"compound_code": "7VMG+FJ Boston, Massachusetts, United States", "global_code": "87JC7VMG+FJ"}, "reference": "ChIJ-U4BN8p-44kRH0rgDhFCs5w", "scope": "GOOGLE", "types": ["point_of_interest", "establishment"], "vicinity": "11 Sherwood Street # 2, Roslindale"}, "ChIJ2WsBSsp-44kRG1k0hFPlZUg": {"geometry": {"location": {"lat": 42.28388160000001, "lng": -71.12362519999999}, "viewport": {"northeast": {"lat": 42.2851958802915, "lng": -71.12217851970848}, "southwest": {"lat": 42.28249791970851, "lng": -71.1248764802915}}}, "icon": "https://maps.gstatic.com/mapfiles/place_api/icons/generic_business-71.png", "id": "5dac058eaa7a20a3921ca581c253048a09d27da6", "name": "Schmidt's Landscaping Services", "place_id": "ChIJ2WsBSsp-44kRG1k0hFPlZUg", "plus_code": {"compound_code": "7VMG+HG Boston, Massachusetts, United States", "global_code": "87JC7VMG+HG"}, "rating": 5, "reference": "ChIJ2WsBSsp-44kRG1k0hFPlZUg", "scope": "GOOGLE", "types": ["general_contractor", "point_of_interest", "establishment"], "user_ratings_total": 2, "vicinity": "20 Sherwood Street, Roslindale"}, "ChIJH6Wsksl-44kRRpueadCFHtk": {"geometry": {"location": {"lat": 42.28184, "lng": -71.122574}, "viewport": {"northeast": {"lat": 42.2832119802915, "lng": -71.1211976697085}, "southwest": {"lat": 42.2805140197085, "lng": -71.1238956302915}}}, "icon": "https://maps.gstatic.com/mapfiles/place_api/icons/bus-71.png", "id": "d40e654825b514aa9677c4369112bdffc2c38854", "name": "Cummins Hwy @ Brown Ave", "place_id": "ChIJH6Wsksl-44kRRpueadCFHtk", "plus_code": {"compound_code": "7VJG+PX Boston, Massachusetts, United States", "global_code": "87JC7VJG+PX"}, "reference": "ChIJH6Wsksl-44kRRpueadCFHtk", "scope": "GOOGLE", "types": ["bus_station", "transit_station", "point_of_interest", "establishment"], "vicinity": "United States"}, "ChIJaYxk7cl-44kR8c-zV9lDBwY": {"geometry": {"location": {"lat": 42.2818165, "lng": -71.122441}, "viewport": {"northeast": {"lat": 42.28315303029149, "lng": -71.1211074197085}, "southwest": {"lat": 42.2804550697085, "lng": -71.1238053802915}}}, "icon": "https://maps.gstatic.com/mapfiles/place_api/icons/generic_business-71.png", "id": "5ec34f5851005d245c5affe7d154f26dc65f96db", "name": "Cummins Hwy @ Brown Ave", "place_id": "ChIJaYxk7cl-44kR8c-zV9lDBwY", "plus_code": {"compound_code": "7VJH+P2 Boston, Massachusetts, United States", "global_code": "87JC7VJH+P2"}, "reference": "ChIJaYxk7cl-44kR8c-zV9lDBwY", "scope": "GOOGLE", "types": ["transit_station", "point_of_interest", "establishment"], "vicinity": "United States"}, "ChIJ-0GM7cl-44kR6R7OPbw0dlg": {"geometry": {"location": {"lat": 42.281793, "lng": -71.122308}, "viewport": {"northeast": {"lat": 42.2831398302915, "lng": -71.12096171970849}, "southwest": {"lat": 42.2804418697085, "lng": -71.12365968029151}}}, "icon": "https://maps.gstatic.com/mapfiles/place_api/icons/bus-71.png", "id": "9e3ce86dd5118befc3ec2bd9e35ff5ed4a54ba65", "name": "Cummins Hwy @ Brown Ave", "place_id": "ChIJ-0GM7cl-44kR6R7OPbw0dlg", "plus_code": {"compound_code": "7VJH+P3 Boston, Massachusetts, United States", "global_code": "87JC7VJH+P3"}, "reference": "ChIJ-0GM7cl-44kR6R7OPbw0dlg", "scope": "GOOGLE", "types": ["bus_station", "transit_station", "point_of_interest", "establishment"], "vicinity": "United States"}, "ChIJZ_jeNsh-44kRDpddSEjrCd4": {"geometry": {"location": {"lat": 42.2832142, "lng": -71.1270268}, "viewport": {"northeast": {"lat": 42.301598, "lng": -71.09695909999999}, "southwest": {"lat": 42.2575859, "lng": -71.147601}}}, "icon": "https://maps.gstatic.com/mapfiles/place_api/icons/geocode-71.png", "id": "2cdf5de1734d80a609b83de9d29125ad0ec6aa4e", "name": "Roslindale", "photos": [{"height": 3120, "html_attributions": ["<a href=\"https://maps.google.com/maps/contrib/100299987382337147743/photos\">SPRING GARDEN</a>"], "photo_reference": "CmRaAAAALVQv8KBZOJmwou-EJ3I9RTvobHd9AzkMi-PWdqDce8O29S2eDMhR3_E_eSl-I9MAPVWX_V_T12NtodQZbpNYDcKKPijnAyZAQ6aRNxxxQNYLSukaYhdtPYulYFQ3puvGEhC-W5dShTFo9ihVRdWiNIm1GhR9liXuBoFijz-dtuwX5u5fClRC4A", "width": 4160}], "place_id": "ChIJZ_jeNsh-44kRDpddSEjrCd4", "reference": "ChIJZ_jeNsh-44kRDpddSEjrCd4", "scope": "GOOGLE", "types": ["neighborhood", "political"], "vicinity": "Dorchester Center"}}