{"ChIJGzE9DS1l44kRoOhiASS_fHg": {"geometry": {"location": {"lat": 42.3600825, "lng": -71.0588801}, "viewport": {"northeast": {"lat": 42.40081989999999, "lng": -70.749455}, "southwest": {"lat": 42.22788, "lng": -71.191113}}}, "icon": "https://maps.gstatic.com/mapfiles/place_api/icons/geocode-71.png", "id": "06755c25d2b34d13942a4713971756a55b870ced", "name": "Boston", "photos": [{"height": 3024, "html_attributions": ["<a href=\"https://maps.google.com/maps/contrib/104670289779338733432/photos\">Natalia Zalucean</a>"], "photo_reference": "CmRaAAAAsHzfQV5GZN-QC3RlyHRJhHY3LixGLl0azQl18E18zwdN02giHtGQErA-qMVXV_9x63YNG9oelcpKKofsYeMVKNvMHEdFr76LFUWpLfuMEixNU7UlzqqlehlDO8pznAzIEhBilBedjM1dWSIaq0uvC06VGhSUr6OLUGge_kdvgQV_GfReXtAjSA", "width": 4032}], "place_id": "ChIJGzE9DS1l44kRoOhiASS_fHg", "reference": "ChIJGzE9DS1l44kRoOhiASS_fHg", "scope": "GOOGLE", "types": ["locality", "political"], "vicinity": "Boston"}, "ChIJtfef5eVw44kRJcqrbwZvmK4": {"geometry": {"location": {"lat": 42.384871, "lng": -71.06791500000001}, "viewport": {"northeast": {"lat": 42.3862888802915, "lng": -71.0667320197085}, "southwest": {"lat": 42.3835909197085, "lng": -71.0694299802915}}}, "icon": "https://maps.gstatic.com/mapfiles/place_api/icons/generic_business-71.png", "id": "db6b025ed41f8d7f884a7f30980319953ef88cdb", "name": "DentaQuest", "opening_hours": {"open_now": true}, "photos": [{"height": 1440, "html_attributions": ["<a href=\"https://maps.google.com/maps/contrib/117215866290202361234/photos\">DentaQuest</a>"], "photo_reference": "CmRaAAAAY9CTVDjxUXT54_j8qj5l8Z35dnTJrncBWz4TSjQ77cJP1Jwl0OdDgUDS2n_PvkaELjL5k2C5F0jB-BcDyG_XSJh7tb4XdE6B0_IYflJQoyxl7CYtaAkrSvMdgE4K1DgzEhCPhhUP3LmMwykf4j7GepGaGhQ0UUaPM5KWmMkw40n2cQu2HSOmBw", "width": 2560}], "place_id": "ChIJtfef5eVw44kRJcqrbwZvmK4", "plus_code": {"compound_code": "9WMJ+WR Boston, Massachusetts, United States", "global_code": "87JC9WMJ+WR"}, "rating": 1.5, "reference": "ChIJtfef5eVw44kRJcqrbwZvmK4", "scope": "GOOGLE", "types": ["insurance_agency", "health", "point_of_interest", "establishment"], "user_ratings_total": 48, "vicinity": "465 Medford Street #150, Charlestown"}, "ChIJtfef5eVw44kRopfqDH2hwFE": {"geometry": {"location": {"lat": 42.3847707, "lng": -71.0678836}, "viewport": {"northeast": {"lat": 42.3862055802915, "lng": -71.06674156970851}, "southwest": {"lat": 42.3835076197085, "lng": -71.06943953029152}}}, "icon": "https://maps.gstatic.com/mapfiles/place_api/icons/generic_business-71.png", "id": "8d2d05420780ee7e85694fdba327085f4f146f15", "name": "Delta Dental of Massachusetts", "opening_hours": {"open_now": true}, "place_id": "ChIJtfef5eVw44kRopfqDH2hwFE", "plus_code": {"compound_code": "9WMJ+WR Boston, Massachusetts, United States", "global_code": "87JC9WMJ+WR"}, "rating": 1.3, "reference": "ChIJtfef5eVw44kRopfqDH2hwFE", "scope": "GOOGLE", "types": ["point_of_interest", "establishment"], "user_ratings_total": 42, "vicinity": "465 Medford Street # 150, Boston"}, "ChIJtfef5eVw44kRjK44EzF9Rrs": {"geometry": {"location": {"lat": 42.3845927, "lng": -71.06751659999999}, "viewport": {"northeast": {"lat": 42.3858401302915, "lng": -71.06589596970849}, "southwest": {"lat": 42.3831421697085, "lng": -71.0685939302915}}}, "icon": "https://maps.gstatic.com/mapfiles/place_api/icons/generic_business-71.png", "id": "ee01a3d217cb06dee0b3bb741c6774b68b9b5414", "name": "Logical Design Database Solutions", "place_id": "ChIJtfef5eVw44kRjK44EzF9Rrs", "plus_code": {"compound_code": "9WMJ+RX Boston, Massachusetts, United States", "global_code": "87JC9WMJ+RX"}, "reference": "ChIJtfef5eVw44kRjK44EzF9Rrs", "scope": "GOOGLE", "types": ["point_of_interest", "establishment"], "vicinity": "465 Medford Street, Charlestown"}, "ChIJtfef5eVw44kRQPpnAEcDyvs": {"geometry": {"location": {"lat": 42.3846413, "lng": -71.0676071}, "viewport": {"northeast": {"lat": 42.3858703302915, "lng": -71.06593721970849}, "southwest": {"lat": 42.3831723697085, "lng": -71.06863518029151}}}, "icon": "https://maps.gstatic.com/mapfiles/place_api/icons/generic_business-71.png", "id": "35504e7a0ed065e10b82794a85ab878e73dd40a7", "name": "Haley & Aldrich", "opening_hours": {"open_now": false}, "place_id": "ChIJtfef5eVw44kRQPpnAEcDyvs", "plus_code": {"compound_code": "9WMJ+VX Boston, Massachusetts, United States", "global_code": "87JC9WMJ+VX"}, "rating": 4.6, "reference": "ChIJtfef5eVw44kRQPpnAEcDyvs", "scope": "GOOGLE", "types": ["point_of_interest", "establishment"], "user_ratings_total": 5, "vicinity": "465 Medford Street #2200, Charlestown"}, "ChIJtfef5eVw44kR5eovUaliNfc": {"geometry": {"location": {"lat": 42.3846413, "lng": -71.0676071}, "viewport": {"northeast": {"lat": 42.3858703302915, "lng": -71.06593721970849}, "southwest": {"lat": 42.3831723697085, "lng": -71.06863518029151}}}, "icon": "https://maps.gstatic.com/mapfiles/place_api/icons/generic_business-71.png", "id": "c1840cb6534ede1773ed1a34f13f6c4a3e0bcf9b", "name": "Jacobs Engineering Group", "place_id": "ChIJtfef5eVw44kR5eovUaliNfc", "plus_code": {"compound_code": "9WMJ+VX Boston, Massachusetts, United States", "global_code": "87JC9WMJ+VX"}, "reference": "ChIJtfef5eVw44kR5eovUaliNfc", "scope": "GOOGLE", "types": ["point_of_interest", "establishment"], "vicinity": "465 Medford Street # 300, Charlestown"}, "ChIJbzWe5eVw44kRkpv0IZOftc8": {"geometry": {"location": {"lat": 42.3845927, "lng": -71.06751659999999}, "viewport": {"northeast": {"lat": 42.3858401302915, "lng": -71.06589596970849}, "southwest": {"lat": 42.3831421697085, "lng": -71.0685939302915}}}, "icon": "https://maps.gstatic.com/mapfiles/place_api/icons/school-71.png", "id": "aa510673b59a5478e82626ec656fe43ef60d20e2", "name": "UMass Medical School/Shriver Center", "place_id": "ChIJbzWe5eVw44kRkpv0IZOftc8", "plus_code": {"compound_code": "9WMJ+RX Boston, Massachusetts, United States", "global_code": "87JC9WMJ+RX"}, "reference": "ChIJbzWe5eVw44kRkpv0IZOftc8", "scope": "GOOGLE", "types": ["university", "health", "point_of_interest", "establishment"], "vicinity": "465 Medford Street #500, Charlestown"}, "ChIJJU_KOOZw44kRD1qvw-eYvYU": {"geometry": {"location": {"lat": 42.3838047, "lng": -71.06860879999999}, "viewport": {"northeast": {"lat": 42.3851174802915, "lng": -71.0672784197085}, "southwest": {"lat": 42.3824195197085, "lng": -71.06997638029151}}}, "icon": "https://maps.gstatic.com/mapfiles/place_api/icons/generic_business-71.png", "id": "fe9a1c82531f5341503bc08cf10047c53edec42f", "name": "Textile Buff & Wheel", "place_id": "ChIJJU_KOOZw44kRD1qvw-eYvYU", "plus_code": {"compound_code": "9WMJ+GH Boston, Massachusetts, United States", "global_code": "87JC9WMJ+GH"}, "reference": "ChIJJU_KOOZw44kRD1qvw-eYvYU", "scope": "GOOGLE", "types": ["car_repair", "point_of_interest", "establishment"], "vicinity": "511 Medford Street # 1, Charlestown"}, "ChIJtfef5eVw44kR6IshvYoQQEY": {"geometry": {"location": {"lat": 42.3846413, "lng": -71.0676071}, "viewport": {"northeast": {"lat": 42.3858703302915, "lng": -71.06593721970849}, "southwest": {"lat": 42.3831723697085, "lng": -71.06863518029151}}}, "icon": "https://maps.gstatic.com/mapfiles/place_api/icons/generic_business-71.png", "id": "7bafc1bcc9b9ac12d0525fc874c9c3a2f1fd42c1", "name": "Monopoli Michael P DDS", "place_id": "ChIJtfef5eVw44kR6IshvYoQQEY", "plus_code": {"compound_code": "9WMJ+VX Boston, Massachusetts, United States", "global_code": "87JC9WMJ+VX"}, "reference": "ChIJtfef5eVw44kR6IshvYoQQEY", "scope": "GOOGLE", "types": ["dentist", "health", "point_of_interest", "establishment"], "vicinity": "465 Medford Street, Charlestown"}, "ChIJ4ztjSOZw44kRh_KsuPZbVdc": {"geometry": {"location": {"lat": 42.384135, "lng": -71.069884}, "viewport": {"northeast": {"lat": 42.3852783302915, "lng": -71.0684986197085}, "southwest": {"lat": 42.3825803697085, "lng": -71.07119658029151}}}, "icon": "https://maps.gstatic.com/mapfiles/place_api/icons/generic_business-71.png", "id": "4c2d9657ceaa2b3cced0e3ace0933da70afcdded", "name": "Mathews Salad House", "place_id": "ChIJ4ztjSOZw44kRh_KsuPZbVdc", "plus_code": {"compound_code": "9WMJ+M2 Boston, Massachusetts, United States", "global_code": "87JC9WMJ+M2"}, "rating": 5, "reference": "ChIJ4ztjSOZw44kRh_KsuPZbVdc", "scope": "GOOGLE", "types": ["point_of_interest", "food", "establishment"], "user_ratings_total": 1, "vicinity": "521 Medford Street, Charlestown"}, "ChIJqUzlN-Zw44kRFomU-GDi3Gk": {"geometry": {"location": {"lat": 42.384006, "lng": -71.06962}, "viewport": {"northeast": {"lat": 42.38522528029149, "lng": -71.0682480697085}, "southwest": {"lat": 42.38252731970849, "lng": -71.07094603029151}}}, "icon": "https://maps.gstatic.com/mapfiles/place_api/icons/shopping-71.png", "id": "cf22750905e24d0f34d34b9b1fa176ff4cf14f15", "name": "David Golber Violins", "opening_hours": {"open_now": true}, "place_id": "ChIJqUzlN-Zw44kRFomU-GDi3Gk", "plus_code": {"compound_code": "9WMJ+J5 Boston, Massachusetts, United States", "global_code": "87JC9WMJ+J5"}, "reference": "ChIJqUzlN-Zw44kRFomU-GDi3Gk", "scope": "GOOGLE", "types": ["electronics_store", "home_goods_store", "store", "point_of_interest", "establishment"], "vicinity": "523 Medford Street Studio 3A, Charlestown"}, "ChIJq6oaR-Zw44kRq9HNQ6DxPok": {"geometry": {"location": {"lat": 42.3840624, "lng": -71.0696013}, "viewport": {"northeast": {"lat": 42.3852548802915, "lng": -71.06822461970849}, "southwest": {"lat": 42.3825569197085, "lng": -71.07092258029151}}}, "icon": "https://maps.gstatic.com/mapfiles/place_api/icons/shopping-71.png", "id": "7b0dd79caea9ed8dadf6ac34398a8842a6a8d450", "name": "Boston Paper Collective", "place_id": "ChIJq6oaR-Zw44kRq9HNQ6DxPok", "plus_code": {"compound_code": "9WMJ+J5 Boston, Massachusetts, United States", "global_code": "87JC9WMJ+J5"}, "reference": "ChIJq6oaR-Zw44kRq9HNQ6DxPok", "scope": "GOOGLE", "types": ["store", "point_of_interest", "establishment"], "vicinity": "523 Medford Street, Boston"}, "ChIJ8VDBheZw44kRZNBw9535oNk": {"geometry": {"location": {"lat": 42.3852588, "lng": -71.06823419999999}, "viewport": {"northeast": {"lat": 42.38657988029149, "lng": -71.06681781970849}, "southwest": {"lat": 42.3838819197085, "lng": -71.06951578029151}}}, "icon": "https://maps.gstatic.com/mapfiles/place_api/icons/generic_business-71.png", "id": "87c82604b8a47fbbf0fb0dd5aca6ea41027d5c67", "name": "Schrafft's Ramp", "place_id": "ChIJ8VDBheZw44kRZNBw9535oNk", "plus_code": {"compound_code": "9WPJ+4P Boston, Massachusetts, United States", "global_code": "87JC9WPJ+4P"}, "rating": 3.7, "reference": "ChIJ8VDBheZw44kRZNBw9535oNk", "scope": "GOOGLE", "types": ["point_of_interest", "establishment"], "user_ratings_total": 3, "vicinity": "Boston Harborwalk, Charlestown"}, "ChIJd9F_f-Zw44kRToEh8XEjWpU": {"geometry": {"location": {"lat": 42.383666, "lng": -71.06832899999999}, "viewport": {"northeast": {"lat": 42.3850070802915, "lng": -71.06698611970849}, "southwest": {"lat": 42.3823091197085, "lng": -71.06968408029151}}}, "icon": "https://maps.gstatic.com/mapfiles/place_api/icons/generic_business-71.png", "id": "c4b1ce004efb5884a28f55e88c8b3473e9b22e7e", "name": "DentaQuest Foundation", "place_id": "ChIJd9F_f-Zw44kRToEh8XEjWpU", "plus_code": {"compound_code": "9WMJ+FM Boston, Massachusetts, United States", "global_code": "87JC9WMJ+FM"}, "reference": "ChIJd9F_f-Zw44kRToEh8XEjWpU", "scope": "GOOGLE", "types": ["point_of_interest", "establishment"], "vicinity": "465 Medford Street, Charlestown"}, "ChIJ6T4CY6hx44kR3waXXgC1ykA": {"geometry": {"location": {"lat": 42.384062, "lng": -71.06960099999999}, "viewport": {"northeast": {"lat": 42.3852546802915, "lng": -71.0682243697085}, "southwest": {"lat": 42.3825567197085, "lng": -71.07092233029151}}}, "icon": "https://maps.gstatic.com/mapfiles/place_api/icons/generic_business-71.png", "id": "7815cb02466f67e02d01cc123f6410cc07c178a2", "name": "Reflex Letterpress", "photos": [{"height": 314, "html_attributions": ["<a href=\"https://maps.google.com/maps/contrib/114779190750533912721/photos\">Reflex Letterpress</a>"], "photo_reference": "CmRaAAAAswju2sX3XvxnoREfYFYTry0Ao1NPSMV9XHoIISkcIQR0awRmasxtW2EWvgsPZqMubCR5hc79ZtiN-zRe-KRIvp0bdbD3ZIi21nfOynD6584LeRJWYl2g9CUAggefZRsFEhA3uMTNrhnEe_GmkgJJ_tdYGhRukw5vsEJDMi_uNFH27HNv4Vxt6g", "width": 1200}], "place_id": "ChIJ6T4CY6hx44kR3waXXgC1ykA", "plus_code": {"compound_code": "9WMJ+J5 Boston, Massachusetts, United States", "global_code": "87JC9WMJ+J5"}, "reference": "ChIJ6T4CY6hx44kR3waXXgC1ykA", "scope": "GOOGLE", "types": ["point_of_interest", "establishment"], "vicinity": "523 Medford Street Second Floor, Charlestown"}, "ChIJGwVKWe5w44kRcr4b9E25-Go": {"geometry": {"location": {"lat": 42.3782065, "lng": -71.0602131}, "viewport": {"northeast": {"lat": 42.3897705, "lng": -71.04429809999999}, "southwest": {"lat": 42.3688756, "lng": -71.0734062}}}, "icon": "https://maps.gstatic.com/mapfiles/place_api/icons/geocode-71.png", "id": "aee8a281af2c986490fb56a44a229b45f48ac164", "name": "Charlestown", "photos": [{"height": 2000, "html_attributions": ["<a href=\"https://maps.google.com/maps/contrib/115519834423791060860/photos\">Luca Raggi</a>"], "photo_reference": "CmRaAAAA0fIGYY7RuLcuqJudBlqfPjdLBka5ZoJ2x20HV6RzYCVCZA-4aC8P8RIlMgOq0EXYoKaX211-iQmmUVzUdUHcLdH4Sy-tZgblMM24c66nANpp6UzLQCEVz6j_22CuQHx3EhAaICK9XsU1kE64dlICn6duGhRRMk-3PSyEUULRdIaR_SnoN5igfA", "width": 3008}], "place_id": "ChIJGwVKWe5w44kRcr4b9E25-Go", "reference": "ChIJGwVKWe5w44kRcr4b9E25-Go", "scope": "GOOGLE", "types": ["neighborhood", "political"], "vicinity": "Boston"}}