{"ChIJGzE9DS1l44kRoOhiASS_fHg": {"geometry": {"location": {"lat": 42.3600825, "lng": -71.0588801}, "viewport": {"northeast": {"lat": 42.40081989999999, "lng": -70.749455}, "southwest": {"lat": 42.22788, "lng": -71.191113}}}, "icon": "https://maps.gstatic.com/mapfiles/place_api/icons/geocode-71.png", "id": "06755c25d2b34d13942a4713971756a55b870ced", "name": "Boston", "photos": [{"height": 3024, "html_attributions": ["<a href=\"https://maps.google.com/maps/contrib/104670289779338733432/photos\">Natalia Zalucean</a>"], "photo_reference": "CmRaAAAAVtcfQUDsJk2sHWv5n6cn0QN5Yk62uhy6mfsq9kV5KBvDHUCNSXwaYFoN8xPYwn3XXWaOykwdTSgjOhnKulU4qpgruAF907VszyPjDfZmtQ9ZC-9t7t0f93s7W1_PyICFEhCRHkfpY-37aMpOsyni60JuGhQBriRzN0wDjvAaWCm0iaREotB1mg", "width": 4032}], "place_id": "ChIJGzE9DS1l44kRoOhiASS_fHg", "reference": "ChIJGzE9DS1l44kRoOhiASS_fHg", "scope": "GOOGLE", "types": ["locality", "political"], "vicinity": "Boston"}, "ChIJx4dbvqd744kRN60vJbG1mMI": {"geometry": {"location": {"lat": 42.302842, "lng": -71.051823}, "viewport": {"northeast": {"lat": 42.30418598029149, "lng": -71.05046586970849}, "southwest": {"lat": 42.30148801970849, "lng": -71.05316383029151}}}, "icon": "https://maps.gstatic.com/mapfiles/place_api/icons/shopping-71.png", "id": "b621bf18869fd052d5cf8c30e47011a6938a62a9", "name": "Yale Appliance + Lighting", "opening_hours": {"open_now": true}, "photos": [{"height": 3456, "html_attributions": ["<a href=\"https://maps.google.com/maps/contrib/102289347168843715527/photos\">Yale Appliance + Lighting</a>"], "photo_reference": "CmRaAAAA45ZpJ3DVckjGPRXqBisefMYROh2lHkAyvqKx_bPClRKiUp3oyHZ2e1WhmBCMa6nWkNqrjOc-6qxHl56bIveMhbFcKQDb-ceT7RSwIwc1GwoWqLg54vbuU2pPWmQ_KmJ3EhDW1aALrDXT6vxDKxrIeofSGhSVuR16HWgZHX-dcRHeJSPNERnWTg", "width": 5184}], "place_id": "ChIJx4dbvqd744kRN60vJbG1mMI", "plus_code": {"compound_code": "8W3X+47 Boston, Massachusetts, United States", "global_code": "87JC8W3X+47"}, "rating": 4.9, "reference": "ChIJx4dbvqd744kRN60vJbG1mMI", "scope": "GOOGLE", "types": ["home_goods_store", "store", "point_of_interest", "establishment"], "user_ratings_total": 792, "vicinity": "296 Freeport Street, Dorchester"}, "ChIJS_P8x6d744kRl53z_N3vMgk": {"geometry": {"location": {"lat": 42.3024311, "lng": -71.0513416}, "viewport": {"northeast": {"lat": 42.3038547302915, "lng": -71.04992661970849}, "southwest": {"lat": 42.3011567697085, "lng": -71.0526245802915}}}, "icon": "https://maps.gstatic.com/mapfiles/place_api/icons/shopping-71.png", "id": "d647fa9824972037b240da61a87b7d62dd105594", "name": "Adamo Stone Design", "opening_hours": {"open_now": true}, "photos": [{"height": 2048, "html_attributions": ["<a href=\"https://maps.google.com/maps/contrib/100126273913402769362/photos\">Adamo Stone Design</a>"], "photo_reference": "CmRaAAAAa3EiNbE-7DgzeCaQcX8PQBOzqFRUuhIo3PnJh_jPQJl7cxXgsuj43zhKmPpahNfOSdshMUq5TrSE10UPlSfV3Pw_ckwHwflUsibl8NfBRt0wPpdc7Fp3iye1uRnQ_oOzEhBhTif7Xt6upfFNrKLVOZclGhR5TBwOjo4qCd7ROuhxxcQn3quEUQ", "width": 1536}], "place_id": "ChIJS_P8x6d744kRl53z_N3vMgk", "plus_code": {"compound_code": "8W2X+XF Boston, Massachusetts, United States", "global_code": "87JC8W2X+XF"}, "rating": 4.6, "reference": "ChIJS_P8x6d744kRl53z_N3vMgk", "scope": "GOOGLE", "types": ["home_goods_store", "store", "point_of_interest", "establishment"], "user_ratings_total": 9, "vicinity": "296 Freeport Street, Dorchester"}, "ChIJ70CRuqd744kRcNQtXelfReM": {"geometry": {"location": {"lat": 42.302024, "lng": -71.051941}, "viewport": {"northeast": {"lat": 42.30347798029149, "lng": -71.0504464697085}, "southwest": {"lat": 42.30078001970849, "lng": -71.05314443029151}}}, "icon": "https://maps.gstatic.com/mapfiles/place_api/icons/shopping-71.png", "id": "a628dc620bdf65051d080c19d628140e5850706c", "name": "Colony Hardware Corporation", "opening_hours": {"open_now": true}, "photos": [{"height": 2048, "html_attributions": ["<a href=\"https://maps.google.com/maps/contrib/104348335373795063112/photos\">Colony Hardware Corporation</a>"], "photo_reference": "CmRaAAAANolNLyeFpXNKGe-QgEIAhr_bVJy9p7SRU2KqEOgIu9itbWsz1d5tzs9HIIAm1Mx0IIyQ_g11zxGhiTKKF_MVTtYQwhfzDOwBn-LkVNYAML9VCoK7z90ompHwzsiHW9DHEhCIxau7r1Q9MGvFq1JlfXQoGhRrZ7bMKAmOIissnP_l2VkayDrU2w", "width": 2048}], "place_id": "ChIJ70CRuqd744kRcNQtXelfReM", "plus_code": {"compound_code": "8W2X+R6 Boston, Massachusetts, United States", "global_code": "87JC8W2X+R6"}, "rating": 4.5, "reference": "ChIJ70CRuqd744kRcNQtXelfReM", "scope": "GOOGLE", "types": ["hardware_store", "store", "point_of_interest", "establishment"], "user_ratings_total": 6, "vicinity": "305 Freeport Street, Dorchester"}, "ChIJLc3xsKd744kRzauizqxzhwU": {"geometry": {"location": {"lat": 42.30222439999999, "lng": -71.0520701}, "viewport": {"northeast": {"lat": 42.3036533802915, "lng": -71.05061016970849}, "southwest": {"lat": 42.3009554197085, "lng": -71.05330813029151}}}, "icon": "https://maps.gstatic.com/mapfiles/place_api/icons/generic_business-71.png", "id": "f140e95794315ce04ba0e475a08e36eee39fe61d", "name": "Asbestos Workers Local", "place_id": "ChIJLc3xsKd744kRzauizqxzhwU", "plus_code": {"compound_code": "8W2X+V5 Boston, Massachusetts, United States", "global_code": "87JC8W2X+V5"}, "rating": 5, "reference": "ChIJLc3xsKd744kRzauizqxzhwU", "scope": "GOOGLE", "types": ["point_of_interest", "establishment"], "user_ratings_total": 1, "vicinity": "303 Freeport Street, Dorchester"}, "ChIJN5HTm6d744kRT4NbnS-v7ac": {"geometry": {"location": {"lat": 42.3014276, "lng": -71.0510576}, "viewport": {"northeast": {"lat": 42.30285808029149, "lng": -71.04960026970849}, "southwest": {"lat": 42.30016011970849, "lng": -71.05229823029151}}}, "icon": "https://maps.gstatic.com/mapfiles/place_api/icons/generic_business-71.png", "id": "a643053e4664789468c63dc2e5a5341e68ce11c9", "name": "Global Insurance Inc", "opening_hours": {"open_now": true}, "place_id": "ChIJN5HTm6d744kRT4NbnS-v7ac", "plus_code": {"compound_code": "8W2X+HH Boston, Massachusetts, United States", "global_code": "87JC8W2X+HH"}, "rating": 3.7, "reference": "ChIJN5HTm6d744kRT4NbnS-v7ac", "scope": "GOOGLE", "types": ["insurance_agency", "point_of_interest", "establishment"], "user_ratings_total": 13, "vicinity": "321 Freeport Street, Dorchester"}, "ChIJkSDLg6d744kR4ue3NP6NKNY": {"geometry": {"location": {"lat": 42.3010939, "lng": -71.0503074}, "viewport": {"northeast": {"lat": 42.3025034802915, "lng": -71.04890181970849}, "southwest": {"lat": 42.2998055197085, "lng": -71.05159978029151}}}, "icon": "https://maps.gstatic.com/mapfiles/place_api/icons/generic_business-71.png", "id": "d2b4a1c3549c9f1b33b020b5c7cd0f394f584d85", "name": "New England Phoenix Co", "place_id": "ChIJkSDLg6d744kR4ue3NP6NKNY", "plus_code": {"compound_code": "8W2X+CV Boston, Massachusetts, United States", "global_code": "87JC8W2X+CV"}, "reference": "ChIJkSDLg6d744kR4ue3NP6NKNY", "scope": "GOOGLE", "types": ["general_contractor", "point_of_interest", "establishment"], "vicinity": "337 Freeport Street, Dorchester"}, "ChIJj37tfKd744kRtKrpLEwLiDY": {"geometry": {"location": {"lat": 42.300826, "lng": -71.05053699999999}, "viewport": {"northeast": {"lat": 42.3022159302915, "lng": -71.04926456970848}, "southwest": {"lat": 42.2995179697085, "lng": -71.05196253029149}}}, "icon": "https://maps.gstatic.com/mapfiles/place_api/icons/generic_business-71.png", "id": "caca81426e1daeec2008138e16a76431fa134bd9", "name": "Laborers International Union", "place_id": "ChIJj37tfKd744kRtKrpLEwLiDY", "plus_code": {"compound_code": "8W2X+8Q Boston, Massachusetts, United States", "global_code": "87JC8W2X+8Q"}, "rating": 5, "reference": "ChIJj37tfKd744kRtKrpLEwLiDY", "scope": "GOOGLE", "types": ["point_of_interest", "establishment"], "user_ratings_total": 3, "vicinity": "12 Everdean Street # A, Dorchester"}, "ChIJ7w8yeqd744kR8t7q6fnqd14": {"geometry": {"location": {"lat": 42.3007304, "lng": -71.05026430000001}, "viewport": {"northeast": {"lat": 42.30194558029149, "lng": -71.0487914197085}, "southwest": {"lat": 42.2992476197085, "lng": -71.05148938029151}}}, "icon": "https://maps.gstatic.com/mapfiles/place_api/icons/generic_business-71.png", "id": "5bd4ebd0912fd5864ebcb5ee513e1564b35d835c", "name": "Building & Construction Trades", "opening_hours": {"open_now": true}, "place_id": "ChIJ7w8yeqd744kR8t7q6fnqd14", "plus_code": {"compound_code": "8W2X+7V Boston, Massachusetts, United States", "global_code": "87JC8W2X+7V"}, "rating": 5, "reference": "ChIJ7w8yeqd744kR8t7q6fnqd14", "scope": "GOOGLE", "types": ["point_of_interest", "establishment"], "user_ratings_total": 1, "vicinity": "12 Everdean Street # A, Dorchester"}, "ChIJVVV5gqd744kREL2ZgTdbGug": {"geometry": {"location": {"lat": 42.30109400000001, "lng": -71.050307}, "viewport": {"northeast": {"lat": 42.30250348029151, "lng": -71.0489015197085}, "southwest": {"lat": 42.29980551970851, "lng": -71.0515994802915}}}, "icon": "https://maps.gstatic.com/mapfiles/place_api/icons/generic_business-71.png", "id": "1072e8aca678d50def5f019cb87a06cee13225a0", "name": "Elite Private Nursing", "place_id": "ChIJVVV5gqd744kREL2ZgTdbGug", "plus_code": {"compound_code": "8W2X+CV Boston, Massachusetts, United States", "global_code": "87JC8W2X+CV"}, "reference": "ChIJVVV5gqd744kREL2ZgTdbGug", "scope": "GOOGLE", "types": ["health", "point_of_interest", "establishment"], "vicinity": "337 Freeport Street, Dorchester"}, "ChIJOdIArkh644kRUf0DulsMRYU": {"geometry": {"location": {"lat": 42.30229589999999, "lng": -71.0523898}, "viewport": {"northeast": {"lat": 42.30371848029149, "lng": -71.05116071970849}, "southwest": {"lat": 42.30102051970849, "lng": -71.05385868029151}}}, "icon": "https://maps.gstatic.com/mapfiles/place_api/icons/police-71.png", "id": "3e33690d2485af3c64331ed775e48e215e4533fc", "name": "Boston Police Patrolmen's Association", "place_id": "ChIJOdIArkh644kRUf0DulsMRYU", "plus_code": {"compound_code": "8W2X+W2 Boston, Massachusetts, United States", "global_code": "87JC8W2X+W2"}, "rating": 4, "reference": "ChIJOdIArkh644kRUf0DulsMRYU", "scope": "GOOGLE", "types": ["police", "point_of_interest", "establishment"], "user_ratings_total": 4, "vicinity": "295 Freeport Street, Boston"}, "ChIJT8tFgqd744kRjJ6nEdmp-zs": {"geometry": {"location": {"lat": 42.3011493, "lng": -71.05026889999999}, "viewport": {"northeast": {"lat": 42.30253348029149, "lng": -71.04888701970849}, "southwest": {"lat": 42.2998355197085, "lng": -71.0515849802915}}}, "icon": "https://maps.gstatic.com/mapfiles/place_api/icons/generic_business-71.png", "id": "a5c4c405a660ea97794855671235074ba91a5044", "name": "Nepco, Inc.", "place_id": "ChIJT8tFgqd744kRjJ6nEdmp-zs", "plus_code": {"compound_code": "8W2X+FV Boston, Massachusetts, United States", "global_code": "87JC8W2X+FV"}, "reference": "ChIJT8tFgqd744kRjJ6nEdmp-zs", "scope": "GOOGLE", "types": ["point_of_interest", "establishment"], "vicinity": "337 Freeport Street, Dorchester"}, "ChIJUxZmgqd744kRIdzIu5tzghg": {"geometry": {"location": {"lat": 42.3011107, "lng": -71.0502912}, "viewport": {"northeast": {"lat": 42.30251183029149, "lng": -71.0488935197085}, "southwest": {"lat": 42.29981386970849, "lng": -71.0515914802915}}}, "icon": "https://maps.gstatic.com/mapfiles/place_api/icons/generic_business-71.png", "id": "b8a36fe75242b2b41774ce871fa62b3051bd6871", "name": "Vertec Corporation", "place_id": "ChIJUxZmgqd744kRIdzIu5tzghg", "plus_code": {"compound_code": "8W2X+CV Boston, Massachusetts, United States", "global_code": "87JC8W2X+CV"}, "reference": "ChIJUxZmgqd744kRIdzIu5tzghg", "scope": "GOOGLE", "types": ["general_contractor", "point_of_interest", "establishment"], "vicinity": "337 Freeport Street, Dorchester"}, "ChIJj37tfKd744kRReOr-s-3t2Y": {"geometry": {"location": {"lat": 42.3007185, "lng": -71.0499157}, "viewport": {"northeast": {"lat": 42.3019776302915, "lng": -71.04853131970849}, "southwest": {"lat": 42.2992796697085, "lng": -71.05122928029151}}}, "icon": "https://maps.gstatic.com/mapfiles/place_api/icons/generic_business-71.png", "id": "6c400a6d6d5890d30edfbbdda888b301bc2a2a40", "name": "Bricklayers & Masons Health", "place_id": "ChIJj37tfKd744kRReOr-s-3t2Y", "plus_code": {"compound_code": "8X22+72 Boston, Massachusetts, United States", "global_code": "87JC8X22+72"}, "rating": 1, "reference": "ChIJj37tfKd744kRReOr-s-3t2Y", "scope": "GOOGLE", "types": ["point_of_interest", "establishment"], "user_ratings_total": 1, "vicinity": "645 Morrissey Boulevard # 1, Dorchester"}, "ChIJq6rqs6d744kRbH4ZJCuU_nE": {"geometry": {"location": {"lat": 42.3022405, "lng": -71.0524696}, "viewport": {"northeast": {"lat": 42.3036774802915, "lng": -71.0512152197085}, "southwest": {"lat": 42.30097951970851, "lng": -71.0539131802915}}}, "icon": "https://maps.gstatic.com/mapfiles/place_api/icons/generic_business-71.png", "id": "9465a99fdd6329d24e6c5b579e0f1a0c99db9ed1", "name": "Decker & Rubin, PC", "place_id": "ChIJq6rqs6d744kRbH4ZJCuU_nE", "plus_code": {"compound_code": "8W2X+V2 Boston, Massachusetts, United States", "global_code": "87JC8W2X+V2"}, "reference": "ChIJq6rqs6d744kRbH4ZJCuU_nE", "scope": "GOOGLE", "types": ["point_of_interest", "establishment"], "vicinity": "295 Freeport Street, Boston"}, "ChIJm3s7Egh744kRk4qvrSCW72s": {"geometry": {"location": {"lat": 42.3024974, "lng": -71.0487553}, "viewport": {"northeast": {"lat": 42.3038242302915, "lng": -71.04733491970849}, "southwest": {"lat": 42.3011262697085, "lng": -71.0500328802915}}}, "icon": "https://maps.gstatic.com/mapfiles/place_api/icons/generic_recreational-71.png", "id": "7c28d33f16d4aae4163258227c8f5b95b151801a", "name": "Savin Hill Cove", "photos": [{"height": 2620, "html_attributions": ["<a href=\"https://maps.google.com/maps/contrib/112809523890394385839/photos\">Tim Hunt</a>"], "photo_reference": "CmRZAAAAiuhGpOzxFLCZX6QF8GLdTyMiM_fI1Z027Ivbk0SHugbXQ31Aicr2Jml71dz5ddrGaAYhOmUg1AxT_8MejWZB22WiP5Sxfqb5iTsgkulEl5vKYb5y0j_4yOe4vkzsK-iqEhBbG6zEu-_NbhMhG2uZ2yUSGhSQxhXMW_eXEv5KOcG91UqZGDvtRA", "width": 4656}], "place_id": "ChIJm3s7Egh744kRk4qvrSCW72s", "plus_code": {"compound_code": "8X22+XF Boston, Massachusetts, United States", "global_code": "87JC8X22+XF"}, "rating": 4.7, "reference": "ChIJm3s7Egh744kRk4qvrSCW72s", "scope": "GOOGLE", "types": ["park", "point_of_interest", "establishment"], "user_ratings_total": 11, "vicinity": "Boston"}, "ChIJIc08tqd744kRh6rRmzSbGkA": {"geometry": {"location": {"lat": 42.30231200000001, "lng": -71.052384}, "viewport": {"northeast": {"lat": 42.3037323302915, "lng": -71.0511512697085}, "southwest": {"lat": 42.3010343697085, "lng": -71.0538492302915}}}, "icon": "https://maps.gstatic.com/mapfiles/place_api/icons/generic_business-71.png", "id": "4b3f5237b0ddb5a06681402886cc003f740c520a", "name": "Park Development Corporation", "place_id": "ChIJIc08tqd744kRh6rRmzSbGkA", "plus_code": {"compound_code": "8W2X+W2 Boston, Massachusetts, United States", "global_code": "87JC8W2X+W2"}, "reference": "ChIJIc08tqd744kRh6rRmzSbGkA", "scope": "GOOGLE", "types": ["general_contractor", "point_of_interest", "establishment"], "vicinity": "295 Freeport Street, Dorchester"}, "ChIJZyLRyqd744kRCH53XAj5mMY": {"geometry": {"location": {"lat": 42.3023004, "lng": -71.05238419999999}, "viewport": {"northeast": {"lat": 42.3037230802915, "lng": -71.05115526970849}, "southwest": {"lat": 42.3010251197085, "lng": -71.0538532302915}}}, "icon": "https://maps.gstatic.com/mapfiles/place_api/icons/generic_business-71.png", "id": "5b3bad7e0ec7bf9678ef5bbf5099a29b4e19a4e9", "name": "Engineering Advantage Inc", "place_id": "ChIJZyLRyqd744kRCH53XAj5mMY", "plus_code": {"compound_code": "8W2X+W2 Boston, Massachusetts, United States", "global_code": "87JC8W2X+W2"}, "reference": "ChIJZyLRyqd744kRCH53XAj5mMY", "scope": "GOOGLE", "types": ["point_of_interest", "establishment"], "vicinity": "2 Park Street, Dorchester"}, "ChIJy6B8A6d744kRpjObbWEZGCw": {"geometry": {"location": {"lat": 42.3009296, "lng": -71.0521911}, "viewport": {"northeast": {"lat": 42.3022805802915, "lng": -71.05105051970848}, "southwest": {"lat": 42.2995826197085, "lng": -71.0537484802915}}}, "icon": "https://maps.gstatic.com/mapfiles/place_api/icons/generic_recreational-71.png", "id": "4142d3c1b574772299e2137bdc562e74da7f92bf", "name": "Byrne Playground", "place_id": "ChIJy6B8A6d744kRpjObbWEZGCw", "reference": "ChIJy6B8A6d744kRpjObbWEZGCw", "scope": "GOOGLE", "types": ["park", "premise", "point_of_interest", "establishment"], "vicinity": "Boston"}, "ChIJs4veGkl644kROEK8ix2v_oY": {"geometry": {"location": {"lat": 42.30163049999999, "lng": -71.067605}, "viewport": {"northeast": {"lat": 42.3358969, "lng": -71.0325551}, "southwest": {"lat": 42.267598, "lng": -71.0800369}}}, "icon": "https://maps.gstatic.com/mapfiles/place_api/icons/geocode-71.png", "id": "9e12301fdeebf54c1266b9986602466425a9c326", "name": "Dorchester", "photos": [{"height": 1944, "html_attributions": ["<a href=\"https://maps.google.com/maps/contrib/118366960396286562471/photos\">Michael Laferriere</a>"], "photo_reference": "CmRaAAAAvMFFy0jyTGRublMhGQidnrqo1z1dpDRI5uok8ZRMOCgq8DCPlXT78UAbpd5ErRzsZGGJmdlp43YvDyCxrtZbW_duENizatd1IqOHmZZTi9e1jn9S68svYVAON0jp9ZApEhB7I6YN5Hkdq14eOEN1N1Y4GhSnD4WXfrpzfBSh292VfpXCjCAimA", "width": 2592}], "place_id": "ChIJs4veGkl644kROEK8ix2v_oY", "reference": "ChIJs4veGkl644kROEK8ix2v_oY", "scope": "GOOGLE", "types": ["neighborhood", "political"], "vicinity": "Dorchester Center"}, "ChIJ1QSF-Qh744kRRHk4vf0pKxo": {"geometry": {"location": {"lat": 42.3019513, "lng": -71.0477339}, "viewport": {"northeast": {"lat": 42.3032469, "lng": -71.044698}, "southwest": {"lat": 42.29879520000001, "lng": -71.048664}}}, "icon": "https://maps.gstatic.com/mapfiles/place_api/icons/generic_recreational-71.png", "id": "cbc02895ad4914d839ed7c51e5b0345047b6e907", "name": "Boston Gas Company Easement", "place_id": "ChIJ1QSF-Qh744kRRHk4vf0pKxo", "reference": "ChIJ1QSF-Qh744kRRHk4vf0pKxo", "scope": "GOOGLE", "types": ["park", "premise", "point_of_interest", "establishment"], "vicinity": "Boston"}}