{"ChIJGzE9DS1l44kRoOhiASS_fHg": {"geometry": {"location": {"lat": 42.3600825, "lng": -71.0588801}, "viewport": {"northeast": {"lat": 42.40081989999999, "lng": -70.749455}, "southwest": {"lat": 42.22788, "lng": -71.191113}}}, "icon": "https://maps.gstatic.com/mapfiles/place_api/icons/geocode-71.png", "id": "06755c25d2b34d13942a4713971756a55b870ced", "name": "Boston", "photos": [{"height": 3024, "html_attributions": ["<a href=\"https://maps.google.com/maps/contrib/104670289779338733432/photos\">Natalia Zalucean</a>"], "photo_reference": "CmRaAAAADa_Crq5XChlrMa3xu4aPvgWn7s6oRJexoxNPwL_KegMs7nNJZ58tMrBI-cUbcbXjIbp4g8XO9-fiicwplIQOpraMXjmvQaL3LrU42ic1CcD-UW6boP45OxYZD-ME6HHpEhCXY_mLf4C98yfmSTymNz5GGhQyPnwZb-wiU9tDe1VGazO-VhpxgQ", "width": 4032}], "place_id": "ChIJGzE9DS1l44kRoOhiASS_fHg", "reference": "ChIJGzE9DS1l44kRoOhiASS_fHg", "scope": "GOOGLE", "types": ["locality", "political"], "vicinity": "Boston"}, "ChIJFThBKnh744kRSygHRV6FqQU": {"geometry": {"location": {"lat": 42.283721, "lng": -71.047303}, "viewport": {"northeast": {"lat": 42.28509913029149, "lng": -71.0459702197085}, "southwest": {"lat": 42.28240116970849, "lng": -71.0486681802915}}}, "icon": "https://maps.gstatic.com/mapfiles/place_api/icons/shopping-71.png", "id": "a5e46f0896396d952e311393db01feedeaa9451a", "name": "Drive In Paint Mart", "opening_hours": {"open_now": true}, "photos": [{"height": 2048, "html_attributions": ["<a href=\"https://maps.google.com/maps/contrib/103572544665528214640/photos\">Drive In Paint Mart</a>"], "photo_reference": "CmRaAAAAcUyNsGgBOOXx9JVkL0k_EViiJXqYycb08K-JpZSArTnfJnWVD4vcjCKy4IqHxO5C6850k-rjmqHf0DAuw5Vg-zdFl4pQHMlEsfUdSjjDg2zBHidAJ0OPizGOmLxGJnEyEhDBNcKDwMQM6fOJ0qW9lg8UGhRsN95qDKNeBP5GL5EDHQ1KY-msDQ", "width": 1749}], "place_id": "ChIJFThBKnh744kRSygHRV6FqQU", "plus_code": {"compound_code": "7XM3+F3 Boston, Massachusetts, United States", "global_code": "87JC7XM3+F3"}, "rating": 5, "reference": "ChIJFThBKnh744kRSygHRV6FqQU", "scope": "GOOGLE", "types": ["hardware_store", "home_goods_store", "store", "point_of_interest", "establishment"], "user_ratings_total": 12, "vicinity": "705 Gallivan Boulevard, Dorchester"}, "ChIJ4fl5KXh744kR4GmA5Oo6NI4": {"geometry": {"location": {"lat": 42.2833492, "lng": -71.04754199999999}, "viewport": {"northeast": {"lat": 42.28478513029149, "lng": -71.0462362697085}, "southwest": {"lat": 42.2820871697085, "lng": -71.04893423029151}}}, "icon": "https://maps.gstatic.com/mapfiles/place_api/icons/shopping-71.png", "id": "6cab3ba2e5ab7ba24d48dafc02cf892b9bc12cd9", "name": "CVS", "opening_hours": {"open_now": true}, "photos": [{"height": 800, "html_attributions": ["<a href=\"https://maps.google.com/maps/contrib/102424130508433047861/photos\">CVS</a>"], "photo_reference": "CmRaAAAAiSs6YrUx77fTI3Uia5iqrjVVWPiwLdLwGV-Taq3og1LBUv_sfOvLrzUlfxUgMjlQAoe1nVlAAis_qlr9G_9sGUlZusToS5wu0Z1QMlOT87JCWSuqJbT69LTIYmN62vvNEhB2GdsbTu-6_V6Ooqn9-pUxGhTPTGD0d4NynIl_Lu871jfacFGWxw", "width": 1067}], "place_id": "ChIJ4fl5KXh744kR4GmA5Oo6NI4", "plus_code": {"compound_code": "7XM2+8X Boston, Massachusetts, United States", "global_code": "87JC7XM2+8X"}, "rating": 3.5, "reference": "ChIJ4fl5KXh744kR4GmA5Oo6NI4", "scope": "GOOGLE", "types": ["convenience_store", "store", "health", "point_of_interest", "food", "establishment"], "user_ratings_total": 6, "vicinity": "703 Gallivan Boulevard, Dorchester"}, "ChIJcbIlOHh744kR2XAX7qku0AY": {"geometry": {"location": {"lat": 42.2827521, "lng": -71.04735219999999}, "viewport": {"northeast": {"lat": 42.28405928029151, "lng": -71.04602146970849}, "southwest": {"lat": 42.28136131970851, "lng": -71.0487194302915}}}, "icon": "https://maps.gstatic.com/mapfiles/place_api/icons/generic_business-71.png", "id": "a7e23bedd57b108fac827e6526ffa93a1afcac7c", "name": "Dorchester Door & Window", "opening_hours": {"open_now": true}, "photos": [{"height": 3036, "html_attributions": ["<a href=\"https://maps.google.com/maps/contrib/111639545998125544919/photos\">David Grigorian</a>"], "photo_reference": "CmRaAAAAe4tI-UOfvcgPooUJt3E0CiPvjUsqkRsSbNn0jNyEmLcxbEt3OVPC7rVBjsDOYwkm3yp3_jZIPtKn8zQkkEc5ZA2VL59Uyd72YT5N0wlKl1kx_bwjZ-s_paiP1tGbNOZ2EhDIB8GCIF4K88b9ztsNVEZ6GhRcpLakgzUNwXWjcRgMYU8Sk5qQKQ", "width": 4048}], "place_id": "ChIJcbIlOHh744kR2XAX7qku0AY", "plus_code": {"compound_code": "7XM3+43 Boston, Massachusetts, United States", "global_code": "87JC7XM3+43"}, "rating": 4.2, "reference": "ChIJcbIlOHh744kR2XAX7qku0AY", "scope": "GOOGLE", "types": ["point_of_interest", "establishment"], "user_ratings_total": 12, "vicinity": "5407, 41 Hallet Street, Dorchester Center"}, "ChIJJYcHEXh744kRedOnLz_2BbY": {"geometry": {"location": {"lat": 42.2831837, "lng": -71.04891649999999}, "viewport": {"northeast": {"lat": 42.2846373802915, "lng": -71.04759371970849}, "southwest": {"lat": 42.2819394197085, "lng": -71.0502916802915}}}, "icon": "https://maps.gstatic.com/mapfiles/place_api/icons/generic_business-71.png", "id": "d81e505845850d6cd17860b1a25ec8effc4822b7", "name": "Mimosa Nail", "opening_hours": {"open_now": true}, "photos": [{"height": 3984, "html_attributions": ["<a href=\"https://maps.google.com/maps/contrib/115937525060350923638/photos\">Sheila Springfield</a>"], "photo_reference": "CmRaAAAAH_XjIuK70Ri6yTg5oxYXrTl7pbwDCFwNDx7DYwHHeg1CBramDFtMpNeDjsJ0pKwVdHMt6mFfudHJ2pkfD7Rnyj0V7GFHxSTkmTnOsuIoWPErNRXROapL1xr3pxwxZ8CiEhA_lmCwyyU0l-H0bYt5LPbRGhSgJnnyMEbYS8-ZZ7ZCKeWrKgZedg", "width": 2988}], "place_id": "ChIJJYcHEXh744kRedOnLz_2BbY", "plus_code": {"compound_code": "7XM2+7C Boston, Massachusetts, United States", "global_code": "87JC7XM2+7C"}, "rating": 4, "reference": "ChIJJYcHEXh744kRedOnLz_2BbY", "scope": "GOOGLE", "types": ["beauty_salon", "point_of_interest", "establishment"], "user_ratings_total": 122, "vicinity": "655 Gallivan Boulevard, Boston"}, "ChIJV36VTnh744kRrM6oyb0FfKI": {"geometry": {"location": {"lat": 42.2822179, "lng": -71.04694959999999}, "viewport": {"northeast": {"lat": 42.2836294802915, "lng": -71.04567001970848}, "southwest": {"lat": 42.2809315197085, "lng": -71.04836798029149}}}, "icon": "https://maps.gstatic.com/mapfiles/place_api/icons/generic_business-71.png", "id": "e8052243de3f59c70452a013ffcf9b421c09a543", "name": "Boston Fire Fighters Credit Union", "opening_hours": {"open_now": true}, "photos": [{"height": 5312, "html_attributions": ["<a href=\"https://maps.google.com/maps/contrib/103690485244536182583/photos\">Wanda Allen</a>"], "photo_reference": "CmRaAAAAlU7GvOuSwrxv1RQ6puR0tn8Wjt-K9RIASFc6A8fIUi3t69jSs_hsQhaSNxo1d0XIZTkQo1RR6UmDmCFjYaz90AjAJ69U4AUwgMHJp0paSr-iCZ-Xm99Uu_M8bZJgGnkvEhAadVZdZppiJiYul8Q_o9VhGhREYvOdxxox7mVn9tKNqMLBkscb0Q", "width": 2988}], "place_id": "ChIJV36VTnh744kRrM6oyb0FfKI", "plus_code": {"compound_code": "7XJ3+V6 Boston, Massachusetts, United States", "global_code": "87JC7XJ3+V6"}, "rating": 5, "reference": "ChIJV36VTnh744kRrM6oyb0FfKI", "scope": "GOOGLE", "types": ["atm", "finance", "point_of_interest", "establishment"], "user_ratings_total": 5, "vicinity": "60 Hallet Street, Dorchester Center"}, "ChIJnzjUG3h744kRJi2H8Ax6kBQ": {"geometry": {"location": {"lat": 42.2836597, "lng": -71.0487199}, "viewport": {"northeast": {"lat": 42.28493853029151, "lng": -71.0473520697085}, "southwest": {"lat": 42.28224056970851, "lng": -71.0500500302915}}}, "icon": "https://maps.gstatic.com/mapfiles/place_api/icons/generic_business-71.png", "id": "be838e329acb1ac810523f6de4e3f4b2a6c85bbe", "name": "Deveney & White Monuments", "opening_hours": {"open_now": true}, "photos": [{"height": 2048, "html_attributions": ["<a href=\"https://maps.google.com/maps/contrib/103732787433422598559/photos\">Deveney &amp; White Monuments</a>"], "photo_reference": "CmRaAAAAdWPBbd92g-VTGl5Dm_RTiZjknpEnJqFYKRA9WU5TwYQR818f0lsl_kFmGBHhpFhr1Cu5A8EG2DxU-YOC41u5qG7xnZelqLZhkF3UFoxbYukdFFoh6Ixhdtd3l2-X0fSbEhBWFpuUwTvw-YiEqZZ-0hyhGhSNqq2LLNRrIwZ3gnvhRlkOHgchgQ", "width": 1150}], "place_id": "ChIJnzjUG3h744kRJi2H8Ax6kBQ", "plus_code": {"compound_code": "7XM2+FG Boston, Massachusetts, United States", "global_code": "87JC7XM2+FG"}, "rating": 4, "reference": "ChIJnzjUG3h744kRJi2H8Ax6kBQ", "scope": "GOOGLE", "types": ["cemetery", "point_of_interest", "establishment"], "user_ratings_total": 5, "vicinity": "664 Gallivan Boulevard, Dorchester Center"}, "ChIJtYwVJ3h744kRs6gVE0Nba2w": {"geometry": {"location": {"lat": 42.2840268, "lng": -71.0480664}, "viewport": {"northeast": {"lat": 42.2853103302915, "lng": -71.0466953697085}, "southwest": {"lat": 42.2826123697085, "lng": -71.04939333029151}}}, "icon": "https://maps.gstatic.com/mapfiles/place_api/icons/atm-71.png", "id": "9e4d1aeb2a153ce4a55f9d0a79e9909b64eb192e", "name": "Cardtronics ATM", "place_id": "ChIJtYwVJ3h744kRs6gVE0Nba2w", "plus_code": {"compound_code": "7XM2+JQ Boston, Massachusetts, United States", "global_code": "87JC7XM2+JQ"}, "reference": "ChIJtYwVJ3h744kRs6gVE0Nba2w", "scope": "GOOGLE", "types": ["atm", "finance", "store", "point_of_interest", "establishment"], "vicinity": "710 Gallivan Boulevard, Dorchester Center"}, "ChIJh0nREHh744kRepiFMNLVebU": {"geometry": {"location": {"lat": 42.2832056, "lng": -71.0488053}, "viewport": {"northeast": {"lat": 42.2846560802915, "lng": -71.04748171970849}, "southwest": {"lat": 42.2819581197085, "lng": -71.0501796802915}}}, "icon": "https://maps.gstatic.com/mapfiles/place_api/icons/generic_business-71.png", "id": "525174e8dd9975a02e2ccfdd1c8c91e770edae3d", "name": "Ann M Foley Insurance", "opening_hours": {"open_now": true}, "photos": [{"height": 1200, "html_attributions": ["<a href=\"https://maps.google.com/maps/contrib/113186184157381371702/photos\">Ann M Foley Insurance</a>"], "photo_reference": "CmRaAAAA7tktoSiG5bwXm4axsen2V-RWmkqZfCJNNyEf9Gpz5qMTHX7pMv2a3RzWAvnjL1ECqbiISjgZa7tR-8pX35PasO7dLtIALL20t8FYqcvi8juvcpEQf5VpJQaz0jXCKnTDEhBMmPiIXv4ek2vhZL9TBekMGhQ9L6j777BY5JL6EmAGSA8IBVf9Hw", "width": 1600}], "place_id": "ChIJh0nREHh744kRepiFMNLVebU", "plus_code": {"compound_code": "7XM2+7F Boston, Massachusetts, United States", "global_code": "87JC7XM2+7F"}, "rating": 5, "reference": "ChIJh0nREHh744kRepiFMNLVebU", "scope": "GOOGLE", "types": ["insurance_agency", "point_of_interest", "establishment"], "user_ratings_total": 2, "vicinity": "5423, 657 Gallivan Boulevard, Boston"}, "ChIJQVHcFnh744kR_T1uvWm5kH8": {"geometry": {"location": {"lat": 42.2833347, "lng": -71.04849999999999}, "viewport": {"northeast": {"lat": 42.28474458029149, "lng": -71.04716851970849}, "southwest": {"lat": 42.2820466197085, "lng": -71.0498664802915}}}, "icon": "https://maps.gstatic.com/mapfiles/place_api/icons/shopping-71.png", "id": "4cb9295bcb08a205e86ea22995e9c8517c742bf0", "name": "PC Rescue Man", "place_id": "ChIJQVHcFnh744kR_T1uvWm5kH8", "plus_code": {"compound_code": "7XM2+8J Boston, Massachusetts, United States", "global_code": "87JC7XM2+8J"}, "reference": "ChIJQVHcFnh744kR_T1uvWm5kH8", "scope": "GOOGLE", "types": ["electronics_store", "store", "point_of_interest", "establishment"], "vicinity": "659 Gallivan Boulevard, Boston"}, "ChIJEdr6Fnh744kRZ3Dd5fTKvmw": {"geometry": {"location": {"lat": 42.2833275, "lng": -71.04852009999999}, "viewport": {"northeast": {"lat": 42.2847392802915, "lng": -71.04718916970849}, "southwest": {"lat": 42.2820413197085, "lng": -71.0498871302915}}}, "icon": "https://maps.gstatic.com/mapfiles/place_api/icons/generic_business-71.png", "id": "d1e70ae21276bc5302c7b0ccad7a069e2c12a455", "name": "The Bean Network", "place_id": "ChIJEdr6Fnh744kRZ3Dd5fTKvmw", "plus_code": {"compound_code": "7XM2+8H Boston, Massachusetts, United States", "global_code": "87JC7XM2+8H"}, "reference": "ChIJEdr6Fnh744kRZ3Dd5fTKvmw", "scope": "GOOGLE", "types": ["point_of_interest", "establishment"], "vicinity": "659 Gallivan Boulevard, Boston"}, "ChIJl2stFnh744kRL0JxTbYNjAI": {"geometry": {"location": {"lat": 42.28331910000001, "lng": -71.0483326}, "viewport": {"northeast": {"lat": 42.2847493302915, "lng": -71.0470088197085}, "southwest": {"lat": 42.2820513697085, "lng": -71.0497067802915}}}, "icon": "https://maps.gstatic.com/mapfiles/place_api/icons/shopping-71.png", "id": "afd81ce5db5d98607b863fe241604fa22b6cee20", "name": "Clasico Motor", "opening_hours": {"open_now": true}, "photos": [{"height": 1152, "html_attributions": ["<a href=\"https://maps.google.com/maps/contrib/103710278753340621019/photos\">Clasico Motor</a>"], "photo_reference": "CmRaAAAAZ1ZCnoJQapdRz4Cook7TF3QxEut17Y_Fov5lKRopK2TgcOAjLOwQqXlw6e2Ked_Xg1l88qzrTU-lPb1kw_lQU2lZ68R_mYlOxi_987Mi4vfm-0OovG-RyYogLbnuFAbYEhChYvYsHj-53QFctK-mh35FGhRfWk_sMG446iu4BaMtyqyJ8731-g", "width": 2048}], "place_id": "ChIJl2stFnh744kRL0JxTbYNjAI", "plus_code": {"compound_code": "7XM2+8M Boston, Massachusetts, United States", "global_code": "87JC7XM2+8M"}, "rating": 3.4, "reference": "ChIJl2stFnh744kRL0JxTbYNjAI", "scope": "GOOGLE", "types": ["car_dealer", "store", "point_of_interest", "establishment"], "user_ratings_total": 7, "vicinity": "663 Gallivan Boulevard, Boston"}, "ChIJX92nOnh744kRnWETP-pHCnA": {"geometry": {"location": {"lat": 42.283301, "lng": -71.04755399999999}, "viewport": {"northeast": {"lat": 42.2845543802915, "lng": -71.0462496697085}, "southwest": {"lat": 42.2818564197085, "lng": -71.04894763029151}}}, "icon": "https://maps.gstatic.com/mapfiles/place_api/icons/generic_business-71.png", "id": "0c87db538574da120f3b6c35aa311082f781a908", "name": "CVS Photo", "opening_hours": {"open_now": true}, "photos": [{"height": 666, "html_attributions": ["<a href=\"https://maps.google.com/maps/contrib/106655195448049355957/photos\">CVS Photo</a>"], "photo_reference": "CmRaAAAArREl01WpIRkKqXMpGUcq66iIsWr1MmG8nfPYZgbtIKAsesY7Q4RduQtfIP-6y5H6DbZKRcDOo-GkOnyj_G1EomObX7F3XB7StkUIetApobMD1_ndtTMZfjXPO-l1LqaREhDzWN5sit3yete0aUgeDJ8DGhS6XUm_HqvZu9Divyl1R_F-OBeY0Q", "width": 1000}], "place_id": "ChIJX92nOnh744kRnWETP-pHCnA", "plus_code": {"compound_code": "7XM2+8X Boston, Massachusetts, United States", "global_code": "87JC7XM2+8X"}, "reference": "ChIJX92nOnh744kRnWETP-pHCnA", "scope": "GOOGLE", "types": ["electronics_store", "home_goods_store", "store", "point_of_interest", "establishment"], "vicinity": "703 Gallivan Boulevard, Dorchester"}, "ChIJX92nOnh744kRgRjpBuyuRxM": {"geometry": {"location": {"lat": 42.283301, "lng": -71.04755399999999}, "viewport": {"northeast": {"lat": 42.2845543802915, "lng": -71.0462496697085}, "southwest": {"lat": 42.2818564197085, "lng": -71.04894763029151}}}, "icon": "https://maps.gstatic.com/mapfiles/place_api/icons/shopping-71.png", "id": "9f5a6b3d3eb51907a86dbbb4851c9e21ee30d123", "name": "CVS Pharmacy", "opening_hours": {"open_now": true}, "photos": [{"height": 667, "html_attributions": ["<a href=\"https://maps.google.com/maps/contrib/116994658490772906666/photos\">CVS Pharmacy</a>"], "photo_reference": "CmRaAAAAEUjdQMi7p-Oys2TdhgJTeiDUYCTKNeEVoibTI6B3eKUQHbm4RiBP_20vNUjapKEUjb17pU6Jb5WgFySVffbS8qQ_MOEgSXCUcUND-xPzM0HZ20hJXUOt3_zSO9VQEc0FEhDJDXHE3UXO4D4cUzk0xF7JGhR1ptNavGuvJXMP1abJzjXC9bKZbg", "width": 1000}], "place_id": "ChIJX92nOnh744kRgRjpBuyuRxM", "plus_code": {"compound_code": "7XM2+8X Boston, Massachusetts, United States", "global_code": "87JC7XM2+8X"}, "rating": 5, "reference": "ChIJX92nOnh744kRgRjpBuyuRxM", "scope": "GOOGLE", "types": ["pharmacy", "store", "health", "point_of_interest", "establishment"], "user_ratings_total": 3, "vicinity": "703 Gallivan Boulevard, Dorchester"}, "ChIJ4Qz_L3h744kRcD0CSV86-O4": {"geometry": {"location": {"lat": 42.2833257, "lng": -71.0475419}, "viewport": {"northeast": {"lat": 42.2847719802915, "lng": -71.0462413197085}, "southwest": {"lat": 42.2820740197085, "lng": -71.0489392802915}}}, "icon": "https://maps.gstatic.com/mapfiles/place_api/icons/atm-71.png", "id": "3bdb456d772d46e6311f2b7c7b1434252274f31f", "name": "Santander Bank ATM", "opening_hours": {"open_now": true}, "photos": [{"height": 2326, "html_attributions": ["<a href=\"https://maps.google.com/maps/contrib/108914870943849292938/photos\">Santander Bank ATM</a>"], "photo_reference": "CmRaAAAA8D7H4sN3VebJhRLq9T12O5l0NrhsEgUFULikLaPy7-JwFjHVmW1nVZhqy_VRns0JiSAWYxtZgoPgxxRsIbKnCFWXk0SPIp3DZ_Mg1y9Tpl6JapSxWNy5V1S46iXm54-gEhDrN4tJPH2JaMtPxuBds-m9GhQpGonM_E4xp2TkTcDaQgV5rrAiwQ", "width": 2326}], "place_id": "ChIJ4Qz_L3h744kRcD0CSV86-O4", "plus_code": {"compound_code": "7XM2+8X Boston, Massachusetts, United States", "global_code": "87JC7XM2+8X"}, "rating": 1, "reference": "ChIJ4Qz_L3h744kRcD0CSV86-O4", "scope": "GOOGLE", "types": ["atm", "insurance_agency", "finance", "point_of_interest", "establishment"], "user_ratings_total": 1, "vicinity": "703 Gallivan Boulevard, Dorchester"}, "ChIJ4Qz_L3h744kRaDVql2NL_gc": {"geometry": {"location": {"lat": 42.2833492, "lng": -71.04754199999999}, "viewport": {"northeast": {"lat": 42.28478513029149, "lng": -71.0462362697085}, "southwest": {"lat": 42.2820871697085, "lng": -71.04893423029151}}}, "icon": "https://maps.gstatic.com/mapfiles/place_api/icons/generic_business-71.png", "id": "15e0625b17e60dc90f4463e312a24721b1c27253", "name": "MoneyGram", "opening_hours": {"open_now": true}, "photos": [{"height": 300, "html_attributions": ["<a href=\"https://maps.google.com/maps/contrib/110588489759969104322/photos\">MoneyGram</a>"], "photo_reference": "CmRaAAAAxo8PJuOnutAGc51HxhSdtVaB2o6kneqajkwikU0WU_Vijh-U13PeJe_T2bO8OctuiH1wv3DmYgI4mYC-eLw6JGE6t9mYO0Q7881WPip8wcEZzaBnj0aTAKwwYtxT6_XtEhAZSYAWuD0iHNSSgsndebd8GhRNmrK1QI18uEtFNPLagxH2PmMUeA", "width": 300}], "place_id": "ChIJ4Qz_L3h744kRaDVql2NL_gc", "plus_code": {"compound_code": "7XM2+8X Boston, Massachusetts, United States", "global_code": "87JC7XM2+8X"}, "reference": "ChIJ4Qz_L3h744kRaDVql2NL_gc", "scope": "GOOGLE", "types": ["finance", "point_of_interest", "establishment"], "vicinity": "703 Gallivan Boulevard, Dorchester Center"}, "ChIJwYrXIHh744kROtxfIrCwj6I": {"geometry": {"location": {"lat": 42.2838615, "lng": -71.0479656}, "viewport": {"northeast": {"lat": 42.28522213029149, "lng": -71.04662051970848}, "southwest": {"lat": 42.28252416970849, "lng": -71.0493184802915}}}, "icon": "https://maps.gstatic.com/mapfiles/place_api/icons/generic_business-71.png", "id": "fd3cb578d17956069ea0848f38923fb4b65f8d54", "name": "Amazon Locker - Augustus", "opening_hours": {"open_now": true}, "place_id": "ChIJwYrXIHh744kROtxfIrCwj6I", "plus_code": {"compound_code": "7XM2+GR Boston, Massachusetts, United States", "global_code": "87JC7XM2+GR"}, "reference": "ChIJwYrXIHh744kROtxfIrCwj6I", "scope": "GOOGLE", "types": ["point_of_interest", "establishment"], "vicinity": "710 Gallivan Blvd, at Speedway, Dorchester"}, "ChIJpS60CuyBt4cR7WZjRuOl3-w": {"geometry": {"location": {"lat": 42.2823888, "lng": -71.04764109999999}, "viewport": {"northeast": {"lat": 42.2837061802915, "lng": -71.0461102197085}, "southwest": {"lat": 42.2810082197085, "lng": -71.0488081802915}}}, "icon": "https://maps.gstatic.com/mapfiles/place_api/icons/generic_business-71.png", "id": "768930e98681bda7cc4660d8f7f776391ca1554c", "name": "Boston Firefighters Burn Foundation", "place_id": "ChIJpS60CuyBt4cR7WZjRuOl3-w", "plus_code": {"compound_code": "7XJ2+XW Boston, Massachusetts, United States", "global_code": "87JC7XJ2+XW"}, "reference": "ChIJpS60CuyBt4cR7WZjRuOl3-w", "scope": "GOOGLE", "types": ["point_of_interest", "establishment"], "vicinity": "55 Hallet Street, Dorchester"}, "ChIJAQDARXh744kRb8giC2fthdM": {"geometry": {"location": {"lat": 42.2823888, "lng": -71.04764109999999}, "viewport": {"northeast": {"lat": 42.2837061802915, "lng": -71.0461102197085}, "southwest": {"lat": 42.2810082197085, "lng": -71.0488081802915}}}, "icon": "https://maps.gstatic.com/mapfiles/place_api/icons/generic_business-71.png", "id": "7bfd810d0c5f9196d38e75220426c9a0b6b6f626", "name": "boston firefighters local 718 memorial road race", "place_id": "ChIJAQDARXh744kRb8giC2fthdM", "plus_code": {"compound_code": "7XJ2+XW Boston, Massachusetts, United States", "global_code": "87JC7XJ2+XW"}, "rating": 5, "reference": "ChIJAQDARXh744kRb8giC2fthdM", "scope": "GOOGLE", "types": ["point_of_interest", "establishment"], "user_ratings_total": 1, "vicinity": "55 Hallet Street, Boston"}, "ChIJs4veGkl644kROEK8ix2v_oY": {"geometry": {"location": {"lat": 42.30163049999999, "lng": -71.067605}, "viewport": {"northeast": {"lat": 42.3358969, "lng": -71.0325551}, "southwest": {"lat": 42.267598, "lng": -71.0800369}}}, "icon": "https://maps.gstatic.com/mapfiles/place_api/icons/geocode-71.png", "id": "9e12301fdeebf54c1266b9986602466425a9c326", "name": "Dorchester", "photos": [{"height": 1944, "html_attributions": ["<a href=\"https://maps.google.com/maps/contrib/118366960396286562471/photos\">Michael Laferriere</a>"], "photo_reference": "CmRaAAAAVfWHm--uqqJt5SuqzKmZHEx9PiiserC_2xfcsoM3LrfukwgcIaKoZJHcMI806b42mV2-IZjMadMoq3X3eOT7O_iaBlHfKA-GMNGdPxCgLwFi5yv9oarbcyH0CU3nGM_FEhBf_a8ve1p2T6eKtqEAO-FGGhSHSXGjWOs-6urgj_Z2GHjt_yNqBg", "width": 2592}], "place_id": "ChIJs4veGkl644kROEK8ix2v_oY", "reference": "ChIJs4veGkl644kROEK8ix2v_oY", "scope": "GOOGLE", "types": ["neighborhood", "political"], "vicinity": "Dorchester Center"}, "ChIJA2SQpoJ744kREiQyiDku2y8": {"geometry": {"location": {"lat": 42.2835638, "lng": -71.0500941}, "viewport": {"northeast": {"lat": 42.2848218802915, "lng": -71.0487344197085}, "southwest": {"lat": 42.2821239197085, "lng": -71.0514323802915}}}, "icon": "https://maps.gstatic.com/mapfiles/place_api/icons/shopping-71.png", "id": "3b5cd1d4994b9afce743bd3404df7d6e6fb6d852", "name": "AT&T", "opening_hours": {"open_now": true}, "photos": [{"height": 576, "html_attributions": ["<a href=\"https://maps.google.com/maps/contrib/106071129218894653694/photos\">AT&amp;T</a>"], "photo_reference": "CmRaAAAApxwN1eFW6yBQ0TiGyrKRHcXHZhvQMlOactwkfxLcjCZcvO7cZfqrMfOco3Iab3h0OAQIdvSmesbyqYkNS5-qMIH_3YpCXxSCGQCRt_zVweUXQZje3JcB2FGg9gfFM-bPEhAfz1N-HHwVV00XC8jLJaYqGhTQ_QjFq3_-OjlmwGl6fU7biqBISQ", "width": 1024}], "place_id": "ChIJA2SQpoJ744kREiQyiDku2y8", "plus_code": {"compound_code": "7WMX+CX Boston, Massachusetts, United States", "global_code": "87JC7WMX+CX"}, "rating": 3.6, "reference": "ChIJA2SQpoJ744kREiQyiDku2y8", "scope": "GOOGLE", "types": ["electronics_store", "store", "point_of_interest", "establishment"], "user_ratings_total": 31, "vicinity": "630 Gallivan Boulevard, Dorchester"}, "ChIJOXhY6oJ744kRIKy_e6fst-w": {"geometry": {"location": {"lat": 42.2836073, "lng": -71.0505811}, "viewport": {"northeast": {"lat": 42.2848282302915, "lng": -71.04921706970849}, "southwest": {"lat": 42.2821302697085, "lng": -71.0519150302915}}}, "icon": "https://maps.gstatic.com/mapfiles/place_api/icons/generic_business-71.png", "id": "ef1a2325ce1362fa171b694456c5f774244f7252", "name": "Modern Taekwondo Center", "opening_hours": {"open_now": false}, "photos": [{"height": 1067, "html_attributions": ["<a href=\"https://maps.google.com/maps/contrib/103460022500906769450/photos\">Fredson Gomes</a>"], "photo_reference": "CmRaAAAAW5WQ68aXzWSjYLP6riUm9Ikeuiv8tec7PM788dp4E1qZjWcfzyENSjhMiamCMwI17rZdwlx0aZWWfhoXHbZ6Ji5kSe4V2LquhzQMnts29i2JdPUigf-iwWzWe75-SvpZEhA-F9P4c_nN_syrthvq8Bx4GhTLt_vyB5qHMpZHBuU4WApGdf7asA", "width": 1600}], "place_id": "ChIJOXhY6oJ744kRIKy_e6fst-w", "plus_code": {"compound_code": "7WMX+CQ Boston, Massachusetts, United States", "global_code": "87JC7WMX+CQ"}, "rating": 4.8, "reference": "ChIJOXhY6oJ744kRIKy_e6fst-w", "scope": "GOOGLE", "types": ["health", "point_of_interest", "establishment"], "user_ratings_total": 18, "vicinity": "618 Gallivan Boulevard, Boston"}, "ChIJcftElYJ744kR5euVv0P99tY": {"geometry": {"location": {"lat": 42.2835949, "lng": -71.0505661}, "viewport": {"northeast": {"lat": 42.28482248029149, "lng": -71.04920281970848}, "southwest": {"lat": 42.28212451970849, "lng": -71.0519007802915}}}, "icon": "https://maps.gstatic.com/mapfiles/place_api/icons/generic_business-71.png", "id": "38d1dded6963f3d05860be0ff56e211795c39929", "name": "Muffler Man", "opening_hours": {"open_now": true}, "photos": [{"height": 329, "html_attributions": ["<a href=\"https://maps.google.com/maps/contrib/101627944745336429045/photos\">Muffler Man</a>"], "photo_reference": "CmRaAAAAEZEQKmC7ac_pGoRBKw5vxvJyjqVwHhG15pS7ipVdrF2lvafdR-9gIVVQm9Zej8bwRD7aAXDlEfApK5X24XPSMxjR2x6_KgQgCjrAffhFken9d6-9PEoZLPd5_GsTDMpZEhCDoq8VrPReRe-1dMgb1ejUGhREAbuSbmDlyX1Sy8a1-jUxZprzXA", "width": 441}], "place_id": "ChIJcftElYJ744kR5euVv0P99tY", "plus_code": {"compound_code": "7WMX+CQ Boston, Massachusetts, United States", "global_code": "87JC7WMX+CQ"}, "rating": 4.9, "reference": "ChIJcftElYJ744kR5euVv0P99tY", "scope": "GOOGLE", "types": ["car_repair", "store", "point_of_interest", "establishment"], "user_ratings_total": 27, "vicinity": "624 Gallivan Boulevard, Boston"}, "ChIJAQDARXh744kRtdx3B5XTiD0": {"geometry": {"location": {"lat": 42.2823888, "lng": -71.04764109999999}, "viewport": {"northeast": {"lat": 42.2837061802915, "lng": -71.0461102197085}, "southwest": {"lat": 42.2810082197085, "lng": -71.0488081802915}}}, "icon": "https://maps.gstatic.com/mapfiles/place_api/icons/generic_business-71.png", "id": "219c21218c17185d4387da2061b0406918be5ed2", "name": "felix g arroyo", "place_id": "ChIJAQDARXh744kRtdx3B5XTiD0", "plus_code": {"compound_code": "7XJ2+XW Boston, Massachusetts, United States", "global_code": "87JC7XJ2+XW"}, "reference": "ChIJAQDARXh744kRtdx3B5XTiD0", "scope": "GOOGLE", "types": ["point_of_interest", "establishment"], "vicinity": "55 Hallet Street, Boston"}, "ChIJAQDARXh744kRFOjTlZEy02I": {"geometry": {"location": {"lat": 42.2823888, "lng": -71.04764109999999}, "viewport": {"northeast": {"lat": 42.2837061802915, "lng": -71.0461102197085}, "southwest": {"lat": 42.2810082197085, "lng": -71.0488081802915}}}, "icon": "https://maps.gstatic.com/mapfiles/place_api/icons/generic_business-71.png", "id": "5495b73b2314baf4273fbb3f06793ed198695efa", "name": "australasian fire authorities council position on smoke alarms in residential accommodation", "place_id": "ChIJAQDARXh744kRFOjTlZEy02I", "plus_code": {"compound_code": "7XJ2+XW Boston, Massachusetts, United States", "global_code": "87JC7XJ2+XW"}, "reference": "ChIJAQDARXh744kRFOjTlZEy02I", "scope": "GOOGLE", "types": ["point_of_interest", "establishment"], "vicinity": "55 Hallet Street, Boston"}, "ChIJSWrnEXh744kRL7dxbs_1_Uw": {"geometry": {"location": {"lat": 42.2833816, "lng": -71.0489494}, "viewport": {"northeast": {"lat": 42.2847133302915, "lng": -71.04759606970849}, "southwest": {"lat": 42.2820153697085, "lng": -71.0502940302915}}}, "icon": "https://maps.gstatic.com/mapfiles/place_api/icons/generic_business-71.png", "id": "37d81b3b2ea87707a85d414ceb8e2e2c7b41403e", "name": "Shore Realty", "place_id": "ChIJSWrnEXh744kRL7dxbs_1_Uw", "plus_code": {"compound_code": "7XM2+9C Boston, Massachusetts, United States", "global_code": "87JC7XM2+9C"}, "reference": "ChIJSWrnEXh744kRL7dxbs_1_Uw", "scope": "GOOGLE", "types": ["lawyer", "point_of_interest", "establishment"], "vicinity": "653 Gallivan Boulevard, Dorchester Center"}, "ChIJcftElYJ744kRnbsEvOZ_-Hw": {"geometry": {"location": {"lat": 42.2835584, "lng": -71.050401}, "viewport": {"northeast": {"lat": 42.2848093302915, "lng": -71.04904046970849}, "southwest": {"lat": 42.2821113697085, "lng": -71.05173843029151}}}, "icon": "https://maps.gstatic.com/mapfiles/place_api/icons/generic_business-71.png", "id": "eb9f0edd5b409185987e98f1eab99e9523286e41", "name": "Nail & Spa", "opening_hours": {"open_now": true}, "photos": [{"height": 4656, "html_attributions": ["<a href=\"https://maps.google.com/maps/contrib/105436544575605044056/photos\">Jeffrey Anderson</a>"], "photo_reference": "CmRaAAAAgchSkIks81cjPdCvzw4LGIJdTUxEISqnncluLGzYR2XAuyZ8u_GOh5S4YnJ4rxUAsYhkeaxI8ZRZZ1HX5GdDgVVjbf2PDVBecFAbYA7rNnbXthbNTgVC2EzLkOuGa4s2EhDbHB0jX0uQ8NpQRIhtkRFcGhT1Of6S0k8e3OUgnmuaZG3cl75mag", "width": 3492}], "place_id": "ChIJcftElYJ744kRnbsEvOZ_-Hw", "plus_code": {"compound_code": "7WMX+CR Boston, Massachusetts, United States", "global_code": "87JC7WMX+CR"}, "rating": 3.5, "reference": "ChIJcftElYJ744kRnbsEvOZ_-Hw", "scope": "GOOGLE", "types": ["beauty_salon", "point_of_interest", "establishment"], "user_ratings_total": 75, "vicinity": "624 Gallivan Boulevard, Dorchester Center"}, "ChIJZWnoCXh744kRAlhqOwAbr5w": {"geometry": {"location": {"lat": 42.283596, "lng": -71.049812}, "viewport": {"northeast": {"lat": 42.28484673029151, "lng": -71.04845206970849}, "southwest": {"lat": 42.28214876970851, "lng": -71.0511500302915}}}, "icon": "https://maps.gstatic.com/mapfiles/place_api/icons/generic_business-71.png", "id": "0aec7ff3855ed45deeb77d8d434f739472a40dec", "name": "Fancy Salon", "opening_hours": {"open_now": true}, "photos": [{"height": 4160, "html_attributions": ["<a href=\"https://maps.google.com/maps/contrib/102440967133876356248/photos\">Joanne McKay</a>"], "photo_reference": "CmRaAAAA8NB1O6CNSRlmME8E_YOj2AEaR75ZmApmsXKL_dkn7VwF7C5S1vrxNnD5aGatw7QjXHOH9ML5M6qoYAnqLJxXbWfEUd9Lu4ovsSkWcKBb4684lfE4v_abQKoAdRDOHrG8EhBS8Rv9hVD5DTWADBM3UYknGhT1Pn4un0kTkhxTu-zZnkxI7EN1Dg", "width": 2340}], "place_id": "ChIJZWnoCXh744kRAlhqOwAbr5w", "plus_code": {"compound_code": "7XM2+C3 Boston, Massachusetts, United States", "global_code": "87JC7XM2+C3"}, "rating": 3.9, "reference": "ChIJZWnoCXh744kRAlhqOwAbr5w", "scope": "GOOGLE", "types": ["beauty_salon", "point_of_interest", "establishment"], "user_ratings_total": 160, "vicinity": "640 Gallivan Boulevard, Dorchester Center"}, "ChIJQUnoTnh744kRqNXYdgcB_Ug": {"geometry": {"location": {"lat": 42.28241629999999, "lng": -71.0476596}, "viewport": {"northeast": {"lat": 42.2839028302915, "lng": -71.0462231697085}, "southwest": {"lat": 42.2812048697085, "lng": -71.0489211302915}}}, "icon": "https://maps.gstatic.com/mapfiles/place_api/icons/generic_business-71.png", "id": "57621b774ed6f23eb13f40ad1f48a9dbc5df32f4", "name": "Florian Hall", "photos": [{"height": 3036, "html_attributions": ["<a href=\"https://maps.google.com/maps/contrib/111467234597831320328/photos\">Andrew</a>"], "photo_reference": "CmRaAAAAs3HJYh8n7YMc-6XM1ewZZYEWVZKbWljjv6_J1RhCdotQF7Qq45PM2C7jVS-loGQqKM_pGsC-_6MsKDftH-Beso34HN5TbuB1wU_c41p97CVMHCZrXReDpI5a1VfnwSSuEhBqjGwxccqGlj0u3aY_DjupGhSqEFbS02V1f0__PJf_yRmBMK3o5w", "width": 4048}], "place_id": "ChIJQUnoTnh744kRqNXYdgcB_Ug", "plus_code": {"compound_code": "7XJ2+XW Boston, Massachusetts, United States", "global_code": "87JC7XJ2+XW"}, "rating": 4.4, "reference": "ChIJQUnoTnh744kRqNXYdgcB_Ug", "scope": "GOOGLE", "types": ["point_of_interest", "establishment"], "user_ratings_total": 152, "vicinity": "55 Hallet Street, Boston"}, "ChIJOccaF3h744kRDpIFgzeE6Qw": {"geometry": {"location": {"lat": 42.28323109999999, "lng": -71.04854639999999}, "viewport": {"northeast": {"lat": 42.28468703029149, "lng": -71.04722816970849}, "southwest": {"lat": 42.28198906970849, "lng": -71.0499261302915}}}, "icon": "https://maps.gstatic.com/mapfiles/place_api/icons/shopping-71.png", "id": "471b644899e5679e988a38203fb487f313627827", "name": "Boston Fire Apparel", "opening_hours": {"open_now": true}, "place_id": "ChIJOccaF3h744kRDpIFgzeE6Qw", "plus_code": {"compound_code": "7XM2+7H Boston, Massachusetts, United States", "global_code": "87JC7XM2+7H"}, "rating": 3, "reference": "ChIJOccaF3h744kRDpIFgzeE6Qw", "scope": "GOOGLE", "types": ["clothing_store", "store", "point_of_interest", "establishment"], "user_ratings_total": 4, "vicinity": "659 Gallivan Boulevard, Boston"}, "ChIJGeUxhf5744kRJwd9sgIt-V8": {"geometry": {"location": {"lat": 42.283313, "lng": -71.0483421}, "viewport": {"northeast": {"lat": 42.2847453302915, "lng": -71.0470189697085}, "southwest": {"lat": 42.2820473697085, "lng": -71.04971693029151}}}, "icon": "https://maps.gstatic.com/mapfiles/place_api/icons/generic_business-71.png", "id": "9819bff546278169f057b29b2a47cc85263cf683", "name": "Sell Fast Boston", "opening_hours": {"open_now": true}, "place_id": "ChIJGeUxhf5744kRJwd9sgIt-V8", "plus_code": {"compound_code": "7XM2+8M Boston, Massachusetts, United States", "global_code": "87JC7XM2+8M"}, "reference": "ChIJGeUxhf5744kRJwd9sgIt-V8", "scope": "GOOGLE", "types": ["real_estate_agency", "general_contractor", "point_of_interest", "establishment"], "vicinity": "663 Gallivan Boulevard, Boston"}, "ChIJ1wvXoIJ744kRnViYrL94h-I": {"geometry": {"location": {"lat": 42.28342, "lng": -71.049947}, "viewport": {"northeast": {"lat": 42.2847705802915, "lng": -71.0485982197085}, "southwest": {"lat": 42.2820726197085, "lng": -71.0512961802915}}}, "icon": "https://maps.gstatic.com/mapfiles/place_api/icons/bus-71.png", "id": "59c0e393364e69925005ea3802bfc5a4252a4d4a", "name": "Gallivan Blvd @ opp Marsh St", "place_id": "ChIJ1wvXoIJ744kRnViYrL94h-I", "plus_code": {"compound_code": "7XM2+92 Boston, Massachusetts, United States", "global_code": "87JC7XM2+92"}, "reference": "ChIJ1wvXoIJ744kRnViYrL94h-I", "scope": "GOOGLE", "types": ["bus_station", "transit_station", "point_of_interest", "establishment"], "vicinity": "United States"}, "ChIJ6WGpLXh744kRR4o7zjcJUNQ": {"geometry": {"location": {"lat": 42.2831654, "lng": -71.0473141}, "viewport": {"northeast": {"lat": 42.28450808029149, "lng": -71.0459291197085}, "southwest": {"lat": 42.2818101197085, "lng": -71.04862708029151}}}, "icon": "https://maps.gstatic.com/mapfiles/place_api/icons/shopping-71.png", "id": "ad855b46c839b3ef603ab07baf358f69c236520d", "name": "Benjamin Moore", "opening_hours": {"open_now": true}, "place_id": "ChIJ6WGpLXh744kRR4o7zjcJUNQ", "plus_code": {"compound_code": "7XM3+73 Boston, Massachusetts, United States", "global_code": "87JC7XM3+73"}, "price_level": 2, "rating": 3.6, "reference": "ChIJ6WGpLXh744kRR4o7zjcJUNQ", "scope": "GOOGLE", "types": ["home_goods_store", "store", "point_of_interest", "establishment"], "user_ratings_total": 5, "vicinity": "Hallet Street, Dorchester"}, "ChIJeZPsCp5744kRK2KsqCFfVJ4": {"geometry": {"location": {"lat": 42.2823888, "lng": -71.04764109999999}, "viewport": {"northeast": {"lat": 42.2837061802915, "lng": -71.0461102197085}, "southwest": {"lat": 42.2810082197085, "lng": -71.0488081802915}}}, "icon": "https://maps.gstatic.com/mapfiles/place_api/icons/generic_business-71.png", "id": "9446228681cad7a3cf7d5e7d8d0b57d79c32f015", "name": "Boston Fire Fighters Local 718 IAFF", "opening_hours": {"open_now": true}, "photos": [{"height": 384, "html_attributions": ["<a href=\"https://maps.google.com/maps/contrib/105452529632685543868/photos\">Boston Fire Fighters Local 718 IAFF</a>"], "photo_reference": "CmRaAAAAHNDas30Lg1mjSwsVevAx5aQMHYLsr0GiuR61i-EvXkNW_sTDbQ_leEPUj7Vna77SsI0byFf37YdqRG-hl7sK9A6jeXM-M3d7WywgEKYRNV28zM7UJZGmBnmXKkh9mmvPEhBODQZX_I5kHEavhXKG8c4wGhRiGq4prt5YS7TLmNZpi3K7nIX6WA", "width": 512}], "place_id": "ChIJeZPsCp5744kRK2KsqCFfVJ4", "plus_code": {"compound_code": "7XJ2+XW Boston, Massachusetts, United States", "global_code": "87JC7XJ2+XW"}, "reference": "ChIJeZPsCp5744kRK2KsqCFfVJ4", "scope": "GOOGLE", "types": ["point_of_interest", "establishment"], "vicinity": "55 Hallet Street, Dorchester"}, "ChIJwYrXIHh744kRMeRlEsGl0gg": {"geometry": {"location": {"lat": 42.283812, "lng": -71.0476577}, "viewport": {"northeast": {"lat": 42.2851191802915, "lng": -71.04629026970849}, "southwest": {"lat": 42.2824212197085, "lng": -71.0489882302915}}}, "icon": "https://maps.gstatic.com/mapfiles/place_api/icons/shopping-71.png", "id": "f45974acfc2fe8a75bb6bd8d8914be24f61c9327", "name": "Speedway", "opening_hours": {"open_now": true}, "photos": [{"height": 3024, "html_attributions": ["<a href=\"https://maps.google.com/maps/contrib/107632684406941916115/photos\">dwr phlip</a>"], "photo_reference": "CmRaAAAA9nBrCYV9dvXAiVowZMRqwr6dKBRQPBKJAVf3udshmGh1jbmrxHb_pcAbgVqsHm4hLv_TNePmdyBXQKf2NoYHZ1ij2bXfvyataPllM_haN_id6K9dHwAE3GHMQsTetVdOEhBrfOvzgMrJJ67c1zoOE5zjGhSvvmeRWqLtdz1KMTeCpT7WDHYPTA", "width": 4032}], "place_id": "ChIJwYrXIHh744kRMeRlEsGl0gg", "plus_code": {"compound_code": "7XM2+GW Boston, Massachusetts, United States", "global_code": "87JC7XM2+GW"}, "price_level": 2, "rating": 3.3, "reference": "ChIJwYrXIHh744kRMeRlEsGl0gg", "scope": "GOOGLE", "types": ["convenience_store", "gas_station", "store", "point_of_interest", "food", "establishment"], "user_ratings_total": 7, "vicinity": "710 Gallivan Boulevard, Dorchester Center"}, "ChIJZ-udSXh744kRRBmsr_mIHLQ": {"geometry": {"location": {"lat": 42.28254800000001, "lng": -71.047245}, "viewport": {"northeast": {"lat": 42.2838977302915, "lng": -71.04590036970849}, "southwest": {"lat": 42.2811997697085, "lng": -71.04859833029151}}}, "icon": "https://maps.gstatic.com/mapfiles/place_api/icons/bus-71.png", "id": "0937231c4b0023c1cf56e1e7a0bd1c806eee31f2", "name": "Hallet St @ Florian Hall", "place_id": "ChIJZ-udSXh744kRRBmsr_mIHLQ", "plus_code": {"compound_code": "7XM3+24 Boston, Massachusetts, United States", "global_code": "87JC7XM3+24"}, "reference": "ChIJZ-udSXh744kRRBmsr_mIHLQ", "scope": "GOOGLE", "types": ["bus_station", "transit_station", "point_of_interest", "establishment"], "vicinity": "United States"}, "ChIJK3o1fXh744kRMjK_i6uCS_M": {"geometry": {"location": {"lat": 42.2818922, "lng": -71.049044}, "viewport": {"northeast": {"lat": 42.2831616302915, "lng": -71.04766031970848}, "southwest": {"lat": 42.2804636697085, "lng": -71.05035828029149}}}, "icon": "https://maps.gstatic.com/mapfiles/place_api/icons/generic_business-71.png", "id": "d1a42bf07004dd1d4d90489e66b69088161a6c33", "name": "Rollins Financial Group", "place_id": "ChIJK3o1fXh744kRMjK_i6uCS_M", "plus_code": {"compound_code": "7XJ2+Q9 Boston, Massachusetts, United States", "global_code": "87JC7XJ2+Q9"}, "reference": "ChIJK3o1fXh744kRMjK_i6uCS_M", "scope": "GOOGLE", "types": ["finance", "point_of_interest", "establishment"], "vicinity": "200 Milton Street, Dorchester Center"}, "ChIJGdgySnh744kRymLF4Xh27P8": {"geometry": {"location": {"lat": 42.282525, "lng": -71.047119}, "viewport": {"northeast": {"lat": 42.2838423802915, "lng": -71.04577706970849}, "southwest": {"lat": 42.2811444197085, "lng": -71.0484750302915}}}, "icon": "https://maps.gstatic.com/mapfiles/place_api/icons/bus-71.png", "id": "cd71a2a55e93851318028e8c6ac1f9d58df647b4", "name": "55 Hallet St opp Florian Hall", "place_id": "ChIJGdgySnh744kRymLF4Xh27P8", "plus_code": {"compound_code": "7XM3+25 Boston, Massachusetts, United States", "global_code": "87JC7XM3+25"}, "reference": "ChIJGdgySnh744kRymLF4Xh27P8", "scope": "GOOGLE", "types": ["bus_station", "transit_station", "point_of_interest", "establishment"], "vicinity": "United States"}, "ChIJ9Rjp0Xl744kRdhaRJal8MKc": {"geometry": {"location": {"lat": 42.2834084, "lng": -71.0468205}, "viewport": {"northeast": {"lat": 42.2847790302915, "lng": -71.04546376970849}, "southwest": {"lat": 42.2820810697085, "lng": -71.0481617302915}}}, "icon": "https://maps.gstatic.com/mapfiles/place_api/icons/shopping-71.png", "id": "9a7073010e427c26324cb017e383821f7eaff7c6", "name": "Quirk Chrysler Dodge Jeep RAM Dorchester", "opening_hours": {"open_now": true}, "photos": [{"height": 2592, "html_attributions": ["<a href=\"https://maps.google.com/maps/contrib/109167113524642793474/photos\">Quirk Chrysler Dodge Jeep RAM Dorchester</a>"], "photo_reference": "CmRaAAAAG4yhW4jUWOw_jeCTKQVSrl1n3auOZd0Epjr7XyGe7C7DrkUUnpOjylTqEInpbceVuyWXfJQBDxvm1FxJGhG-jlP3O5dAffhIAaAgDqCNzbWLpxzgu9t3spG7KqaXVGF-EhACAXOpyYnvLuIokpiqnNeEGhQHYHHy1WAUHSsLWz-F5TAE9WJeag", "width": 4608}], "place_id": "ChIJ9Rjp0Xl744kRdhaRJal8MKc", "plus_code": {"compound_code": "7XM3+97 Boston, Massachusetts, United States", "global_code": "87JC7XM3+97"}, "rating": 4.7, "reference": "ChIJ9Rjp0Xl744kRdhaRJal8MKc", "scope": "GOOGLE", "types": ["car_repair", "car_dealer", "store", "point_of_interest", "establishment"], "user_ratings_total": 421, "vicinity": "40 Hallet Street, Boston"}, "ChIJA-cyqYJ744kRcfugze8iqec": {"geometry": {"location": {"lat": 42.2841292, "lng": -71.0500138}, "viewport": {"northeast": {"lat": 42.28510903029149, "lng": -71.04862376970848}, "southwest": {"lat": 42.28241106970849, "lng": -71.0513217302915}}}, "icon": "https://maps.gstatic.com/mapfiles/place_api/icons/generic_business-71.png", "id": "3a4fa900109aab820bf00549c3a76595ea1c3a12", "name": "Toohing Playground", "place_id": "ChIJA-cyqYJ744kRcfugze8iqec", "plus_code": {"compound_code": "7WMX+MX Boston, Massachusetts, United States", "global_code": "87JC7WMX+MX"}, "rating": 3, "reference": "ChIJA-cyqYJ744kRcfugze8iqec", "scope": "GOOGLE", "types": ["point_of_interest", "establishment"], "user_ratings_total": 1, "vicinity": "630 Gallivan Boulevard, Dorchester Center"}, "ChIJ4apFfnd744kRcGA1m9N6Cmw": {"geometry": {"location": {"lat": 42.2835262, "lng": -71.04676979999999}, "viewport": {"northeast": {"lat": 42.2848849802915, "lng": -71.04547511970848}, "southwest": {"lat": 42.2821870197085, "lng": -71.04817308029149}}}, "icon": "https://maps.gstatic.com/mapfiles/place_api/icons/bus-71.png", "id": "db0d646da503a9a26e132d8fac6ba43b634b041c", "name": "Gallivan Blvd @ Hallet St", "place_id": "ChIJ4apFfnd744kRcGA1m9N6Cmw", "plus_code": {"compound_code": "7XM3+C7 Boston, Massachusetts, United States", "global_code": "87JC7XM3+C7"}, "reference": "ChIJ4apFfnd744kRcGA1m9N6Cmw", "scope": "GOOGLE", "types": ["bus_station", "transit_station", "point_of_interest", "establishment"], "vicinity": "United States"}, "ChIJJ6THKnh744kRbrO4tbTfmkA": {"geometry": {"location": {"lat": 42.2837361, "lng": -71.0468619}, "viewport": {"northeast": {"lat": 42.2850846802915, "lng": -71.04551056970848}, "southwest": {"lat": 42.2823867197085, "lng": -71.0482085302915}}}, "icon": "https://maps.gstatic.com/mapfiles/place_api/icons/generic_business-71.png", "id": "5368a2c816db38f55623af6664abe724c12d641d", "name": "Gallivan Blvd @ Hallet St", "place_id": "ChIJJ6THKnh744kRbrO4tbTfmkA", "plus_code": {"compound_code": "7XM3+F7 Boston, Massachusetts, United States", "global_code": "87JC7XM3+F7"}, "reference": "ChIJJ6THKnh744kRbrO4tbTfmkA", "scope": "GOOGLE", "types": ["transit_station", "point_of_interest", "establishment"], "vicinity": "United States"}, "ChIJ2XpQgHd744kRirzUt6env78": {"geometry": {"location": {"lat": 42.283946, "lng": -71.046954}, "viewport": {"northeast": {"lat": 42.2852960802915, "lng": -71.0456056697085}, "southwest": {"lat": 42.2825981197085, "lng": -71.0483036302915}}}, "icon": "https://maps.gstatic.com/mapfiles/place_api/icons/bus-71.png", "id": "20fbf456efc9a5dabf6093564730434e9cbde2d3", "name": "Gallivan Blvd @ Hallet St", "place_id": "ChIJ2XpQgHd744kRirzUt6env78", "plus_code": {"compound_code": "7XM3+H6 Boston, Massachusetts, United States", "global_code": "87JC7XM3+H6"}, "reference": "ChIJ2XpQgHd744kRirzUt6env78", "scope": "GOOGLE", "types": ["bus_station", "transit_station", "point_of_interest", "establishment"], "vicinity": "United States"}, "ChIJG_woqoJ744kRsJIbldcdvNk": {"geometry": {"location": {"lat": 42.2841979, "lng": -71.0499625}, "viewport": {"northeast": {"lat": 42.2854025802915, "lng": -71.0485774197085}, "southwest": {"lat": 42.2827046197085, "lng": -71.0512753802915}}}, "icon": "https://maps.gstatic.com/mapfiles/place_api/icons/generic_recreational-71.png", "id": "1332efb986a73aca9c23dbe9c8eff9925200d449", "name": "Toohing Playground", "photos": [{"height": 2201, "html_attributions": ["<a href=\"https://maps.google.com/maps/contrib/107632684406941916115/photos\">dwr phlip</a>"], "photo_reference": "CmRaAAAAvLQgjnQIOvUs6P5sSfkqUGGTa5KLe8csDTePi6JfK6ZLiKe10Aqwr8JizUxcQR3ITKhGiK2sT_D6H8HX0CCPYjpGFLlZsus1eYxdUlY4CI9mxjPlfaiNUCQHX9fettsoEhCrxPKJjPq-4Cnk2u4_Q8S7GhQ6Me5daWML5wsmk8tsOzSOQ2y1-Q", "width": 2434}], "place_id": "ChIJG_woqoJ744kRsJIbldcdvNk", "reference": "ChIJG_woqoJ744kRsJIbldcdvNk", "scope": "GOOGLE", "types": ["park", "premise", "point_of_interest", "establishment"], "vicinity": "Boston"}}