{"ChIJGzE9DS1l44kRoOhiASS_fHg": {"geometry": {"location": {"lat": 42.3600825, "lng": -71.0588801}, "viewport": {"northeast": {"lat": 42.40081989999999, "lng": -70.749455}, "southwest": {"lat": 42.22788, "lng": -71.191113}}}, "icon": "https://maps.gstatic.com/mapfiles/place_api/icons/geocode-71.png", "id": "06755c25d2b34d13942a4713971756a55b870ced", "name": "Boston", "photos": [{"height": 3024, "html_attributions": ["<a href=\"https://maps.google.com/maps/contrib/104670289779338733432/photos\">Natalia Zalucean</a>"], "photo_reference": "CmRaAAAArsOQLf39jwdlmQSD-6nmrVib_9eKjDDVXfbE_mJHKq4ON2CUQYRRLLgc7E5okOhOcS2jhiyePU3BL99B6rUok9LDkxcrjOZlc0fTfrQFfnoPbWr6dOeN5BnO5Jsd2grQEhDy8e6JvZabsmnoxxsk-3YwGhTTtt1ZGHsfVn9JmcgDkIcv2qraZQ", "width": 4032}], "place_id": "ChIJGzE9DS1l44kRoOhiASS_fHg", "reference": "ChIJGzE9DS1l44kRoOhiASS_fHg", "scope": "GOOGLE", "types": ["locality", "political"], "vicinity": "Boston"}, "ChIJszVjRqJw44kR4cN4jvmDeEg": {"geometry": {"location": {"lat": 42.3614991, "lng": -71.075347}, "viewport": {"northeast": {"lat": 42.3628505802915, "lng": -71.07434696970849}, "southwest": {"lat": 42.3601526197085, "lng": -71.0770449302915}}}, "icon": "https://maps.gstatic.com/mapfiles/place_api/icons/generic_business-71.png", "id": "97c3bfe5f1f3816b496426febea9cdd8da8dbcfa", "name": "Longfellow Bridge", "photos": [{"height": 2952, "html_attributions": ["<a href=\"https://maps.google.com/maps/contrib/109920804043971179141/photos\">Gustavo Barbosa</a>"], "photo_reference": "CmRZAAAA6mnITe1SuH6jgeEwELxnUokrinS4ZJ6wmop0H2kq2SSGo2dzeGu-XyvgfMFUAvFDYLWbPhWrpWsi0pRPfcTzZGA0emy9BtMZabyVk1OncQd9osh1_wFyyX0ZX_5Ur3vOEhAO5_cHhEPGXi-uyMuhtbB6GhTXEIzSEb5dxDIAF-R7HB0hdXjV9w", "width": 5248}], "place_id": "ChIJszVjRqJw44kR4cN4jvmDeEg", "plus_code": {"compound_code": "9W6F+HV Boston, Massachusetts, United States", "global_code": "87JC9W6F+HV"}, "rating": 4.5, "reference": "ChIJszVjRqJw44kR4cN4jvmDeEg", "scope": "GOOGLE", "types": ["point_of_interest", "establishment"], "user_ratings_total": 130, "vicinity": "Boston"}, "ChIJX8wwy6Vw44kRh2xoiWSOOsU": {"geometry": {"location": {"lat": 42.3736158, "lng": -71.10973349999999}, "viewport": {"northeast": {"lat": 42.4043839, "lng": -71.06548719999999}, "southwest": {"lat": 42.3523968, "lng": -71.16033209999999}}}, "icon": "https://maps.gstatic.com/mapfiles/place_api/icons/geocode-71.png", "id": "6d2faadca7159347cc68b047055a94b00fec6032", "name": "Cambridge", "photos": [{"height": 2000, "html_attributions": ["<a href=\"https://maps.google.com/maps/contrib/115519834423791060860/photos\">Luca Raggi</a>"], "photo_reference": "CmRaAAAANHs0TyehtEUqqF3sb9ht0mqt5Sy_UftKKySSAW0fvtO1X_zv2NHbyJRAf8TTWZSOtRtHnnviUf7DMH_UDc51-5gdgq1RwyG8r0CPFng7h7Y8CqvfQPKMsPYEEv_ozrmQEhDB21vfv-lSipKtnmaXOmmMGhTlWejFpLdVZj-l8kbsg2szX9oYyA", "width": 3008}], "place_id": "ChIJX8wwy6Vw44kRh2xoiWSOOsU", "reference": "ChIJX8wwy6Vw44kRh2xoiWSOOsU", "scope": "GOOGLE", "types": ["locality", "political"], "vicinity": "Cambridge"}}