{"ChIJSwYBXcx944kRtfz9EwDxS2s": {"geometry": {"location": {"lat": 42.24953209999999, "lng": -71.0661653}, "viewport": {"northeast": {"lat": 42.277699, "lng": -71.0314899}, "southwest": {"lat": 42.2007769, "lng": -71.1308081}}}, "icon": "https://maps.gstatic.com/mapfiles/place_api/icons/geocode-71.png", "id": "6e461294a62d87cdb4630ef38ecfd5ec87d90876", "name": "Milton", "photos": [{"height": 2268, "html_attributions": ["<a href=\"https://maps.google.com/maps/contrib/117412595138128548837/photos\">george howard</a>"], "photo_reference": "CmRaAAAAoKP0YSEuscl4yEU9oYmgpA34SMglRyPZ8F3Y_Sy05G1E2ShGXOGAYcOhnVKkpOzFuGNOw2fhXj-HqOHZpS7fnqRGnGmDSPSoqnUwVY8iHWTI8tRU8KGUbaI4f7rv3clSEhCUMrvM-zK_Lw1DeBBN6LOWGhQQihKRsbnvE4TQ4a9lH913Xtv-Tw", "width": 4032}], "place_id": "ChIJSwYBXcx944kRtfz9EwDxS2s", "reference": "ChIJSwYBXcx944kRtfz9EwDxS2s", "scope": "GOOGLE", "types": ["locality", "political"], "vicinity": "Milton"}, "ChIJ04XyxBJ844kRLUUu7j6UObQ": {"geometry": {"location": {"lat": 42.267843, "lng": -71.0745589}, "viewport": {"northeast": {"lat": 42.26919623029151, "lng": -71.07305681970848}, "southwest": {"lat": 42.26649826970851, "lng": -71.07575478029149}}}, "icon": "https://maps.gstatic.com/mapfiles/place_api/icons/generic_business-71.png", "id": "ad18d5405d60dce7cdc2c175ede432ae4c13fa5a", "name": "T.S.LYNCH CO.", "photos": [{"height": 283, "html_attributions": ["<a href=\"https://maps.google.com/maps/contrib/103793780680715459325/photos\">T.S.LYNCH CO.</a>"], "photo_reference": "CmRaAAAAuwT3_5nX20u47i_o0zHmTtWyB5-pvNB7ZSgVMQUTRa9YpcDkIreHreeD_nJSs_9ZylsiZb-hiFyay99jWv-eGERoSoc-miJCLXMa03d9WlpmZqGtwFzwFFb3uFtVqsYJEhABT7IRu3l74sFYcr21nMBhGhTjZwN_o3_6w4Ev3sjw_D_606YoQw", "width": 429}], "place_id": "ChIJ04XyxBJ844kRLUUu7j6UObQ", "plus_code": {"compound_code": "7W9G+45 Milton, Massachusetts, United States", "global_code": "87JC7W9G+45"}, "reference": "ChIJ04XyxBJ844kRLUUu7j6UObQ", "scope": "GOOGLE", "types": ["general_contractor", "point_of_interest", "establishment"], "vicinity": "17A School Street, Milton"}, "ChIJTTXcxRJ844kRNEEPTTjxKXk": {"geometry": {"location": {"lat": 42.2679761, "lng": -71.0743949}, "viewport": {"northeast": {"lat": 42.2693269802915, "lng": -71.0729780697085}, "southwest": {"lat": 42.2666290197085, "lng": -71.0756760302915}}}, "icon": "https://maps.gstatic.com/mapfiles/place_api/icons/generic_business-71.png", "id": "5b2da0cfa49bf6b6e33efafbbc1014222b2c7fe1", "name": "General Stannard House", "place_id": "ChIJTTXcxRJ844kRNEEPTTjxKXk", "plus_code": {"compound_code": "7W9G+56 Milton, Massachusetts, United States", "global_code": "87JC7W9G+56"}, "reference": "ChIJTTXcxRJ844kRNEEPTTjxKXk", "scope": "GOOGLE", "types": ["point_of_interest", "establishment"], "vicinity": "13 School Street, Milton"}, "ChIJJe8D_RJ844kR79xlCtSp_OY": {"geometry": {"location": {"lat": 42.267503, "lng": -71.075935}, "viewport": {"northeast": {"lat": 42.26883618029149, "lng": -71.0745636697085}, "southwest": {"lat": 42.26613821970849, "lng": -71.0772616302915}}}, "icon": "https://maps.gstatic.com/mapfiles/place_api/icons/bus-71.png", "id": "a9953d187e6ebb4877ff45317f6dcb9c00b32f0f", "name": "Central Ave opp Griggs Ln", "place_id": "ChIJJe8D_RJ844kR79xlCtSp_OY", "plus_code": {"compound_code": "7W9F+2J Milton, Massachusetts, United States", "global_code": "87JC7W9F+2J"}, "reference": "ChIJJe8D_RJ844kR79xlCtSp_OY", "scope": "GOOGLE", "types": ["bus_station", "transit_station", "point_of_interest", "establishment"], "vicinity": "United States"}, "ChIJJUr3xhJ844kRIWAfxijBooI": {"geometry": {"location": {"lat": 42.268124, "lng": -71.07449799999999}, "viewport": {"northeast": {"lat": 42.2695467302915, "lng": -71.0732370697085}, "southwest": {"lat": 42.2668487697085, "lng": -71.0759350302915}}}, "icon": "https://maps.gstatic.com/mapfiles/place_api/icons/shopping-71.png", "id": "72b86d7c005d3141afd2354596d262910492186b", "name": "Pt Hardwood Tile Floor", "place_id": "ChIJJUr3xhJ844kRIWAfxijBooI", "plus_code": {"compound_code": "7W9G+66 Milton, Massachusetts, United States", "global_code": "87JC7W9G+66"}, "reference": "ChIJJUr3xhJ844kRIWAfxijBooI", "scope": "GOOGLE", "types": ["home_goods_store", "store", "point_of_interest", "establishment"], "vicinity": "72 Central Avenue, Milton"}, "ChIJ_-2k6hJ844kRQkMDezEpvGU": {"geometry": {"location": {"lat": 42.26844690000001, "lng": -71.0751643}, "viewport": {"northeast": {"lat": 42.26986418029151, "lng": -71.0738386197085}, "southwest": {"lat": 42.26716621970851, "lng": -71.07653658029152}}}, "icon": "https://maps.gstatic.com/mapfiles/place_api/icons/generic_business-71.png", "id": "0688c9d653a7e540b4338dbfe2f808a9c2be7d53", "name": "Design Dimensions", "place_id": "ChIJ_-2k6hJ844kRQkMDezEpvGU", "plus_code": {"compound_code": "7W9F+9W Milton, Massachusetts, United States", "global_code": "87JC7W9F+9W"}, "reference": "ChIJ_-2k6hJ844kRQkMDezEpvGU", "scope": "GOOGLE", "types": ["general_contractor", "point_of_interest", "establishment"], "vicinity": "28 Maple Street, Milton"}}