{"ChIJGzE9DS1l44kRoOhiASS_fHg": {"geometry": {"location": {"lat": 42.3600825, "lng": -71.0588801}, "viewport": {"northeast": {"lat": 42.40081989999999, "lng": -70.749455}, "southwest": {"lat": 42.22788, "lng": -71.191113}}}, "icon": "https://maps.gstatic.com/mapfiles/place_api/icons/geocode-71.png", "id": "06755c25d2b34d13942a4713971756a55b870ced", "name": "Boston", "photos": [{"height": 3024, "html_attributions": ["<a href=\"https://maps.google.com/maps/contrib/104670289779338733432/photos\">Natalia Zalucean</a>"], "photo_reference": "CmRaAAAAZ7aGu-ZEd5PcThIF1fOnZaRWqavSAjmOgSbC5NwWT14wmDJdbm8y7voLPD8vAYHK6jdgbG9S7bKwaWYlM-Q8IBx0LpyO07Tyoj-gvd7noYPtuKdeGD8eUadwlnZDhlaIEhC4HaknCREII3vD9BiKh1W-GhRf0utO-tOyfp8p73tq_DRipHzmXQ", "width": 4032}], "place_id": "ChIJGzE9DS1l44kRoOhiASS_fHg", "reference": "ChIJGzE9DS1l44kRoOhiASS_fHg", "scope": "GOOGLE", "types": ["locality", "political"], "vicinity": "Boston"}, "ChIJiWWBNUt644kRhjsy10UFGJQ": {"geometry": {"location": {"lat": 42.316315, "lng": -71.06911099999999}, "viewport": {"northeast": {"lat": 42.3176257802915, "lng": -71.0676517197085}, "southwest": {"lat": 42.3149278197085, "lng": -71.0703496802915}}}, "icon": "https://maps.gstatic.com/mapfiles/place_api/icons/generic_business-71.png", "id": "15fe5335e6d9cc61a399e893871b2c38522310e8", "name": "DAC ENTERPRISES, INC.", "opening_hours": {"open_now": true}, "place_id": "ChIJiWWBNUt644kRhjsy10UFGJQ", "plus_code": {"compound_code": "8W8J+G9 Boston, Massachusetts, United States", "global_code": "87JC8W8J+G9"}, "reference": "ChIJiWWBNUt644kRhjsy10UFGJQ", "scope": "GOOGLE", "types": ["health", "point_of_interest", "establishment"], "vicinity": "37 Monadnock Street, Dorchester"}, "ChIJ8a1iybR744kR-zuIaCP_XA4": {"geometry": {"location": {"lat": 42.315886, "lng": -71.0693208}, "viewport": {"northeast": {"lat": 42.3172059302915, "lng": -71.06786846970849}, "southwest": {"lat": 42.3145079697085, "lng": -71.07056643029149}}}, "icon": "https://maps.gstatic.com/mapfiles/place_api/icons/school-71.png", "id": "dda183cabe5a903325f40273d7c5a2fd78058692", "name": "S S Village Family Child Care", "place_id": "ChIJ8a1iybR744kR-zuIaCP_XA4", "plus_code": {"compound_code": "8W8J+97 Boston, Massachusetts, United States", "global_code": "87JC8W8J+97"}, "rating": 5, "reference": "ChIJ8a1iybR744kR-zuIaCP_XA4", "scope": "GOOGLE", "types": ["point_of_interest", "establishment"], "user_ratings_total": 2, "vicinity": "45 Monadnock Street, Dorchester"}, "ChIJg1YW2LR744kReaegAnQWiH0": {"geometry": {"location": {"lat": 42.3157482, "lng": -71.0704942}, "viewport": {"northeast": {"lat": 42.3170707302915, "lng": -71.06903631970849}, "southwest": {"lat": 42.3143727697085, "lng": -71.0717342802915}}}, "icon": "https://maps.gstatic.com/mapfiles/place_api/icons/generic_business-71.png", "id": "bdeb0c6a96b72289f793da22bcc5c8ae965f3654", "name": "E Z Funding 4U", "place_id": "ChIJg1YW2LR744kReaegAnQWiH0", "plus_code": {"compound_code": "8W8H+7R Boston, Massachusetts, United States", "global_code": "87JC8W8H+7R"}, "reference": "ChIJg1YW2LR744kReaegAnQWiH0", "scope": "GOOGLE", "types": ["finance", "point_of_interest", "establishment"], "vicinity": "85 Alexander Street, Dorchester"}, "ChIJddGKpLR744kRCMEVqnTWUKE": {"geometry": {"location": {"lat": 42.315175, "lng": -71.0681716}, "viewport": {"northeast": {"lat": 42.3163523802915, "lng": -71.06636011970849}, "southwest": {"lat": 42.3136544197085, "lng": -71.0690580802915}}}, "icon": "https://maps.gstatic.com/mapfiles/place_api/icons/generic_business-71.png", "id": "eb86e124b004caebc6fe9bc9d1484e2cf5059aaf", "name": "Zipcar", "opening_hours": {"open_now": true}, "photos": [{"height": 499, "html_attributions": ["<a href=\"https://maps.google.com/maps/contrib/101081342106242647302/photos\">Zipcar</a>"], "photo_reference": "CmRaAAAAklUCJr0UksG0M0PONvtOMAXKaLKuWRHYDcozu63sTDDYc9UpwlfGufRWyENNuqsJvz8InpelB6OSvU2Vk_p5-RlI8hYUegRae0VQgVpZfS9VAj36_albpV43dLv0D5L_EhB98MY6Qlp684EZYm6cZUWIGhQJGDucw8XxAleg3Zvl89BACsFe4g", "width": 499}], "place_id": "ChIJddGKpLR744kRCMEVqnTWUKE", "plus_code": {"compound_code": "8W8J+3P Boston, Massachusetts, United States", "global_code": "87JC8W8J+3P"}, "reference": "ChIJddGKpLR744kRCMEVqnTWUKE", "scope": "GOOGLE", "types": ["car_rental", "point_of_interest", "establishment"], "vicinity": "530 Columbia Road, Boston"}, "ChIJH5D3LLV744kRZ7G9T3A2ImE": {"geometry": {"location": {"lat": 42.316348, "lng": -71.0710907}, "viewport": {"northeast": {"lat": 42.3176753302915, "lng": -71.0696566197085}, "southwest": {"lat": 42.3149773697085, "lng": -71.0723545802915}}}, "icon": "https://maps.gstatic.com/mapfiles/place_api/icons/generic_business-71.png", "id": "8ea81078b5b011cd11fe676c2677f39573204550", "name": "Little Sisters-The Assumption", "place_id": "ChIJH5D3LLV744kRZ7G9T3A2ImE", "plus_code": {"compound_code": "8W8H+GH Boston, Massachusetts, United States", "global_code": "87JC8W8H+GH"}, "reference": "ChIJH5D3LLV744kRZ7G9T3A2ImE", "scope": "GOOGLE", "types": ["point_of_interest", "establishment"], "vicinity": "65 Magnolia Street, Dorchester"}, "ChIJhxMD-LR744kRFfbV1IijZXg": {"geometry": {"location": {"lat": 42.313934, "lng": -71.06985}, "viewport": {"northeast": {"lat": 42.3152205302915, "lng": -71.0683900697085}, "southwest": {"lat": 42.3125225697085, "lng": -71.0710880302915}}}, "icon": "https://maps.gstatic.com/mapfiles/place_api/icons/generic_business-71.png", "id": "5b793e40cccce991cf38d5ace5cbc0f506eb37bf", "name": "Community Restoration", "photos": [{"height": 2560, "html_attributions": ["<a href=\"https://maps.google.com/maps/contrib/117801351025090943256/photos\">Ruth Corporan</a>"], "photo_reference": "CmRaAAAAN_b7tDq_YmQtzV9LeRiBPVGAco5WcK_dxDcZ8SIxB6yTSjgwx-yjEoJwRtpW_rttZBylHOf8GCVDrRza79tT2eNi3zjMwU8NOqirM7Dg80PhIUEb_m7i5tjV7Q6I8EiiEhAnTxMnQ-dYj4d-aldjfSl9GhRm5bYp519aJE9Cz7gff1Rl6Y1NUQ", "width": 1536}], "place_id": "ChIJhxMD-LR744kRFfbV1IijZXg", "plus_code": {"compound_code": "8W7J+H3 Boston, Massachusetts, United States", "global_code": "87JC8W7J+H3"}, "reference": "ChIJhxMD-LR744kRFfbV1IijZXg", "scope": "GOOGLE", "types": ["general_contractor", "point_of_interest", "establishment"], "vicinity": "73 Bird Street, Dorchester"}, "ChIJAV181Ep644kRwD0u1OKXjdE": {"geometry": {"location": {"lat": 42.31664540000001, "lng": -71.0709013}, "viewport": {"northeast": {"lat": 42.3179730302915, "lng": -71.0695661697085}, "southwest": {"lat": 42.3152750697085, "lng": -71.0722641302915}}}, "icon": "https://maps.gstatic.com/mapfiles/place_api/icons/generic_recreational-71.png", "id": "bd201b4016d82e4e8cd5f4fd144c75cf2a9e2b75", "name": "Esparanza Garden", "place_id": "ChIJAV181Ep644kRwD0u1OKXjdE", "reference": "ChIJAV181Ep644kRwD0u1OKXjdE", "scope": "GOOGLE", "types": ["park", "premise", "point_of_interest", "establishment"], "vicinity": "Boston"}, "ChIJs4veGkl644kROEK8ix2v_oY": {"geometry": {"location": {"lat": 42.30163049999999, "lng": -71.067605}, "viewport": {"northeast": {"lat": 42.3358969, "lng": -71.0325551}, "southwest": {"lat": 42.267598, "lng": -71.0800369}}}, "icon": "https://maps.gstatic.com/mapfiles/place_api/icons/geocode-71.png", "id": "9e12301fdeebf54c1266b9986602466425a9c326", "name": "Dorchester", "photos": [{"height": 1944, "html_attributions": ["<a href=\"https://maps.google.com/maps/contrib/118366960396286562471/photos\">Michael Laferriere</a>"], "photo_reference": "CmRaAAAATGYPcccGkf10udQnwEFN2dEJWjGhupFxPG6J08jv2hUSaEKqDUKBWA8HCe9lg0sJI2W8rB4dN83035WML8UY018bphGMeY50FlCtHKbrpcAOqTnzlipBhrAIMLoQMb3VEhCxYs3h2gDqrCCBtZiga-vcGhQACzYTmKrPnZ1oJbkgZUT8qobEYw", "width": 2592}], "place_id": "ChIJs4veGkl644kROEK8ix2v_oY", "reference": "ChIJs4veGkl644kROEK8ix2v_oY", "scope": "GOOGLE", "types": ["neighborhood", "political"], "vicinity": "Dorchester Center"}}