{"ChIJGzE9DS1l44kRoOhiASS_fHg": {"geometry": {"location": {"lat": 42.3600825, "lng": -71.0588801}, "viewport": {"northeast": {"lat": 42.40081989999999, "lng": -70.749455}, "southwest": {"lat": 42.22788, "lng": -71.191113}}}, "icon": "https://maps.gstatic.com/mapfiles/place_api/icons/geocode-71.png", "id": "06755c25d2b34d13942a4713971756a55b870ced", "name": "Boston", "photos": [{"height": 3024, "html_attributions": ["<a href=\"https://maps.google.com/maps/contrib/104670289779338733432/photos\">Natalia Zalucean</a>"], "photo_reference": "CmRaAAAA8V2fQc5Qnc0SLjBLNGItkZvSZNXyASNluQt6Y53255XBXPRxI-0-FMooLpyOHzws-_iJTZ4ytzy3iMoh91aihQa0QhmUEondW_Mss5SOh6SMub6iKikj8mSdLm4r0qWGEhCaYq7yplEvi-25MDvjzM9LGhTjgd8j7-SljTi_iIWrQMfTeFpIPQ", "width": 4032}], "place_id": "ChIJGzE9DS1l44kRoOhiASS_fHg", "reference": "ChIJGzE9DS1l44kRoOhiASS_fHg", "scope": "GOOGLE", "types": ["locality", "political"], "vicinity": "Boston"}, "ChIJk-lpiwh844kRVeGab3ckfQ0": {"geometry": {"location": {"lat": 42.2780248, "lng": -71.0840438}, "viewport": {"northeast": {"lat": 42.2793874302915, "lng": -71.0827225697085}, "southwest": {"lat": 42.2766894697085, "lng": -71.0854205302915}}}, "icon": "https://maps.gstatic.com/mapfiles/place_api/icons/school-71.png", "id": "0c05513b88732f75d14883222d62d12b06e8232c", "name": "Aoi Koyamakan Dojo", "place_id": "ChIJk-lpiwh844kRVeGab3ckfQ0", "plus_code": {"compound_code": "7WH8+69 Boston, Massachusetts, United States", "global_code": "87JC7WH8+69"}, "reference": "ChIJk-lpiwh844kRVeGab3ckfQ0", "scope": "GOOGLE", "types": ["school", "point_of_interest", "establishment"], "vicinity": "Lorna Road, Boston"}, "ChIJW9QB9gh844kRC3DQ2ZUqYps": {"geometry": {"location": {"lat": 42.27818799999999, "lng": -71.083563}, "viewport": {"northeast": {"lat": 42.27959208029149, "lng": -71.08232596970849}, "southwest": {"lat": 42.27689411970849, "lng": -71.0850239302915}}}, "icon": "https://maps.gstatic.com/mapfiles/place_api/icons/generic_business-71.png", "id": "3b9ddc98d483b00a41dce430a324e25b56c52656", "name": "Sound Innovations", "photos": [{"height": 2448, "html_attributions": ["<a href=\"https://maps.google.com/maps/contrib/104541827952444543593/photos\">Carrie Hollins</a>"], "photo_reference": "CmRaAAAA57e8g_cq0lCCUs4SlOBfVBUEXcay6Nb1fOy4ars6-y0kXwVeNlOJVkFHRFc4bCl3hBFWcrAZXGTjXqA8x8cCSPHRuFircNEP36WFYYELFoHsg81hZRcmDoXQ5fqnE9RCEhAVCBrWNzXH8XdUt-VsVI2lGhRfyBJxQ6s45rcuKOTxeGCCZ8Om_Q", "width": 3264}], "place_id": "ChIJW9QB9gh844kRC3DQ2ZUqYps", "plus_code": {"compound_code": "7WH8+7H Boston, Massachusetts, United States", "global_code": "87JC7WH8+7H"}, "rating": 3.8, "reference": "ChIJW9QB9gh844kRC3DQ2ZUqYps", "scope": "GOOGLE", "types": ["point_of_interest", "establishment"], "user_ratings_total": 5, "vicinity": "64 Lorna Road, Mattapan"}, "ChIJL2tyIwZ844kRcUMhatEPXxc": {"geometry": {"location": {"lat": 42.277657, "lng": -71.086031}, "viewport": {"northeast": {"lat": 42.2789409802915, "lng": -71.08454806970849}, "southwest": {"lat": 42.2762430197085, "lng": -71.08724603029151}}}, "icon": "https://maps.gstatic.com/mapfiles/place_api/icons/school-71.png", "id": "20522ab1fbafce740a585f924531d04adb3c5f30", "name": "Sabina Family Child Care Services", "opening_hours": {"open_now": true}, "photos": [{"height": 2191, "html_attributions": ["<a href=\"https://maps.google.com/maps/contrib/113882645270058770437/photos\">Sabina Family Child Care Services</a>"], "photo_reference": "CmRaAAAAtFDpfVwGd1ELwq-Efbuf8-E1mDiWkDLRQKlwGc9uUes__KBWwGi2-ndp7E2VGBSGPRwqCscjWZdX194ISMyEMlY_RZexWFlKgg4qeDFNUUUhNyjKPWcq8hrVcl5uW2jqEhDW9vmqdCSr2bi5iwPQNm_PGhRy3i7eAEWenU5TzUWDQ9zleoizbA", "width": 2191}], "place_id": "ChIJL2tyIwZ844kRcUMhatEPXxc", "plus_code": {"compound_code": "7WH7+3H Boston, Massachusetts, United States", "global_code": "87JC7WH7+3H"}, "rating": 5, "reference": "ChIJL2tyIwZ844kRcUMhatEPXxc", "scope": "GOOGLE", "types": ["point_of_interest", "establishment"], "user_ratings_total": 1, "vicinity": "97 West Selden Street, Mattapan"}, "ChIJM35s8wV844kR-OyW9L5Qt7s": {"geometry": {"location": {"lat": 42.2743631, "lng": -71.0872894}, "viewport": {"northeast": {"lat": 42.2775177, "lng": -71.0826743}, "southwest": {"lat": 42.2727012, "lng": -71.08909539999999}}}, "icon": "https://maps.gstatic.com/mapfiles/place_api/icons/generic_recreational-71.png", "id": "0d6b11a33dd0f2384743f1ece8384748d1d1efd1", "name": "Gladeside I", "place_id": "ChIJM35s8wV844kR-OyW9L5Qt7s", "reference": "ChIJM35s8wV844kR-OyW9L5Qt7s", "scope": "GOOGLE", "types": ["park", "premise", "point_of_interest", "establishment"], "vicinity": "Boston"}, "ChIJ1aKJnQd844kRhKw4NxUCnrc": {"geometry": {"location": {"lat": 42.2771417, "lng": -71.0913748}, "viewport": {"northeast": {"lat": 42.298298, "lng": -71.0675939}, "southwest": {"lat": 42.2628979, "lng": -71.1091958}}}, "icon": "https://maps.gstatic.com/mapfiles/place_api/icons/geocode-71.png", "id": "7c0a81020a91ce611773eac0f6b1e8dc62406dab", "name": "Mattapan", "photos": [{"height": 1932, "html_attributions": ["<a href=\"https://maps.google.com/maps/contrib/105123441827892866459/photos\">Alonzo Mcneal</a>"], "photo_reference": "CmRaAAAACdEVNuVRVV1GXde0wASytazrUVSHbBedzxHgeFGG-hITBNGNORubcEV_kekWrl2hgm9Zz63r0kzLkofUm4GDU2HrYgX92WUjs_Qg8FP5KaVrXvyXqU-dmyD9Tle5272VEhBpiWtNjau2IaXEPrrMTVHUGhShU00xA0sL0nBiT8zTOy9orr-3jw", "width": 2576}], "place_id": "ChIJ1aKJnQd844kRhKw4NxUCnrc", "reference": "ChIJ1aKJnQd844kRhKw4NxUCnrc", "scope": "GOOGLE", "types": ["neighborhood", "political"], "vicinity": "Dorchester Center"}}