{"ChIJGzE9DS1l44kRoOhiASS_fHg": {"geometry": {"location": {"lat": 42.3600825, "lng": -71.0588801}, "viewport": {"northeast": {"lat": 42.40081989999999, "lng": -70.749455}, "southwest": {"lat": 42.22788, "lng": -71.191113}}}, "icon": "https://maps.gstatic.com/mapfiles/place_api/icons/geocode-71.png", "id": "06755c25d2b34d13942a4713971756a55b870ced", "name": "Boston", "photos": [{"height": 3024, "html_attributions": ["<a href=\"https://maps.google.com/maps/contrib/104670289779338733432/photos\">Natalia Zalucean</a>"], "photo_reference": "CmRaAAAAVssdu04xrD-AcHVCqrle4AYOaPRjUybdY_Am6spLR28NcMTpnWtcxSyyEmrfur9lEJ7GQUqPO4kcEVfQw7iI6XKe4uZgsLg5BuZzrc0XHyzQC7rsZxOFgHL3-Px9WtzDEhCs_Ad6Itsrfn3HGXkZ2PVsGhQaUo66JxVcvKSf19H7cQ-JZA6UaQ", "width": 4032}], "place_id": "ChIJGzE9DS1l44kRoOhiASS_fHg", "reference": "ChIJGzE9DS1l44kRoOhiASS_fHg", "scope": "GOOGLE", "types": ["locality", "political"], "vicinity": "Boston"}, "ChIJWXxNPjB644kRUL7LvH0EVX0": {"geometry": {"location": {"lat": 42.3267945, "lng": -71.0837607}, "viewport": {"northeast": {"lat": 42.32812923029149, "lng": -71.0821882697085}, "southwest": {"lat": 42.3254312697085, "lng": -71.08488623029152}}}, "icon": "https://maps.gstatic.com/mapfiles/place_api/icons/school-71.png", "id": "ab1e3fdfbca3871e190343df3dabb7034a0eb9fb", "name": "Yawkey Boys & Girls Club of Roxbury", "opening_hours": {"open_now": true}, "photos": [{"height": 1960, "html_attributions": ["<a href=\"https://maps.google.com/maps/contrib/111370346363368087546/photos\">Yawkey Club of Roxbury Boys &amp; Girls Club</a>"], "photo_reference": "CmRaAAAAcTu7sFWXWg5Sq3afnn8stLzy5q_LjlUWQictmNcj4uRaqZPfxvW4kI4iZkDIxytcu9IfcO4nA5NWLnTejGMOYQ6hRN3zs49lVE1KBOF0qY5ikhN0wmIUFmKwcKTGceJ1EhA9VVXNLGwVxRl0XHZbAL4TGhSj2mA27nhsftG8zWfpWV2pTWaisw", "width": 3008}], "place_id": "ChIJWXxNPjB644kRUL7LvH0EVX0", "plus_code": {"compound_code": "8WG8+PF Boston, Massachusetts, United States", "global_code": "87JC8WG8+PF"}, "rating": 4.3, "reference": "ChIJWXxNPjB644kRUL7LvH0EVX0", "scope": "GOOGLE", "types": ["point_of_interest", "establishment"], "user_ratings_total": 11, "vicinity": "115 Warren Street, Roxbury"}, "ChIJGRQlkDB644kRTZ5A8gl8XBA": {"geometry": {"location": {"lat": 42.3269068, "lng": -71.0817247}, "viewport": {"northeast": {"lat": 42.3281828302915, "lng": -71.08051931970849}, "southwest": {"lat": 42.3254848697085, "lng": -71.08321728029149}}}, "icon": "https://maps.gstatic.com/mapfiles/place_api/icons/school-71.png", "id": "cb544fe60bab129cb2ee2f2ab8dd3194fc588511", "name": "Boston Evening Academy", "place_id": "ChIJGRQlkDB644kRTZ5A8gl8XBA", "plus_code": {"compound_code": "8WG9+Q8 Boston, Massachusetts, United States", "global_code": "87JC8WG9+Q8"}, "rating": 5, "reference": "ChIJGRQlkDB644kRTZ5A8gl8XBA", "scope": "GOOGLE", "types": ["point_of_interest", "school", "establishment"], "user_ratings_total": 7, "vicinity": "20 Kearsarge Avenue, Roxbury"}, "ChIJySJBfDB644kRJ6qvbu8KO5s": {"geometry": {"location": {"lat": 42.3275854, "lng": -71.0828032}, "viewport": {"northeast": {"lat": 42.32894743029149, "lng": -71.08158021970848}, "southwest": {"lat": 42.3262494697085, "lng": -71.0842781802915}}}, "icon": "https://maps.gstatic.com/mapfiles/place_api/icons/school-71.png", "id": "fed578ee0ea0a159948e7c1f5bb1318d49f0a616", "name": "Gordon-Conwell Theological Seminary (Center for Urban Ministerial Education)", "place_id": "ChIJySJBfDB644kRJ6qvbu8KO5s", "plus_code": {"compound_code": "8WH8+2V Boston, Massachusetts, United States", "global_code": "87JC8WH8+2V"}, "rating": 5, "reference": "ChIJySJBfDB644kRJ6qvbu8KO5s", "scope": "GOOGLE", "types": ["school", "point_of_interest", "establishment"], "user_ratings_total": 2, "vicinity": "90 Warren Street, Roxbury"}, "ChIJ3ao67jB644kRJuFZY5hUP7o": {"geometry": {"location": {"lat": 42.3260837, "lng": -71.08169529999999}, "viewport": {"northeast": {"lat": 42.3275218302915, "lng": -71.0803113197085}, "southwest": {"lat": 42.3248238697085, "lng": -71.0830092802915}}}, "icon": "https://maps.gstatic.com/mapfiles/place_api/icons/worship_general-71.png", "id": "37c7de38ca3661809824cf6a3549d5a4be7b634b", "name": "Southern Baptist Church", "photos": [{"height": 1440, "html_attributions": ["<a href=\"https://maps.google.com/maps/contrib/104750862537776588493/photos\">Lamont Sharpe</a>"], "photo_reference": "CmRaAAAAE0VvA9T62A7LD0uoJkMQOnt-_mQqsAmns2U-Vj3RoMpT9LXCcDdGFGYaP4Q79YYQPoYReLKfFdYJza5MzjAwt5OFO6b7iZeb2lHscs2Ezag3TvXF3AiGfKVvuVbUIaowEhANijMtRbJxutFhKV4gB7nzGhSM8FTwms26PjCHVTle0WK_akMskg", "width": 2560}], "place_id": "ChIJ3ao67jB644kRJuFZY5hUP7o", "plus_code": {"compound_code": "8WG9+C8 Boston, Massachusetts, United States", "global_code": "87JC8WG9+C8"}, "rating": 2.3, "reference": "ChIJ3ao67jB644kRJuFZY5hUP7o", "scope": "GOOGLE", "types": ["church", "place_of_worship", "point_of_interest", "establishment"], "user_ratings_total": 3, "vicinity": "29 Winthrop Street, Roxbury"}, "ChIJWXxNPjB644kRiujyfIaguU4": {"geometry": {"location": {"lat": 42.3267945, "lng": -71.0837608}, "viewport": {"northeast": {"lat": 42.32812923029149, "lng": -71.0821883197085}, "southwest": {"lat": 42.3254312697085, "lng": -71.08488628029151}}}, "icon": "https://maps.gstatic.com/mapfiles/place_api/icons/generic_business-71.png", "id": "d956ad3bd73fbc48653fd38f6a7b8d718c9f784d", "name": "Yspn", "place_id": "ChIJWXxNPjB644kRiujyfIaguU4", "plus_code": {"compound_code": "8WG8+PF Boston, Massachusetts, United States", "global_code": "87JC8WG8+PF"}, "reference": "ChIJWXxNPjB644kRiujyfIaguU4", "scope": "GOOGLE", "types": ["point_of_interest", "establishment"], "vicinity": "115 Warren Street, Roxbury"}, "ChIJUYP0XTB644kRzHBHjV6yw-o": {"geometry": {"location": {"lat": 42.3267359, "lng": -71.0828654}, "viewport": {"northeast": {"lat": 42.3280962802915, "lng": -71.0816681697085}, "southwest": {"lat": 42.3253983197085, "lng": -71.0843661302915}}}, "icon": "https://maps.gstatic.com/mapfiles/place_api/icons/generic_business-71.png", "id": "caedc7105ecdabc140af0d3f797ccdcb6937510e", "name": "Laundromax", "opening_hours": {"open_now": true}, "photos": [{"height": 3024, "html_attributions": ["<a href=\"https://maps.google.com/maps/contrib/101370768229037319847/photos\">Jose Brewer</a>"], "photo_reference": "CmRaAAAAJDtpz2GwuafxkqFsyHBBkbupcdMJzOCh-dpTAI5v3oq3l39lxlLykDXMGBA7wX3hxX7jcVlQs8JYhktvH332in_Z8_puK6M8svqkR1v-3JpefHXgzsL46d0Iisfw9MbbEhAnfez-Du8VeLid7Lkt_z3XGhQ_rCWJ0_0azrw5DKc60jdzI50qpw", "width": 4032}], "place_id": "ChIJUYP0XTB644kRzHBHjV6yw-o", "plus_code": {"compound_code": "8WG8+MV Boston, Massachusetts, United States", "global_code": "87JC8WG8+MV"}, "rating": 3.3, "reference": "ChIJUYP0XTB644kRzHBHjV6yw-o", "scope": "GOOGLE", "types": ["laundry", "point_of_interest", "establishment"], "user_ratings_total": 82, "vicinity": "104 Warren Street, Roxbury"}, "ChIJ1fQKYzB644kROGo0Cp7eSSs": {"geometry": {"location": {"lat": 42.3272589, "lng": -71.082742}, "viewport": {"northeast": {"lat": 42.3286176302915, "lng": -71.08157656970849}, "southwest": {"lat": 42.3259196697085, "lng": -71.0842745302915}}}, "icon": "https://maps.gstatic.com/mapfiles/place_api/icons/worship_general-71.png", "id": "04b95bcd8f786aa8168a1b29894c7599c531fccb", "name": "Resurrection Lutheran Church", "photos": [{"height": 1524, "html_attributions": ["<a href=\"https://maps.google.com/maps/contrib/102883482513831441164/photos\">Resurrection Lutheran Church</a>"], "photo_reference": "CmRaAAAAo81gckOJCuyml9oR69EfdcaY4bDlHtCSIYnkm6-meKpP3FpDQgh25JC683ILSPqIMJDnGTFSFFt7i-H4rl29fY48Nq774GYBlWsKS1d3O_fc0J45aAIyFZMxVrev9b-aEhDozZAWOfRKn14XXEpM40w2GhSOtjSVEabWJ9wGJ_SYbnCmg4pxhA", "width": 2032}], "place_id": "ChIJ1fQKYzB644kROGo0Cp7eSSs", "plus_code": {"compound_code": "8WG8+WW Boston, Massachusetts, United States", "global_code": "87JC8WG8+WW"}, "rating": 5, "reference": "ChIJ1fQKYzB644kROGo0Cp7eSSs", "scope": "GOOGLE", "types": ["church", "place_of_worship", "point_of_interest", "establishment"], "user_ratings_total": 1, "vicinity": "94 Warren Street, Roxbury"}, "ChIJJ9a-JWd544kRU4OWIgeJgW0": {"geometry": {"location": {"lat": 42.3253335, "lng": -71.0828196}, "viewport": {"northeast": {"lat": 42.3266493302915, "lng": -71.0816235197085}, "southwest": {"lat": 42.3239513697085, "lng": -71.0843214802915}}}, "icon": "https://maps.gstatic.com/mapfiles/place_api/icons/generic_business-71.png", "id": "f91ebfde8e92e5860b308b4916f3f4f878b5b127", "name": "Boston TenPoint Coalition", "place_id": "ChIJJ9a-JWd544kRU4OWIgeJgW0", "plus_code": {"compound_code": "8WG8+4V Boston, Massachusetts, United States", "global_code": "87JC8WG8+4V"}, "reference": "ChIJJ9a-JWd544kRU4OWIgeJgW0", "scope": "GOOGLE", "types": ["point_of_interest", "establishment"], "vicinity": "2010 Columbus Avenue, Roxbury"}, "ChIJPTbGZzB644kRUjWhKRR8YAU": {"geometry": {"location": {"lat": 42.326985, "lng": -71.08296930000002}, "viewport": {"northeast": {"lat": 42.3283381302915, "lng": -71.08170681970849}, "southwest": {"lat": 42.3256401697085, "lng": -71.08440478029151}}}, "icon": "https://maps.gstatic.com/mapfiles/place_api/icons/generic_business-71.png", "id": "f621a72d3189912a3be2168d48a4ba05454c93fb", "name": "MassBay Realty", "place_id": "ChIJPTbGZzB644kRUjWhKRR8YAU", "plus_code": {"compound_code": "8WG8+QR Boston, Massachusetts, United States", "global_code": "87JC8WG8+QR"}, "reference": "ChIJPTbGZzB644kRUjWhKRR8YAU", "scope": "GOOGLE", "types": ["real_estate_agency", "point_of_interest", "establishment"], "vicinity": "100 Warren Street, Roxbury"}, "ChIJNQlCwRJ644kR0gKkW_x3-QY": {"geometry": {"location": {"lat": 42.3259921, "lng": -71.0830837}, "viewport": {"northeast": {"lat": 42.3273533302915, "lng": -71.0818437197085}, "southwest": {"lat": 42.3246553697085, "lng": -71.08454168029151}}}, "icon": "https://maps.gstatic.com/mapfiles/place_api/icons/generic_business-71.png", "id": "da2b66bfbd07e5bd19f978c2ea3d0dd23c58db3b", "name": "Norbert's Insurance & Financial Services", "opening_hours": {"open_now": true}, "place_id": "ChIJNQlCwRJ644kR0gKkW_x3-QY", "plus_code": {"compound_code": "8WG8+9Q Boston, Massachusetts, United States", "global_code": "87JC8WG8+9Q"}, "rating": 4.5, "reference": "ChIJNQlCwRJ644kR0gKkW_x3-QY", "scope": "GOOGLE", "types": ["insurance_agency", "point_of_interest", "establishment"], "user_ratings_total": 10, "vicinity": "136 Warren Street # 101, Roxbury"}, "ChIJY6WOUTB644kRftmTeQQeFns": {"geometry": {"location": {"lat": 42.3259921, "lng": -71.0830837}, "viewport": {"northeast": {"lat": 42.3273533302915, "lng": -71.0818437197085}, "southwest": {"lat": 42.3246553697085, "lng": -71.08454168029151}}}, "icon": "https://maps.gstatic.com/mapfiles/place_api/icons/generic_business-71.png", "id": "189ca1fb559d67aef651e779444fd676af8c409f", "name": "L C Cleaning Co", "opening_hours": {"open_now": true}, "photos": [{"height": 1000, "html_attributions": ["<a href=\"https://maps.google.com/maps/contrib/118023114842619688353/photos\">L C Cleaning Co</a>"], "photo_reference": "CmRaAAAApA7O3C6LFmSleZwnlK_Ky1TeuAPrixY-VVEo9DoOKKlrTwLWZmwLJWtaPzzatPZypxoM8ysZ7zk2ucDnKUMi7mZ08ZwBn63W-YJMFlU8sdDY5llCFgFLK-ytrQT6abkJEhDRSGzWroqB4ws3vbccrKkwGhSMFW9BH3bjmeVqiJ1pMPeU-F8LMg", "width": 1000}], "place_id": "ChIJY6WOUTB644kRftmTeQQeFns", "plus_code": {"compound_code": "8WG8+9Q Boston, Massachusetts, United States", "global_code": "87JC8WG8+9Q"}, "reference": "ChIJY6WOUTB644kRftmTeQQeFns", "scope": "GOOGLE", "types": ["general_contractor", "point_of_interest", "establishment"], "vicinity": "136 Warren Street, Roxbury"}, "ChIJlYKkUDB644kR1_PbDn61CFU": {"geometry": {"location": {"lat": 42.326204, "lng": -71.08290199999999}, "viewport": {"northeast": {"lat": 42.3275720802915, "lng": -71.0817303697085}, "southwest": {"lat": 42.3248741197085, "lng": -71.0844283302915}}}, "icon": "https://maps.gstatic.com/mapfiles/place_api/icons/generic_business-71.png", "id": "edd55169fa3025178efbe674a91a7f5cc1d2be84", "name": "BREAD", "place_id": "ChIJlYKkUDB644kR1_PbDn61CFU", "plus_code": {"compound_code": "8WG8+FR Boston, Massachusetts, United States", "global_code": "87JC8WG8+FR"}, "reference": "ChIJlYKkUDB644kR1_PbDn61CFU", "scope": "GOOGLE", "types": ["point_of_interest", "establishment"], "vicinity": "130 Warren Street, Boston"}, "ChIJm0iHrjF644kRrLAlJIFjhcg": {"geometry": {"location": {"lat": 42.3253973, "lng": -71.0827925}, "viewport": {"northeast": {"lat": 42.32670788029149, "lng": -71.08162051970848}, "southwest": {"lat": 42.32400991970849, "lng": -71.0843184802915}}}, "icon": "https://maps.gstatic.com/mapfiles/place_api/icons/worship_general-71.png", "id": "67292e2d8ff0e9e54856bb7d1af0d2a97dba4a79", "name": "Twelfth Baptist Church", "photos": [{"height": 1440, "html_attributions": ["<a href=\"https://maps.google.com/maps/contrib/101761225002906391283/photos\">Ida Speller</a>"], "photo_reference": "CmRaAAAAxmMB7CGMaFxy5zN6TmLzomp6H21dA8BhKT_DSVQu5OAMyZvgrBjf0RDy_bTRFz42LnMJYDcvyV7OPXmb9NADn1DRYCQnWnYp2-eeQPpYfpzA8D4c1X96lwoWxmyaZL2EEhAFDo-XTX43rZ9bMygMgb34GhSLHR05jtpWkkB5CHJ91f52aCUEdA", "width": 2560}], "place_id": "ChIJm0iHrjF644kRrLAlJIFjhcg", "plus_code": {"compound_code": "8WG8+5V Boston, Massachusetts, United States", "global_code": "87JC8WG8+5V"}, "rating": 4.4, "reference": "ChIJm0iHrjF644kRrLAlJIFjhcg", "scope": "GOOGLE", "types": ["church", "place_of_worship", "point_of_interest", "establishment"], "user_ratings_total": 17, "vicinity": "160 Warren Street, Roxbury"}, "ChIJcXuoUDB644kRE2DJePz1Nnc": {"geometry": {"location": {"lat": 42.3269219, "lng": -71.0829518}, "viewport": {"northeast": {"lat": 42.3282755802915, "lng": -71.08170076970849}, "southwest": {"lat": 42.3255776197085, "lng": -71.0843987302915}}}, "icon": "https://maps.gstatic.com/mapfiles/place_api/icons/generic_business-71.png", "id": "ad2115a417e3da5155e36370326cec2b619cd9c4", "name": "Transformative Culture Project", "place_id": "ChIJcXuoUDB644kRE2DJePz1Nnc", "plus_code": {"compound_code": "8WG8+QR Boston, Massachusetts, United States", "global_code": "87JC8WG8+QR"}, "rating": 5, "reference": "ChIJcXuoUDB644kRE2DJePz1Nnc", "scope": "GOOGLE", "types": ["point_of_interest", "establishment"], "user_ratings_total": 1, "vicinity": "100R Warren Street, Roxbury"}, "ChIJaU8dZzB644kRm6yxEx2B5kI": {"geometry": {"location": {"lat": 42.326985, "lng": -71.08296930000002}, "viewport": {"northeast": {"lat": 42.3283381302915, "lng": -71.08170681970849}, "southwest": {"lat": 42.3256401697085, "lng": -71.08440478029151}}}, "icon": "https://maps.gstatic.com/mapfiles/place_api/icons/generic_business-71.png", "id": "fc25610195d8f22c1eba6ccec8f10c3365923826", "name": "Boston New Years Eve Party", "opening_hours": {"open_now": true}, "photos": [{"height": 638, "html_attributions": ["<a href=\"https://maps.google.com/maps/contrib/102689654654306631216/photos\">Boston New Years Eve Party</a>"], "photo_reference": "CmRaAAAAlZaOAvmeIVuUwhH6vqc0GIbjH6MjH89FGu302fA9AW46QUcf0q2u5qd6lrPeeXVBq9aXpu3HdXLc_D9zSe8nEBcbiMOf_7YNHv7eN_LumtSAxeiDy2OjPG_aOMvegTUiEhAezxXg050GP7Xk7dicXKFdGhR4iQTCsNlmHrnFyFbp1j7mB2d_3A", "width": 960}], "place_id": "ChIJaU8dZzB644kRm6yxEx2B5kI", "plus_code": {"compound_code": "8WG8+QR Boston, Massachusetts, United States", "global_code": "87JC8WG8+QR"}, "reference": "ChIJaU8dZzB644kRm6yxEx2B5kI", "scope": "GOOGLE", "types": ["point_of_interest", "establishment"], "vicinity": "100A Warren Street, Boston"}, "ChIJ7WAR0YB544kR-SeTotvEGuM": {"geometry": {"location": {"lat": 42.32699, "lng": -71.0829602}, "viewport": {"northeast": {"lat": 42.3283433302915, "lng": -71.08170201970849}, "southwest": {"lat": 42.3256453697085, "lng": -71.08439998029151}}}, "icon": "https://maps.gstatic.com/mapfiles/place_api/icons/generic_business-71.png", "id": "527d871c24fbc0ef9340dac50f66a7412200d127", "name": "Placetailor", "opening_hours": {"open_now": true}, "photos": [{"height": 1000, "html_attributions": ["<a href=\"https://maps.google.com/maps/contrib/101712805999530212436/photos\">Placetailor</a>"], "photo_reference": "CmRaAAAADvYS5wRw5YqojS8JOz1rknFTG-PT5UN4WUOs9BSAE96lQiJszafQlPtN5OL2vOcK3qJOalI2G3NVawVe3JNM6VJPJsf4qtbv7Uwv2nabIlf6XbMhzV6PxhoFZE18arLqEhCZdquy5ZfDoAweac6UOin2GhSxvaK4YzQPBJlTAsVTlEZu-IZ3UQ", "width": 1500}], "place_id": "ChIJ7WAR0YB544kR-SeTotvEGuM", "plus_code": {"compound_code": "8WG8+QR Boston, Massachusetts, United States", "global_code": "87JC8WG8+QR"}, "rating": 5, "reference": "ChIJ7WAR0YB544kR-SeTotvEGuM", "scope": "GOOGLE", "types": ["point_of_interest", "establishment"], "user_ratings_total": 1, "vicinity": "100a Warren Street, Boston"}, "ChIJCyODqzF644kRY8DTg0sSBYw": {"geometry": {"location": {"lat": 42.3253973, "lng": -71.0827925}, "viewport": {"northeast": {"lat": 42.32670788029149, "lng": -71.08162051970848}, "southwest": {"lat": 42.32400991970849, "lng": -71.0843184802915}}}, "icon": "https://maps.gstatic.com/mapfiles/place_api/icons/school-71.png", "id": "c0e5284514f505c388996dd687f736ff4d788b18", "name": "Twelfth Baptist Pre-School", "place_id": "ChIJCyODqzF644kRY8DTg0sSBYw", "plus_code": {"compound_code": "8WG8+5V Boston, Massachusetts, United States", "global_code": "87JC8WG8+5V"}, "rating": 5, "reference": "ChIJCyODqzF644kRY8DTg0sSBYw", "scope": "GOOGLE", "types": ["point_of_interest", "school", "establishment"], "user_ratings_total": 1, "vicinity": "160 Warren Street, Roxbury"}, "ChIJHTPILTB644kRoR5-1OzHssU": {"geometry": {"location": {"lat": 42.3260625, "lng": -71.0848166}, "viewport": {"northeast": {"lat": 42.3274601302915, "lng": -71.0835874197085}, "southwest": {"lat": 42.3247621697085, "lng": -71.0862853802915}}}, "icon": "https://maps.gstatic.com/mapfiles/place_api/icons/worship_general-71.png", "id": "853a28b55377637738ee22f90b3fe61cb553d388", "name": "Bethel Baptist Church", "photos": [{"height": 4128, "html_attributions": ["<a href=\"https://maps.google.com/maps/contrib/111571686872639130623/photos\">Nathan Ferguson</a>"], "photo_reference": "CmRaAAAA3Vps4TdvZ7AuWPn95ZbBPF3rOXkdG0UZ_dpPFwU5csCF--mhX9gfQpaEMuYLdvOY72vh7ajInq40mTmbr6Z48wORoLal3doSNICWUfGY2paYsJFTHzZIHu5xbvts8HKrEhAVx6Fp_Ii45EluqKuygqTCGhQvr4NgVzL2Ecl9JTI1bJ5wrK9uGA", "width": 2322}], "place_id": "ChIJHTPILTB644kRoR5-1OzHssU", "plus_code": {"compound_code": "8WG8+C3 Boston, Massachusetts, United States", "global_code": "87JC8WG8+C3"}, "rating": 5, "reference": "ChIJHTPILTB644kRoR5-1OzHssU", "scope": "GOOGLE", "types": ["church", "place_of_worship", "point_of_interest", "establishment"], "user_ratings_total": 7, "vicinity": "18 Saint James Street, Roxbury"}, "ChIJh-CN2yx644kRI8h5WPc98wQ": {"geometry": {"location": {"lat": 42.31519779999999, "lng": -71.0913748}, "viewport": {"northeast": {"lat": 42.335885, "lng": -71.06649519999999}, "southwest": {"lat": 42.29179790000001, "lng": -71.1067612}}}, "icon": "https://maps.gstatic.com/mapfiles/place_api/icons/geocode-71.png", "id": "33d978342c31fa28698809200432caaeeab1c79d", "name": "Roxbury", "photos": [{"height": 5312, "html_attributions": ["<a href=\"https://maps.google.com/maps/contrib/108141736953672835093/photos\">Warriorprincess4916</a>"], "photo_reference": "CmRaAAAAMzlQxsmvM_VFmA-eAIol0-IIWw3P97-C0gQp1vM7D4Su-D_TFBcjOqGNHh3TVcL9P11vfBlanJGZ6lV4YofVvNJUEK_T_-_JDcxCdMJbpPgtw9Ff0JlPQS-aNuc91mPiEhCjmbcxlbtznh92WyLgZaVKGhTHtjFKaYpjmkke0AjKkGO35Eewwg", "width": 2988}], "place_id": "ChIJh-CN2yx644kRI8h5WPc98wQ", "reference": "ChIJh-CN2yx644kRI8h5WPc98wQ", "scope": "GOOGLE", "types": ["neighborhood", "political"], "vicinity": "Dorchester Center"}, "ChIJR0_EoTF644kRrknPovExRGE": {"geometry": {"location": {"lat": 42.324579, "lng": -71.082635}, "viewport": {"northeast": {"lat": 42.32590508029151, "lng": -71.0814043697085}, "southwest": {"lat": 42.32320711970851, "lng": -71.0841023302915}}}, "icon": "https://maps.gstatic.com/mapfiles/place_api/icons/generic_business-71.png", "id": "714993a91a51da830d631c21e9fd18a7e7a568d3", "name": "U-Haul Neighborhood Dealer", "opening_hours": {"open_now": true}, "photos": [{"height": 2560, "html_attributions": ["<a href=\"https://maps.google.com/maps/contrib/108743792904465867150/photos\">Carlos Rodriguez</a>"], "photo_reference": "CmRaAAAAO9uVMMy3KKeO_mVomFD_bba__xxYDg7NAVJ1Ew4Km6jFWBDY3fXCBspqc7bopb17znR4zLOz1hbbYqhTwgcQmmGjQO0lZ_7WHPI__7Mvq18Elx3DWeiK_mr2xyBupa96EhDP2MUoFKsg2hpZCBFAFr7eGhQKRj-_GQeYRHWJ0xq65xrRPH5Xdw", "width": 1440}], "place_id": "ChIJR0_EoTF644kRrknPovExRGE", "plus_code": {"compound_code": "8WF8+RW Boston, Massachusetts, United States", "global_code": "87JC8WF8+RW"}, "price_level": 1, "rating": 4, "reference": "ChIJR0_EoTF644kRrknPovExRGE", "scope": "GOOGLE", "types": ["point_of_interest", "establishment"], "user_ratings_total": 2, "vicinity": "188 Warren Street, Roxbury"}, "ChIJNVWg7TB644kRZvG-NImTDkU": {"geometry": {"location": {"lat": 42.3265091, "lng": -71.0815982}, "viewport": {"northeast": {"lat": 42.3277414302915, "lng": -71.08029501970849}, "southwest": {"lat": 42.3250434697085, "lng": -71.0829929802915}}}, "icon": "https://maps.gstatic.com/mapfiles/place_api/icons/worship_general-71.png", "id": "0aa0cce87a55bcce01a172a14b99c6d7a80c4583", "name": "Mekane Hiwot St Michael Ethiopian Orthodox Tewahedo Church", "place_id": "ChIJNVWg7TB644kRZvG-NImTDkU", "plus_code": {"compound_code": "8WG9+J9 Boston, Massachusetts, United States", "global_code": "87JC8WG9+J9"}, "rating": 4.4, "reference": "ChIJNVWg7TB644kRZvG-NImTDkU", "scope": "GOOGLE", "types": ["church", "place_of_worship", "point_of_interest", "establishment"], "user_ratings_total": 8, "vicinity": "26 Winthrop Street, Roxbury"}, "ChIJq0-9UTB644kRZXUgvC1ZS3w": {"geometry": {"location": {"lat": 42.3260486, "lng": -71.083068}, "viewport": {"northeast": {"lat": 42.3274100302915, "lng": -71.08183001970849}, "southwest": {"lat": 42.3247120697085, "lng": -71.0845279802915}}}, "icon": "https://maps.gstatic.com/mapfiles/place_api/icons/generic_business-71.png", "id": "d1bfdd4987ab4e741d978b82b2273398a07724ad", "name": "Harris Management Co", "place_id": "ChIJq0-9UTB644kRZXUgvC1ZS3w", "plus_code": {"compound_code": "8WG8+CQ Boston, Massachusetts, United States", "global_code": "87JC8WG8+CQ"}, "reference": "ChIJq0-9UTB644kRZXUgvC1ZS3w", "scope": "GOOGLE", "types": ["point_of_interest", "establishment"], "vicinity": "134 Warren Street, Roxbury"}, "ChIJq7mOUTB644kR_JHb6jIY6_I": {"geometry": {"location": {"lat": 42.3259921, "lng": -71.0830837}, "viewport": {"northeast": {"lat": 42.3273533302915, "lng": -71.0818437197085}, "southwest": {"lat": 42.3246553697085, "lng": -71.08454168029151}}}, "icon": "https://maps.gstatic.com/mapfiles/place_api/icons/generic_business-71.png", "id": "3be3617fc35a8a0512e560110238c5dd32793fea", "name": "Kendall Johnson & Hines: Kendall Winston D", "place_id": "ChIJq7mOUTB644kR_JHb6jIY6_I", "plus_code": {"compound_code": "8WG8+9Q Boston, Massachusetts, United States", "global_code": "87JC8WG8+9Q"}, "rating": 5, "reference": "ChIJq7mOUTB644kR_JHb6jIY6_I", "scope": "GOOGLE", "types": ["lawyer", "point_of_interest", "establishment"], "user_ratings_total": 1, "vicinity": "136 Warren Street, Roxbury"}, "ChIJq7mOUTB644kR9FzD3ENrPIE": {"geometry": {"location": {"lat": 42.3259921, "lng": -71.0830837}, "viewport": {"northeast": {"lat": 42.3273533302915, "lng": -71.0818437197085}, "southwest": {"lat": 42.3246553697085, "lng": -71.08454168029151}}}, "icon": "https://maps.gstatic.com/mapfiles/place_api/icons/generic_business-71.png", "id": "5892d0b76bcb9400aa177c1aa56dd6102bda46c0", "name": "Kendall Johnson & Hines", "place_id": "ChIJq7mOUTB644kR9FzD3ENrPIE", "plus_code": {"compound_code": "8WG8+9Q Boston, Massachusetts, United States", "global_code": "87JC8WG8+9Q"}, "reference": "ChIJq7mOUTB644kR9FzD3ENrPIE", "scope": "GOOGLE", "types": ["lawyer", "point_of_interest", "establishment"], "vicinity": "136 Warren Street, Roxbury"}, "ChIJq7mOUTB644kRRwd0aWK1LCc": {"geometry": {"location": {"lat": 42.3259921, "lng": -71.0830837}, "viewport": {"northeast": {"lat": 42.3273533302915, "lng": -71.0818437197085}, "southwest": {"lat": 42.3246553697085, "lng": -71.08454168029151}}}, "icon": "https://maps.gstatic.com/mapfiles/place_api/icons/generic_business-71.png", "id": "0ec288f7245b952a647d72582400d4995a82ecf6", "name": "Kendall Johnson & Hines: Johnson Charles R", "place_id": "ChIJq7mOUTB644kRRwd0aWK1LCc", "plus_code": {"compound_code": "8WG8+9Q Boston, Massachusetts, United States", "global_code": "87JC8WG8+9Q"}, "reference": "ChIJq7mOUTB644kRRwd0aWK1LCc", "scope": "GOOGLE", "types": ["lawyer", "point_of_interest", "establishment"], "vicinity": "136 Warren Street, Roxbury"}, "ChIJHavAWjB644kRvrEziLuzhLo": {"geometry": {"location": {"lat": 42.326204, "lng": -71.08290199999999}, "viewport": {"northeast": {"lat": 42.3275720802915, "lng": -71.0817303697085}, "southwest": {"lat": 42.3248741197085, "lng": -71.0844283302915}}}, "icon": "https://maps.gstatic.com/mapfiles/place_api/icons/generic_business-71.png", "id": "5d86200f13dea69508dc5f0f87f3d3f18cf663a5", "name": "Boston Urban Youth Foundation", "place_id": "ChIJHavAWjB644kRvrEziLuzhLo", "plus_code": {"compound_code": "8WG8+FR Boston, Massachusetts, United States", "global_code": "87JC8WG8+FR"}, "rating": 4.7, "reference": "ChIJHavAWjB644kRvrEziLuzhLo", "scope": "GOOGLE", "types": ["point_of_interest", "establishment"], "user_ratings_total": 3, "vicinity": "130 Warren Street, Roxbury"}, "ChIJHavAWjB644kRaDO-PNc0abM": {"geometry": {"location": {"lat": 42.326204, "lng": -71.08290199999999}, "viewport": {"northeast": {"lat": 42.3275720802915, "lng": -71.0817303697085}, "southwest": {"lat": 42.3248741197085, "lng": -71.0844283302915}}}, "icon": "https://maps.gstatic.com/mapfiles/place_api/icons/generic_business-71.png", "id": "fbcfe247eb938ebc01e4dda39267d3734f76840b", "name": "Project Me", "place_id": "ChIJHavAWjB644kRaDO-PNc0abM", "plus_code": {"compound_code": "8WG8+FR Boston, Massachusetts, United States", "global_code": "87JC8WG8+FR"}, "reference": "ChIJHavAWjB644kRaDO-PNc0abM", "scope": "GOOGLE", "types": ["point_of_interest", "establishment"], "vicinity": "130 Warren Street, Roxbury"}, "ChIJb3uoUDB644kRXIhrcioXcRE": {"geometry": {"location": {"lat": 42.3262216, "lng": -71.0828767}, "viewport": {"northeast": {"lat": 42.3275908302915, "lng": -71.0817157697085}, "southwest": {"lat": 42.3248928697085, "lng": -71.08441373029152}}}, "icon": "https://maps.gstatic.com/mapfiles/place_api/icons/school-71.png", "id": "4e1a386428d4b00bcd467e6c0322204adbf719d4", "name": "Jeremiah Program Boston", "opening_hours": {"open_now": true}, "place_id": "ChIJb3uoUDB644kRXIhrcioXcRE", "plus_code": {"compound_code": "8WG8+FR Boston, Massachusetts, United States", "global_code": "87JC8WG8+FR"}, "reference": "ChIJb3uoUDB644kRXIhrcioXcRE", "scope": "GOOGLE", "types": ["school", "point_of_interest", "establishment"], "vicinity": "130 Warren Street, Boston"}, "ChIJq7mOUTB644kR--iAJ2TKGHY": {"geometry": {"location": {"lat": 42.3259934, "lng": -71.0832017}, "viewport": {"northeast": {"lat": 42.3273481302915, "lng": -71.0819039197085}, "southwest": {"lat": 42.3246501697085, "lng": -71.0846018802915}}}, "icon": "https://maps.gstatic.com/mapfiles/place_api/icons/generic_business-71.png", "id": "7e3f67a11387b53527ba41bb67e9953cd3046ab7", "name": "Hadian Associates", "place_id": "ChIJq7mOUTB644kR--iAJ2TKGHY", "plus_code": {"compound_code": "8WG8+9P Boston, Massachusetts, United States", "global_code": "87JC8WG8+9P"}, "reference": "ChIJq7mOUTB644kR--iAJ2TKGHY", "scope": "GOOGLE", "types": ["real_estate_agency", "point_of_interest", "establishment"], "vicinity": "136 Warren Street # 2, Roxbury"}, "ChIJe7p-MzF644kR_8wYxn0wUqs": {"geometry": {"location": {"lat": 42.3258604, "lng": -71.0830466}, "viewport": {"northeast": {"lat": 42.32721743029149, "lng": -71.08169456970849}, "southwest": {"lat": 42.3245194697085, "lng": -71.0843925302915}}}, "icon": "https://maps.gstatic.com/mapfiles/place_api/icons/generic_business-71.png", "id": "8ef280ca51ae786bfab59d7ee9e951803ca802ec", "name": "Glausi Natural Crown Care", "opening_hours": {"open_now": true}, "place_id": "ChIJe7p-MzF644kR_8wYxn0wUqs", "plus_code": {"compound_code": "8WG8+8Q Boston, Massachusetts, United States", "global_code": "87JC8WG8+8Q"}, "reference": "ChIJe7p-MzF644kR_8wYxn0wUqs", "scope": "GOOGLE", "types": ["point_of_interest", "establishment"], "vicinity": "Moreland Street, Roxbury"}, "ChIJJe7BUjB644kRnCqAHAHhriM": {"geometry": {"location": {"lat": 42.3257488, "lng": -71.0830909}, "viewport": {"northeast": {"lat": 42.3270834802915, "lng": -71.08184391970849}, "southwest": {"lat": 42.3243855197085, "lng": -71.08454188029151}}}, "icon": "https://maps.gstatic.com/mapfiles/place_api/icons/generic_business-71.png", "id": "e0a19d30c1f522744d1c106beed442c9b54df4c4", "name": "Leading Ladies", "place_id": "ChIJJe7BUjB644kRnCqAHAHhriM", "plus_code": {"compound_code": "8WG8+7Q Boston, Massachusetts, United States", "global_code": "87JC8WG8+7Q"}, "rating": 5, "reference": "ChIJJe7BUjB644kRnCqAHAHhriM", "scope": "GOOGLE", "types": ["beauty_salon", "point_of_interest", "establishment"], "user_ratings_total": 6, "vicinity": "138 Warren Street, Roxbury"}, "ChIJlYNQTTB644kRiFqkWNakY4g": {"geometry": {"location": {"lat": 42.325734, "lng": -71.083235}, "viewport": {"northeast": {"lat": 42.3270802802915, "lng": -71.0819053697085}, "southwest": {"lat": 42.3243823197085, "lng": -71.08460333029151}}}, "icon": "https://maps.gstatic.com/mapfiles/place_api/icons/bus-71.png", "id": "4a3ee2149a89370fa24a585814700eca4596b340", "name": "Warren St @ Moreland St", "place_id": "ChIJlYNQTTB644kRiFqkWNakY4g", "plus_code": {"compound_code": "8WG8+7P Boston, Massachusetts, United States", "global_code": "87JC8WG8+7P"}, "rating": 3, "reference": "ChIJlYNQTTB644kRiFqkWNakY4g", "scope": "GOOGLE", "types": ["bus_station", "transit_station", "point_of_interest", "establishment"], "user_ratings_total": 1, "vicinity": "United States"}, "ChIJgcsKsTF644kRqKU-c1jSYQ8": {"geometry": {"location": {"lat": 42.32535300000001, "lng": -71.08339699999999}, "viewport": {"northeast": {"lat": 42.32670543029149, "lng": -71.0820306697085}, "southwest": {"lat": 42.32400746970849, "lng": -71.08472863029151}}}, "icon": "https://maps.gstatic.com/mapfiles/place_api/icons/bus-71.png", "id": "ddbbecb39b91b4ff2feaaf780fcb08a0c9e45570", "name": "Warren St @ Dabney Pl", "place_id": "ChIJgcsKsTF644kRqKU-c1jSYQ8", "plus_code": {"compound_code": "8WG8+4J Boston, Massachusetts, United States", "global_code": "87JC8WG8+4J"}, "reference": "ChIJgcsKsTF644kRqKU-c1jSYQ8", "scope": "GOOGLE", "types": ["bus_station", "transit_station", "point_of_interest", "establishment"], "vicinity": "United States"}, "ChIJXfEirG9544kRMbazXyjnLac": {"geometry": {"location": {"lat": 42.3269219, "lng": -71.0829518}, "viewport": {"northeast": {"lat": 42.3282755802915, "lng": -71.08170076970849}, "southwest": {"lat": 42.3255776197085, "lng": -71.0843987302915}}}, "icon": "https://maps.gstatic.com/mapfiles/place_api/icons/generic_business-71.png", "id": "35b01fed91e7f6b116501a794cd6d3576dd0761e", "name": "Families for Justice As Healing", "place_id": "ChIJXfEirG9544kRMbazXyjnLac", "plus_code": {"compound_code": "8WG8+QR Boston, Massachusetts, United States", "global_code": "87JC8WG8+QR"}, "reference": "ChIJXfEirG9544kRMbazXyjnLac", "scope": "GOOGLE", "types": ["point_of_interest", "establishment"], "vicinity": "100r Warren Street, Roxbury"}, "ChIJaU8dZzB644kRP9ns3ck2htI": {"geometry": {"location": {"lat": 42.326985, "lng": -71.08296930000002}, "viewport": {"northeast": {"lat": 42.3283381302915, "lng": -71.08170681970849}, "southwest": {"lat": 42.3256401697085, "lng": -71.08440478029151}}}, "icon": "https://maps.gstatic.com/mapfiles/place_api/icons/generic_business-71.png", "id": "6493dc90a75e3bdefc86103dd3383396ae300020", "name": "Mbadika", "place_id": "ChIJaU8dZzB644kRP9ns3ck2htI", "plus_code": {"compound_code": "8WG8+QR Boston, Massachusetts, United States", "global_code": "87JC8WG8+QR"}, "reference": "ChIJaU8dZzB644kRP9ns3ck2htI", "scope": "GOOGLE", "types": ["point_of_interest", "establishment"], "vicinity": "100 Warren Street #03, Boston"}, "ChIJ0deWTG1644kRiHT1eLfvbkg": {"geometry": {"location": {"lat": 42.3270906, "lng": -71.0829846}, "viewport": {"northeast": {"lat": 42.3284431302915, "lng": -71.0817099197085}, "southwest": {"lat": 42.3257451697085, "lng": -71.08440788029151}}}, "icon": "https://maps.gstatic.com/mapfiles/place_api/icons/generic_business-71.png", "id": "41f68dee0351dd9645ddc604045752cff7e50dd6", "name": "Platinum Cuts Barber Shop", "opening_hours": {"open_now": true}, "photos": [{"height": 1334, "html_attributions": ["<a href=\"https://maps.google.com/maps/contrib/104437084344158594205/photos\">Christian Sisco</a>"], "photo_reference": "CmRaAAAAqGTMYMKAYUsQYIHQkxtR6SFRp-OfoQ5B_fKvO7HeK53XqiDA9yW460U6HWAVgXQshVn5q8TlO7dOlWOinHpXrkwMLTIdL0cHgREF5ui0Zs_ZefB5ccTLrHXsoPYO9M4yEhABamfzChKUrtZ15phqSfQ3GhTSK16rBbXc4dcoS9244TUAIkJt8w", "width": 750}], "place_id": "ChIJ0deWTG1644kRiHT1eLfvbkg", "plus_code": {"compound_code": "8WG8+RR Boston, Massachusetts, United States", "global_code": "87JC8WG8+RR"}, "rating": 4.3, "reference": "ChIJ0deWTG1644kRiHT1eLfvbkg", "scope": "GOOGLE", "types": ["hair_care", "health", "point_of_interest", "establishment"], "user_ratings_total": 39, "vicinity": "98 Warren Street, Roxbury"}, "ChIJCST0aIN744kRjVWcZdzLIYo": {"geometry": {"location": {"lat": 42.3268346, "lng": -71.084176}, "viewport": {"northeast": {"lat": 42.3284260802915, "lng": -71.08280206970849}, "southwest": {"lat": 42.3257281197085, "lng": -71.0855000302915}}}, "icon": "https://maps.gstatic.com/mapfiles/place_api/icons/generic_business-71.png", "id": "d69e9f764dfacb36bb9882ef9031dc5d6523c814", "name": "Yawkey Club of Roxbury Boys & Girls Club Mini-Pitch", "photos": [{"height": 1420, "html_attributions": ["<a href=\"https://maps.google.com/maps/contrib/101214933422979005584/photos\">Ethan Harker</a>"], "photo_reference": "CmRaAAAA8DYxzxCtD8cwmBwbUXM6o3VvqeNFKvXxmIhO2mltllN8ST2TXGiMVg_FgD2PWx7a9KaYa6ayK5OV8piruhdmh4-N5iBPaOUeR5qUQ412yt3_AnSJECtIWMBTRAMJJZCCEhAw4f65daPEjBLvtIpytMvLGhRnDNo71RCqePLSMJCuIfy2NiLHsg", "width": 1893}], "place_id": "ChIJCST0aIN744kRjVWcZdzLIYo", "plus_code": {"compound_code": "8WG8+P8 Boston, Massachusetts, United States", "global_code": "87JC8WG8+P8"}, "reference": "ChIJCST0aIN744kRjVWcZdzLIYo", "scope": "GOOGLE", "types": ["point_of_interest", "establishment"], "vicinity": "115 Warren Street, Boston"}, "ChIJ60MuiDB644kR_y8Z6iv8nT8": {"geometry": {"location": {"lat": 42.3272161, "lng": -71.0824224}, "viewport": {"northeast": {"lat": 42.3285675802915, "lng": -71.08098801970849}, "southwest": {"lat": 42.3258696197085, "lng": -71.0836859802915}}}, "icon": "https://maps.gstatic.com/mapfiles/place_api/icons/generic_business-71.png", "id": "a01fa257f3f429f3f60546c275490258d2d815e0", "name": "Steps To Solutions Inc", "place_id": "ChIJ60MuiDB644kR_y8Z6iv8nT8", "plus_code": {"compound_code": "8WG9+V2 Boston, Massachusetts, United States", "global_code": "87JC8WG9+V2"}, "rating": 5, "reference": "ChIJ60MuiDB644kR_y8Z6iv8nT8", "scope": "GOOGLE", "types": ["point_of_interest", "establishment"], "user_ratings_total": 2, "vicinity": "9 Kearsarge Avenue, Roxbury"}, "ChIJwQseZTB644kRQBspDbHajg0": {"geometry": {"location": {"lat": 42.327349, "lng": -71.083021}, "viewport": {"northeast": {"lat": 42.3287000302915, "lng": -71.08171031970849}, "southwest": {"lat": 42.3260020697085, "lng": -71.0844082802915}}}, "icon": "https://maps.gstatic.com/mapfiles/place_api/icons/bus-71.png", "id": "4586f4844c25f8e1c073cc495a8c3230b2f1b46a", "name": "Warren St @ Kearsarge Ave", "place_id": "ChIJwQseZTB644kRQBspDbHajg0", "plus_code": {"compound_code": "8WG8+WQ Boston, Massachusetts, United States", "global_code": "87JC8WG8+WQ"}, "reference": "ChIJwQseZTB644kRQBspDbHajg0", "scope": "GOOGLE", "types": ["bus_station", "transit_station", "point_of_interest", "establishment"], "vicinity": "United States"}, "ChIJzea8bzB644kRP2ix3mFGZUQ": {"geometry": {"location": {"lat": 42.32738599999999, "lng": -71.08331}, "viewport": {"northeast": {"lat": 42.3287339302915, "lng": -71.0819417197085}, "southwest": {"lat": 42.3260359697085, "lng": -71.0846396802915}}}, "icon": "https://maps.gstatic.com/mapfiles/place_api/icons/bus-71.png", "id": "ce4a90127b412ae44b3cfd50809e15cdd25fafd5", "name": "Warren St opp Kearsarge Ave", "place_id": "ChIJzea8bzB644kRP2ix3mFGZUQ", "plus_code": {"compound_code": "8WG8+XM Boston, Massachusetts, United States", "global_code": "87JC8WG8+XM"}, "reference": "ChIJzea8bzB644kRP2ix3mFGZUQ", "scope": "GOOGLE", "types": ["bus_station", "transit_station", "point_of_interest", "establishment"], "vicinity": "United States"}, "ChIJvxueoTF644kRaFAbUgUP4R4": {"geometry": {"location": {"lat": 42.32454930000001, "lng": -71.08261499999999}, "viewport": {"northeast": {"lat": 42.3258745302915, "lng": -71.08138876970848}, "southwest": {"lat": 42.3231765697085, "lng": -71.08408673029149}}}, "icon": "https://maps.gstatic.com/mapfiles/place_api/icons/generic_business-71.png", "id": "51f6c06a52a499b975a29f197c87e5985571f7b3", "name": "Pep & Sasha's Auto", "opening_hours": {"open_now": true}, "photos": [{"height": 1000, "html_attributions": ["<a href=\"https://maps.google.com/maps/contrib/107057202802603582869/photos\">Pep &amp; Sasha&#39;s Auto</a>"], "photo_reference": "CmRaAAAA3PUcls1XwdtV-RbyzraqgcMGjEPf2T02KMc30yABZPgZYduryKCTmWiL_9BBYOh838FJOAnXHyRxkmyh4nk9bPP7HyndJemxnHZ6nBv0e8Mj0p_uxVUUrpodGJRTqU_iEhDkcNyWFdM8XoBkGMCCn8mrGhR2HAL53DZfey1LLSINSnCk7L8Wag", "width": 1000}], "place_id": "ChIJvxueoTF644kRaFAbUgUP4R4", "plus_code": {"compound_code": "8WF8+RX Boston, Massachusetts, United States", "global_code": "87JC8WF8+RX"}, "rating": 4.4, "reference": "ChIJvxueoTF644kRaFAbUgUP4R4", "scope": "GOOGLE", "types": ["car_repair", "point_of_interest", "establishment"], "user_ratings_total": 20, "vicinity": "188 Warren Street, Roxbury"}, "ChIJx4Bq3TB644kRp0UDA11hHBc": {"geometry": {"location": {"lat": 42.325816, "lng": -71.080894}, "viewport": {"northeast": {"lat": 42.32729673029149, "lng": -71.07949021970849}, "southwest": {"lat": 42.32459876970849, "lng": -71.08218818029151}}}, "icon": "https://maps.gstatic.com/mapfiles/place_api/icons/worship_general-71.png", "id": "681772c67b4b8d11e5144677af4f02fe03269e26", "name": "Refuge Temple Church Apost", "place_id": "ChIJx4Bq3TB644kRp0UDA11hHBc", "plus_code": {"compound_code": "8WG9+8J Boston, Massachusetts, United States", "global_code": "87JC8WG9+8J"}, "rating": 5, "reference": "ChIJx4Bq3TB644kRp0UDA11hHBc", "scope": "GOOGLE", "types": ["church", "place_of_worship", "point_of_interest", "establishment"], "user_ratings_total": 1, "vicinity": "37 Winthrop Street, Roxbury"}, "ChIJQ11b8DB644kRvhxauVCBP1w": {"geometry": {"location": {"lat": 42.3261671, "lng": -71.0818577}, "viewport": {"northeast": {"lat": 42.3275004802915, "lng": -71.0805142697085}, "southwest": {"lat": 42.3248025197085, "lng": -71.08321223029151}}}, "icon": "https://maps.gstatic.com/mapfiles/place_api/icons/generic_recreational-71.png", "id": "0cc842cad20bf90da8d51b94ecf68f1409880db4", "name": "Winthrop Street Community Garden", "place_id": "ChIJQ11b8DB644kRvhxauVCBP1w", "reference": "ChIJQ11b8DB644kRvhxauVCBP1w", "scope": "GOOGLE", "types": ["park", "premise", "point_of_interest", "establishment"], "vicinity": "Boston"}, "ChIJa94-ijB644kRarPQOIuc-tM": {"geometry": {"location": {"lat": 42.3269599, "lng": -71.0823684}, "viewport": {"northeast": {"lat": 42.3283160802915, "lng": -71.08100156970849}, "southwest": {"lat": 42.3256181197085, "lng": -71.08369953029151}}}, "icon": "https://maps.gstatic.com/mapfiles/place_api/icons/generic_recreational-71.png", "id": "1e03ea0556f1a75b20dbe90572aba9c3dfe45d88", "name": "Boston Evening Academy Garden", "place_id": "ChIJa94-ijB644kRarPQOIuc-tM", "reference": "ChIJa94-ijB644kRarPQOIuc-tM", "scope": "GOOGLE", "types": ["park", "premise", "point_of_interest", "establishment"], "vicinity": "Boston"}, "ChIJ13uiPTB644kRuuHphyUFP7M": {"geometry": {"location": {"lat": 42.32695289999999, "lng": -71.084504}, "viewport": {"northeast": {"lat": 42.3283692802915, "lng": -71.08312211970849}, "southwest": {"lat": 42.3256713197085, "lng": -71.0858200802915}}}, "icon": "https://maps.gstatic.com/mapfiles/place_api/icons/generic_recreational-71.png", "id": "cb8ea7f537062e1709ffb4d15612c0eb024d1016", "name": "Boys Club Park", "place_id": "ChIJ13uiPTB644kRuuHphyUFP7M", "reference": "ChIJ13uiPTB644kRuuHphyUFP7M", "scope": "GOOGLE", "types": ["park", "premise", "point_of_interest", "establishment"], "vicinity": "Boston"}}