{"ChIJGzE9DS1l44kRoOhiASS_fHg": {"geometry": {"location": {"lat": 42.3600825, "lng": -71.0588801}, "viewport": {"northeast": {"lat": 42.40081989999999, "lng": -70.749455}, "southwest": {"lat": 42.22788, "lng": -71.191113}}}, "icon": "https://maps.gstatic.com/mapfiles/place_api/icons/geocode-71.png", "id": "06755c25d2b34d13942a4713971756a55b870ced", "name": "Boston", "photos": [{"height": 3024, "html_attributions": ["<a href=\"https://maps.google.com/maps/contrib/104670289779338733432/photos\">Natalia Zalucean</a>"], "photo_reference": "CmRaAAAApfiEFN9wj-4q2b7jY5KNUI7lgF60jRjL2aaD-ZCpj_aBDBSEnfdE54RJun0i_unSEuMx-CXPmfmc-T4m7VJuHRqB447sMJZ4zQTppUeojc_cV3Ih3FzoDdGBmIIy5rL-EhC8dkrrqSH_3-tO1e24fCQKGhRz3ILL6qg7mHcaMav9vwj8vjldMw", "width": 4032}], "place_id": "ChIJGzE9DS1l44kRoOhiASS_fHg", "reference": "ChIJGzE9DS1l44kRoOhiASS_fHg", "scope": "GOOGLE", "types": ["locality", "political"], "vicinity": "Boston"}, "ChIJm2xoAal744kR-azjosAgAcA": {"geometry": {"location": {"lat": 42.30715439999999, "lng": -71.05337709999999}, "viewport": {"northeast": {"lat": 42.30850338029149, "lng": -71.05202811970848}, "southwest": {"lat": 42.30580541970849, "lng": -71.05472608029149}}}, "icon": "https://maps.gstatic.com/mapfiles/place_api/icons/generic_business-71.png", "id": "3321f581c5b8d026f08ce14da8166087f7276db8", "name": "Dorchester Yacht Club", "photos": [{"height": 2340, "html_attributions": ["<a href=\"https://maps.google.com/maps/contrib/111656510874072749884/photos\">Bob Hatch</a>"], "photo_reference": "CmRaAAAAFWED_bBjrdhneJWbj6wCZnnheGEkBzCa-4mSpXh1dAihg0Hd6b0ePe4D9HrxhFQhtQJbbBis6YWvskIY7dc9DxLu8VFDzemuKNVecs1IrQgIeYistU21bCE7I5m-GmFgEhCsnkJQusHeakGVVE8MzG-VGhTxJV9Tiv2fYNi6DZaQgGhvH0qsvQ", "width": 4160}], "place_id": "ChIJm2xoAal744kR-azjosAgAcA", "plus_code": {"compound_code": "8W4W+VJ Boston, Massachusetts, United States", "global_code": "87JC8W4W+VJ"}, "rating": 4.5, "reference": "ChIJm2xoAal744kR-azjosAgAcA", "scope": "GOOGLE", "types": ["point_of_interest", "establishment"], "user_ratings_total": 18, "vicinity": "100 Playstead Road, Dorchester"}, "ChIJ_ywrA69744kRdquui5QuU8w": {"geometry": {"location": {"lat": 42.30664700000001, "lng": -71.0556579}, "viewport": {"northeast": {"lat": 42.3079668802915, "lng": -71.0540590197085}, "southwest": {"lat": 42.3052689197085, "lng": -71.05675698029151}}}, "icon": "https://maps.gstatic.com/mapfiles/place_api/icons/generic_business-71.png", "id": "b41c5ff5c5a12e730a91f321870b2bb200a805ae", "name": "First Student", "place_id": "ChIJ_ywrA69744kRdquui5QuU8w", "plus_code": {"compound_code": "8W4V+MP Boston, Massachusetts, United States", "global_code": "87JC8W4V+MP"}, "rating": 5, "reference": "ChIJ_ywrA69744kRdquui5QuU8w", "scope": "GOOGLE", "types": ["point_of_interest", "establishment"], "user_ratings_total": 2, "vicinity": "35 Freeport Way, Dorchester"}, "ChIJzZWgI6p744kRlnlzk_3X25s": {"geometry": {"location": {"lat": 42.3088377, "lng": -71.05237679999999}, "viewport": {"northeast": {"lat": 42.3101859302915, "lng": -71.0492691}, "southwest": {"lat": 42.3074879697085, "lng": -71.05377969999999}}}, "icon": "https://maps.gstatic.com/mapfiles/place_api/icons/generic_recreational-71.png", "id": "0674da0fae43b2d531c4e1bf933478a8fffa6da2", "name": "McConnell Park", "place_id": "ChIJzZWgI6p744kRlnlzk_3X25s", "reference": "ChIJzZWgI6p744kRlnlzk_3X25s", "scope": "GOOGLE", "types": ["park", "premise", "point_of_interest", "establishment"], "vicinity": "Boston"}, "ChIJs4veGkl644kROEK8ix2v_oY": {"geometry": {"location": {"lat": 42.30163049999999, "lng": -71.067605}, "viewport": {"northeast": {"lat": 42.3358969, "lng": -71.0325551}, "southwest": {"lat": 42.267598, "lng": -71.0800369}}}, "icon": "https://maps.gstatic.com/mapfiles/place_api/icons/geocode-71.png", "id": "9e12301fdeebf54c1266b9986602466425a9c326", "name": "Dorchester", "photos": [{"height": 1944, "html_attributions": ["<a href=\"https://maps.google.com/maps/contrib/118366960396286562471/photos\">Michael Laferriere</a>"], "photo_reference": "CmRaAAAAO1rQRfF0ZDqTwtAMOx72DIRM27I1X-syU97Br3kpvLTpQE5dN8KPQHg8CxCYxRPW2FAZWQLOswCPLmFPT7AT8vF1yJRkaM4ZQRKDQUuyxM0XO8G0Ipyr6Xadz7kzvG94EhBFRzyq4yMdRzYWqWpAajQeGhRDbNLTATMoUabfXO7ESqbzqrJVKQ", "width": 2592}], "place_id": "ChIJs4veGkl644kROEK8ix2v_oY", "reference": "ChIJs4veGkl644kROEK8ix2v_oY", "scope": "GOOGLE", "types": ["neighborhood", "political"], "vicinity": "Dorchester Center"}}