{"ChIJGzE9DS1l44kRoOhiASS_fHg": {"geometry": {"location": {"lat": 42.3600825, "lng": -71.0588801}, "viewport": {"northeast": {"lat": 42.40081989999999, "lng": -70.749455}, "southwest": {"lat": 42.22788, "lng": -71.191113}}}, "icon": "https://maps.gstatic.com/mapfiles/place_api/icons/geocode-71.png", "id": "06755c25d2b34d13942a4713971756a55b870ced", "name": "Boston", "photos": [{"height": 3024, "html_attributions": ["<a href=\"https://maps.google.com/maps/contrib/104670289779338733432/photos\">Natalia Zalucean</a>"], "photo_reference": "CmRaAAAARO7h0EEkuFBOu-fcsK7d73QFdUOxon4u5aZ0Ja8BosorC6Zud0FB928g5Bm_1ru_JnM9CugRN-uNdCd3uZeVTEA7Cya4w12wU4eVBjaQ6LyvtFvmpj2ZmsIAjDnzU6HaEhBS3yWZVAyldXdsTXznbGAPGhRatY6YvFY4OyYPQgn2V_Mv3PNAKQ", "width": 4032}], "place_id": "ChIJGzE9DS1l44kRoOhiASS_fHg", "reference": "ChIJGzE9DS1l44kRoOhiASS_fHg", "scope": "GOOGLE", "types": ["locality", "political"], "vicinity": "Boston"}, "ChIJeXqrEMx444kRyKiswVcha1A": {"geometry": {"location": {"lat": 42.2980701, "lng": -71.161933}, "viewport": {"northeast": {"lat": 42.3016843, "lng": -71.1590069}, "southwest": {"lat": 42.2946343, "lng": -71.16527119999999}}}, "icon": "https://maps.gstatic.com/mapfiles/place_api/icons/generic_recreational-71.png", "id": "5eeab6f4fc10b5dfb41d241be8be56b17cd93e75", "name": "Hancock Woods I", "place_id": "ChIJeXqrEMx444kRyKiswVcha1A", "reference": "ChIJeXqrEMx444kRyKiswVcha1A", "scope": "GOOGLE", "types": ["park", "premise", "point_of_interest", "establishment"], "vicinity": "Boston"}, "ChIJzxYuijx_44kRRILba9QQn0k": {"geometry": {"location": {"lat": 42.27975539999999, "lng": -71.1626756}, "viewport": {"northeast": {"lat": 42.303697, "lng": -71.12789599999999}, "southwest": {"lat": 42.25289799999999, "lng": -71.191198}}}, "icon": "https://maps.gstatic.com/mapfiles/place_api/icons/geocode-71.png", "id": "20de47f271a3ccaf647bdac7b9ee10bd6e83a6c4", "name": "West Roxbury", "photos": [{"height": 603, "html_attributions": ["<a href=\"https://maps.google.com/maps/contrib/117808102006877461743/photos\">Andri Kyrychok</a>"], "photo_reference": "CmRaAAAAbQmT5GdMjXAwYhY9OR2lsUKkehBTtFDoXLICiPumRrNcdZL9F0uwWZKUa8WPQjTidwO2xZYtrMHUiFlpU4JVe-Dt7Zo3V1A_ukc0GGfb-Qm2NZ9aE1PO2g_HLKn0FXH7EhBtQUiDpmOPSENO3VmlL6z_GhTPP_-r3CJfQDH8oCx0zJHRLkmYmQ", "width": 546}], "place_id": "ChIJzxYuijx_44kRRILba9QQn0k", "reference": "ChIJzxYuijx_44kRRILba9QQn0k", "scope": "GOOGLE", "types": ["neighborhood", "political"], "vicinity": "Boston"}}