{"ChIJhZirQQB544kRB9LbXEfedZQ": {"geometry": {"location": {"lat": 42.33176419999999, "lng": -71.1211635}, "viewport": {"northeast": {"lat": 42.3518109, "lng": -71.1056969}, "southwest": {"lat": 42.29459689999999, "lng": -71.1789959}}}, "icon": "https://maps.gstatic.com/mapfiles/place_api/icons/geocode-71.png", "id": "92986b2d1f69af2f2a7e29d34ced8adfa8573beb", "name": "Brookline", "photos": [{"height": 651, "html_attributions": ["<a href=\"https://maps.google.com/maps/contrib/114772942214832951419/photos\">Michael Ahn</a>"], "photo_reference": "CmRaAAAAn1dqd6-1s_4LdGJzytclgi0iTL2TFWNBrqdR8mGLuJBcIrZnLCLmVIJehl3lDPpnFNiO9UOhWdf57ZI-8AgTCOFWLoMjBjvnXeAiL5wgfMJENs-zeIyUxgDb0AnQTikEEhDBGDfw1QTg9yCyhJ-Eah-1GhTtpauOpkcley2JpyzF9fzsx1F7Hw", "width": 1608}], "place_id": "ChIJhZirQQB544kRB9LbXEfedZQ", "reference": "ChIJhZirQQB544kRB9LbXEfedZQ", "scope": "GOOGLE", "types": ["locality", "political"], "vicinity": "Brookline"}, "ChIJfRRJQr5444kRLtLBQZoxAN0": {"geometry": {"location": {"lat": 42.3125507, "lng": -71.1751325}, "viewport": {"northeast": {"lat": 42.31367109999999, "lng": -71.17289960000001}, "southwest": {"lat": 42.30918950000002, "lng": -71.1758768}}}, "icon": "https://maps.gstatic.com/mapfiles/place_api/icons/generic_recreational-71.png", "id": "842625ee7ba5f806006dd4cecf65211e3b23f528", "name": "Lost Pond Conservation Area", "photos": [{"height": 3024, "html_attributions": ["<a href=\"https://maps.google.com/maps/contrib/115187551874227080491/photos\">Donna Dow</a>"], "photo_reference": "CmRaAAAAh9d5jEx00DNflx2YCYBH20Lm7LoR7Paaj6GOBtpUfk9yhyRqBWCBzvvZdpZHZIX2jnwiUauvWFQsb71QGLHjiSnu1wn7j7fj_BLWuatW08Ev_JStzqOh_PyDeiC54rn5EhDr51yCZEKC-oEDdcJN6LkrGhSnJgCvLBmjOEumPXP2N-0VZgJLVw", "width": 4032}], "place_id": "ChIJfRRJQr5444kRLtLBQZoxAN0", "plus_code": {"compound_code": "8R7F+2W Brookline, Massachusetts, United States", "global_code": "87JC8R7F+2W"}, "rating": 4.2, "reference": "ChIJfRRJQr5444kRLtLBQZoxAN0", "scope": "GOOGLE", "types": ["park", "point_of_interest", "establishment"], "user_ratings_total": 5, "vicinity": "Chestnut Hill"}, "ChIJ2R5K471444kRJEkYTKC9H9c": {"geometry": {"location": {"lat": 42.3146119, "lng": -71.17530049999999}, "viewport": {"northeast": {"lat": 42.3167646, "lng": -71.170746}, "southwest": {"lat": 42.3122682, "lng": -71.1789368}}}, "icon": "https://maps.gstatic.com/mapfiles/place_api/icons/generic_recreational-71.png", "id": "5c39d203796328e2c6784da666cd9ac090ecbace", "name": "Lost Pond Reservation", "place_id": "ChIJ2R5K471444kRJEkYTKC9H9c", "reference": "ChIJ2R5K471444kRJEkYTKC9H9c", "scope": "GOOGLE", "types": ["park", "premise", "point_of_interest", "establishment"], "vicinity": "Brookline"}, "ChIJpSUHhAmC44kRfq9wm3sIklU": {"geometry": {"location": {"lat": 42.3370413, "lng": -71.20922139999999}, "viewport": {"northeast": {"lat": 42.3679719, "lng": -71.1569968}, "southwest": {"lat": 42.2827739, "lng": -71.270359}}}, "icon": "https://maps.gstatic.com/mapfiles/place_api/icons/geocode-71.png", "id": "d74f935d4736f725e4eba20abe314f6094a27c4a", "name": "Newton", "photos": [{"height": 1536, "html_attributions": ["<a href=\"https://maps.google.com/maps/contrib/103956073675495355808/photos\">Fumiaki Imamura</a>"], "photo_reference": "CmRZAAAAojRMl59mpAbYM-p2S-Dni-GS0OqZDreCNk03m4oh3g8GERoy8QOc0iz9-qSk4-dNMZtM8r0nKuIoHL-fqlKl7QysDewYjQ6uAAqiijiQUTvxPh-dt8JyCFtL0kP9i4HKEhAh5bJYoTHqQwe-OvZpSHJnGhRz-Dq6AIhgFXzUH9sjLvPgXN-Y8A", "width": 2048}], "place_id": "ChIJpSUHhAmC44kRfq9wm3sIklU", "reference": "ChIJpSUHhAmC44kRfq9wm3sIklU", "scope": "GOOGLE", "types": ["locality", "political"], "vicinity": "Newton"}}