{"ChIJGzE9DS1l44kRoOhiASS_fHg": {"geometry": {"location": {"lat": 42.3600825, "lng": -71.0588801}, "viewport": {"northeast": {"lat": 42.40081989999999, "lng": -70.749455}, "southwest": {"lat": 42.22788, "lng": -71.191113}}}, "icon": "https://maps.gstatic.com/mapfiles/place_api/icons/geocode-71.png", "id": "06755c25d2b34d13942a4713971756a55b870ced", "name": "Boston", "photos": [{"height": 3024, "html_attributions": ["<a href=\"https://maps.google.com/maps/contrib/104670289779338733432/photos\">Natalia Zalucean</a>"], "photo_reference": "CmRaAAAAz2jAwVgUDHP1dEoy4gS74z-AZ3iIPUO-b-qZZie7bd9OvgfTm1jPbECmRbyXsczWDAgkteRCpQBpdYoVhtFFo13VlAiwBOz_WWScVBgm8ugB_TFZ01fV42Wx3KktP5JUEhDCcd27-dI25Ix5RQBP7H00GhSQMq0gPgGBlhJ_Z7mCvsf74N5jyQ", "width": 4032}], "place_id": "ChIJGzE9DS1l44kRoOhiASS_fHg", "reference": "ChIJGzE9DS1l44kRoOhiASS_fHg", "scope": "GOOGLE", "types": ["locality", "political"], "vicinity": "Boston"}, "ChIJeTALOKRw44kRaWo1dWiZeEQ": {"geometry": {"location": {"lat": 42.36321, "lng": -71.124444}, "viewport": {"northeast": {"lat": 42.36454103029149, "lng": -71.12330291970848}, "southwest": {"lat": 42.36184306970849, "lng": -71.1260008802915}}}, "icon": "https://maps.gstatic.com/mapfiles/place_api/icons/generic_business-71.png", "id": "84ac13d9a80bf9e80df8ae312ceff3d751ced608", "name": "Arcbazar.com, Inc.", "opening_hours": {"open_now": true}, "photos": [{"height": 337, "html_attributions": ["<a href=\"https://maps.google.com/maps/contrib/114004514663388194726/photos\">Arcbazar.com, Inc.</a>"], "photo_reference": "CmRaAAAAEwH3r4OTNdIPSNDI_1mCjmsJFY7HGWnAWRwdZsDAUQ46KasivB6yJRV2rRA0IFOwV75X_Fx1zSO6jQgQAiEa4rHemAEebwkMuH0-mFtOS6voe-f-4KPsTvgDgoJ5_GcCEhDW78eVJvEtGSRUDbkrYaD3GhTCiCmz2Nh4xeOF3eC0R1pOZBV0Vg", "width": 600}], "place_id": "ChIJeTALOKRw44kRaWo1dWiZeEQ", "plus_code": {"compound_code": "9V7G+76 Boston, Massachusetts, United States", "global_code": "87JC9V7G+76"}, "rating": 5, "reference": "ChIJeTALOKRw44kRaWo1dWiZeEQ", "scope": "GOOGLE", "types": ["home_goods_store", "store", "general_contractor", "point_of_interest", "establishment"], "user_ratings_total": 1, "vicinity": "114 Western Avenue, Allston"}, "ChIJn5yHqjt644kR2EMKjtLd-8A": {"geometry": {"location": {"lat": 42.3632547, "lng": -71.1245201}, "viewport": {"northeast": {"lat": 42.3645886302915, "lng": -71.1233449697085}, "southwest": {"lat": 42.3618906697085, "lng": -71.1260429302915}}}, "icon": "https://maps.gstatic.com/mapfiles/place_api/icons/generic_business-71.png", "id": "3353be93d93f569ab33c8bb626be1f4965bb34d3", "name": "Commonwealth", "place_id": "ChIJn5yHqjt644kR2EMKjtLd-8A", "plus_code": {"compound_code": "9V7G+85 Boston, Massachusetts, United States", "global_code": "87JC9V7G+85"}, "reference": "ChIJn5yHqjt644kR2EMKjtLd-8A", "scope": "GOOGLE", "types": ["point_of_interest", "establishment"], "vicinity": "114 Western Avenue, Allston"}, "ChIJQQCsK2B344kRz9Hcb1vTavU": {"geometry": {"location": {"lat": 42.3632097, "lng": -71.1244444}, "viewport": {"northeast": {"lat": 42.36441208029149, "lng": -71.12300636970849}, "southwest": {"lat": 42.36171411970849, "lng": -71.12570433029151}}}, "icon": "https://maps.gstatic.com/mapfiles/place_api/icons/generic_business-71.png", "id": "7533a16a2c3bc87191623070c7d858a02618a377", "name": "Private Capital Research", "place_id": "ChIJQQCsK2B344kRz9Hcb1vTavU", "plus_code": {"compound_code": "9V7G+76 Boston, Massachusetts, United States", "global_code": "87JC9V7G+76"}, "reference": "ChIJQQCsK2B344kRz9Hcb1vTavU", "scope": "GOOGLE", "types": ["point_of_interest", "establishment"], "vicinity": "114 Western Avenue, Allston"}, "ChIJTyFb0mF344kRGJ2w3gNahn0": {"geometry": {"location": {"lat": 42.36379710000001, "lng": -71.1250345}, "viewport": {"northeast": {"lat": 42.36518848029149, "lng": -71.1236924197085}, "southwest": {"lat": 42.36249051970849, "lng": -71.12639038029151}}}, "icon": "https://maps.gstatic.com/mapfiles/place_api/icons/generic_business-71.png", "id": "1fd2f71d1ae06fce07f6f4d40883d5cafcdfa63d", "name": "Octagon Therapeutics Inc", "photos": [{"height": 765, "html_attributions": ["<a href=\"https://maps.google.com/maps/contrib/115931894399150389951/photos\">Isaac Stoner</a>"], "photo_reference": "CmRaAAAAu3iFnQuwJ5DqzO68mkHBfyLS0w75WHs7VVujVQJh95dpDe2CpvFL2-pASPHwTQ_zVxVIpT4OXDtYOn8u-zGjy_gyfpc5pjEi75a228uiYcIAbSEV7FHXqnoyczkrPcLgEhCCIoCFLfr8YTtlHcir6mlrGhQ5KiRtHoO7Bi1_LlGF6gJ3unI6Hw", "width": 1366}], "place_id": "ChIJTyFb0mF344kRGJ2w3gNahn0", "plus_code": {"compound_code": "9V7F+GX Boston, Massachusetts, United States", "global_code": "87JC9V7F+GX"}, "reference": "ChIJTyFb0mF344kRGJ2w3gNahn0", "scope": "GOOGLE", "types": ["point_of_interest", "establishment"], "vicinity": "127 Western Avenue, Boston"}, "ChIJQQCsK2B344kRiJ8b4h6uOTA": {"geometry": {"location": {"lat": 42.3632097, "lng": -71.1244444}, "viewport": {"northeast": {"lat": 42.3644122302915, "lng": -71.1230061197085}, "southwest": {"lat": 42.3617142697085, "lng": -71.12570408029151}}}, "icon": "https://maps.gstatic.com/mapfiles/place_api/icons/atm-71.png", "id": "5ffcae09e303313c9e1d28ec9b30c95e73d49ef4", "name": "ATM", "place_id": "ChIJQQCsK2B344kRiJ8b4h6uOTA", "plus_code": {"compound_code": "9V7G+76 Boston, Massachusetts, United States", "global_code": "87JC9V7G+76"}, "reference": "ChIJQQCsK2B344kRiJ8b4h6uOTA", "scope": "GOOGLE", "types": ["atm", "finance", "point_of_interest", "establishment"], "vicinity": "114 Western Avenue, Allston"}, "ChIJ-8fRe99544kRIYubdwbcpGM": {"geometry": {"location": {"lat": 42.363197, "lng": -71.124468}, "viewport": {"northeast": {"lat": 42.3645291302915, "lng": -71.1233140697085}, "southwest": {"lat": 42.3618311697085, "lng": -71.1260120302915}}}, "icon": "https://maps.gstatic.com/mapfiles/place_api/icons/generic_business-71.png", "id": "5b921d7fa6b67e9bdd9986cde05ea91882633b18", "name": "Librium", "photos": [{"height": 1661, "html_attributions": ["<a href=\"https://maps.google.com/maps/contrib/110475985679241458483/photos\">Librium</a>"], "photo_reference": "CmRaAAAAjCJ20m7hAwEKaJxQW-BgdGaDDmoIviQezCpg2QYARgbBTQWq_W9QW4eZVOQBPJLJ3lS5lO-mRMIOBijR95fi5g4YZDMV-nMPoYgSnldzW47WXL_wV4GP4ESNYcxW4DWPEhATUbIvshD1dlP4JWuOiEIQGhQCvlgmMsXC7aFzX1kGADDj6A6e9g", "width": 1663}], "place_id": "ChIJ-8fRe99544kRIYubdwbcpGM", "plus_code": {"compound_code": "9V7G+76 Boston, Massachusetts, United States", "global_code": "87JC9V7G+76"}, "reference": "ChIJ-8fRe99544kRIYubdwbcpGM", "scope": "GOOGLE", "types": ["point_of_interest", "establishment"], "vicinity": "114 Western Avenue, Allston"}, "ChIJw7_Ze99544kRvPjNDW5eD50": {"geometry": {"location": {"lat": 42.36321099999999, "lng": -71.1244467}, "viewport": {"northeast": {"lat": 42.36454213029149, "lng": -71.12330436970849}, "southwest": {"lat": 42.3618441697085, "lng": -71.1260023302915}}}, "icon": "https://maps.gstatic.com/mapfiles/place_api/icons/generic_business-71.png", "id": "007bbea921eafc47f89af0931c80a9baf16cf78e", "name": "TarDisk", "opening_hours": {"open_now": true}, "photos": [{"height": 472, "html_attributions": ["<a href=\"https://maps.google.com/maps/contrib/104339783075208353308/photos\">TarDisk</a>"], "photo_reference": "CmRaAAAA53sT2mdDVEor_vLsk6aj8UF8bGmktD80B1Q0LEZLauWBPPv80GG8ifh4iZm_hJ3moszfb2U-WSuWMhxy1U5hZS2gKtDwvXNGk5FCmz9CSPyOUo9Dlqr-Zo0gsESGrhXqEhCtTf-l2Ea9AphARSWQvhBrGhTKzxFV40wHcwd6__VB0rIStOf_Sw", "width": 640}], "place_id": "ChIJw7_Ze99544kRvPjNDW5eD50", "plus_code": {"compound_code": "9V7G+76 Boston, Massachusetts, United States", "global_code": "87JC9V7G+76"}, "rating": 4.5, "reference": "ChIJw7_Ze99544kRvPjNDW5eD50", "scope": "GOOGLE", "types": ["point_of_interest", "establishment"], "user_ratings_total": 59, "vicinity": "114 Western Avenue, Boston"}, "ChIJQQCsK2B344kRuRT5VRmlwKI": {"geometry": {"location": {"lat": 42.3632097, "lng": -71.1244444}, "viewport": {"northeast": {"lat": 42.3644119302915, "lng": -71.12300666970849}, "southwest": {"lat": 42.3617139697085, "lng": -71.12570463029151}}}, "icon": "https://maps.gstatic.com/mapfiles/place_api/icons/generic_business-71.png", "id": "16251939506e20e4be8807ca0782e13932da93a2", "name": "Medescreen Occupational Health", "opening_hours": {"open_now": true}, "place_id": "ChIJQQCsK2B344kRuRT5VRmlwKI", "plus_code": {"compound_code": "9V7G+76 Boston, Massachusetts, United States", "global_code": "87JC9V7G+76"}, "reference": "ChIJQQCsK2B344kRuRT5VRmlwKI", "scope": "GOOGLE", "types": ["health", "point_of_interest", "establishment"], "vicinity": "114 Western Avenue, Allston"}, "ChIJjbbced9544kRSCW0ZVfj0vI": {"geometry": {"location": {"lat": 42.36303300000001, "lng": -71.124316}, "viewport": {"northeast": {"lat": 42.3646868802915, "lng": -71.12292656970848}, "southwest": {"lat": 42.3619889197085, "lng": -71.12562453029149}}}, "icon": "https://maps.gstatic.com/mapfiles/place_api/icons/generic_business-71.png", "id": "90d774ee5848d946962b9bbc92e68eb5d7b6613a", "name": "MacAuthority", "opening_hours": {"open_now": true}, "photos": [{"height": 1224, "html_attributions": ["<a href=\"https://maps.google.com/maps/contrib/114004876995771938907/photos\">Alison Baldyga</a>"], "photo_reference": "CmRaAAAA1V8sB91fvMnAYDHlQgqI10BqjETnDKZr4prU4SRGThWcy7h7FNapgzlh2-W8HauQDGI0Jhn1u_KuJvrsK2FuqBV4pdVDvNhG9vTGZCj8KYwn3BmLBNPwWsnJvP_KxO_aEhDajAWl-NG-P3b61bwHL2QVGhR18IYmZI3pC3tJoReepk0BPrF38g", "width": 1632}], "place_id": "ChIJjbbced9544kRSCW0ZVfj0vI", "plus_code": {"compound_code": "9V7G+67 Boston, Massachusetts, United States", "global_code": "87JC9V7G+67"}, "reference": "ChIJjbbced9544kRSCW0ZVfj0vI", "scope": "GOOGLE", "types": ["point_of_interest", "establishment"], "vicinity": "114 Western Avenue, Allston"}, "ChIJY0K6Y99544kR_G5-JNR-hBM": {"geometry": {"location": {"lat": 42.363526, "lng": -71.12504299999999}, "viewport": {"northeast": {"lat": 42.3648748802915, "lng": -71.12369576970849}, "southwest": {"lat": 42.3621769197085, "lng": -71.1263937302915}}}, "icon": "https://maps.gstatic.com/mapfiles/place_api/icons/bus-71.png", "id": "f984f71364d2127bbdc56cbde09e7aaeac8dc7c1", "name": "130 Western Ave", "place_id": "ChIJY0K6Y99544kR_G5-JNR-hBM", "plus_code": {"compound_code": "9V7F+CX Boston, Massachusetts, United States", "global_code": "87JC9V7F+CX"}, "reference": "ChIJY0K6Y99544kR_G5-JNR-hBM", "scope": "GOOGLE", "types": ["bus_station", "transit_station", "point_of_interest", "establishment"], "vicinity": "United States"}, "ChIJVTvT1GF344kRuqHAGUUZwuA": {"geometry": {"location": {"lat": 42.36384229999999, "lng": -71.1250579}, "viewport": {"northeast": {"lat": 42.36519823029149, "lng": -71.12371001970848}, "southwest": {"lat": 42.36250026970849, "lng": -71.1264079802915}}}, "icon": "https://maps.gstatic.com/mapfiles/place_api/icons/generic_business-71.png", "id": "e2739d42ae81820a166063bdb7cea4f798f8cfac", "name": "Pagliuca Harvard Life Lab", "photos": [{"height": 2995, "html_attributions": ["<a href=\"https://maps.google.com/maps/contrib/110678399745642847907/photos\">Pagliuca Harvard Life Lab</a>"], "photo_reference": "CmRaAAAAPidMXBXfbzeTbpBiscMhugFLVqDQciXMvgihlY_uZVwWcxJh0EuKI0SPqxpeq7hlRahN2-kKgv0Ga8Q643GMGJ3BgyzGnVihwDgRA9eSm5HtaJpKN4i5MmsX4VxsRvgZEhD70Afw9oxKskFrnYCN3JgxGhSVwnNHp-ehI9zWrMgJfMYHdsLPaA", "width": 5100}], "place_id": "ChIJVTvT1GF344kRuqHAGUUZwuA", "plus_code": {"compound_code": "9V7F+GX Boston, Massachusetts, United States", "global_code": "87JC9V7F+GX"}, "rating": 5, "reference": "ChIJVTvT1GF344kRuqHAGUUZwuA", "scope": "GOOGLE", "types": ["point_of_interest", "establishment"], "user_ratings_total": 1, "vicinity": "127 Western Avenue, Allston"}, "ChIJx7L3e99544kRRkarq77WIFg": {"geometry": {"location": {"lat": 42.3633164, "lng": -71.1244851}, "viewport": {"northeast": {"lat": 42.36464843029149, "lng": -71.1233320197085}, "southwest": {"lat": 42.3619504697085, "lng": -71.1260299802915}}}, "icon": "https://maps.gstatic.com/mapfiles/place_api/icons/school-71.png", "id": "12750d4d5769277b03484f46cd6f89120a32d2dc", "name": "Harvard Launch Lab", "photos": [{"height": 1067, "html_attributions": ["<a href=\"https://maps.google.com/maps/contrib/117541641584794417680/photos\">Harvard Launch Lab</a>"], "photo_reference": "CmRaAAAA32KGBeBNQ8EkH2o9SHu4ovHS3G482_97B2JpfR-DcgSKumTKmtLkPE1iF6UqxDHf6fHf8LBCcwVDTQXC5WiJ5xszViyzuRHvgPWEPwVYceVMqzdVgJuVRb8n4nEj75OSEhAPdkdH5PK5gieJ2XOUcKZ-GhSVtYH0hYgTfECYByCIgwErJrgjLg", "width": 1600}], "place_id": "ChIJx7L3e99544kRRkarq77WIFg", "plus_code": {"compound_code": "9V7G+86 Boston, Massachusetts, United States", "global_code": "87JC9V7G+86"}, "reference": "ChIJx7L3e99544kRRkarq77WIFg", "scope": "GOOGLE", "types": ["school", "point_of_interest", "establishment"], "vicinity": "114 Western Avenue, Allston"}, "ChIJO67Ue99544kRZLqavS260fI": {"geometry": {"location": {"lat": 42.36316970000001, "lng": -71.1244478}, "viewport": {"northeast": {"lat": 42.3645011302915, "lng": -71.12330166970848}, "southwest": {"lat": 42.3618031697085, "lng": -71.1259996302915}}}, "icon": "https://maps.gstatic.com/mapfiles/place_api/icons/generic_business-71.png", "id": "24eafc4b7a85d31074296965fb56b5e85d1367d7", "name": "Nix Inc.", "photos": [{"height": 551, "html_attributions": ["<a href=\"https://maps.google.com/maps/contrib/106069863370486355612/photos\">Nix Inc.</a>"], "photo_reference": "CmRaAAAAJMmROi8dto_fSvht27y4MWtpXzAN0HFxOFzj669SbRfOE1AJm4aoHvFErrRpigx7ndudRHRne568RnWXwf-ARWzCW7IIQfyuHqfQkQxaSfwXEr4CAU1EY4FCmDtq8MojEhDqtVkKnFvlu_bAetCYPdQvGhQCDn11J5_m1gMttqTgVbcV3ROaBQ", "width": 550}], "place_id": "ChIJO67Ue99544kRZLqavS260fI", "plus_code": {"compound_code": "9V7G+76 Boston, Massachusetts, United States", "global_code": "87JC9V7G+76"}, "reference": "ChIJO67Ue99544kRZLqavS260fI", "scope": "GOOGLE", "types": ["point_of_interest", "establishment"], "vicinity": "Harvard Innovation Launch Lab, 114 Western Avenue, Boston"}, "ChIJTyFb0mF344kRV1fAqY3X6DM": {"geometry": {"location": {"lat": 42.3640785, "lng": -71.12428349999999}, "viewport": {"northeast": {"lat": 42.3654131802915, "lng": -71.12306736970848}, "southwest": {"lat": 42.36271521970851, "lng": -71.1257653302915}}}, "icon": "https://maps.gstatic.com/mapfiles/place_api/icons/generic_business-71.png", "id": "c7150b03be458b01c15b7178d3a2ef2efd3caf5b", "name": "Aldatu Biosciences", "place_id": "ChIJTyFb0mF344kRV1fAqY3X6DM", "plus_code": {"compound_code": "9V7G+J7 Boston, Massachusetts, United States", "global_code": "87JC9V7G+J7"}, "reference": "ChIJTyFb0mF344kRV1fAqY3X6DM", "scope": "GOOGLE", "types": ["health", "point_of_interest", "establishment"], "vicinity": "Pagliuca Harvard Life Lab, Harvard Business School, 127 Western Avenue, Boston"}, "ChIJf5cD8Hd344kRDaD2n6Q-ZgU": {"geometry": {"location": {"lat": 42.3638151, "lng": -71.12414849999999}, "viewport": {"northeast": {"lat": 42.3651035802915, "lng": -71.12279001970849}, "southwest": {"lat": 42.3624056197085, "lng": -71.1254879802915}}}, "icon": "https://maps.gstatic.com/mapfiles/place_api/icons/generic_business-71.png", "id": "6ab107aa32e4dd02b13b659b9630927985a8d8bc", "name": "Evisort", "place_id": "ChIJf5cD8Hd344kRDaD2n6Q-ZgU", "plus_code": {"compound_code": "9V7G+G8 Boston, Massachusetts, United States", "global_code": "87JC9V7G+G8"}, "reference": "ChIJf5cD8Hd344kRDaD2n6Q-ZgU", "scope": "GOOGLE", "types": ["point_of_interest", "establishment"], "vicinity": "125 Western Avenue, Boston"}, "ChIJIcPgus9544kRjk7LevvW_Os": {"geometry": {"location": {"lat": 42.3539038, "lng": -71.1337112}, "viewport": {"northeast": {"lat": 42.37437389999999, "lng": -71.110533}, "southwest": {"lat": 42.3460228, "lng": -71.143925}}}, "icon": "https://maps.gstatic.com/mapfiles/place_api/icons/geocode-71.png", "id": "e7453d23034c3414f98e19df650f49a83b645952", "name": "Allston", "photos": [{"height": 1536, "html_attributions": ["<a href=\"https://maps.google.com/maps/contrib/104422420120565835220/photos\">Welmyr De Baguio</a>"], "photo_reference": "CmRaAAAAP4ojY9c-sbFjfVwRFt9YyyeIbynkR_Xur1-5-6wLZf6B4Fb6r9nd8rtf55yO97fKACJQjzZ_fAVt9PXmXgyzl9BrUkuPXejgqFN_CdYUNNm9s1Lfugado77PNbgtL4gNEhBOKfqtBuwKMdaz1oBs_H5bGhREXKhlnPaLuo9XGt634s7K-KlXqw", "width": 1536}], "place_id": "ChIJIcPgus9544kRjk7LevvW_Os", "reference": "ChIJIcPgus9544kRjk7LevvW_Os", "scope": "GOOGLE", "types": ["neighborhood", "political"], "vicinity": "Boston"}}