{"ChIJGzE9DS1l44kRoOhiASS_fHg": {"geometry": {"location": {"lat": 42.3600825, "lng": -71.0588801}, "viewport": {"northeast": {"lat": 42.40081989999999, "lng": -70.749455}, "southwest": {"lat": 42.22788, "lng": -71.191113}}}, "icon": "https://maps.gstatic.com/mapfiles/place_api/icons/geocode-71.png", "id": "06755c25d2b34d13942a4713971756a55b870ced", "name": "Boston", "photos": [{"height": 3024, "html_attributions": ["<a href=\"https://maps.google.com/maps/contrib/104670289779338733432/photos\">Natalia Zalucean</a>"], "photo_reference": "CmRaAAAAzrwlajuU8zChW-VR_BCpcX7UJ62NL_ZP8sxH1AO4-7TGGLJcRmY7_hOvwqbqb1AqIVI_AyORuf3fFEbIYQujOoZgwdyboh0ttxkT-8o_UkbiOqMZNJ10RGeHAbKAV_nBEhB5p5b3UY0xMRc5yNFuJXX5GhRXaNS7xtNuZOhDFsHIIj6WaG9eiA", "width": 4032}], "place_id": "ChIJGzE9DS1l44kRoOhiASS_fHg", "reference": "ChIJGzE9DS1l44kRoOhiASS_fHg", "scope": "GOOGLE", "types": ["locality", "political"], "vicinity": "Boston"}, "ChIJsw4R639w44kRO71BnzY1tMM": {"geometry": {"location": {"lat": 42.298879, "lng": -71.054283}, "viewport": {"northeast": {"lat": 42.3001189302915, "lng": -71.05312246970848}, "southwest": {"lat": 42.2974209697085, "lng": -71.0558204302915}}}, "icon": "https://maps.gstatic.com/mapfiles/place_api/icons/civic_building-71.png", "id": "dd32abc6d54a104668fbc794398d46e1f614f81a", "name": "Department Children and Families", "opening_hours": {"open_now": false}, "place_id": "ChIJsw4R639w44kRO71BnzY1tMM", "plus_code": {"compound_code": "7WXW+H7 Boston, Massachusetts, United States", "global_code": "87JC7WXW+H7"}, "rating": 2.9, "reference": "ChIJsw4R639w44kRO71BnzY1tMM", "scope": "GOOGLE", "types": ["local_government_office", "point_of_interest", "establishment"], "user_ratings_total": 8, "vicinity": "50B Park Street, Dorchester"}, "ChIJ8S8wSKF744kRd2aLvZcZTOY": {"geometry": {"location": {"lat": 42.298384, "lng": -71.0536327}, "viewport": {"northeast": {"lat": 42.2995944302915, "lng": -71.05249301970849}, "southwest": {"lat": 42.2968964697085, "lng": -71.0551909802915}}}, "icon": "https://maps.gstatic.com/mapfiles/place_api/icons/generic_business-71.png", "id": "882bef4436770a9020d243dff96e9f591ce42d70", "name": "International Union-Elevator", "place_id": "ChIJ8S8wSKF744kRd2aLvZcZTOY", "plus_code": {"compound_code": "7WXW+9G Boston, Massachusetts, United States", "global_code": "87JC7WXW+9G"}, "rating": 5, "reference": "ChIJ8S8wSKF744kRd2aLvZcZTOY", "scope": "GOOGLE", "types": ["point_of_interest", "establishment"], "user_ratings_total": 3, "vicinity": "50 Park Street, Dorchester"}, "ChIJczoGxaZ744kRQBQ9xu19Qlo": {"geometry": {"location": {"lat": 42.299958, "lng": -71.053662}, "viewport": {"northeast": {"lat": 42.3013464802915, "lng": -71.0523848697085}, "southwest": {"lat": 42.2986485197085, "lng": -71.05508283029151}}}, "icon": "https://maps.gstatic.com/mapfiles/place_api/icons/generic_business-71.png", "id": "aa6a71f4fe2e69d8a0b5efe629c6b2082b96e584", "name": "Dorchester Dog Walking & Boarding", "opening_hours": {"open_now": true}, "photos": [{"height": 1536, "html_attributions": ["<a href=\"https://maps.google.com/maps/contrib/103890770902946482906/photos\">Dorchester Dog Walking &amp; Boarding</a>"], "photo_reference": "CmRaAAAAXm4_xzwig2uswXPccsQzgcO6i7ilYnmIRvIfVwj2X2OX43Bp4abre8ooioVIe_EOJYNQWRFThlQYeXzuwA_kyXj7JZ0yaBUo4zgGe4bZ-99jTK9s4_yw8FRIH6uJ49IgEhDCIejzWVD6z9wXLLl5ArYwGhSKxVWPi1datkDo2eON_E-1A6x-dg", "width": 2048}], "place_id": "ChIJczoGxaZ744kRQBQ9xu19Qlo", "plus_code": {"compound_code": "7WXW+XG Boston, Massachusetts, United States", "global_code": "87JC7WXW+XG"}, "rating": 5, "reference": "ChIJczoGxaZ744kRQBQ9xu19Qlo", "scope": "GOOGLE", "types": ["point_of_interest", "establishment"], "user_ratings_total": 10, "vicinity": "7 Elm Street, Dorchester"}, "ChIJM-d-zqB744kRRmfiiRDCkmw": {"geometry": {"location": {"lat": 42.2986686, "lng": -71.0518446}, "viewport": {"northeast": {"lat": 42.2999946802915, "lng": -71.0504909197085}, "southwest": {"lat": 42.2972967197085, "lng": -71.0531888802915}}}, "icon": "https://maps.gstatic.com/mapfiles/place_api/icons/generic_business-71.png", "id": "9bc1994a261b65ae1eb23b9a6caca1ac1b50ad65", "name": "John Sacco, LICSW", "place_id": "ChIJM-d-zqB744kRRmfiiRDCkmw", "plus_code": {"compound_code": "7WXX+F7 Boston, Massachusetts, United States", "global_code": "87JC7WXX+F7"}, "reference": "ChIJM-d-zqB744kRRmfiiRDCkmw", "scope": "GOOGLE", "types": ["doctor", "health", "point_of_interest", "establishment"], "vicinity": "2 Green Hill Street, Dorchester"}, "ChIJEXdX26Z744kRQmfNhtdaNUc": {"geometry": {"location": {"lat": 42.30009400000001, "lng": -71.053448}, "viewport": {"northeast": {"lat": 42.3014981302915, "lng": -71.05204066970849}, "southwest": {"lat": 42.2988001697085, "lng": -71.05473863029151}}}, "icon": "https://maps.gstatic.com/mapfiles/place_api/icons/generic_business-71.png", "id": "989b3bdd82993eea9b98a9086a5c876bf0f0df92", "name": "H & H Answering Services", "place_id": "ChIJEXdX26Z744kRQmfNhtdaNUc", "plus_code": {"compound_code": "8W2W+2J Boston, Massachusetts, United States", "global_code": "87JC8W2W+2J"}, "reference": "ChIJEXdX26Z744kRQmfNhtdaNUc", "scope": "GOOGLE", "types": ["point_of_interest", "establishment"], "vicinity": "11 Ashland Street, Dorchester"}, "ChIJ8S8wSKF744kREjlt-tY6CCU": {"geometry": {"location": {"lat": 42.2988423, "lng": -71.0543268}, "viewport": {"northeast": {"lat": 42.3000970802915, "lng": -71.0531406697085}, "southwest": {"lat": 42.2973991197085, "lng": -71.0558386302915}}}, "icon": "https://maps.gstatic.com/mapfiles/place_api/icons/civic_building-71.png", "id": "2e6296fed5fd5b06272977554b87933108535956", "name": "Commercial Point CSO", "place_id": "ChIJ8S8wSKF744kREjlt-tY6CCU", "plus_code": {"compound_code": "7WXW+G7 Boston, Massachusetts, United States", "global_code": "87JC7WXW+G7"}, "reference": "ChIJ8S8wSKF744kREjlt-tY6CCU", "scope": "GOOGLE", "types": ["point_of_interest", "establishment"], "vicinity": "50B Park Street, Dorchester"}, "ChIJ-xQ656Z744kROs1krSBXWaQ": {"geometry": {"location": {"lat": 42.300451, "lng": -71.05317099999999}, "viewport": {"northeast": {"lat": 42.3018395302915, "lng": -71.05189536970849}, "southwest": {"lat": 42.2991415697085, "lng": -71.0545933302915}}}, "icon": "https://maps.gstatic.com/mapfiles/place_api/icons/generic_business-71.png", "id": "6832def2576ecd14602108170e33562cccd70f79", "name": "KJS Mechanical", "place_id": "ChIJ-xQ656Z744kROs1krSBXWaQ", "plus_code": {"compound_code": "8W2W+5P Boston, Massachusetts, United States", "global_code": "87JC8W2W+5P"}, "reference": "ChIJ-xQ656Z744kROs1krSBXWaQ", "scope": "GOOGLE", "types": ["general_contractor", "point_of_interest", "establishment"], "vicinity": "19 Elm Street, Dorchester"}, "ChIJy6B8A6d744kRpjObbWEZGCw": {"geometry": {"location": {"lat": 42.3009296, "lng": -71.0521911}, "viewport": {"northeast": {"lat": 42.3022805802915, "lng": -71.05105051970848}, "southwest": {"lat": 42.2995826197085, "lng": -71.0537484802915}}}, "icon": "https://maps.gstatic.com/mapfiles/place_api/icons/generic_recreational-71.png", "id": "4142d3c1b574772299e2137bdc562e74da7f92bf", "name": "Byrne Playground", "place_id": "ChIJy6B8A6d744kRpjObbWEZGCw", "reference": "ChIJy6B8A6d744kRpjObbWEZGCw", "scope": "GOOGLE", "types": ["park", "premise", "point_of_interest", "establishment"], "vicinity": "Boston"}, "ChIJs4veGkl644kROEK8ix2v_oY": {"geometry": {"location": {"lat": 42.30163049999999, "lng": -71.067605}, "viewport": {"northeast": {"lat": 42.3358969, "lng": -71.0325551}, "southwest": {"lat": 42.267598, "lng": -71.0800369}}}, "icon": "https://maps.gstatic.com/mapfiles/place_api/icons/geocode-71.png", "id": "9e12301fdeebf54c1266b9986602466425a9c326", "name": "Dorchester", "photos": [{"height": 1944, "html_attributions": ["<a href=\"https://maps.google.com/maps/contrib/118366960396286562471/photos\">Michael Laferriere</a>"], "photo_reference": "CmRaAAAAozXgWcdms6tR4In5c9QQIQR8qsYiHoiP7zk0yK8flVW1DCYU2O1atMQdPKgayBP4pWABgko95diQpkBzl_J6nfAoDjx0AiNlQiFRYDO_gKro-vKi68MMKE6f0VbR4_5yEhBJU8lYdLNwg7NrvkH93e99GhQyXLeqmrhUL8b-yxE4MET_51hOBw", "width": 2592}], "place_id": "ChIJs4veGkl644kROEK8ix2v_oY", "reference": "ChIJs4veGkl644kROEK8ix2v_oY", "scope": "GOOGLE", "types": ["neighborhood", "political"], "vicinity": "Dorchester Center"}}