{"ChIJGzE9DS1l44kRoOhiASS_fHg": {"geometry": {"location": {"lat": 42.3600825, "lng": -71.0588801}, "viewport": {"northeast": {"lat": 42.40081989999999, "lng": -70.749455}, "southwest": {"lat": 42.22788, "lng": -71.191113}}}, "icon": "https://maps.gstatic.com/mapfiles/place_api/icons/geocode-71.png", "id": "06755c25d2b34d13942a4713971756a55b870ced", "name": "Boston", "photos": [{"height": 3024, "html_attributions": ["<a href=\"https://maps.google.com/maps/contrib/104670289779338733432/photos\">Natalia Zalucean</a>"], "photo_reference": "CmRaAAAAJdlY3Km3wZefHPEm5VQ6kVKleJylfXi6QATQoSz5wHuQS6sQIomTUh_om2mdFzWNQoAg1t_IO-bzBAnWpGKlN9hVVnUyPLF3xH-8aKO5AtEjGOxBuyDKcStoC1d21vb_EhD2w-s1UDITUuXD2DTx7IxpGhRm7pLodoQAct4dilOfra_hgMIEYQ", "width": 4032}], "place_id": "ChIJGzE9DS1l44kRoOhiASS_fHg", "reference": "ChIJGzE9DS1l44kRoOhiASS_fHg", "scope": "GOOGLE", "types": ["locality", "political"], "vicinity": "Boston"}, "ChIJLxyMQZZw44kRqoQanRTSK08": {"geometry": {"location": {"lat": 42.3670121, "lng": -71.06992629999999}, "viewport": {"northeast": {"lat": 42.3683610802915, "lng": -71.06857731970848}, "southwest": {"lat": 42.3656631197085, "lng": -71.07127528029149}}}, "icon": "https://maps.gstatic.com/mapfiles/place_api/icons/movies-71.png", "id": "f9dbf0cbaa83aac2fb4acd0d7dbbf923459550a2", "name": "Mugar Omni Theater", "photos": [{"height": 2322, "html_attributions": ["<a href=\"https://maps.google.com/maps/contrib/103883897278594082398/photos\">Hai Cao</a>"], "photo_reference": "CmRaAAAANlz8NdiezJmQTstAX4N9EbT696fng0YQLkhrz-BcHBzEldr1ZVmSgHn3aAJS5PHFA1GvhWjKDYtPNds3WtHlS0LGN8ZzhBPP9wBo5mt82MZCr5Ilm96oDDl_y2skv9VLEhB8BjCgSiDP__ahbgq32HNXGhRoFDwEf429LF993DkhFMktwoKnWQ", "width": 3138}], "place_id": "ChIJLxyMQZZw44kRqoQanRTSK08", "plus_code": {"compound_code": "9W8J+R2 Boston, Massachusetts, United States", "global_code": "87JC9W8J+R2"}, "rating": 4.7, "reference": "ChIJLxyMQZZw44kRqoQanRTSK08", "scope": "GOOGLE", "types": ["movie_theater", "point_of_interest", "establishment"], "user_ratings_total": 168, "vicinity": "1 Museum Of Science Driveway, Boston"}, "ChIJrRkY8ZZw44kRqrLXuSqElFM": {"geometry": {"location": {"lat": 42.3669906, "lng": -71.0700877}, "viewport": {"northeast": {"lat": 42.36849443029151, "lng": -71.06861161970849}, "southwest": {"lat": 42.36579646970851, "lng": -71.07130958029151}}}, "icon": "https://maps.gstatic.com/mapfiles/place_api/icons/atm-71.png", "id": "b908b964b3a5e53038a83653e115d68a41512202", "name": "Santander Bank ATM", "opening_hours": {"open_now": true}, "photos": [{"height": 2326, "html_attributions": ["<a href=\"https://maps.google.com/maps/contrib/112427519124001291365/photos\">Santander Bank ATM</a>"], "photo_reference": "CmRaAAAAMvpOgY25Bp3s2hcgLTfMUbiY2G1GfI4qUaew_1bN9p_IzpFuxd7NGVpzGf95UkYrL8YYVjWKv0yVsvkk6F3IzQW15LlrTWXZk3vLqS-_VXFx8XxSNJBpka51jUsZdfjHEhDhr29NKKfWM7Abui3uztiGGhTYcxRwLNv--v2c6AKqZwK0ExdTRQ", "width": 2326}], "place_id": "ChIJrRkY8ZZw44kRqrLXuSqElFM", "plus_code": {"compound_code": "9W8H+QX Boston, Massachusetts, United States", "global_code": "87JC9W8H+QX"}, "rating": 5, "reference": "ChIJrRkY8ZZw44kRqrLXuSqElFM", "scope": "GOOGLE", "types": ["atm", "insurance_agency", "finance", "point_of_interest", "establishment"], "user_ratings_total": 1, "vicinity": "1 Science Park, Boston"}, "ChIJy2OU45hw44kR4SrrG2iFeR8": {"geometry": {"location": {"lat": 42.3655804, "lng": -71.0697689}, "viewport": {"northeast": {"lat": 42.3672106802915, "lng": -71.0682625197085}, "southwest": {"lat": 42.3645127197085, "lng": -71.0709604802915}}}, "icon": "https://maps.gstatic.com/mapfiles/place_api/icons/generic_business-71.png", "id": "f087e406e8b90f2aea35eed77ff58aa4445a307a", "name": "Charles Bank Playground", "photos": [{"height": 3024, "html_attributions": ["<a href=\"https://maps.google.com/maps/contrib/106433500270279036036/photos\">Shane Sandlin</a>"], "photo_reference": "CmRaAAAATbYIkUgx1CXGjrBuO0nvBMz6Ejcl2Rx6oyv_v3avooax0PB3TMRqXSbffsfmD2nbDqzcWiOBG-Ecwy_5gvd7wbFTJDAfGimGi8QtfR0BbtMUCq4TzGerovff1mPMFxRIEhDpyK23jx8csYE1ndzX5yj8GhS7_YSPmLz2ro3GnuPPLK3dDU7wzw", "width": 4032}], "place_id": "ChIJy2OU45hw44kR4SrrG2iFeR8", "plus_code": {"compound_code": "9W8J+63 Boston, Massachusetts, United States", "global_code": "87JC9W8J+63"}, "rating": 4.8, "reference": "ChIJy2OU45hw44kR4SrrG2iFeR8", "scope": "GOOGLE", "types": ["point_of_interest", "establishment"], "user_ratings_total": 17, "vicinity": "251 Causeway Street, Boston"}, "ChIJYW25v5Zw44kRvI60YsPCSpE": {"geometry": {"location": {"lat": 42.3671224, "lng": -71.0691401}, "viewport": {"northeast": {"lat": 42.3684450302915, "lng": -71.06781416970848}, "southwest": {"lat": 42.3657470697085, "lng": -71.07051213029149}}}, "icon": "https://maps.gstatic.com/mapfiles/place_api/icons/generic_business-71.png", "id": "6a38932ba8a326ed45cc6ab7bef0f668dc84909a", "name": "Craigie Drawbridge", "photos": [{"height": 2672, "html_attributions": ["<a href=\"https://maps.google.com/maps/contrib/106236095672169017927/photos\">Nuno Gon\u00e7alves</a>"], "photo_reference": "CmRaAAAAXKMrbkkofOZ0Hi0WXRCg_P1cY8qsJCOpKZug81tFnPMerpZrNMOmlU1EQZyZkFh1rXR07444-o1njOdUuHyqYnb-kdawEaU5nbsbdjZn_rESVUlX6DciRi31VsYIzPBMEhAV6iEBWX2YwQItYJh9lyb2GhT4ISNF939p8df37Cg_R94fdROIyA", "width": 4000}], "place_id": "ChIJYW25v5Zw44kRvI60YsPCSpE", "plus_code": {"compound_code": "9W8J+R8 Boston, Massachusetts, United States", "global_code": "87JC9W8J+R8"}, "rating": 4.1, "reference": "ChIJYW25v5Zw44kRvI60YsPCSpE", "scope": "GOOGLE", "types": ["point_of_interest", "establishment"], "user_ratings_total": 7, "vicinity": "Massachusetts 28, Boston"}, "ChIJa2Q_-IRw44kRj9W9uTYhRvE": {"geometry": {"location": {"lat": 42.3652271, "lng": -71.0699317}, "viewport": {"northeast": {"lat": 42.3664919302915, "lng": -71.0682795197085}, "southwest": {"lat": 42.3637939697085, "lng": -71.0709774802915}}}, "icon": "https://maps.gstatic.com/mapfiles/place_api/icons/generic_business-71.png", "id": "b8c153538a5aef5e8e5eda1e28b5ba9f8d5cc447", "name": "Alfond Memorial Spray Deck", "photos": [{"height": 2988, "html_attributions": ["<a href=\"https://maps.google.com/maps/contrib/106014867775338010871/photos\">Saifadam Pathan</a>"], "photo_reference": "CmRaAAAA7iHXaxfPg9fAOe9LKrmWtRAaIMPFffLTwLjam8gKMNNpnuTRwJoOov4Ex3lZTjA0NJGB_mzssyPg6Rylxub7KuARFhlibV6_1FFHUo_2AmfsEbONJrvh9xbjIWGvvJd5EhDFDdITqsW1BwhCP9FySJFdGhRH-8yfEJa9FqYGbnZoseACVdPMKw", "width": 5312}], "place_id": "ChIJa2Q_-IRw44kRj9W9uTYhRvE", "plus_code": {"compound_code": "9W8J+32 Boston, Massachusetts, United States", "global_code": "87JC9W8J+32"}, "rating": 3.1, "reference": "ChIJa2Q_-IRw44kRj9W9uTYhRvE", "scope": "GOOGLE", "types": ["point_of_interest", "establishment"], "user_ratings_total": 8, "vicinity": "280 Charles Street, Boston"}, "ChIJf6ydTKNx44kRUT-TpjwVU-s": {"geometry": {"location": {"lat": 42.36680019999999, "lng": -71.07015439999999}, "viewport": {"northeast": {"lat": 42.3683845302915, "lng": -71.06861221970848}, "southwest": {"lat": 42.3656865697085, "lng": -71.07131018029149}}}, "icon": "https://maps.gstatic.com/mapfiles/place_api/icons/museum-71.png", "id": "c1be892b619c264abadd5dd431024c5c7e8b9548", "name": "Charles Hayden Planetarium", "place_id": "ChIJf6ydTKNx44kRUT-TpjwVU-s", "plus_code": {"compound_code": "9W8H+PW Boston, Massachusetts, United States", "global_code": "87JC9W8H+PW"}, "rating": 5, "reference": "ChIJf6ydTKNx44kRUT-TpjwVU-s", "scope": "GOOGLE", "types": ["museum", "point_of_interest", "establishment"], "user_ratings_total": 1, "vicinity": "Museum Of Science Driveway, Boston"}, "ChIJlwhz9ZZw44kRahrZJjOP4n8": {"geometry": {"location": {"lat": 42.367357, "lng": -71.070494}, "viewport": {"northeast": {"lat": 42.3689290302915, "lng": -71.06935446970849}, "southwest": {"lat": 42.3662310697085, "lng": -71.07205243029149}}}, "icon": "https://maps.gstatic.com/mapfiles/place_api/icons/generic_business-71.png", "id": "c5f76b80451ca7bee38a7a08d2dcb6a096cbb29a", "name": "Wolfgang Puck Catering", "opening_hours": {"open_now": true}, "photos": [{"height": 1200, "html_attributions": ["<a href=\"https://maps.google.com/maps/contrib/106014969956747314968/photos\">Wolfgang Puck Catering</a>"], "photo_reference": "CmRaAAAAhFMqQoTGb26-PnOjYBqMA-7Dij2cgZFoAzWrpB8M84wVICCNzf3uj6NRrTqZqbOAcIENl8HgMSxg92yfY47mwK2diGKuarEOiuTTzgbMOr79Nu5Q5VIGyqNQxkpFrOw7EhCXJ6xiEL46uRPe0RkvrVL0GhRref3E7YUXJFvOqc5xnH0a_z-L7w", "width": 1800}], "place_id": "ChIJlwhz9ZZw44kRahrZJjOP4n8", "plus_code": {"compound_code": "9W8H+WR Boston, Massachusetts, United States", "global_code": "87JC9W8H+WR"}, "price_level": 3, "reference": "ChIJlwhz9ZZw44kRahrZJjOP4n8", "scope": "GOOGLE", "types": ["restaurant", "point_of_interest", "food", "establishment"], "vicinity": "Museum Of Science Driveway, Boston"}, "ChIJAT7gvi9x44kRN5liZLqQRLY": {"geometry": {"location": {"lat": 42.3676328, "lng": -71.0715623}, "viewport": {"northeast": {"lat": 42.3690669302915, "lng": -71.06985376970849}, "southwest": {"lat": 42.3663689697085, "lng": -71.07255173029151}}}, "icon": "https://maps.gstatic.com/mapfiles/place_api/icons/museum-71.png", "id": "0e13329cf9dd2d4fc7e9815ddab8aaa91d9a0d86", "name": "Museum of Science", "photos": [{"height": 4032, "html_attributions": ["<a href=\"https://maps.google.com/maps/contrib/108679606032538256284/photos\">Wei-Chuan Sun</a>"], "photo_reference": "CmRaAAAA89VpGeHaUAVp4GB5ohq5BJHgf_YFCQ2ezGBcTeIhQmziSonbEJySLbpSnuozzOSBErWvqL9EvAP-qhNuyVewlKDOnAsR07o9OWzyjm0TKMlFIUrkb-7DdhW-t45j9iquEhDyCyn-JJYZ75OpI9g9_cE0GhS0rIPk_VMlcdb8NsITdLsnghUMHw", "width": 3024}], "place_id": "ChIJAT7gvi9x44kRN5liZLqQRLY", "plus_code": {"compound_code": "9W9H+39 Cambridge, Massachusetts, United States", "global_code": "87JC9W9H+39"}, "rating": 4.5, "reference": "ChIJAT7gvi9x44kRN5liZLqQRLY", "scope": "GOOGLE", "types": ["museum", "point_of_interest", "establishment"], "user_ratings_total": 2, "vicinity": "Museum Of Science Driveway, Boston"}, "ChIJ_TSuT-Vx44kRV68lBVjl1bI": {"geometry": {"location": {"lat": 42.3677266, "lng": -71.0708966}, "viewport": {"northeast": {"lat": 42.3691138302915, "lng": -71.0695290697085}, "southwest": {"lat": 42.3664158697085, "lng": -71.07222703029151}}}, "icon": "https://maps.gstatic.com/mapfiles/place_api/icons/museum-71.png", "id": "b92889057def161ffe97ec8432d62ff2f93d2705", "name": "BOSTON MUSEUM OF SCIENCE-MAIN ENTRANCE", "place_id": "ChIJ_TSuT-Vx44kRV68lBVjl1bI", "plus_code": {"compound_code": "9W9H+3J Boston, Massachusetts, United States", "global_code": "87JC9W9H+3J"}, "rating": 5, "reference": "ChIJ_TSuT-Vx44kRV68lBVjl1bI", "scope": "GOOGLE", "types": ["museum", "point_of_interest", "establishment"], "user_ratings_total": 2, "vicinity": "CAMB-9-91, Boston"}, "ChIJX-eS65Zw44kRvRxnL81NCzY": {"geometry": {"location": {"lat": 42.3670763, "lng": -71.0694058}, "viewport": {"northeast": {"lat": 42.3684864302915, "lng": -71.0680013197085}, "southwest": {"lat": 42.3657884697085, "lng": -71.0706992802915}}}, "icon": "https://maps.gstatic.com/mapfiles/place_api/icons/generic_business-71.png", "id": "5bc6259660c91114af03dfd8bf74b1f5791d4f69", "name": "Old Charles River Dam", "photos": [{"height": 3096, "html_attributions": ["<a href=\"https://maps.google.com/maps/contrib/108428313696253675022/photos\">Gee Land</a>"], "photo_reference": "CmRaAAAAmLEMfu0O05wCuQ_wIZap97KkMhAxIRKwjHDJb3WGvUXEoEqhrKH6OBgDBxTRMK9O3UXErqI8xMUORo6SCOOvOJVFZXdNqIxUTk8KPuB-fHUjI23joIhmTCTWaKfrvvVwEhCUeAvI2M_BnAIrnrBqowiWGhTNmmCCBvgKSwlR1Lk0nBmR1I8dNQ", "width": 4128}], "place_id": "ChIJX-eS65Zw44kRvRxnL81NCzY", "plus_code": {"compound_code": "9W8J+R6 Boston, Massachusetts, United States", "global_code": "87JC9W8J+R6"}, "rating": 5, "reference": "ChIJX-eS65Zw44kRvRxnL81NCzY", "scope": "GOOGLE", "types": ["point_of_interest", "establishment"], "user_ratings_total": 3, "vicinity": "Charles River Dam Road, Boston"}, "ChIJGx0mgpdw44kRze0kc2iIjSE": {"geometry": {"location": {"lat": 42.36429169999999, "lng": -71.07094769999999}, "viewport": {"northeast": {"lat": 42.3670907, "lng": -71.06830769999999}, "southwest": {"lat": 42.3614465, "lng": -71.07313669999999}}}, "icon": "https://maps.gstatic.com/mapfiles/place_api/icons/generic_recreational-71.png", "id": "ca8d12596ff283e06e3a5093982e72463c9ac55a", "name": "Lederman Park", "photos": [{"height": 2312, "html_attributions": ["<a href=\"https://maps.google.com/maps/contrib/111275380096239787791/photos\">Greg Anderson</a>"], "photo_reference": "CmRaAAAA0lHuDVgm7M-4Qq5XLJgd2qpohQtphGSSERHvpqBU_ZfFW1JrVUy5dKZpBC8PWg_CJo5Ie9VaaWxy2l1jkINFLvjI8QhZ-t1C87nR0NyCjtr0FyjYRi_U7ilQlAivxxdsEhB6haeM2Y1M4pkDOyHtefFPGhQys1I9cO3pdeSRKCrjsd_Lrp4JxA", "width": 2536}], "place_id": "ChIJGx0mgpdw44kRze0kc2iIjSE", "reference": "ChIJGx0mgpdw44kRze0kc2iIjSE", "scope": "GOOGLE", "types": ["park", "premise", "point_of_interest", "establishment"], "vicinity": "Boston"}, "ChIJX8wwy6Vw44kRh2xoiWSOOsU": {"geometry": {"location": {"lat": 42.3736158, "lng": -71.10973349999999}, "viewport": {"northeast": {"lat": 42.4043839, "lng": -71.06548719999999}, "southwest": {"lat": 42.3523968, "lng": -71.16033209999999}}}, "icon": "https://maps.gstatic.com/mapfiles/place_api/icons/geocode-71.png", "id": "6d2faadca7159347cc68b047055a94b00fec6032", "name": "Cambridge", "photos": [{"height": 2000, "html_attributions": ["<a href=\"https://maps.google.com/maps/contrib/115519834423791060860/photos\">Luca Raggi</a>"], "photo_reference": "CmRaAAAAr1DG684YENYmAYzSN5G2z0DPNIi-q9ocROPvfZFvR7f4YJCka0DGDX4ojod1uml4d3aN8Qgiz7WMls4OqUH_PYelEWJMQfQGY9erPfm2g8bZU1vVIOkwnAKr8nA8_XxVEhCbWmCpemsYqgiDMSNCLT8AGhQJM2ynCyzl6WshrPbllSq9h3qqNQ", "width": 3008}], "place_id": "ChIJX8wwy6Vw44kRh2xoiWSOOsU", "reference": "ChIJX8wwy6Vw44kRh2xoiWSOOsU", "scope": "GOOGLE", "types": ["locality", "political"], "vicinity": "Cambridge"}}