{"ChIJGzE9DS1l44kRoOhiASS_fHg": {"geometry": {"location": {"lat": 42.3600825, "lng": -71.0588801}, "viewport": {"northeast": {"lat": 42.40081989999999, "lng": -70.749455}, "southwest": {"lat": 42.22788, "lng": -71.191113}}}, "icon": "https://maps.gstatic.com/mapfiles/place_api/icons/geocode-71.png", "id": "06755c25d2b34d13942a4713971756a55b870ced", "name": "Boston", "photos": [{"height": 3024, "html_attributions": ["<a href=\"https://maps.google.com/maps/contrib/104670289779338733432/photos\">Natalia Zalucean</a>"], "photo_reference": "CmRaAAAAz4UIpxF8_DuuLjbwQ03-_AqXn-rzfBVUP_-G6vXlFlLk4fxec_Qm31akRfw3dWRaMg2qmLnrov2Mi4Rd-G7-kIRU3eoC1pu9Ft7SBPbj-pk7d9w52flaOpIaEmcT3KRwEhBd5C60DV1IR_gxZBLTyiixGhTurXVX2yodmmgzRp-XTL4z_5q-aA", "width": 4032}], "place_id": "ChIJGzE9DS1l44kRoOhiASS_fHg", "reference": "ChIJGzE9DS1l44kRoOhiASS_fHg", "scope": "GOOGLE", "types": ["locality", "political"], "vicinity": "Boston"}, "ChIJbUFjLXp544kRknXPtWIvFyY": {"geometry": {"location": {"lat": 42.3172384, "lng": -71.1062759}, "viewport": {"northeast": {"lat": 42.3185228802915, "lng": -71.1049756197085}, "southwest": {"lat": 42.3158249197085, "lng": -71.1076735802915}}}, "icon": "https://maps.gstatic.com/mapfiles/place_api/icons/shopping-71.png", "id": "fa356809c3aa35fb668bb110759d65fc1a0bb974", "name": "City Feed and Supply", "opening_hours": {"open_now": true}, "photos": [{"height": 1920, "html_attributions": ["<a href=\"https://maps.google.com/maps/contrib/117632503971743467349/photos\">John Prestel</a>"], "photo_reference": "CmRaAAAAJujKV7jLEYqEMxf8fqKgABpvwhEuI0eKs1NU14bawwbVJoP3wpnU2gYlPSH2H05FKCWUrwInzw7ODOr4i_X9pfU-ds86aFcXLd93wxNsTCbyf7YT-_Vif6WCa497kmtrEhAFiQXFTAAXiGbTbht0fYMmGhTPdatl9W7RblcdEJRsYV3WEg-16w", "width": 1080}], "place_id": "ChIJbUFjLXp544kRknXPtWIvFyY", "plus_code": {"compound_code": "8V8V+VF Boston, Massachusetts, United States", "global_code": "87JC8V8V+VF"}, "price_level": 1, "rating": 4.5, "reference": "ChIJbUFjLXp544kRknXPtWIvFyY", "scope": "GOOGLE", "types": ["cafe", "grocery_or_supermarket", "store", "restaurant", "point_of_interest", "food", "establishment"], "user_ratings_total": 89, "vicinity": "66 Boylston Street, Jamaica Plain"}, "ChIJUy2z13t544kR_x4OoUthyaY": {"geometry": {"location": {"lat": 42.3175684, "lng": -71.1056065}, "viewport": {"northeast": {"lat": 42.3188725302915, "lng": -71.10414926970849}, "southwest": {"lat": 42.3161745697085, "lng": -71.1068472302915}}}, "icon": "https://maps.gstatic.com/mapfiles/place_api/icons/generic_business-71.png", "id": "81bce52bf88e3e4272e0a188db46d67471d81127", "name": "Spontaneous Celebrations", "photos": [{"height": 3096, "html_attributions": ["<a href=\"https://maps.google.com/maps/contrib/112062886614483166842/photos\">Ping H. Wang</a>"], "photo_reference": "CmRaAAAAyeFmzpA4tGdoLaxO5w70qn7TWKF5QYsT56kwFudPeh7X5x6Go5D9uV7-cWeBoKC83c8BvyyaHblzvSaSAP5uSNzzAd5QMIPxDpw0KR_04ukTrGsVha6Cbelf-vlzGHxQEhD6lMYa4rEcsWQaRxtnZEiFGhR9s-i5qSP0t5I1NHVhiSrxtHK4CA", "width": 4128}], "place_id": "ChIJUy2z13t544kR_x4OoUthyaY", "plus_code": {"compound_code": "8V9V+2Q Boston, Massachusetts, United States", "global_code": "87JC8V9V+2Q"}, "rating": 4.6, "reference": "ChIJUy2z13t544kR_x4OoUthyaY", "scope": "GOOGLE", "types": ["point_of_interest", "establishment"], "user_ratings_total": 46, "vicinity": "45 Danforth Street, Jamaica Plain"}, "ChIJN1EqlHl544kRvedYbVxFioE": {"geometry": {"location": {"lat": 42.3189892, "lng": -71.10729789999999}, "viewport": {"northeast": {"lat": 42.3204004802915, "lng": -71.10588966970849}, "southwest": {"lat": 42.3177025197085, "lng": -71.10858763029151}}}, "icon": "https://maps.gstatic.com/mapfiles/place_api/icons/generic_business-71.png", "id": "4e320b11f01834976f494c44fc63af52501ff909", "name": "Neighborhood Dog Walking and Pet Care", "opening_hours": {"open_now": true}, "photos": [{"height": 1524, "html_attributions": ["<a href=\"https://maps.google.com/maps/contrib/109399059984743464536/photos\">Neighborhood Dog Walking and Pet Care</a>"], "photo_reference": "CmRaAAAApiX1-Mhho_BONtCKd1jzG8Nq9gN7Q3ymsAFY4IVPAseXFCEurFkBCP-bAeJ4fUw5xi0NLdjWTEFmYTp9B7M53b9vPJefCoQQQAlfLVaVtVkn4psUg-LF05ALVMSPWmX8EhB82n9i9-aaWVPSKU1Dx7jRGhTB69rU6ZFGpEACGl01tBjvjZEAhQ", "width": 2032}], "place_id": "ChIJN1EqlHl544kRvedYbVxFioE", "plus_code": {"compound_code": "8V9V+H3 Boston, Massachusetts, United States", "global_code": "87JC8V9V+H3"}, "reference": "ChIJN1EqlHl544kRvedYbVxFioE", "scope": "GOOGLE", "types": ["point_of_interest", "establishment"], "vicinity": "83 Paul Gore Street, Jamaica Plain"}, "ChIJlznvKnp544kRF5TkuxXgdkU": {"geometry": {"location": {"lat": 42.3177035, "lng": -71.1064349}, "viewport": {"northeast": {"lat": 42.31903843029149, "lng": -71.1050527697085}, "southwest": {"lat": 42.31634046970849, "lng": -71.1077507302915}}}, "icon": "https://maps.gstatic.com/mapfiles/place_api/icons/generic_business-71.png", "id": "737d7ff1c802cf3c834314ffcac17f70f9bb9c5d", "name": "Lucky Clover Solutions, LLC", "place_id": "ChIJlznvKnp544kRF5TkuxXgdkU", "plus_code": {"compound_code": "8V9V+3C Boston, Massachusetts, United States", "global_code": "87JC8V9V+3C"}, "reference": "ChIJlznvKnp544kRF5TkuxXgdkU", "scope": "GOOGLE", "types": ["point_of_interest", "establishment"], "vicinity": "153 Chestnut Avenue, Jamaica Plain"}, "ChIJN1EqlHl544kRIWOnu_K0BIw": {"geometry": {"location": {"lat": 42.3189892, "lng": -71.10729789999999}, "viewport": {"northeast": {"lat": 42.3204004802915, "lng": -71.10588966970849}, "southwest": {"lat": 42.3177025197085, "lng": -71.10858763029151}}}, "icon": "https://maps.gstatic.com/mapfiles/place_api/icons/shopping-71.png", "id": "19d433655da1f8d48fdc0f08909ee4d2ca74f10e", "name": "Palmetto Studio", "photos": [{"height": 612, "html_attributions": ["<a href=\"https://maps.google.com/maps/contrib/110972299916328369551/photos\">Palmetto Studio</a>"], "photo_reference": "CmRaAAAA7ynvnOftPIGFRQVmujpq13_a-lpxNFJwGNJYBtb_dIhB0Gprfry8hixvdHb32c8_v9skaIHYtyFB0bm-oHy-Zj375_Z1t3NgFYMLYCo9xUcBtyZ1fgIhTbUx_WrGcd1XEhCDqhtGYh_QHDkMSAQ1fOiVGhQ8_jg1P4IcMacVgQd8XJEAzQUFDQ", "width": 792}], "place_id": "ChIJN1EqlHl544kRIWOnu_K0BIw", "plus_code": {"compound_code": "8V9V+H3 Boston, Massachusetts, United States", "global_code": "87JC8V9V+H3"}, "reference": "ChIJN1EqlHl544kRIWOnu_K0BIw", "scope": "GOOGLE", "types": ["electronics_store", "home_goods_store", "store", "point_of_interest", "establishment"], "vicinity": "83 Paul Gore Street, Jamaica Plain"}, "ChIJ7-yuK3p544kRys2vdbt-Sq8": {"geometry": {"location": {"lat": 42.3175946, "lng": -71.1064468}, "viewport": {"northeast": {"lat": 42.3189522802915, "lng": -71.1051188197085}, "southwest": {"lat": 42.31625431970851, "lng": -71.1078167802915}}}, "icon": "https://maps.gstatic.com/mapfiles/place_api/icons/generic_business-71.png", "id": "b5578d2601eaa97c5504f9d60334d787b71ac456", "name": "ProActive Advisor", "place_id": "ChIJ7-yuK3p544kRys2vdbt-Sq8", "plus_code": {"compound_code": "8V9V+2C Boston, Massachusetts, United States", "global_code": "87JC8V9V+2C"}, "reference": "ChIJ7-yuK3p544kRys2vdbt-Sq8", "scope": "GOOGLE", "types": ["finance", "point_of_interest", "establishment"], "vicinity": "155 Chestnut Avenue, Jamaica Plain"}, "ChIJnzx_f3l544kR5wjVrkoN1XY": {"geometry": {"location": {"lat": 42.3178819, "lng": -71.1062113}, "viewport": {"northeast": {"lat": 42.3192441302915, "lng": -71.1048936697085}, "southwest": {"lat": 42.3165461697085, "lng": -71.10759163029151}}}, "icon": "https://maps.gstatic.com/mapfiles/place_api/icons/generic_business-71.png", "id": "5905c76644b1835bcda3590ddf4a712746dad624", "name": "Beauty Muse Bridal", "place_id": "ChIJnzx_f3l544kR5wjVrkoN1XY", "plus_code": {"compound_code": "8V9V+5G Boston, Massachusetts, United States", "global_code": "87JC8V9V+5G"}, "reference": "ChIJnzx_f3l544kR5wjVrkoN1XY", "scope": "GOOGLE", "types": ["point_of_interest", "establishment"], "vicinity": "146 Chestnut Avenue, Boston"}, "ChIJrxXBGHh644kRrzvK7vx-6gU": {"geometry": {"location": {"lat": 42.3175695, "lng": -71.10561229999999}, "viewport": {"northeast": {"lat": 42.3188725802915, "lng": -71.10415256970849}, "southwest": {"lat": 42.3161746197085, "lng": -71.1068505302915}}}, "icon": "https://maps.gstatic.com/mapfiles/place_api/icons/school-71.png", "id": "ffc41db1d2f247855ff50157b529b73c7a270525", "name": "Capoeira Gerais Boston", "place_id": "ChIJrxXBGHh644kRrzvK7vx-6gU", "plus_code": {"compound_code": "8V9V+2Q Boston, Massachusetts, United States", "global_code": "87JC8V9V+2Q"}, "rating": 5, "reference": "ChIJrxXBGHh644kRrzvK7vx-6gU", "scope": "GOOGLE", "types": ["health", "point_of_interest", "establishment"], "user_ratings_total": 2, "vicinity": "45 Danforth Street, Boston"}, "ChIJX-dtQHp544kRBe9U-9_EJt8": {"geometry": {"location": {"lat": 42.3167669, "lng": -71.10745109999999}, "viewport": {"northeast": {"lat": 42.31813443029149, "lng": -71.10615526970848}, "southwest": {"lat": 42.31543646970849, "lng": -71.1088532302915}}}, "icon": "https://maps.gstatic.com/mapfiles/place_api/icons/generic_business-71.png", "id": "588992d120cffa96bc7694ea12b88374c0873116", "name": "The Compliance Mentor Group", "place_id": "ChIJX-dtQHp544kRBe9U-9_EJt8", "plus_code": {"compound_code": "8V8V+P2 Boston, Massachusetts, United States", "global_code": "87JC8V8V+P2"}, "reference": "ChIJX-dtQHp544kRBe9U-9_EJt8", "scope": "GOOGLE", "types": ["general_contractor", "point_of_interest", "establishment"], "vicinity": "14 Dresden Street, Boston"}, "ChIJVYBcDXp544kRsqEjCdF2e7s": {"geometry": {"location": {"lat": 42.316983, "lng": -71.1084939}, "viewport": {"northeast": {"lat": 42.3183027302915, "lng": -71.10702346970851}, "southwest": {"lat": 42.3156047697085, "lng": -71.10972143029151}}}, "icon": "https://maps.gstatic.com/mapfiles/place_api/icons/generic_business-71.png", "id": "86f146c5eab107db88ab43e0305dcff7a6e14c37", "name": "Andrew Maxfield Real Estate", "place_id": "ChIJVYBcDXp544kRsqEjCdF2e7s", "plus_code": {"compound_code": "8V8R+QJ Boston, Massachusetts, United States", "global_code": "87JC8V8R+QJ"}, "reference": "ChIJVYBcDXp544kRsqEjCdF2e7s", "scope": "GOOGLE", "types": ["real_estate_agency", "point_of_interest", "establishment"], "vicinity": "27 Clive Street, Jamaica Plain"}, "ChIJVYBcDXp544kRiKwO85PO5i8": {"geometry": {"location": {"lat": 42.316983, "lng": -71.108494}, "viewport": {"northeast": {"lat": 42.3183027302915, "lng": -71.10702356970849}, "southwest": {"lat": 42.3156047697085, "lng": -71.1097215302915}}}, "icon": "https://maps.gstatic.com/mapfiles/place_api/icons/generic_business-71.png", "id": "d50ddf72bfb90603e9503ebb756a2c0fad92e483", "name": "In REM Real Estate", "photos": [{"height": 640, "html_attributions": ["<a href=\"https://maps.google.com/maps/contrib/110808130965385943605/photos\">In REM Real Estate</a>"], "photo_reference": "CmRaAAAAL-FhAnu97Yq2Zi68Fdo3JprrdVHHA7LlWHFybZEui3qn_wKXuDo82zDHgDR2TCk8pp-9AIv9305llKE2OktQH7-PRUWUBEVxHBqovXVRClTxwIOle1WnRJAKXm7-RrKyEhAlqjhmKXd4XagoozM0Id-mGhSrPcEuCBVKBSk7gijSur_dLdPfTQ", "width": 960}], "place_id": "ChIJVYBcDXp544kRiKwO85PO5i8", "plus_code": {"compound_code": "8V8R+QJ Boston, Massachusetts, United States", "global_code": "87JC8V8R+QJ"}, "reference": "ChIJVYBcDXp544kRiKwO85PO5i8", "scope": "GOOGLE", "types": ["real_estate_agency", "point_of_interest", "establishment"], "vicinity": "27 Clive Street, A, Jamaica Plain"}, "ChIJieNHpIJbXEARHiHU2Wr4_jI": {"geometry": {"location": {"lat": 42.3175628, "lng": -71.10560749999999}, "viewport": {"northeast": {"lat": 42.3188674802915, "lng": -71.1041515197085}, "southwest": {"lat": 42.3161695197085, "lng": -71.1068494802915}}}, "icon": "https://maps.gstatic.com/mapfiles/place_api/icons/generic_business-71.png", "id": "25534ea774daa64cab5d4d22018606b43d2b204f", "name": "BalletRox", "photos": [{"height": 492, "html_attributions": ["<a href=\"https://maps.google.com/maps/contrib/109346152407364749719/photos\">BalletRox</a>"], "photo_reference": "CmRaAAAAJt4tfOHi1NnewvkXACP13UDqjfhz9up1QddgyK7IBk3LIyjJd1lSLbMtqaqhxA4lSoRlmntgWNVluC0HC-NayR7hiPoG4UwhfkUJM0LXY2h6-x4GgjPK3caga7xpqgbxEhBT0SzDKZ6Af-VQUtrdWaQRGhSndk0tXj2Inq-AtNL6eBeHwsw_tQ", "width": 960}], "place_id": "ChIJieNHpIJbXEARHiHU2Wr4_jI", "plus_code": {"compound_code": "8V9V+2Q Boston, Massachusetts, United States", "global_code": "87JC8V9V+2Q"}, "reference": "ChIJieNHpIJbXEARHiHU2Wr4_jI", "scope": "GOOGLE", "types": ["point_of_interest", "establishment"], "vicinity": "45 Danforth Street, Jamaica Plain"}, "ChIJjftFMnp544kRbCXMRthjfYo": {"geometry": {"location": {"lat": 42.3170687, "lng": -71.1064839}, "viewport": {"northeast": {"lat": 42.3184483802915, "lng": -71.10510411970849}, "southwest": {"lat": 42.31575041970851, "lng": -71.1078020802915}}}, "icon": "https://maps.gstatic.com/mapfiles/place_api/icons/shopping-71.png", "id": "a2e0779162caaa8e0a959cc4db97ddffcfe42db5", "name": "Inseam Clothing", "place_id": "ChIJjftFMnp544kRbCXMRthjfYo", "plus_code": {"compound_code": "8V8V+RC Boston, Massachusetts, United States", "global_code": "87JC8V8V+RC"}, "reference": "ChIJjftFMnp544kRbCXMRthjfYo", "scope": "GOOGLE", "types": ["clothing_store", "store", "point_of_interest", "establishment"], "vicinity": "67 Boylston Street, Boston"}, "ChIJoXuIGXp544kRytaz1NIl-Fc": {"geometry": {"location": {"lat": 42.3175566, "lng": -71.1081567}, "viewport": {"northeast": {"lat": 42.31888558029149, "lng": -71.10672456970849}, "southwest": {"lat": 42.3161876197085, "lng": -71.1094225302915}}}, "icon": "https://maps.gstatic.com/mapfiles/place_api/icons/generic_business-71.png", "id": "9a2f6f927249ef48069106367637e301e6c1cf1a", "name": "Dr. Jonathan H. Brenner, MD", "place_id": "ChIJoXuIGXp544kRytaz1NIl-Fc", "plus_code": {"compound_code": "8V9R+2P Boston, Massachusetts, United States", "global_code": "87JC8V9R+2P"}, "reference": "ChIJoXuIGXp544kRytaz1NIl-Fc", "scope": "GOOGLE", "types": ["doctor", "health", "point_of_interest", "establishment"], "vicinity": "7 Clive Street, Jamaica Plain"}, "ChIJAQBMiHl544kRQ6feyBU3NZc": {"geometry": {"location": {"lat": 42.317977, "lng": -71.10713539999999}, "viewport": {"northeast": {"lat": 42.3193783802915, "lng": -71.1058871697085}, "southwest": {"lat": 42.3166804197085, "lng": -71.1085851302915}}}, "icon": "https://maps.gstatic.com/mapfiles/place_api/icons/generic_business-71.png", "id": "e9a08f71344eed73af8f0b9c50e6c00ccdeb34d3", "name": "Project MEMA, Inc", "place_id": "ChIJAQBMiHl544kRQ6feyBU3NZc", "plus_code": {"compound_code": "8V9V+54 Boston, Massachusetts, United States", "global_code": "87JC8V9V+54"}, "reference": "ChIJAQBMiHl544kRQ6feyBU3NZc", "scope": "GOOGLE", "types": ["point_of_interest", "establishment"], "vicinity": "28 Beecher Street, Boston"}, "ChIJT4bxhXl544kRA6ahh8c6eog": {"geometry": {"location": {"lat": 42.3181829, "lng": -71.1069265}, "viewport": {"northeast": {"lat": 42.31958763029149, "lng": -71.10568141970849}, "southwest": {"lat": 42.3168896697085, "lng": -71.1083793802915}}}, "icon": "https://maps.gstatic.com/mapfiles/place_api/icons/generic_recreational-71.png", "id": "536c6079b6c1db2a9cc2015470b0a2da323c7ba4", "name": "Beecher Park", "photos": [{"height": 3120, "html_attributions": ["<a href=\"https://maps.google.com/maps/contrib/109817431954128061184/photos\">Guillermo Rivero</a>"], "photo_reference": "CmRaAAAAfAaMHAZJoXKwDsx5l7-hhQembgs5lBf87Kilj6WLLTHa3_v_fb3WpOfYIvcPs8hAWYEPKexfNpan2JcHxVjNRBJ3QbiLEZqQ78p9hZ3iIwuf9hgAP7jO1kXmSa9umBK0EhDOu31Vs5O9wzbpQKrIbzr1GhTmI0ozC4pZQaHFY5-N06Cl7xjfuw", "width": 3120}], "place_id": "ChIJT4bxhXl544kRA6ahh8c6eog", "plus_code": {"compound_code": "8V9V+76 Boston, Massachusetts, United States", "global_code": "87JC8V9V+76"}, "rating": 4.2, "reference": "ChIJT4bxhXl544kRA6ahh8c6eog", "scope": "GOOGLE", "types": ["park", "point_of_interest", "establishment"], "user_ratings_total": 10, "vicinity": "147 Chestnut Avenue, Boston"}, "ChIJN1EqlHl544kRAwwz-heC5R8": {"geometry": {"location": {"lat": 42.3189892, "lng": -71.10729789999999}, "viewport": {"northeast": {"lat": 42.3204004802915, "lng": -71.10588966970849}, "southwest": {"lat": 42.3177025197085, "lng": -71.10858763029151}}}, "icon": "https://maps.gstatic.com/mapfiles/place_api/icons/school-71.png", "id": "cfa54251f8e4b4b03b4e2a5b7c7ee49c1b195d5f", "name": "JP German Tutoring", "place_id": "ChIJN1EqlHl544kRAwwz-heC5R8", "plus_code": {"compound_code": "8V9V+H3 Boston, Massachusetts, United States", "global_code": "87JC8V9V+H3"}, "reference": "ChIJN1EqlHl544kRAwwz-heC5R8", "scope": "GOOGLE", "types": ["beauty_salon", "point_of_interest", "establishment"], "vicinity": "83 Paul Gore Street, Jamaica Plain"}, "ChIJ2a7Ie3l544kR3MqF2SLLPe8": {"geometry": {"location": {"lat": 42.3181123, "lng": -71.1057683}, "viewport": {"northeast": {"lat": 42.3195022802915, "lng": -71.1045163197085}, "southwest": {"lat": 42.3168043197085, "lng": -71.1072142802915}}}, "icon": "https://maps.gstatic.com/mapfiles/place_api/icons/generic_business-71.png", "id": "33fa700607ffa77ceed3251eab4a7da5152c8044", "name": "Guarnotta Design + Build", "place_id": "ChIJ2a7Ie3l544kR3MqF2SLLPe8", "plus_code": {"compound_code": "8V9V+6M Boston, Massachusetts, United States", "global_code": "87JC8V9V+6M"}, "reference": "ChIJ2a7Ie3l544kR3MqF2SLLPe8", "scope": "GOOGLE", "types": ["general_contractor", "point_of_interest", "establishment"], "vicinity": "138 Chestnut Avenue, Jamaica Plain"}, "ChIJ0RnkK3J544kREhgmsmdsEjM": {"geometry": {"location": {"lat": 42.3097365, "lng": -71.1151431}, "viewport": {"northeast": {"lat": 42.331997, "lng": -71.0975505}, "southwest": {"lat": 42.29569790000001, "lng": -71.1400973}}}, "icon": "https://maps.gstatic.com/mapfiles/place_api/icons/geocode-71.png", "id": "24ab064d9ae80bcb5d0138c151d4899b32a120ba", "name": "Jamaica Plain", "photos": [{"height": 1536, "html_attributions": ["<a href=\"https://maps.google.com/maps/contrib/104025330983653437024/photos\">\u0410\u043d\u043d\u0430 \u041d\u0435\u0439\u0448\u0442\u0430\u0434\u0442</a>"], "photo_reference": "CmRaAAAARtXqNebsJS0WzduWN4x6ZvL5xqz7piAFt4J2Mv_7VAjeUkKhmEuHKvs2doQuKXPmCMA3ltRK4ieDYZtdot5-Do1LJzWQnUyR9i5ylqWLsoXY4nWkK3IYDdt_sTATKojnEhCO_dgRbHH3N_4HTf8O61t7GhQOsk-H1P-36BQk8wW0ZzsVE1vhUA", "width": 2048}], "place_id": "ChIJ0RnkK3J544kREhgmsmdsEjM", "reference": "ChIJ0RnkK3J544kREhgmsmdsEjM", "scope": "GOOGLE", "types": ["neighborhood", "political"], "vicinity": "Dorchester Center"}, "ChIJR9v44nl544kR705ne7MDt5k": {"geometry": {"location": {"lat": 42.3187233, "lng": -71.10889940000001}, "viewport": {"northeast": {"lat": 42.3201383802915, "lng": -71.1075003697085}, "southwest": {"lat": 42.3174404197085, "lng": -71.11019833029152}}}, "icon": "https://maps.gstatic.com/mapfiles/place_api/icons/generic_business-71.png", "id": "8482f9f1802afce1ffaf3e7bcec88088c36b9a36", "name": "John L. Stricker, PHD", "place_id": "ChIJR9v44nl544kR705ne7MDt5k", "plus_code": {"compound_code": "8V9R+FC Boston, Massachusetts, United States", "global_code": "87JC8V9R+FC"}, "reference": "ChIJR9v44nl544kR705ne7MDt5k", "scope": "GOOGLE", "types": ["doctor", "health", "point_of_interest", "establishment"], "vicinity": "47 Oakview Terrace, Jamaica Plain"}, "ChIJw8bG13t544kR-WFDpEU8q8s": {"geometry": {"location": {"lat": 42.31756269999999, "lng": -71.10560749999999}, "viewport": {"northeast": {"lat": 42.31886738029149, "lng": -71.1041515197085}, "southwest": {"lat": 42.31616941970849, "lng": -71.1068494802915}}}, "icon": "https://maps.gstatic.com/mapfiles/place_api/icons/generic_business-71.png", "id": "b753860a7929422f78a023dbcd14824c358c9aa0", "name": "La Pi\u00f1ata", "place_id": "ChIJw8bG13t544kR-WFDpEU8q8s", "plus_code": {"compound_code": "8V9V+2Q Boston, Massachusetts, United States", "global_code": "87JC8V9V+2Q"}, "reference": "ChIJw8bG13t544kR-WFDpEU8q8s", "scope": "GOOGLE", "types": ["point_of_interest", "establishment"], "vicinity": "45 Danforth Street, Jamaica Plain"}, "ChIJO6nDdHp544kRiE_2keHSTfw": {"geometry": {"location": {"lat": 42.316942, "lng": -71.1089562}, "viewport": {"northeast": {"lat": 42.31831313029149, "lng": -71.10769646970849}, "southwest": {"lat": 42.3156151697085, "lng": -71.1103944302915}}}, "icon": "https://maps.gstatic.com/mapfiles/place_api/icons/generic_business-71.png", "id": "54b4161ee11f4880e40bed19e5d52f9f41e6719a", "name": "Sophie Parker & Associates", "place_id": "ChIJO6nDdHp544kRiE_2keHSTfw", "plus_code": {"compound_code": "8V8R+QC Boston, Massachusetts, United States", "global_code": "87JC8V8R+QC"}, "reference": "ChIJO6nDdHp544kRiE_2keHSTfw", "scope": "GOOGLE", "types": ["point_of_interest", "establishment"], "vicinity": "18 Burr Street, Jamaica Plain"}, "ChIJBzTUxnl544kR4lTqTJdBwj8": {"geometry": {"location": {"lat": 42.3194794, "lng": -71.1078522}, "viewport": {"northeast": {"lat": 42.32083353029149, "lng": -71.10649831970849}, "southwest": {"lat": 42.3181355697085, "lng": -71.1091962802915}}}, "icon": "https://maps.gstatic.com/mapfiles/place_api/icons/generic_business-71.png", "id": "6dc66c5d695a721e92e15edfcff81b84b8c3c139", "name": "Katherine Wilson, LIC", "place_id": "ChIJBzTUxnl544kR4lTqTJdBwj8", "plus_code": {"compound_code": "8V9R+QV Boston, Massachusetts, United States", "global_code": "87JC8V9R+QV"}, "reference": "ChIJBzTUxnl544kR4lTqTJdBwj8", "scope": "GOOGLE", "types": ["doctor", "health", "point_of_interest", "establishment"], "vicinity": "68 Paul Gore Street, Jamaica Plain"}, "ChIJdfSCnHl544kRHMlgEK3E_aQ": {"geometry": {"location": {"lat": 42.3184777, "lng": -71.1066944}, "viewport": {"northeast": {"lat": 42.31985503029149, "lng": -71.10524576970849}, "southwest": {"lat": 42.3171570697085, "lng": -71.1079437302915}}}, "icon": "https://maps.gstatic.com/mapfiles/place_api/icons/generic_recreational-71.png", "id": "ec07a626e2718340333aca2be0946d227edeb722", "name": "Paul Gore Beecher Streets Community Garden", "place_id": "ChIJdfSCnHl544kRHMlgEK3E_aQ", "reference": "ChIJdfSCnHl544kRHMlgEK3E_aQ", "scope": "GOOGLE", "types": ["park", "premise", "point_of_interest", "establishment"], "vicinity": "Boston"}}