{"ChIJGzE9DS1l44kRoOhiASS_fHg": {"geometry": {"location": {"lat": 42.3600825, "lng": -71.0588801}, "viewport": {"northeast": {"lat": 42.40081989999999, "lng": -70.749455}, "southwest": {"lat": 42.22788, "lng": -71.191113}}}, "icon": "https://maps.gstatic.com/mapfiles/place_api/icons/geocode-71.png", "id": "06755c25d2b34d13942a4713971756a55b870ced", "name": "Boston", "photos": [{"height": 3024, "html_attributions": ["<a href=\"https://maps.google.com/maps/contrib/104670289779338733432/photos\">Natalia Zalucean</a>"], "photo_reference": "CmRaAAAAvFpcfRRxvNXKJptaNbPWdCpf6MwYzZYk0jOyl_Rb-9EIRhGZgr2JKiuLQeYIt1QxbRPdQsrZfRg6XX-_1snlgpV5DcMiDWhZeGrEMv80q92KaD4CYxSb0DQT5IWscEQvEhDNH7ndDT_T06ySJv4XgR7pGhRJ9Jk8UpbTSpTpbgl5g012buG8iA", "width": 4032}], "place_id": "ChIJGzE9DS1l44kRoOhiASS_fHg", "reference": "ChIJGzE9DS1l44kRoOhiASS_fHg", "scope": "GOOGLE", "types": ["locality", "political"], "vicinity": "Boston"}, "ChIJd6I6_jB_44kRBqVFn7RjBV0": {"geometry": {"location": {"lat": 42.286432, "lng": -71.15987489999999}, "viewport": {"northeast": {"lat": 42.2878477302915, "lng": -71.1584311197085}, "southwest": {"lat": 42.2851497697085, "lng": -71.1611290802915}}}, "icon": "https://maps.gstatic.com/mapfiles/place_api/icons/generic_business-71.png", "id": "ccc3f5edc2ce6361855f7c3a6597ef5357fe36af", "name": "Lancet Capital", "place_id": "ChIJd6I6_jB_44kRBqVFn7RjBV0", "plus_code": {"compound_code": "7RPR+H3 Boston, Massachusetts, United States", "global_code": "87JC7RPR+H3"}, "reference": "ChIJd6I6_jB_44kRBqVFn7RjBV0", "scope": "GOOGLE", "types": ["finance", "point_of_interest", "establishment"], "vicinity": "52 Richwood Street, West Roxbury"}, "ChIJTdKetDB_44kR0wm47vBhBeA": {"geometry": {"location": {"lat": 42.28544469999999, "lng": -71.1626043}, "viewport": {"northeast": {"lat": 42.2868495302915, "lng": -71.16131831970849}, "southwest": {"lat": 42.2841515697085, "lng": -71.1640162802915}}}, "icon": "https://maps.gstatic.com/mapfiles/place_api/icons/generic_business-71.png", "id": "653270dff72b8348879ca2e793a5d6ec1761fd3f", "name": "Franchise Perfection", "place_id": "ChIJTdKetDB_44kR0wm47vBhBeA", "plus_code": {"compound_code": "7RPP+5X Boston, Massachusetts, United States", "global_code": "87JC7RPP+5X"}, "reference": "ChIJTdKetDB_44kR0wm47vBhBeA", "scope": "GOOGLE", "types": ["point_of_interest", "establishment"], "vicinity": "9 Yorktown Street, West Roxbury"}, "ChIJJSfEYTB_44kRkU1JuxHZuyg": {"geometry": {"location": {"lat": 42.28499, "lng": -71.159636}, "viewport": {"northeast": {"lat": 42.2862218302915, "lng": -71.15848266970849}, "southwest": {"lat": 42.2835238697085, "lng": -71.1611806302915}}}, "icon": "https://maps.gstatic.com/mapfiles/place_api/icons/generic_business-71.png", "id": "8378fe236874b3dcc124d7cecbf91dcfffe29ef3", "name": "IANE", "place_id": "ChIJJSfEYTB_44kRkU1JuxHZuyg", "plus_code": {"compound_code": "7RMR+X4 Boston, Massachusetts, United States", "global_code": "87JC7RMR+X4"}, "reference": "ChIJJSfEYTB_44kRkU1JuxHZuyg", "scope": "GOOGLE", "types": ["point_of_interest", "establishment"], "vicinity": "77 Mount Vernon Street, West Roxbury"}, "ChIJOyfEYTB_44kRi5b5Vw0lagg": {"geometry": {"location": {"lat": 42.28499, "lng": -71.1596359}, "viewport": {"northeast": {"lat": 42.2862218302915, "lng": -71.1584826197085}, "southwest": {"lat": 42.2835238697085, "lng": -71.1611805802915}}}, "icon": "https://maps.gstatic.com/mapfiles/place_api/icons/generic_business-71.png", "id": "b1f15592ddb37fdb7882d5d6c541c724cffc0a37", "name": "Irrigation Association Of New England", "place_id": "ChIJOyfEYTB_44kRi5b5Vw0lagg", "plus_code": {"compound_code": "7RMR+X4 Boston, Massachusetts, United States", "global_code": "87JC7RMR+X4"}, "reference": "ChIJOyfEYTB_44kRi5b5Vw0lagg", "scope": "GOOGLE", "types": ["point_of_interest", "establishment"], "vicinity": "77 Mount Vernon Street, West Roxbury"}, "ChIJvRto3zB_44kRSLz2T6aSXSw": {"geometry": {"location": {"lat": 42.286649, "lng": -71.161467}, "viewport": {"northeast": {"lat": 42.2878799302915, "lng": -71.16031051970849}, "southwest": {"lat": 42.2851819697085, "lng": -71.16300848029151}}}, "icon": "https://maps.gstatic.com/mapfiles/place_api/icons/generic_business-71.png", "id": "47929b767afe339ee3d5c9d61cbadf6adcbc2788", "name": "Gwiazda Associates", "place_id": "ChIJvRto3zB_44kRSLz2T6aSXSw", "plus_code": {"compound_code": "7RPQ+MC Boston, Massachusetts, United States", "global_code": "87JC7RPQ+MC"}, "reference": "ChIJvRto3zB_44kRSLz2T6aSXSw", "scope": "GOOGLE", "types": ["point_of_interest", "establishment"], "vicinity": "143 Mount Vernon Street, West Roxbury"}, "ChIJ_REy8jB_44kRomQnUb7MeX8": {"geometry": {"location": {"lat": 42.2855444, "lng": -71.16029}, "viewport": {"northeast": {"lat": 42.28695903029151, "lng": -71.1590144697085}, "southwest": {"lat": 42.28426106970851, "lng": -71.1617124302915}}}, "icon": "https://maps.gstatic.com/mapfiles/place_api/icons/generic_business-71.png", "id": "5525ad578d5747adf421ababc7bb40cb9260189d", "name": "Financial Advertising Co", "place_id": "ChIJ_REy8jB_44kRomQnUb7MeX8", "plus_code": {"compound_code": "7RPQ+6V Boston, Massachusetts, United States", "global_code": "87JC7RPQ+6V"}, "reference": "ChIJ_REy8jB_44kRomQnUb7MeX8", "scope": "GOOGLE", "types": ["point_of_interest", "establishment"], "vicinity": "7 Porter Terrace, West Roxbury"}, "ChIJPSifNTd_44kRTOdE9bKO9iA": {"geometry": {"location": {"lat": 42.285805, "lng": -71.162882}, "viewport": {"northeast": {"lat": 42.2872165302915, "lng": -71.16143166970849}, "southwest": {"lat": 42.2845185697085, "lng": -71.16412963029151}}}, "icon": "https://maps.gstatic.com/mapfiles/place_api/icons/generic_business-71.png", "id": "c130fcfc1223a031026d806b852d24c97f53b37b", "name": "Kalandavis", "place_id": "ChIJPSifNTd_44kRTOdE9bKO9iA", "plus_code": {"compound_code": "7RPP+8R Boston, Massachusetts, United States", "global_code": "87JC7RPP+8R"}, "reference": "ChIJPSifNTd_44kRTOdE9bKO9iA", "scope": "GOOGLE", "types": ["point_of_interest", "establishment"], "vicinity": "39 Potomac Street, West Roxbury"}, "ChIJTaFdYjB_44kRPXJrDNycKLk": {"geometry": {"location": {"lat": 42.28481939999999, "lng": -71.1595426}, "viewport": {"northeast": {"lat": 42.28612383029149, "lng": -71.1581443697085}, "southwest": {"lat": 42.28342586970849, "lng": -71.1608423302915}}}, "icon": "https://maps.gstatic.com/mapfiles/place_api/icons/generic_business-71.png", "id": "3b4083510a4da8426416d496b7f73eadcfe5adca", "name": "Pamela S. Newton, MA", "place_id": "ChIJTaFdYjB_44kRPXJrDNycKLk", "plus_code": {"compound_code": "7RMR+W5 Boston, Massachusetts, United States", "global_code": "87JC7RMR+W5"}, "reference": "ChIJTaFdYjB_44kRPXJrDNycKLk", "scope": "GOOGLE", "types": ["health", "point_of_interest", "establishment"], "vicinity": "73 Mount Vernon Street, West Roxbury, MA 02132, West Roxbury"}, "ChIJ1deQqzB_44kR7_WhEKs6nB8": {"geometry": {"location": {"lat": 42.284717, "lng": -71.162432}, "viewport": {"northeast": {"lat": 42.28606423029149, "lng": -71.1610857197085}, "southwest": {"lat": 42.28336626970849, "lng": -71.16378368029152}}}, "icon": "https://maps.gstatic.com/mapfiles/place_api/icons/bus-71.png", "id": "102abfd36ea61d8734ad5f2fcec2cc3386447355", "name": "Lagrange St opp Pender St", "place_id": "ChIJ1deQqzB_44kR7_WhEKs6nB8", "plus_code": {"compound_code": "7RMQ+V2 Boston, Massachusetts, United States", "global_code": "87JC7RMQ+V2"}, "reference": "ChIJ1deQqzB_44kR7_WhEKs6nB8", "scope": "GOOGLE", "types": ["bus_station", "transit_station", "point_of_interest", "establishment"], "vicinity": "United States"}, "ChIJhYJWqjB_44kRu5N4doTenE0": {"geometry": {"location": {"lat": 42.28460999999999, "lng": -71.162477}, "viewport": {"northeast": {"lat": 42.28597763029149, "lng": -71.16109821970849}, "southwest": {"lat": 42.28327966970849, "lng": -71.1637961802915}}}, "icon": "https://maps.gstatic.com/mapfiles/place_api/icons/bus-71.png", "id": "f60cdb49d3df15c6ba665ad0111d601227ad55af", "name": "Lagrange St @ Pender St", "place_id": "ChIJhYJWqjB_44kRu5N4doTenE0", "plus_code": {"compound_code": "7RMQ+R2 Boston, Massachusetts, United States", "global_code": "87JC7RMQ+R2"}, "reference": "ChIJhYJWqjB_44kRu5N4doTenE0", "scope": "GOOGLE", "types": ["bus_station", "transit_station", "point_of_interest", "establishment"], "vicinity": "United States"}, "ChIJzxYuijx_44kRRILba9QQn0k": {"geometry": {"location": {"lat": 42.27975539999999, "lng": -71.1626756}, "viewport": {"northeast": {"lat": 42.303697, "lng": -71.12789599999999}, "southwest": {"lat": 42.25289799999999, "lng": -71.191198}}}, "icon": "https://maps.gstatic.com/mapfiles/place_api/icons/geocode-71.png", "id": "20de47f271a3ccaf647bdac7b9ee10bd6e83a6c4", "name": "West Roxbury", "photos": [{"height": 603, "html_attributions": ["<a href=\"https://maps.google.com/maps/contrib/117808102006877461743/photos\">Andri Kyrychok</a>"], "photo_reference": "CmRaAAAAHNoj6oZcdaBL0Y-BbBz78CwBCGYDIGfSdQyi-3PcwGvv4B_GYMDIaXe6h0fKo1XW1-smWNvP17sp-qan5eeg-MqIkyioHekIwPUhaSbGU0PpSQKWJLghs-dLeQq4GmXiEhCrSnpMSm5CpKaIbILenzKAGhR8KaVr-BJ78vmFrvYI9go9B932Fg", "width": 546}], "place_id": "ChIJzxYuijx_44kRRILba9QQn0k", "reference": "ChIJzxYuijx_44kRRILba9QQn0k", "scope": "GOOGLE", "types": ["neighborhood", "political"], "vicinity": "Boston"}}