{"ChIJGzE9DS1l44kRoOhiASS_fHg": {"geometry": {"location": {"lat": 42.3600825, "lng": -71.0588801}, "viewport": {"northeast": {"lat": 42.40081989999999, "lng": -70.749455}, "southwest": {"lat": 42.22788, "lng": -71.191113}}}, "icon": "https://maps.gstatic.com/mapfiles/place_api/icons/geocode-71.png", "id": "06755c25d2b34d13942a4713971756a55b870ced", "name": "Boston", "photos": [{"height": 3024, "html_attributions": ["<a href=\"https://maps.google.com/maps/contrib/104670289779338733432/photos\">Natalia Zalucean</a>"], "photo_reference": "CmRaAAAAqjIYXgZUXbzzhLvBR_ZeN145-OL4Z2O8qm_zIsBCPQXZFK3Mt5SxVicL_zIjEp-NsHy37osDiJI59i2hpMT6uWQEe1mg-SPvuUhkdAHiV2Ds7jkSEsRfcQz_t1GjBQwEEhA_s5fNKNeAAAoBOUR0T6bdGhRc4tGys6T6ThkGK8zZf_rSILb0pg", "width": 4032}], "place_id": "ChIJGzE9DS1l44kRoOhiASS_fHg", "reference": "ChIJGzE9DS1l44kRoOhiASS_fHg", "scope": "GOOGLE", "types": ["locality", "political"], "vicinity": "Boston"}, "ChIJawGgPi9544kRAz4DL1lYPLA": {"geometry": {"location": {"lat": 42.2975998, "lng": -71.1381674}, "viewport": {"northeast": {"lat": 42.2989361302915, "lng": -71.13183860000001}, "southwest": {"lat": 42.2962381697085, "lng": -71.140277}}}, "icon": "https://maps.gstatic.com/mapfiles/place_api/icons/generic_recreational-71.png", "id": "7735eee7f01f3c9a6c8b33cc11497c9e6bdb1f5e", "name": "Allandale Woods", "photos": [{"height": 2988, "html_attributions": ["<a href=\"https://maps.google.com/maps/contrib/117705945154376700054/photos\">E B</a>"], "photo_reference": "CmRaAAAAyx5es3qqBq2P4rt52JRfmWaxrs4LAkBtPxi7wjkIi0WELTAZN960MICrzlW7FdFjjtLagmhCs4JpE0YPC6EPjA5UpXEyu3WUC2xnhqe0-LRYSzBl-GdbeP4HdUyWWBueEhDRnIp98Amrz4W9zFwMnqGQGhQf6busgUwLge3v6gOqUIkneTnflw", "width": 5312}], "place_id": "ChIJawGgPi9544kRAz4DL1lYPLA", "plus_code": {"compound_code": "7VX6+2P Boston, Massachusetts, United States", "global_code": "87JC7VX6+2P"}, "rating": 4.4, "reference": "ChIJawGgPi9544kRAz4DL1lYPLA", "scope": "GOOGLE", "types": ["park", "point_of_interest", "establishment"], "user_ratings_total": 19, "vicinity": "Chestnut Hill"}, "ChIJdfzOTil544kRdtdxlDFkRpo": {"geometry": {"location": {"lat": 42.2956197, "lng": -71.13941249999999}, "viewport": {"northeast": {"lat": 42.29701398029149, "lng": -71.13805426970849}, "southwest": {"lat": 42.2943160197085, "lng": -71.1407522302915}}}, "icon": "https://maps.gstatic.com/mapfiles/place_api/icons/generic_business-71.png", "id": "c4c49ce5e29339205057ea5e8c51a68fe5a5e2ab", "name": "Law Offices of Rainer Robert", "place_id": "ChIJdfzOTil544kRdtdxlDFkRpo", "plus_code": {"compound_code": "7VW6+66 Boston, Massachusetts, United States", "global_code": "87JC7VW6+66"}, "reference": "ChIJdfzOTil544kRdtdxlDFkRpo", "scope": "GOOGLE", "types": ["lawyer", "point_of_interest", "establishment"], "vicinity": "60 VFW Parkway, West Roxbury"}, "ChIJzxYuijx_44kRRILba9QQn0k": {"geometry": {"location": {"lat": 42.27975539999999, "lng": -71.1626756}, "viewport": {"northeast": {"lat": 42.303697, "lng": -71.12789599999999}, "southwest": {"lat": 42.25289799999999, "lng": -71.191198}}}, "icon": "https://maps.gstatic.com/mapfiles/place_api/icons/geocode-71.png", "id": "20de47f271a3ccaf647bdac7b9ee10bd6e83a6c4", "name": "West Roxbury", "photos": [{"height": 603, "html_attributions": ["<a href=\"https://maps.google.com/maps/contrib/117808102006877461743/photos\">Andri Kyrychok</a>"], "photo_reference": "CmRaAAAAMMsIJSWD9zftOJGlbVJJH8WeeSc2csyu24wVgOgL9YvwRKT5zOUO2HRuVJ8oaMSYoHxfxFXd_RyNteQg-V9xma1QGpIju2cOK5VyuEbikHkK8XPaF2sk1TuhDVRtCIbJEhA_dN8lSkTuYJxyNLVDeQEuGhSXRBFhuIHtbaGybX4TP-UkRg0qlA", "width": 546}], "place_id": "ChIJzxYuijx_44kRRILba9QQn0k", "reference": "ChIJzxYuijx_44kRRILba9QQn0k", "scope": "GOOGLE", "types": ["neighborhood", "political"], "vicinity": "Boston"}}