{"ChIJGzE9DS1l44kRoOhiASS_fHg": {"geometry": {"location": {"lat": 42.3600825, "lng": -71.0588801}, "viewport": {"northeast": {"lat": 42.40081989999999, "lng": -70.749455}, "southwest": {"lat": 42.22788, "lng": -71.191113}}}, "icon": "https://maps.gstatic.com/mapfiles/place_api/icons/geocode-71.png", "id": "06755c25d2b34d13942a4713971756a55b870ced", "name": "Boston", "photos": [{"height": 3024, "html_attributions": ["<a href=\"https://maps.google.com/maps/contrib/104670289779338733432/photos\">Natalia Zalucean</a>"], "photo_reference": "CmRaAAAAoA-g24Kjd3tOoNTIr6Q2OVmxSHQoWvNFzQq6XH1CsZvoh5la-rx8z2SUA9dDlq85gjbSYVis8n-tw-_jNwGgooGP_7tCciiMNKmUdyUoxgN_B1TwGya3Tcqa-p6uxCBsEhDlzXNtAL2MOtz0SGitnd0LGhTMZkgaQB_dedtRR-rBw7Te-S5dGw", "width": 4032}], "place_id": "ChIJGzE9DS1l44kRoOhiASS_fHg", "reference": "ChIJGzE9DS1l44kRoOhiASS_fHg", "scope": "GOOGLE", "types": ["locality", "political"], "vicinity": "Boston"}, "ChIJH5WoDpZ644kRhdwhX8azXB8": {"geometry": {"location": {"lat": 42.33311669999999, "lng": -71.0273747}, "viewport": {"northeast": {"lat": 42.33446788029149, "lng": -71.0258873197085}, "southwest": {"lat": 42.3317699197085, "lng": -71.02858528029151}}}, "icon": "https://maps.gstatic.com/mapfiles/place_api/icons/restaurant-71.png", "id": "231245bf764192daf62cb8a4445f9dd4d69f6d57", "name": "Local 149", "opening_hours": {"open_now": false}, "photos": [{"height": 1069, "html_attributions": ["<a href=\"https://maps.google.com/maps/contrib/111237695447312392163/photos\">Local 149</a>"], "photo_reference": "CmRaAAAAIXXwl7IEudy8g43NQ_GUclY1kbWRpzb-Wg7hrZLboI6Tu4O4U1wCvzREtXEMKbzPBwhDNrGXNreiLfVoqYinDcX4JB52xO196JNzgB5drFd2iCzseQqWOJ-yrsCXZjIBEhDOViqMVAzlDExj0sv4u8atGhQqwnXsSZ9Iz_pkWAxSXi9R20rCyg", "width": 2000}], "place_id": "ChIJH5WoDpZ644kRhdwhX8azXB8", "plus_code": {"compound_code": "8XMF+63 Boston, Massachusetts, United States", "global_code": "87JC8XMF+63"}, "price_level": 2, "rating": 4.4, "reference": "ChIJH5WoDpZ644kRhdwhX8azXB8", "scope": "GOOGLE", "types": ["bar", "restaurant", "point_of_interest", "food", "establishment"], "user_ratings_total": 215, "vicinity": "149 P Street, Boston"}, "ChIJE_7u25V644kRbojIghXUTWk": {"geometry": {"location": {"lat": 42.3328581, "lng": -71.0280011}, "viewport": {"northeast": {"lat": 42.33440013029149, "lng": -71.02665651970851}, "southwest": {"lat": 42.33170216970849, "lng": -71.02935448029152}}}, "icon": "https://maps.gstatic.com/mapfiles/place_api/icons/generic_business-71.png", "id": "3f50d7090b31a2993aad068d32d68ac1afccca26", "name": "Karen M. Hieken, PA", "place_id": "ChIJE_7u25V644kRbojIghXUTWk", "plus_code": {"compound_code": "8XMC+4Q Boston, Massachusetts, United States", "global_code": "87JC8XMC+4Q"}, "reference": "ChIJE_7u25V644kRbojIghXUTWk", "scope": "GOOGLE", "types": ["doctor", "health", "point_of_interest", "establishment"], "vicinity": "Boston"}, "ChIJE_7u25V644kRVADTEGXm-Wc": {"geometry": {"location": {"lat": 42.332831, "lng": -71.027982}, "viewport": {"northeast": {"lat": 42.3339737302915, "lng": -71.02663731970848}, "southwest": {"lat": 42.3312757697085, "lng": -71.02933528029149}}}, "icon": "https://maps.gstatic.com/mapfiles/place_api/icons/generic_business-71.png", "id": "cf877de552b28be78f54c740c8aec35e9e106eb2", "name": "Shea Caitlin", "place_id": "ChIJE_7u25V644kRVADTEGXm-Wc", "plus_code": {"compound_code": "8XMC+4R Boston, Massachusetts, United States", "global_code": "87JC8XMC+4R"}, "reference": "ChIJE_7u25V644kRVADTEGXm-Wc", "scope": "GOOGLE", "types": ["doctor", "health", "point_of_interest", "establishment"], "vicinity": "804 East 7th Street, South Boston"}, "ChIJCzFaQZZ644kRsrYH5-oaDRM": {"geometry": {"location": {"lat": 42.334307, "lng": -71.027835}, "viewport": {"northeast": {"lat": 42.3355391302915, "lng": -71.02648281970849}, "southwest": {"lat": 42.3328411697085, "lng": -71.02918078029151}}}, "icon": "https://maps.gstatic.com/mapfiles/place_api/icons/generic_business-71.png", "id": "bd3a55dc4856e3cf4e857c387d16473bb35f6959", "name": "Speech Therapeutics", "place_id": "ChIJCzFaQZZ644kRsrYH5-oaDRM", "plus_code": {"compound_code": "8XMC+PV Boston, Massachusetts, United States", "global_code": "87JC8XMC+PV"}, "reference": "ChIJCzFaQZZ644kRsrYH5-oaDRM", "scope": "GOOGLE", "types": ["health", "point_of_interest", "establishment"], "vicinity": "818 East 5th Street, Boston"}, "ChIJWbHrQ5Z644kRN_3KgWpyJ7c": {"geometry": {"location": {"lat": 42.33422849999999, "lng": -71.0279249}, "viewport": {"northeast": {"lat": 42.3354991802915, "lng": -71.0265737697085}, "southwest": {"lat": 42.3328012197085, "lng": -71.02927173029151}}}, "icon": "https://maps.gstatic.com/mapfiles/place_api/icons/generic_business-71.png", "id": "376575b2449811ab25e1dcf4c2a7d7c181b2fa07", "name": "Boston Speech Therapy", "opening_hours": {"open_now": true}, "photos": [{"height": 700, "html_attributions": ["<a href=\"https://maps.google.com/maps/contrib/106889258024412818861/photos\">Boston Speech Therapy</a>"], "photo_reference": "CmRaAAAA3A1Tjpc9dZm3yJ6EAZp7pP5ORPZlpOczSYyNiVv96WKTZffFsly435P4daZu4hZd6HX1dPWqSOtI_xvxp8nCA2GZIddk_rNxAsu493eHjNP8AfoC5EAQemRhfWkvP72HEhDg8iLCkaqk0QzTE1ylFVdFGhSelt-lYNe1KmQnXmdg02iCF6fNeg", "width": 700}], "place_id": "ChIJWbHrQ5Z644kRN_3KgWpyJ7c", "plus_code": {"compound_code": "8XMC+MR Boston, Massachusetts, United States", "global_code": "87JC8XMC+MR"}, "rating": 5, "reference": "ChIJWbHrQ5Z644kRN_3KgWpyJ7c", "scope": "GOOGLE", "types": ["health", "point_of_interest", "establishment"], "user_ratings_total": 1, "vicinity": "816 East 5th Street, South Boston"}, "ChIJRd3bbJZ644kR1cZoUeIdOPE": {"geometry": {"location": {"lat": 42.333582, "lng": -71.027554}, "viewport": {"northeast": {"lat": 42.3347651302915, "lng": -71.02619926970848}, "southwest": {"lat": 42.3320671697085, "lng": -71.02889723029149}}}, "icon": "https://maps.gstatic.com/mapfiles/place_api/icons/generic_business-71.png", "id": "174f430ede18618badd3ea050d1e1efd049b1209", "name": "Boston Edge Realty", "opening_hours": {"open_now": true}, "photos": [{"height": 639, "html_attributions": ["<a href=\"https://maps.google.com/maps/contrib/114589335967454807482/photos\">Boston Edge Realty</a>"], "photo_reference": "CmRZAAAALyHwkxVEDU30n-JpPImcbp2oNWmhu_b_hWLwK6O6Okf9FOAJnuoTj7Md1G0AFK7RdYsX0c7ZFQ7aRCqQ2gjmNrQTviInKX-IldeBzkuklRW5YpJawMwaq4sTlPAarqdOEhD6_sAnh-pdwIy1SmZjWxipGhRg1w-ngdzp3DNMz5bB9_NWJcuMCw", "width": 960}], "place_id": "ChIJRd3bbJZ644kR1cZoUeIdOPE", "plus_code": {"compound_code": "8XMC+CX Boston, Massachusetts, United States", "global_code": "87JC8XMC+CX"}, "reference": "ChIJRd3bbJZ644kR1cZoUeIdOPE", "scope": "GOOGLE", "types": ["real_estate_agency", "point_of_interest", "establishment"], "vicinity": "820R East 6th Street, Boston"}, "ChIJ91b-Y5Z644kRdgJwxOoEI4U": {"geometry": {"location": {"lat": 42.3338833, "lng": -71.02861829999999}, "viewport": {"northeast": {"lat": 42.33532013029149, "lng": -71.02727241970848}, "southwest": {"lat": 42.33262216970849, "lng": -71.0299703802915}}}, "icon": "https://maps.gstatic.com/mapfiles/place_api/icons/generic_business-71.png", "id": "f21f6251bd3cbbbd80c49cc424b5e3475f196bcd", "name": "Mike's Carpentry & Painting", "opening_hours": {"open_now": true}, "place_id": "ChIJ91b-Y5Z644kRdgJwxOoEI4U", "plus_code": {"compound_code": "8XMC+HH Boston, Massachusetts, United States", "global_code": "87JC8XMC+HH"}, "rating": 3.3, "reference": "ChIJ91b-Y5Z644kRdgJwxOoEI4U", "scope": "GOOGLE", "types": ["point_of_interest", "establishment"], "user_ratings_total": 3, "vicinity": "799 East 5th Street, Boston"}, "ChIJE_7u25V644kRZn4HOAeBo34": {"geometry": {"location": {"lat": 42.332831, "lng": -71.027982}, "viewport": {"northeast": {"lat": 42.3339737302915, "lng": -71.02663731970848}, "southwest": {"lat": 42.3312757697085, "lng": -71.02933528029149}}}, "icon": "https://maps.gstatic.com/mapfiles/place_api/icons/generic_business-71.png", "id": "30ea95d2f4cf748647f14c72cbe34caf797229a1", "name": "Brown Laurie M", "place_id": "ChIJE_7u25V644kRZn4HOAeBo34", "plus_code": {"compound_code": "8XMC+4R Boston, Massachusetts, United States", "global_code": "87JC8XMC+4R"}, "reference": "ChIJE_7u25V644kRZn4HOAeBo34", "scope": "GOOGLE", "types": ["doctor", "health", "point_of_interest", "establishment"], "vicinity": "804 East 7th Street, South Boston"}, "ChIJDTIH-JZ644kRJM9iLijXvzo": {"geometry": {"location": {"lat": 42.33477930000001, "lng": -71.0290653}, "viewport": {"northeast": {"lat": 42.33617563029151, "lng": -71.0277176697085}, "southwest": {"lat": 42.33347766970851, "lng": -71.03041563029151}}}, "icon": "https://maps.gstatic.com/mapfiles/place_api/icons/generic_business-71.png", "id": "7c9760fe04190131f3168bc6058e9589ec8b1b78", "name": "Michael J Perkins Post", "photos": [{"height": 2816, "html_attributions": ["<a href=\"https://maps.google.com/maps/contrib/114167806152350542890/photos\">Mikl\u00f3s Kiss</a>"], "photo_reference": "CmRaAAAAHPLFXGceAtlnkNUvWQCzwJj5gbnmcOiekP-BYFQPBLbDPp2GVVCCxm-efq4WIxYQYSU5Jh7_wHKYyEys48ScQsaFz0pDKMwr_1fSku9l2sARJLdeBI5oEzswWRfEFnH7EhDRNqNFdb1fZG_V4S-foZl5GhSRWooMQYPu-jtweLRk5GeoEdZjMQ", "width": 2112}], "place_id": "ChIJDTIH-JZ644kRJM9iLijXvzo", "plus_code": {"compound_code": "8XMC+W9 Boston, Massachusetts, United States", "global_code": "87JC8XMC+W9"}, "rating": 4.3, "reference": "ChIJDTIH-JZ644kRJM9iLijXvzo", "scope": "GOOGLE", "types": ["point_of_interest", "establishment"], "user_ratings_total": 3, "vicinity": "863 East 4th Street, Boston"}, "ChIJ0wPBTpZ644kRgTRipCNKtOs": {"geometry": {"location": {"lat": 42.3348084, "lng": -71.0279699}, "viewport": {"northeast": {"lat": 42.3361989802915, "lng": -71.0266223197085}, "southwest": {"lat": 42.3335010197085, "lng": -71.0293202802915}}}, "icon": "https://maps.gstatic.com/mapfiles/place_api/icons/generic_business-71.png", "id": "7e2776c928e8a69b8ce773b8c590fc000f33eb17", "name": "Syneron", "place_id": "ChIJ0wPBTpZ644kRgTRipCNKtOs", "plus_code": {"compound_code": "8XMC+WR Boston, Massachusetts, United States", "global_code": "87JC8XMC+WR"}, "reference": "ChIJ0wPBTpZ644kRgTRipCNKtOs", "scope": "GOOGLE", "types": ["point_of_interest", "establishment"], "vicinity": "887 East 4th Street, Boston"}, "ChIJu-aLyJd644kRtaqO4lT4mPU": {"geometry": {"location": {"lat": 42.3356035, "lng": -71.0273649}, "viewport": {"northeast": {"lat": 42.3370355802915, "lng": -71.0260187197085}, "southwest": {"lat": 42.3343376197085, "lng": -71.02871668029151}}}, "icon": "https://maps.gstatic.com/mapfiles/place_api/icons/generic_business-71.png", "id": "5135360d9ed4beaf80c2c0046d304f27b3e27d5e", "name": "MCM Properties", "place_id": "ChIJu-aLyJd644kRtaqO4lT4mPU", "plus_code": {"compound_code": "8XPF+63 Boston, Massachusetts, United States", "global_code": "87JC8XPF+63"}, "rating": 3.3, "reference": "ChIJu-aLyJd644kRtaqO4lT4mPU", "scope": "GOOGLE", "types": ["real_estate_agency", "point_of_interest", "establishment"], "user_ratings_total": 3, "vicinity": "917 East Broadway, South Boston"}, "ChIJgyKzyZd644kRb-6WSrPOK-I": {"geometry": {"location": {"lat": 42.3356035, "lng": -71.027365}, "viewport": {"northeast": {"lat": 42.3370355802915, "lng": -71.0260188197085}, "southwest": {"lat": 42.3343376197085, "lng": -71.0287167802915}}}, "icon": "https://maps.gstatic.com/mapfiles/place_api/icons/generic_business-71.png", "id": "6fb2ba91b991c7d11556f08f533008bf1050e692", "name": "NEW ENGLAND BUSINESS PARTNERS", "place_id": "ChIJgyKzyZd644kRb-6WSrPOK-I", "plus_code": {"compound_code": "8XPF+63 Boston, Massachusetts, United States", "global_code": "87JC8XPF+63"}, "reference": "ChIJgyKzyZd644kRb-6WSrPOK-I", "scope": "GOOGLE", "types": ["point_of_interest", "establishment"], "vicinity": "917 East Broadway, Boston"}, "ChIJ4wWBEpZ644kRMK0o0TKK2Ds": {"geometry": {"location": {"lat": 42.3333695, "lng": -71.0272426}, "viewport": {"northeast": {"lat": 42.3347195302915, "lng": -71.02582481970849}, "southwest": {"lat": 42.3320215697085, "lng": -71.0285227802915}}}, "icon": "https://maps.gstatic.com/mapfiles/place_api/icons/shopping-71.png", "id": "54f877f04848bc106ec9739e3dd5d6220ffb1aa1", "name": "Jimmy's Korner", "opening_hours": {"open_now": true}, "photos": [{"height": 2592, "html_attributions": ["<a href=\"https://maps.google.com/maps/contrib/110750534963042456070/photos\">Aman Rauniyar</a>"], "photo_reference": "CmRaAAAAu0P6hNezxR--FtxDlgmGzoug-ipb5stE_4g4IgwdALe1eaZu4ZDs01XikunmadaDKGH9QkOttX8mGqwgeobZ_Pb7Yrr1AA-K0QdRpZgRzoVngnlGOx_Qw-5XTIadyNcLEhDfQpdv84VP-mVhQg8lwYLZGhQEbQ541dJL_xzQ_hvQhOm2r2OASA", "width": 1944}], "place_id": "ChIJ4wWBEpZ644kRMK0o0TKK2Ds", "plus_code": {"compound_code": "8XMF+84 Boston, Massachusetts, United States", "global_code": "87JC8XMF+84"}, "rating": 3.8, "reference": "ChIJ4wWBEpZ644kRMK0o0TKK2Ds", "scope": "GOOGLE", "types": ["liquor_store", "store", "point_of_interest", "establishment"], "user_ratings_total": 30, "vicinity": "143 P Street, Boston"}, "ChIJ5dq6aZZ644kRnY6xgk4SF54": {"geometry": {"location": {"lat": 42.3336514, "lng": -71.02800959999999}, "viewport": {"northeast": {"lat": 42.33520988029149, "lng": -71.02666641970849}, "southwest": {"lat": 42.33251191970849, "lng": -71.02936438029151}}}, "icon": "https://maps.gstatic.com/mapfiles/place_api/icons/generic_business-71.png", "id": "a00dfd21f8a1f9c434e6943212f248c6f04f2ab9", "name": "Old Harbour Construction Corporation", "photos": [{"height": 1365, "html_attributions": ["<a href=\"https://maps.google.com/maps/contrib/103425169666602062983/photos\">Paul Clep</a>"], "photo_reference": "CmRaAAAAgEDEn0QnVnrJTHgvTgbGOfs-PCSlP9a21AehpKH_NQsRAAO6LejhZyrsDaHSDuw8sJJurZIc3ob8JHTAuiQ4bLCtfHyBC86Aal3javLGNRj01RGtG3SyrIaNcHRIGspWEhCn4mnnmJ_qfgxGKKCIdohRGhTJEBJlIXR4XlaJWXhrzCGSIQx4Tw", "width": 2048}], "place_id": "ChIJ5dq6aZZ644kRnY6xgk4SF54", "plus_code": {"compound_code": "8XMC+FQ Boston, Massachusetts, United States", "global_code": "87JC8XMC+FQ"}, "reference": "ChIJ5dq6aZZ644kRnY6xgk4SF54", "scope": "GOOGLE", "types": ["general_contractor", "point_of_interest", "establishment"], "vicinity": "815 East 5th Street, Boston"}, "ChIJaX2yyZd644kR8imEsLN_tOw": {"geometry": {"location": {"lat": 42.33559669999999, "lng": -71.0273536}, "viewport": {"northeast": {"lat": 42.33703233029149, "lng": -71.02600751970849}, "southwest": {"lat": 42.33433436970849, "lng": -71.02870548029149}}}, "icon": "https://maps.gstatic.com/mapfiles/place_api/icons/generic_business-71.png", "id": "a69d8e0eb0a133305f095a3434a45fae7259f360", "name": "Southie Shuttle", "place_id": "ChIJaX2yyZd644kR8imEsLN_tOw", "plus_code": {"compound_code": "8XPF+63 Boston, Massachusetts, United States", "global_code": "87JC8XPF+63"}, "reference": "ChIJaX2yyZd644kR8imEsLN_tOw", "scope": "GOOGLE", "types": ["point_of_interest", "establishment"], "vicinity": "917 East Broadway, Boston"}, "ChIJbZyLPpZ644kR0S4Q_LLZfDY": {"geometry": {"location": {"lat": 42.334111, "lng": -71.027196}, "viewport": {"northeast": {"lat": 42.3354633802915, "lng": -71.02584706970849}, "southwest": {"lat": 42.3327654197085, "lng": -71.02854503029151}}}, "icon": "https://maps.gstatic.com/mapfiles/place_api/icons/bus-71.png", "id": "fbe2611dda3de58d5fda3cc1dcd3fc4171b6fc0b", "name": "P St @ E 5th St", "place_id": "ChIJbZyLPpZ644kR0S4Q_LLZfDY", "plus_code": {"compound_code": "8XMF+J4 Boston, Massachusetts, United States", "global_code": "87JC8XMF+J4"}, "reference": "ChIJbZyLPpZ644kR0S4Q_LLZfDY", "scope": "GOOGLE", "types": ["bus_station", "transit_station", "point_of_interest", "establishment"], "vicinity": "United States"}, "ChIJn5UPIpZ644kRaiUFNW0C6Q4": {"geometry": {"location": {"lat": 42.3339471, "lng": -71.0264457}, "viewport": {"northeast": {"lat": 42.3353712802915, "lng": -71.02509876970849}, "southwest": {"lat": 42.3326733197085, "lng": -71.02779673029151}}}, "icon": "https://maps.gstatic.com/mapfiles/place_api/icons/generic_business-71.png", "id": "9a9327bd466904488977b2ace834bb3cc0cbfaba", "name": "Walsh Appraisal & Associates", "place_id": "ChIJn5UPIpZ644kRaiUFNW0C6Q4", "plus_code": {"compound_code": "8XMF+HC Boston, Massachusetts, United States", "global_code": "87JC8XMF+HC"}, "reference": "ChIJn5UPIpZ644kRaiUFNW0C6Q4", "scope": "GOOGLE", "types": ["finance", "point_of_interest", "establishment"], "vicinity": "847 East 5th Street, South Boston"}, "ChIJIZWuNJZ644kRCKHq3BgL4W4": {"geometry": {"location": {"lat": 42.3351331, "lng": -71.0270295}, "viewport": {"northeast": {"lat": 42.33648168029151, "lng": -71.02574101970849}, "southwest": {"lat": 42.33378371970851, "lng": -71.0284389802915}}}, "icon": "https://maps.gstatic.com/mapfiles/place_api/icons/generic_business-71.png", "id": "17d6688830fb8fb025a9ce1de51bce46735ea21b", "name": "East Side Hair Salon", "place_id": "ChIJIZWuNJZ644kRCKHq3BgL4W4", "plus_code": {"compound_code": "8XPF+35 Boston, Massachusetts, United States", "global_code": "87JC8XPF+35"}, "rating": 4.1, "reference": "ChIJIZWuNJZ644kRCKHq3BgL4W4", "scope": "GOOGLE", "types": ["beauty_salon", "point_of_interest", "establishment"], "user_ratings_total": 9, "vicinity": "92 P Street, Boston"}, "ChIJySFSPZJ644kRQd1ylK2wP54": {"geometry": {"location": {"lat": 42.3381437, "lng": -71.0475773}, "viewport": {"northeast": {"lat": 42.3551665, "lng": -71.0091984}, "southwest": {"lat": 42.32115, "lng": -71.0652948}}}, "icon": "https://maps.gstatic.com/mapfiles/place_api/icons/geocode-71.png", "id": "56a2680fff3ada55ed539f65fc2e901a748193c6", "name": "South Boston", "photos": [{"height": 1836, "html_attributions": ["<a href=\"https://maps.google.com/maps/contrib/100381122114234243821/photos\">Gary Stephens</a>"], "photo_reference": "CmRaAAAAMMtc47GcsPt3sVqhW6p23P8cYWtTu4-7_634AN6gstyLhtm3WoGUDZHrIQ3q-CiFhPYKZrJJs4boNWeuuXpMCIquAgr9PYdoC1QVO_BJE8coEBUpV4E371IlPjPpLzLwEhDzyqvyzPqdkMy-sPHTsA7gGhQw9gJQnfyJ51w_8cbVzHyxMLNUKg", "width": 3264}], "place_id": "ChIJySFSPZJ644kRQd1ylK2wP54", "reference": "ChIJySFSPZJ644kRQd1ylK2wP54", "scope": "GOOGLE", "types": ["neighborhood", "political"], "vicinity": "Boston"}, "ChIJ0eKR4ZV644kRE9cGF7dJiNY": {"geometry": {"location": {"lat": 42.33265699999999, "lng": -71.027166}, "viewport": {"northeast": {"lat": 42.33401013029149, "lng": -71.0257663697085}, "southwest": {"lat": 42.33131216970849, "lng": -71.02846433029151}}}, "icon": "https://maps.gstatic.com/mapfiles/place_api/icons/bus-71.png", "id": "ea73c101c72bbfdc8cbf3c751488d30732477be7", "name": "P St @ Columbia Rd", "place_id": "ChIJ0eKR4ZV644kRE9cGF7dJiNY", "plus_code": {"compound_code": "8XMF+34 Boston, Massachusetts, United States", "global_code": "87JC8XMF+34"}, "reference": "ChIJ0eKR4ZV644kRE9cGF7dJiNY", "scope": "GOOGLE", "types": ["bus_station", "transit_station", "point_of_interest", "establishment"], "vicinity": "United States"}}