{"ChIJGzE9DS1l44kRoOhiASS_fHg": {"geometry": {"location": {"lat": 42.3600825, "lng": -71.0588801}, "viewport": {"northeast": {"lat": 42.40081989999999, "lng": -70.749455}, "southwest": {"lat": 42.22788, "lng": -71.191113}}}, "icon": "https://maps.gstatic.com/mapfiles/place_api/icons/geocode-71.png", "id": "06755c25d2b34d13942a4713971756a55b870ced", "name": "Boston", "photos": [{"height": 3024, "html_attributions": ["<a href=\"https://maps.google.com/maps/contrib/104670289779338733432/photos\">Natalia Zalucean</a>"], "photo_reference": "CmRaAAAAj8f4zPXE5aLHmeqknccv12aZ31qyjHR3UrdtJNzico_c4vGx5ql9FYbJ779E3LxHdN8uh4b8-LJSJjvlQufj_sPEIVvGD_k2etZNSTCHeDtMTM60YIEVXStWkbcO6LrwEhCEGTOU6ncuqapG0HpkE65dGhRmpNaYor2kn-jtfmOHnqQNoxEaow", "width": 4032}], "place_id": "ChIJGzE9DS1l44kRoOhiASS_fHg", "reference": "ChIJGzE9DS1l44kRoOhiASS_fHg", "scope": "GOOGLE", "types": ["locality", "political"], "vicinity": "Boston"}, "ChIJnQwY6Fl644kRAEYkR0T748o": {"geometry": {"location": {"lat": 42.3238173, "lng": -71.0543308}, "viewport": {"northeast": {"lat": 42.32509033029149, "lng": -71.0531471697085}, "southwest": {"lat": 42.3223923697085, "lng": -71.0558451302915}}}, "icon": "https://maps.gstatic.com/mapfiles/place_api/icons/generic_business-71.png", "id": "762930f0d551e5464897905f58ae25078589bfb2", "name": "Olde Bostonian", "opening_hours": {"open_now": false}, "photos": [{"height": 4048, "html_attributions": ["<a href=\"https://maps.google.com/maps/contrib/113319237412040954108/photos\">Dan Phipps</a>"], "photo_reference": "CmRZAAAAIIkVqnERNqlGNtXJSG796kN4qCk7CsBGTPJPQ0Morv5nwgUJqaq0CH3eqRG2mTaXh2k3WQoVm1bld6MwbqEmEtuPiEK1VVaHIHERhiEM-T9L9atVHUdHuXQ6NneVAKnaEhAjWzs6VJ0o0h75Lk_3b_-BGhTroInR0cUGHH6QcVKalulexRRCuA", "width": 3036}], "place_id": "ChIJnQwY6Fl644kRAEYkR0T748o", "plus_code": {"compound_code": "8WFW+G7 Boston, Massachusetts, United States", "global_code": "87JC8WFW+G7"}, "rating": 4.4, "reference": "ChIJnQwY6Fl644kRAEYkR0T748o", "scope": "GOOGLE", "types": ["point_of_interest", "establishment"], "user_ratings_total": 9, "vicinity": "66 Von Hillern Street, Boston"}, "ChIJnQwY6Fl644kRIb3cbmnIxrw": {"geometry": {"location": {"lat": 42.323796, "lng": -71.05427499999999}, "viewport": {"northeast": {"lat": 42.3250627802915, "lng": -71.0531050697085}, "southwest": {"lat": 42.3223648197085, "lng": -71.0558030302915}}}, "icon": "https://maps.gstatic.com/mapfiles/place_api/icons/generic_business-71.png", "id": "d842354846637196fdd758f0a972a4187b979afd", "name": "Port Morris Tile & Marble Corporation", "place_id": "ChIJnQwY6Fl644kRIb3cbmnIxrw", "plus_code": {"compound_code": "8WFW+G7 Boston, Massachusetts, United States", "global_code": "87JC8WFW+G7"}, "reference": "ChIJnQwY6Fl644kRIb3cbmnIxrw", "scope": "GOOGLE", "types": ["general_contractor", "point_of_interest", "establishment"], "vicinity": "66 Von Hillern Street # B, Dorchester"}, "ChIJTXQn_ll644kReq5ytdbQsik": {"geometry": {"location": {"lat": 42.323309, "lng": -71.055553}, "viewport": {"northeast": {"lat": 42.3246943802915, "lng": -71.05420436970849}, "southwest": {"lat": 42.3219964197085, "lng": -71.0569023302915}}}, "icon": "https://maps.gstatic.com/mapfiles/place_api/icons/generic_business-71.png", "id": "91236796f3b165c714a27adef9ca70b11edf61d3", "name": "ATS Equipment Inc", "opening_hours": {"open_now": false}, "photos": [{"height": 768, "html_attributions": ["<a href=\"https://maps.google.com/maps/contrib/111738401847228111303/photos\">Custom Jim</a>"], "photo_reference": "CmRaAAAAh8QqcRuzFs8rVDco1uffarRZg1wXjOTQRW2qHmkDGEE5bTmiBDt5z3mPnUGkc3K7mbubgk4ugJ1YmR7Y3fnvIvE_YlSEVr-7TcDsOlOZBVe_R_AyF9DdTVYBhMOBLwGlEhBYMpu1y4wc5LfdCQrOra64GhSo65pv3BTY3Gc2Bmnr_mKSSC204Q", "width": 1024}], "place_id": "ChIJTXQn_ll644kReq5ytdbQsik", "plus_code": {"compound_code": "8WFV+8Q Boston, Massachusetts, United States", "global_code": "87JC8WFV+8Q"}, "rating": 4.2, "reference": "ChIJTXQn_ll644kReq5ytdbQsik", "scope": "GOOGLE", "types": ["store", "point_of_interest", "establishment"], "user_ratings_total": 14, "vicinity": "33 Locust Street, Dorchester"}, "ChIJEW7nYld644kRrDV_DPcKmeM": {"geometry": {"location": {"lat": 42.322888, "lng": -71.05358799999999}, "viewport": {"northeast": {"lat": 42.32416823029151, "lng": -71.05238796970849}, "southwest": {"lat": 42.32147026970851, "lng": -71.0550859302915}}}, "icon": "https://maps.gstatic.com/mapfiles/place_api/icons/generic_business-71.png", "id": "d79861bdd7750a559f9670c773fef7e02a636643", "name": "The First Electronics Corporation", "opening_hours": {"open_now": false}, "photos": [{"height": 1536, "html_attributions": ["<a href=\"https://maps.google.com/maps/contrib/100809504678181360399/photos\">The First Electronics Corporation</a>"], "photo_reference": "CmRaAAAAb8ttD5ZA4B_pGhwSyOS1j9bxOKwx9Dtl6RrZH_kt3cyd56XFaAVw7R3FUP2eL5YN0JDd2Q6LLmw8hiCHNtztUPtoOGV7AqDT7M0RbDhp_cagNmCjC6cV6GxCOvEzOVKjEhBkQVVxesQpGqAxW0zPVVXeGhQ1_N9ait2P80K3ZGXCT9i167CSQw", "width": 2048}], "place_id": "ChIJEW7nYld644kRrDV_DPcKmeM", "plus_code": {"compound_code": "8WFW+5H Boston, Massachusetts, United States", "global_code": "87JC8WFW+5H"}, "reference": "ChIJEW7nYld644kRrDV_DPcKmeM", "scope": "GOOGLE", "types": ["point_of_interest", "establishment"], "vicinity": "71 Von Hillern Street, Dorchester"}, "ChIJJxVIjVl644kRgovD3Tbw-cs": {"geometry": {"location": {"lat": 42.3243798, "lng": -71.0550854}, "viewport": {"northeast": {"lat": 42.3256985302915, "lng": -71.05380071970848}, "southwest": {"lat": 42.3230005697085, "lng": -71.05649868029148}}}, "icon": "https://maps.gstatic.com/mapfiles/place_api/icons/shopping-71.png", "id": "bb22c6d76669c68f7dd0cbdd5a2286386f8c9363", "name": "NorthEast Electrical Distributors", "opening_hours": {"open_now": false}, "photos": [{"height": 4032, "html_attributions": ["<a href=\"https://maps.google.com/maps/contrib/101558345851519467444/photos\">Steve Spencer</a>"], "photo_reference": "CmRaAAAA2cmzeW4XOG-NvYRnOdTHZlh0xPdNkFKqZX0nmXCBO8CtYggsx9QjdOPNRH7zeDI5x31FeUldwJCDPZLfB2bJh0ubGNK0rqQyFc3j44OPdecLRi5hYY2Kyf4FLlUk11TJEhDMmYWkIXOjjyY-fiHCJqMrGhTpUnHqP56iAMI8b3U0Vc6rh6CTJw", "width": 2268}], "place_id": "ChIJJxVIjVl644kRgovD3Tbw-cs", "plus_code": {"compound_code": "8WFV+QX Boston, Massachusetts, United States", "global_code": "87JC8WFV+QX"}, "rating": 4.3, "reference": "ChIJJxVIjVl644kRgovD3Tbw-cs", "scope": "GOOGLE", "types": ["store", "point_of_interest", "establishment"], "user_ratings_total": 4, "vicinity": "50 Von Hillern Street, Dorchester"}, "ChIJ2_yV3Fl644kRuTs86pRuof0": {"geometry": {"location": {"lat": 42.323588, "lng": -71.053933}, "viewport": {"northeast": {"lat": 42.3248469302915, "lng": -71.05258321970848}, "southwest": {"lat": 42.3221489697085, "lng": -71.0552811802915}}}, "icon": "https://maps.gstatic.com/mapfiles/place_api/icons/generic_business-71.png", "id": "d53ec5f55f1eb55d073a770c8338f4da3b53d235", "name": "Metropolitan Restoration and Waterproofing Corp.", "opening_hours": {"open_now": false}, "photos": [{"height": 270, "html_attributions": ["<a href=\"https://maps.google.com/maps/contrib/103869192062166340164/photos\">Metropolitan Restoration and Waterproofing Corp.</a>"], "photo_reference": "CmRaAAAALS4iNa_tjdk3tODkFtxhV6LVhOIq1ReE2gXW4iNMCB-E4C4YFVlgsI8l_4wwaJ6x_xHil2CNDyvMtcd56CH1hV2vOVcMN_TLFKVUma042m5HY2z0J8Bwxg98W293HKLmEhC3VGbix8WVyzRVl-QkwD7xGhSCSXreqd2_NgUkloChuS4ZI8NlYw", "width": 540}], "place_id": "ChIJ2_yV3Fl644kRuTs86pRuof0", "plus_code": {"compound_code": "8WFW+CC Boston, Massachusetts, United States", "global_code": "87JC8WFW+CC"}, "reference": "ChIJ2_yV3Fl644kRuTs86pRuof0", "scope": "GOOGLE", "types": ["roofing_contractor", "point_of_interest", "establishment"], "vicinity": "70 Von Hillern Street, Dorchester"}, "ChIJG1uYP2d644kRKaWeYImVj5Q": {"geometry": {"location": {"lat": 42.3244078, "lng": -71.0550232}, "viewport": {"northeast": {"lat": 42.32571208029149, "lng": -71.0537692197085}, "southwest": {"lat": 42.3230141197085, "lng": -71.0564671802915}}}, "icon": "https://maps.gstatic.com/mapfiles/place_api/icons/generic_business-71.png", "id": "30af834c5f7cdb2c10964bf394f7bc8e9e6d3e3b", "name": "New England Auto Delivery", "opening_hours": {"open_now": false}, "photos": [{"height": 543, "html_attributions": ["<a href=\"https://maps.google.com/maps/contrib/116451079971399920507/photos\">New England Auto Delivery</a>"], "photo_reference": "CmRaAAAAqOyrON8WxLNK8hQe7NyfO9thx-Jc7KOZwrP8GSKYXXdU-W7ldqw7QbSF1NR-L7xNrIioLq082XuF9J9yR4Q3m4Ol8mYwv4jR6hgRyy5fgbaplBmfE5n9fw_EUcywuHvVEhD0ERiHpuBrcMUrY9hCpuJwGhToU5RO-85vwAhOtWHr5zrIoRRn3A", "width": 929}], "place_id": "ChIJG1uYP2d644kRKaWeYImVj5Q", "plus_code": {"compound_code": "8WFV+QX Boston, Massachusetts, United States", "global_code": "87JC8WFV+QX"}, "rating": 3.4, "reference": "ChIJG1uYP2d644kRKaWeYImVj5Q", "scope": "GOOGLE", "types": ["point_of_interest", "establishment"], "user_ratings_total": 8, "vicinity": "50 Von Hillern Street, Boston"}, "ChIJTUugqVB644kR34GUegRI68I": {"geometry": {"location": {"lat": 42.32332249999999, "lng": -71.0561894}, "viewport": {"northeast": {"lat": 42.3246936302915, "lng": -71.0548409197085}, "southwest": {"lat": 42.3219956697085, "lng": -71.0575388802915}}}, "icon": "https://maps.gstatic.com/mapfiles/place_api/icons/generic_business-71.png", "id": "4d72c007e8c59f64e798caeefe4be7359cfc99fe", "name": "New England Security & Public", "photos": [{"height": 282, "html_attributions": ["<a href=\"https://maps.google.com/maps/contrib/104874413080191255178/photos\">Josh Sweeney</a>"], "photo_reference": "CmRaAAAAi5MiHzucj_ZHBTLcl7_22VcbkYkC6A26Q-V1XQEHr5P2s7ggXrRe5pp6xXmyxZJSe1xdUEcq2zK885HNku8bMKv70fmiNRvP0vxDQkaI_5OmT9p3YOHETY098krKouVyEhBcMMBoKoQz6lWI2PYU3AuyGhRoq6_4fGpKBbn3mLJspCFglS_yXg", "width": 250}], "place_id": "ChIJTUugqVB644kR34GUegRI68I", "plus_code": {"compound_code": "8WFV+8G Boston, Massachusetts, United States", "global_code": "87JC8WFV+8G"}, "rating": 5, "reference": "ChIJTUugqVB644kR34GUegRI68I", "scope": "GOOGLE", "types": ["point_of_interest", "establishment"], "user_ratings_total": 1, "vicinity": "15 Locust Street # 15, Dorchester"}, "ChIJy5O-t1B244kReiuB75BRTNY": {"geometry": {"location": {"lat": 42.322739, "lng": -71.056082}, "viewport": {"northeast": {"lat": 42.32408888029151, "lng": -71.05463666970849}, "southwest": {"lat": 42.32139091970851, "lng": -71.0573346302915}}}, "icon": "https://maps.gstatic.com/mapfiles/place_api/icons/generic_business-71.png", "id": "341ac50d6026ae31c2d8e2faed5eb6e153d3e78a", "name": "EmVision Productions", "opening_hours": {"open_now": true}, "photos": [{"height": 1365, "html_attributions": ["<a href=\"https://maps.google.com/maps/contrib/107776681959493222720/photos\">EmVision Productions</a>"], "photo_reference": "CmRaAAAAyTPLiXpjNs2tFKepaQiwvyBzzCWs0UBU1iHk9nMRfrlCkEUTP3LqQ8J5qWHlcEcxEIcJWVgfHRElwR6pX0Qc-M9F_MUpSA771DcyeBG9kfPwbkZqV8t5TSNZQX5t0R6-EhAGdtKoNEWiSJlYcQufBx3sGhRFXVtpB0XnrlYKTkK8TH9iBG2P1g", "width": 2048}], "place_id": "ChIJy5O-t1B244kReiuB75BRTNY", "plus_code": {"compound_code": "8WFV+3H Boston, Massachusetts, United States", "global_code": "87JC8WFV+3H"}, "reference": "ChIJy5O-t1B244kReiuB75BRTNY", "scope": "GOOGLE", "types": ["point_of_interest", "establishment"], "vicinity": "122 Buttonwood Street, Dorchester"}, "ChIJnQwY6Fl644kR8at2cktpblQ": {"geometry": {"location": {"lat": 42.3242155, "lng": -71.0559624}, "viewport": {"northeast": {"lat": 42.3257047802915, "lng": -71.0543153197085}, "southwest": {"lat": 42.3230068197085, "lng": -71.0570132802915}}}, "icon": "https://maps.gstatic.com/mapfiles/place_api/icons/generic_business-71.png", "id": "d70fd0c378061f4d2cb7fec0b1d1a1168093889f", "name": "New England Propeller", "place_id": "ChIJnQwY6Fl644kR8at2cktpblQ", "plus_code": {"compound_code": "8WFV+MJ Boston, Massachusetts, United States", "global_code": "87JC8WFV+MJ"}, "reference": "ChIJnQwY6Fl644kR8at2cktpblQ", "scope": "GOOGLE", "types": ["point_of_interest", "establishment"], "vicinity": "68 Von Hillern Street, Dorchester"}, "ChIJs4veGkl644kROEK8ix2v_oY": {"geometry": {"location": {"lat": 42.30163049999999, "lng": -71.067605}, "viewport": {"northeast": {"lat": 42.3358969, "lng": -71.0325551}, "southwest": {"lat": 42.267598, "lng": -71.0800369}}}, "icon": "https://maps.gstatic.com/mapfiles/place_api/icons/geocode-71.png", "id": "9e12301fdeebf54c1266b9986602466425a9c326", "name": "Dorchester", "photos": [{"height": 1944, "html_attributions": ["<a href=\"https://maps.google.com/maps/contrib/118366960396286562471/photos\">Michael Laferriere</a>"], "photo_reference": "CmRaAAAAiucvloKibsIYBkexktXgpv93y13pZ4qGXbhywH7D3YmhpqHQPID7FtNzKCZDciHSUOBlGwMrB56WpVoU0Rg84NtTDZDiAKru8Wjqha1OMIk5QRf7lAuJfyiSqZmHy2elEhBQ-4XX2172y-2gOnTqGYoiGhSZ3g60NgShy2Jm9RbssSvitXVgyA", "width": 2592}], "place_id": "ChIJs4veGkl644kROEK8ix2v_oY", "reference": "ChIJs4veGkl644kROEK8ix2v_oY", "scope": "GOOGLE", "types": ["neighborhood", "political"], "vicinity": "Dorchester Center"}}