{"ChIJGzE9DS1l44kRoOhiASS_fHg": {"geometry": {"location": {"lat": 42.3600825, "lng": -71.0588801}, "viewport": {"northeast": {"lat": 42.40081989999999, "lng": -70.749455}, "southwest": {"lat": 42.22788, "lng": -71.191113}}}, "icon": "https://maps.gstatic.com/mapfiles/place_api/icons/geocode-71.png", "id": "06755c25d2b34d13942a4713971756a55b870ced", "name": "Boston", "photos": [{"height": 3024, "html_attributions": ["<a href=\"https://maps.google.com/maps/contrib/104670289779338733432/photos\">Natalia Zalucean</a>"], "photo_reference": "CmRaAAAAoOsIo_iZ7DIdtQ4pcfv3zQ6Vub1N_jmpDDwVycWqIqcaEV75etkWFzaq8nBSf-anNH9ApcFyE2hECX1hoWxwdXaDMb3IlXrMYpPBh_aMZa3bm6_gTlABOrUIZmA2QvXjEhDEdI8THqf3qibtUO59AMt0GhTlOmnVOmerHyUdPIrRfKonCLABnA", "width": 4032}], "place_id": "ChIJGzE9DS1l44kRoOhiASS_fHg", "reference": "ChIJGzE9DS1l44kRoOhiASS_fHg", "scope": "GOOGLE", "types": ["locality", "political"], "vicinity": "Boston"}, "ChIJeQ9fcYd544kRfFNJ8K-ab6I": {"geometry": {"location": {"lat": 42.32823519999999, "lng": -71.0984734}, "viewport": {"northeast": {"lat": 42.3295705302915, "lng": -71.09703466970849}, "southwest": {"lat": 42.3268725697085, "lng": -71.0997326302915}}}, "icon": "https://maps.gstatic.com/mapfiles/place_api/icons/generic_business-71.png", "id": "8fd54bd754ae53af75748be5198f9a35475b0eea", "name": "Diablo Glass School", "opening_hours": {"open_now": true}, "photos": [{"height": 1364, "html_attributions": ["<a href=\"https://maps.google.com/maps/contrib/118065446719041644441/photos\">Diablo Glass School</a>"], "photo_reference": "CmRaAAAAGwuETtxa0zm9kjaMZ1zWIM9S9fC6dPT92M9p7lqp1y-13PMaLnjcrSa3WHhjndt3MweCCvOmICBpie6DQVbEidYKPV7EHM98b0REWUZywgODwkGYJjdt1YczZAVG2y94EhCaviX2bWO2akL8jA_LxN3sGhQxm3cLSwqaUdfaBUPx6THS9BJncA", "width": 2048}], "place_id": "ChIJeQ9fcYd544kRfFNJ8K-ab6I", "plus_code": {"compound_code": "8WH2+7J Boston, Massachusetts, United States", "global_code": "87JC8WH2+7J"}, "rating": 4.2, "reference": "ChIJeQ9fcYd544kRfFNJ8K-ab6I", "scope": "GOOGLE", "types": ["store", "point_of_interest", "establishment"], "user_ratings_total": 10, "vicinity": "123 Terrace Street, Boston"}, "ChIJ0Z3Gmod544kRfV8ApnvtyLM": {"geometry": {"location": {"lat": 42.3288212, "lng": -71.09829189999999}, "viewport": {"northeast": {"lat": 42.3301320802915, "lng": -71.0968244197085}, "southwest": {"lat": 42.3274341197085, "lng": -71.0995223802915}}}, "icon": "https://maps.gstatic.com/mapfiles/place_api/icons/shopping-71.png", "id": "40d49da04ac1c89cde8f21a680f9c9948e809fb1", "name": "New England Design & Construction", "opening_hours": {"open_now": true}, "photos": [{"height": 2550, "html_attributions": ["<a href=\"https://maps.google.com/maps/contrib/104321546577192162616/photos\">New England Design &amp; Construction</a>"], "photo_reference": "CmRaAAAAdWrsi5MH-dGce1N0KepWdht4R0Udyiz6j8hF4Y-Y9J1H0zYnVKXgLGaalnmbXVqW5k5b5M89mREkwmjH1pr6C8LOpp82LoV_b8nxAoOy8cpX9UZAaog_6hSu7GVqaNtrEhD2FFhUsRx0iZG29tgUs-V9GhR5zSLCAYczAJImKxMYEQKrFJwFDQ", "width": 3300}], "place_id": "ChIJ0Z3Gmod544kRfV8ApnvtyLM", "plus_code": {"compound_code": "8WH2+GM Boston, Massachusetts, United States", "global_code": "87JC8WH2+GM"}, "rating": 5, "reference": "ChIJ0Z3Gmod544kRfV8ApnvtyLM", "scope": "GOOGLE", "types": ["home_goods_store", "store", "general_contractor", "point_of_interest", "establishment"], "user_ratings_total": 20, "vicinity": "103 Terrace Street, Boston"}, "ChIJ0RVHm4d544kRKa89aajYWcs": {"geometry": {"location": {"lat": 42.328843, "lng": -71.09776400000001}, "viewport": {"northeast": {"lat": 42.3302235302915, "lng": -71.0965131697085}, "southwest": {"lat": 42.3275255697085, "lng": -71.09921113029151}}}, "icon": "https://maps.gstatic.com/mapfiles/place_api/icons/shopping-71.png", "id": "eebd76c0d09f1ece2d3c9633812c751bb48ec31b", "name": "Boston Building Resources", "opening_hours": {"open_now": true}, "photos": [{"height": 3036, "html_attributions": ["<a href=\"https://maps.google.com/maps/contrib/113830266935751888168/photos\">Quynh Dang</a>"], "photo_reference": "CmRaAAAAwXqwHxhTgcLrKxiQ0O7ZiRq5UojpUHfi8Z2NuJhW5uVPWMoGSnZQ7ofrO7m0lOmi_h0oIIp3RbtQ_DXkV1n8kNykCJnRPwsnMI3It59J3H3iSHCvcxnScB_AS_O150mNEhDCGZevovo8t8Xm7pseQkmdGhSkOeNF6k4d3cpAu4nYN4Wx0iogPw", "width": 4048}], "place_id": "ChIJ0RVHm4d544kRKa89aajYWcs", "plus_code": {"compound_code": "8WH2+GV Boston, Massachusetts, United States", "global_code": "87JC8WH2+GV"}, "rating": 4.4, "reference": "ChIJ0RVHm4d544kRKa89aajYWcs", "scope": "GOOGLE", "types": ["home_goods_store", "store", "general_contractor", "point_of_interest", "establishment"], "user_ratings_total": 34, "vicinity": "100 Terrace Street, Boston"}, "ChIJeQ9fcYd544kRQCHABnhyZ34": {"geometry": {"location": {"lat": 42.32821829999999, "lng": -71.09846209999999}, "viewport": {"northeast": {"lat": 42.32955483029149, "lng": -71.09703106970849}, "southwest": {"lat": 42.32685686970849, "lng": -71.0997290302915}}}, "icon": "https://maps.gstatic.com/mapfiles/place_api/icons/generic_business-71.png", "id": "eabde14a7438f97098632802b3a9e2fbd4cab78a", "name": "CrossFit on the Hill", "opening_hours": {"open_now": false}, "photos": [{"height": 2048, "html_attributions": ["<a href=\"https://maps.google.com/maps/contrib/104748018559256726756/photos\">CrossFit on the Hill</a>"], "photo_reference": "CmRaAAAAvYEW3ZxNrXcV7o20SdlYSQCnMdq72xOJlEvZelajlG94qG6R8KeHcbG1ysLrnejSUWpFT53D6YVS28gBkb-wfFVaewqSwEMSTm7oZY9t2wuWwUWmzkj7nu9sBU4ao9FLEhAbtYgQ-Nz_GWUNaIP-rQkiGhQm-i1keFdSZHsLjQ-AmpTHfRDQrw", "width": 1536}], "place_id": "ChIJeQ9fcYd544kRQCHABnhyZ34", "plus_code": {"compound_code": "8WH2+7J Boston, Massachusetts, United States", "global_code": "87JC8WH2+7J"}, "rating": 5, "reference": "ChIJeQ9fcYd544kRQCHABnhyZ34", "scope": "GOOGLE", "types": ["gym", "health", "point_of_interest", "establishment"], "user_ratings_total": 7, "vicinity": "123 Terrace Street, Roxbury Crossing"}, "ChIJ1eD4HSh644kRNIP1nN6ORDI": {"geometry": {"location": {"lat": 42.32881880000001, "lng": -71.09824019999999}, "viewport": {"northeast": {"lat": 42.3301368802915, "lng": -71.09679506970849}, "southwest": {"lat": 42.3274389197085, "lng": -71.0994930302915}}}, "icon": "https://maps.gstatic.com/mapfiles/place_api/icons/generic_business-71.png", "id": "56b704700ee59e264e212bb5d711d587944a7d8b", "name": "Elton+Hampton Architects", "opening_hours": {"open_now": true}, "photos": [{"height": 715, "html_attributions": ["<a href=\"https://maps.google.com/maps/contrib/102986757786833964931/photos\">Elton+Hampton Architects</a>"], "photo_reference": "CmRaAAAA9jmOMFVCurQBkTUhgxJCdxTpc_D28ShF6VqIhxn41tIKh2diHBoCptMcEequnPA1d9sZNKSvSekitQj-_G1LgXjvMzzRbdzAbO58Fsl8Sfty0yhNzp8Dl1o-UTgo99gtEhDTTWFZXAcB2k1ZIihT2vjOGhSI0Gn8LU1SPZWruABGpgl0epngaQ", "width": 1024}], "place_id": "ChIJ1eD4HSh644kRNIP1nN6ORDI", "plus_code": {"compound_code": "8WH2+GP Boston, Massachusetts, United States", "global_code": "87JC8WH2+GP"}, "reference": "ChIJ1eD4HSh644kRNIP1nN6ORDI", "scope": "GOOGLE", "types": ["point_of_interest", "establishment"], "vicinity": "103 Terrace Street, Boston"}, "ChIJr823MGt544kR7BnAdBvcNQs": {"geometry": {"location": {"lat": 42.32881880000001, "lng": -71.09824019999999}, "viewport": {"northeast": {"lat": 42.3301368802915, "lng": -71.09679506970849}, "southwest": {"lat": 42.3274389197085, "lng": -71.0994930302915}}}, "icon": "https://maps.gstatic.com/mapfiles/place_api/icons/generic_business-71.png", "id": "ea1965548e2c6bf79428337d91c03d5f6956e33d", "name": "Maple Hurst Builders", "place_id": "ChIJr823MGt544kR7BnAdBvcNQs", "plus_code": {"compound_code": "8WH2+GP Boston, Massachusetts, United States", "global_code": "87JC8WH2+GP"}, "reference": "ChIJr823MGt544kR7BnAdBvcNQs", "scope": "GOOGLE", "types": ["general_contractor", "point_of_interest", "establishment"], "vicinity": "103 Terrace Street, Roxbury Crossing"}, "ChIJXfKkvod544kR3321BSynKXY": {"geometry": {"location": {"lat": 42.3293319, "lng": -71.0991137}, "viewport": {"northeast": {"lat": 42.3306661302915, "lng": -71.09766136970849}, "southwest": {"lat": 42.3279681697085, "lng": -71.10035933029151}}}, "icon": "https://maps.gstatic.com/mapfiles/place_api/icons/generic_business-71.png", "id": "c9a961215614ab7e6e67fb8805c6063e6636490e", "name": "Little Brothers of St Francis", "place_id": "ChIJXfKkvod544kR3321BSynKXY", "plus_code": {"compound_code": "8WH2+P9 Boston, Massachusetts, United States", "global_code": "87JC8WH2+P9"}, "reference": "ChIJXfKkvod544kR3321BSynKXY", "scope": "GOOGLE", "types": ["point_of_interest", "establishment"], "vicinity": "789 Parker Street, Roxbury Crossing"}, "ChIJceLEmod544kReQt86mw4tBw": {"geometry": {"location": {"lat": 42.32881880000001, "lng": -71.09824019999999}, "viewport": {"northeast": {"lat": 42.3301368802915, "lng": -71.09679506970849}, "southwest": {"lat": 42.3274389197085, "lng": -71.0994930302915}}}, "icon": "https://maps.gstatic.com/mapfiles/place_api/icons/generic_business-71.png", "id": "3c8b89b762cf87df3eae886fe94998e2c823b0fb", "name": "Boston Moves Real Estate", "opening_hours": {"open_now": true}, "photos": [{"height": 392, "html_attributions": ["<a href=\"https://maps.google.com/maps/contrib/108974472327050167935/photos\">Boston Moves Real Estate</a>"], "photo_reference": "CmRaAAAAIz8PLVDnc_hedtgWPN8rOIvm6gZvDahRuTtCOJ8kokAu-S02tlss7NscQzVJ51o86PLT7it2y_85g9y62Pt4fPM7s60RS_L4KVwQu9PoqFcoXUmRAVhcoeByCHoD5zWuEhAdeZAYkXITx3rupCtqytNPGhRuMA7Ne_nAIpyYhae8l7Vc9zo4Uw", "width": 997}], "place_id": "ChIJceLEmod544kReQt86mw4tBw", "plus_code": {"compound_code": "8WH2+GP Boston, Massachusetts, United States", "global_code": "87JC8WH2+GP"}, "rating": 4.3, "reference": "ChIJceLEmod544kReQt86mw4tBw", "scope": "GOOGLE", "types": ["real_estate_agency", "point_of_interest", "establishment"], "user_ratings_total": 7, "vicinity": "103 Terrace Street, Boston"}, "ChIJceLEmod544kRZ1Z0KR0ZF5Q": {"geometry": {"location": {"lat": 42.32881880000001, "lng": -71.09824019999999}, "viewport": {"northeast": {"lat": 42.3301368802915, "lng": -71.09679506970849}, "southwest": {"lat": 42.3274389197085, "lng": -71.0994930302915}}}, "icon": "https://maps.gstatic.com/mapfiles/place_api/icons/generic_business-71.png", "id": "b7f95f0d833daca0f7330eae3f4ad9438d2f1744", "name": "Stull & Lee Inc", "opening_hours": {"open_now": true}, "photos": [{"height": 2026, "html_attributions": ["<a href=\"https://maps.google.com/maps/contrib/100465707233937806015/photos\">Stull &amp; Lee Inc</a>"], "photo_reference": "CmRaAAAA5ZCCVVjjh7YIfjgjaGAo9NCIhKR3MyqmNnyKk47T_dqqXKaDhwaEnnMpZfE1ydR2brm3r_xrBjZMRfvNoOsCsmx1-lBswP8KIwC-jCrNhv6EXzFYZZm7maHXG3qhAY19EhAols6MB-UC9dLw0SaeYFXhGhRtNM2Wq_lYKGoBqWk0U_57nCcQ-g", "width": 2026}], "place_id": "ChIJceLEmod544kRZ1Z0KR0ZF5Q", "plus_code": {"compound_code": "8WH2+GP Boston, Massachusetts, United States", "global_code": "87JC8WH2+GP"}, "reference": "ChIJceLEmod544kRZ1Z0KR0ZF5Q", "scope": "GOOGLE", "types": ["point_of_interest", "establishment"], "vicinity": "103 Terrace Street, Boston"}, "ChIJezKQvod544kRguhPgKCzqwI": {"geometry": {"location": {"lat": 42.32932840000001, "lng": -71.0990377}, "viewport": {"northeast": {"lat": 42.3306679302915, "lng": -71.0976224197085}, "southwest": {"lat": 42.3279699697085, "lng": -71.1003203802915}}}, "icon": "https://maps.gstatic.com/mapfiles/place_api/icons/generic_business-71.png", "id": "52ec09b93de1afe3fc4aff28f1f1aea12753f1d6", "name": "Brotherhood of Hope", "place_id": "ChIJezKQvod544kRguhPgKCzqwI", "plus_code": {"compound_code": "8WH2+P9 Boston, Massachusetts, United States", "global_code": "87JC8WH2+P9"}, "reference": "ChIJezKQvod544kRguhPgKCzqwI", "scope": "GOOGLE", "types": ["point_of_interest", "establishment"], "vicinity": "789 Parker Street, Roxbury"}, "ChIJechPdod544kRPr3mv3ITXS0": {"geometry": {"location": {"lat": 42.32840879999999, "lng": -71.0979907}, "viewport": {"northeast": {"lat": 42.3298053302915, "lng": -71.09660756970848}, "southwest": {"lat": 42.3271073697085, "lng": -71.09930553029149}}}, "icon": "https://maps.gstatic.com/mapfiles/place_api/icons/generic_business-71.png", "id": "c6b459cfab880810cdb6bc8d70739a947edc4826", "name": "D & M Auto Body", "photos": [{"height": 3840, "html_attributions": ["<a href=\"https://maps.google.com/maps/contrib/100469265802496145136/photos\">Sherese C</a>"], "photo_reference": "CmRaAAAAI3-835RefNosTYSkmB1emak-tBwXoiTp8_lGLzWsPVoyOSK4N_bWjPJyhIC5L-Mcoh4gHXvN9pu8SDu4Vctwps_7uHDF0EodDy3wtFe9Loj2sit1OnfM4GJYYesl3_WKEhC-ekFwqYgosEIwYTPiisYpGhQx8_0qgrsSncjeOWueWHI989aMiw", "width": 2160}], "place_id": "ChIJechPdod544kRPr3mv3ITXS0", "plus_code": {"compound_code": "8WH2+9R Boston, Massachusetts, United States", "global_code": "87JC8WH2+9R"}, "rating": 4.2, "reference": "ChIJechPdod544kRPr3mv3ITXS0", "scope": "GOOGLE", "types": ["car_repair", "point_of_interest", "establishment"], "user_ratings_total": 14, "vicinity": "118 Ter St, Roxbury Crossing"}, "ChIJ9RMQhYd544kR6JhTTZMgoiU": {"geometry": {"location": {"lat": 42.3291403, "lng": -71.0975491}, "viewport": {"northeast": {"lat": 42.3305274302915, "lng": -71.09631191970848}, "southwest": {"lat": 42.3278294697085, "lng": -71.0990098802915}}}, "icon": "https://maps.gstatic.com/mapfiles/place_api/icons/generic_business-71.png", "id": "e7e4e0c3a3fe4718b33a935ff14b4b76157a225f", "name": "Section Eight Tenants Inc", "place_id": "ChIJ9RMQhYd544kR6JhTTZMgoiU", "plus_code": {"compound_code": "8WH2+MX Boston, Massachusetts, United States", "global_code": "87JC8WH2+MX"}, "reference": "ChIJ9RMQhYd544kR6JhTTZMgoiU", "scope": "GOOGLE", "types": ["point_of_interest", "establishment"], "vicinity": "100 Terrace Street, Roxbury Crossing"}, "ChIJceLEmod544kRW5gpTZ41iqM": {"geometry": {"location": {"lat": 42.3288212, "lng": -71.09829189999999}, "viewport": {"northeast": {"lat": 42.3301320802915, "lng": -71.0968244197085}, "southwest": {"lat": 42.3274341197085, "lng": -71.0995223802915}}}, "icon": "https://maps.gstatic.com/mapfiles/place_api/icons/generic_business-71.png", "id": "ee0ef9526db3217cf6dd6f447012833a22b09387", "name": "Espaillat Construction", "place_id": "ChIJceLEmod544kRW5gpTZ41iqM", "plus_code": {"compound_code": "8WH2+GM Boston, Massachusetts, United States", "global_code": "87JC8WH2+GM"}, "reference": "ChIJceLEmod544kRW5gpTZ41iqM", "scope": "GOOGLE", "types": ["general_contractor", "point_of_interest", "establishment"], "vicinity": "103 Terrace Street, Boston"}, "ChIJ24YXalR444kR42qJhIcRSZ0": {"geometry": {"location": {"lat": 42.3288212, "lng": -71.09829189999999}, "viewport": {"northeast": {"lat": 42.3301320802915, "lng": -71.0968244197085}, "southwest": {"lat": 42.3274341197085, "lng": -71.0995223802915}}}, "icon": "https://maps.gstatic.com/mapfiles/place_api/icons/generic_business-71.png", "id": "09863c858136f6d84ab57d68ea1919896e169981", "name": "Henry Joseph & Associates", "place_id": "ChIJ24YXalR444kR42qJhIcRSZ0", "plus_code": {"compound_code": "8WH2+GM Boston, Massachusetts, United States", "global_code": "87JC8WH2+GM"}, "reference": "ChIJ24YXalR444kR42qJhIcRSZ0", "scope": "GOOGLE", "types": ["real_estate_agency", "point_of_interest", "establishment"], "vicinity": "103 Terrace Street, Boston"}, "ChIJ1eD4HSh644kRf3D00d9wrcw": {"geometry": {"location": {"lat": 42.32881880000001, "lng": -71.09824019999999}, "viewport": {"northeast": {"lat": 42.3301368802915, "lng": -71.09679506970849}, "southwest": {"lat": 42.3274389197085, "lng": -71.0994930302915}}}, "icon": "https://maps.gstatic.com/mapfiles/place_api/icons/generic_business-71.png", "id": "972ba4b5c7f4765c86938b9804722ad3d4b5ef38", "name": "103 Terrace St LLC", "place_id": "ChIJ1eD4HSh644kRf3D00d9wrcw", "plus_code": {"compound_code": "8WH2+GP Boston, Massachusetts, United States", "global_code": "87JC8WH2+GP"}, "reference": "ChIJ1eD4HSh644kRf3D00d9wrcw", "scope": "GOOGLE", "types": ["point_of_interest", "establishment"], "vicinity": "103 Terrace Street, Roxbury Crossing"}, "ChIJOSjQmod544kRwoW9y5AsL84": {"geometry": {"location": {"lat": 42.3285711, "lng": -71.0981682}, "viewport": {"northeast": {"lat": 42.3299286302915, "lng": -71.09684881970848}, "southwest": {"lat": 42.3272306697085, "lng": -71.0995467802915}}}, "icon": "https://maps.gstatic.com/mapfiles/place_api/icons/generic_business-71.png", "id": "e27cfed2adb7b3516f53655da0f65f02ca92950c", "name": "Santana Towing", "photos": [{"height": 612, "html_attributions": ["<a href=\"https://maps.google.com/maps/contrib/107362539931144507738/photos\">JD Nelson</a>"], "photo_reference": "CmRaAAAA_8JOZWyBtwMWs3NdRzjuIoQb5DUXJb-zQdDGTjseSY4TpOTRr6FgkN8eoyD4XPJOYPpLhCYKe4yNP8uF67VMMPaBn7GcY1pcrgywTit639qbYyRzGJCzGmj4EnTVf6TCEhBeExOKvltsYh_iu0a5_9-7GhSmO0YrmEXfkKL4FSxIKBoipDEGVw", "width": 816}], "place_id": "ChIJOSjQmod544kRwoW9y5AsL84", "plus_code": {"compound_code": "8WH2+CP Boston, Massachusetts, United States", "global_code": "87JC8WH2+CP"}, "rating": 2.5, "reference": "ChIJOSjQmod544kRwoW9y5AsL84", "scope": "GOOGLE", "types": ["point_of_interest", "establishment"], "user_ratings_total": 2, "vicinity": "107 Terrace Street, ROXBURY CROSSING"}, "ChIJp4CBjod544kRUVeC3uMIeuc": {"geometry": {"location": {"lat": 42.329072, "lng": -71.0978509}, "viewport": {"northeast": {"lat": 42.3304116302915, "lng": -71.0964727697085}, "southwest": {"lat": 42.3277136697085, "lng": -71.0991707302915}}}, "icon": "https://maps.gstatic.com/mapfiles/place_api/icons/doctor-71.png", "id": "1a910b3049d6841f50d8be8d1568f6dbc3a9d23c", "name": "NEBH parking lot", "place_id": "ChIJp4CBjod544kRUVeC3uMIeuc", "plus_code": {"compound_code": "8WH2+JV Boston, Massachusetts, United States", "global_code": "87JC8WH2+JV"}, "reference": "ChIJp4CBjod544kRUVeC3uMIeuc", "scope": "GOOGLE", "types": ["hospital", "point_of_interest", "establishment"], "vicinity": "Terrace Street, Boston"}, "ChIJJbdX1Sl644kRZaQNIoUFfsQ": {"geometry": {"location": {"lat": 42.32829449999999, "lng": -71.0971172}, "viewport": {"northeast": {"lat": 42.3296395302915, "lng": -71.09575506970849}, "southwest": {"lat": 42.3269415697085, "lng": -71.0984530302915}}}, "icon": "https://maps.gstatic.com/mapfiles/place_api/icons/bus-71.png", "id": "908e485b54f5275c5b58f041f59e88289e8f504b", "name": "Columbus Ave @ New Cedar St", "place_id": "ChIJJbdX1Sl644kRZaQNIoUFfsQ", "plus_code": {"compound_code": "8WH3+85 Boston, Massachusetts, United States", "global_code": "87JC8WH3+85"}, "reference": "ChIJJbdX1Sl644kRZaQNIoUFfsQ", "scope": "GOOGLE", "types": ["bus_station", "transit_station", "point_of_interest", "establishment"], "vicinity": "United States"}, "ChIJh-CN2yx644kRI8h5WPc98wQ": {"geometry": {"location": {"lat": 42.31519779999999, "lng": -71.0913748}, "viewport": {"northeast": {"lat": 42.335885, "lng": -71.06649519999999}, "southwest": {"lat": 42.29179790000001, "lng": -71.1067612}}}, "icon": "https://maps.gstatic.com/mapfiles/place_api/icons/geocode-71.png", "id": "33d978342c31fa28698809200432caaeeab1c79d", "name": "Roxbury", "photos": [{"height": 5312, "html_attributions": ["<a href=\"https://maps.google.com/maps/contrib/108141736953672835093/photos\">Warriorprincess4916</a>"], "photo_reference": "CmRaAAAAnKHQhCVae6yiDPMuiiKXDlgT16yHFVvsQfDr4pfvL_ysxVVm-GTl_fcHk4Nziaq4hcjuJEPiq-2UxrmE_gRgjwCFCJFjObYCEQlWCIWSLRD94H5NkOMfVFh2Jd9x3nkXEhBLq4FPTBdvbLfGGLbotgj3GhQ0XJNbc3tng-TojwttHIQwHhah0w", "width": 2988}], "place_id": "ChIJh-CN2yx644kRI8h5WPc98wQ", "reference": "ChIJh-CN2yx644kRI8h5WPc98wQ", "scope": "GOOGLE", "types": ["neighborhood", "political"], "vicinity": "Dorchester Center"}, "ChIJuQtND4d544kRQdbDkWZCXCk": {"geometry": {"location": {"lat": 42.3281641, "lng": -71.0994924}, "viewport": {"northeast": {"lat": 42.32945093029149, "lng": -71.09817626970849}, "southwest": {"lat": 42.3267529697085, "lng": -71.1008742302915}}}, "icon": "https://maps.gstatic.com/mapfiles/place_api/icons/generic_business-71.png", "id": "9879527b5edf208f410ee2a5299f04ac79972975", "name": "Meryn R. Boraski, Crna", "place_id": "ChIJuQtND4d544kRQdbDkWZCXCk", "plus_code": {"compound_code": "8WH2+76 Boston, Massachusetts, United States", "global_code": "87JC8WH2+76"}, "reference": "ChIJuQtND4d544kRQdbDkWZCXCk", "scope": "GOOGLE", "types": ["doctor", "health", "point_of_interest", "establishment"], "vicinity": "813 Parker Street, Roxbury Crossing, MA 02120, Mission Hill"}, "ChIJc2hYuId544kROCZk-1JOztA": {"geometry": {"location": {"lat": 42.3295381, "lng": -71.0993672}, "viewport": {"northeast": {"lat": 42.3308141802915, "lng": -71.09807911970849}, "southwest": {"lat": 42.3281162197085, "lng": -71.1007770802915}}}, "icon": "https://maps.gstatic.com/mapfiles/place_api/icons/generic_business-71.png", "id": "b19c867902ff8343b021b00af21fc57e22fee834", "name": "C Haymon & Sons", "place_id": "ChIJc2hYuId544kROCZk-1JOztA", "plus_code": {"compound_code": "8WH2+R7 Boston, Massachusetts, United States", "global_code": "87JC8WH2+R7"}, "reference": "ChIJc2hYuId544kROCZk-1JOztA", "scope": "GOOGLE", "types": ["general_contractor", "point_of_interest", "establishment"], "vicinity": "9 Hillside Street # 3, ROXBURY CROSSING"}, "ChIJpa5W0yl644kRfsrtFurwsOY": {"geometry": {"location": {"lat": 42.32801199999999, "lng": -71.096921}, "viewport": {"northeast": {"lat": 42.3294032302915, "lng": -71.09554051970849}, "southwest": {"lat": 42.3267052697085, "lng": -71.0982384802915}}}, "icon": "https://maps.gstatic.com/mapfiles/place_api/icons/bus-71.png", "id": "e08bae5afd0c7414ef9d267cb77dddcc3859e33d", "name": "Columbus Ave @ Cedar St", "place_id": "ChIJpa5W0yl644kRfsrtFurwsOY", "plus_code": {"compound_code": "8WH3+66 Boston, Massachusetts, United States", "global_code": "87JC8WH3+66"}, "reference": "ChIJpa5W0yl644kRfsrtFurwsOY", "scope": "GOOGLE", "types": ["bus_station", "transit_station", "point_of_interest", "establishment"], "vicinity": "United States"}, "ChIJDaghDl9544kRj6z6eYixykk": {"geometry": {"location": {"lat": 42.3296596, "lng": -71.09961489999999}, "viewport": {"northeast": {"lat": 42.3309322302915, "lng": -71.09832916970849}, "southwest": {"lat": 42.3282342697085, "lng": -71.10102713029151}}}, "icon": "https://maps.gstatic.com/mapfiles/place_api/icons/generic_business-71.png", "id": "5d5f6478a5fafe46297335d684a16c409ac20954", "name": "the curling club", "place_id": "ChIJDaghDl9544kRj6z6eYixykk", "plus_code": {"compound_code": "8WH2+V5 Boston, Massachusetts, United States", "global_code": "87JC8WH2+V5"}, "reference": "ChIJDaghDl9544kRj6z6eYixykk", "scope": "GOOGLE", "types": ["gym", "health", "point_of_interest", "establishment"], "vicinity": "BOST-1000700000, Boston"}, "ChIJUwTlGod544kRsQ6aqknQAr4": {"geometry": {"location": {"lat": 42.327805, "lng": -71.099694}, "viewport": {"northeast": {"lat": 42.32913078029149, "lng": -71.09821321970851}, "southwest": {"lat": 42.32643281970849, "lng": -71.10091118029152}}}, "icon": "https://maps.gstatic.com/mapfiles/place_api/icons/generic_business-71.png", "id": "5376ef183d4807040c37179f0cc0601ce3939d8e", "name": "max garnick mechanical engineer", "place_id": "ChIJUwTlGod544kRsQ6aqknQAr4", "plus_code": {"compound_code": "8WH2+44 Boston, Massachusetts, United States", "global_code": "87JC8WH2+44"}, "reference": "ChIJUwTlGod544kRsQ6aqknQAr4", "scope": "GOOGLE", "types": ["point_of_interest", "establishment"], "vicinity": "839 Parker Street, Roxbury Crossing"}, "ChIJXW-71il644kRsIt2GaHZJfg": {"geometry": {"location": {"lat": 42.32770559999999, "lng": -71.0970122}, "viewport": {"northeast": {"lat": 42.32904158029149, "lng": -71.0956169697085}, "southwest": {"lat": 42.3263436197085, "lng": -71.09831493029151}}}, "icon": "https://maps.gstatic.com/mapfiles/place_api/icons/generic_business-71.png", "id": "c0e37116423a304cd91da547ca42d262fd15d8d0", "name": "ChargePoint Charging Station", "place_id": "ChIJXW-71il644kRsIt2GaHZJfg", "plus_code": {"compound_code": "8WH3+35 Boston, Massachusetts, United States", "global_code": "87JC8WH3+35"}, "reference": "ChIJXW-71il644kRsIt2GaHZJfg", "scope": "GOOGLE", "types": ["point_of_interest", "establishment"], "vicinity": "1318-1362, Massachusetts 28, Boston"}, "ChIJnagV-4d544kRi22zFtwjUfI": {"geometry": {"location": {"lat": 42.3302436, "lng": -71.0979205}, "viewport": {"northeast": {"lat": 42.3315517802915, "lng": -71.09660911970849}, "southwest": {"lat": 42.3288538197085, "lng": -71.0993070802915}}}, "icon": "https://maps.gstatic.com/mapfiles/place_api/icons/generic_recreational-71.png", "id": "423a7f788808bf5b6cde9f71ffe5c1c10b11f17c", "name": "Mission Hill Community Garden", "place_id": "ChIJnagV-4d544kRi22zFtwjUfI", "reference": "ChIJnagV-4d544kRi22zFtwjUfI", "scope": "GOOGLE", "types": ["park", "premise", "point_of_interest", "establishment"], "vicinity": "Boston"}}