{"ChIJGzE9DS1l44kRoOhiASS_fHg": {"geometry": {"location": {"lat": 42.3600825, "lng": -71.0588801}, "viewport": {"northeast": {"lat": 42.40081989999999, "lng": -70.749455}, "southwest": {"lat": 42.22788, "lng": -71.191113}}}, "icon": "https://maps.gstatic.com/mapfiles/place_api/icons/geocode-71.png", "id": "06755c25d2b34d13942a4713971756a55b870ced", "name": "Boston", "photos": [{"height": 3024, "html_attributions": ["<a href=\"https://maps.google.com/maps/contrib/104670289779338733432/photos\">Natalia Zalucean</a>"], "photo_reference": "CmRaAAAAxmWMd1Li_Z3d1TPDLDw1WwfkkK8nSF7NSppL3gHYGmJJ27_fooCQqwT9orWzWmNbg4jYSzDzxPPLIDsFuFnCEpsF7cCV3YbqbfeorNHN9WJb_CdHhWI1340Obv3VvgoSEhCs1HR1H2uPJzM6JmvrWxwMGhRyU5d1kvlZ8RkOtGjeg0s440FCig", "width": 4032}], "place_id": "ChIJGzE9DS1l44kRoOhiASS_fHg", "reference": "ChIJGzE9DS1l44kRoOhiASS_fHg", "scope": "GOOGLE", "types": ["locality", "political"], "vicinity": "Boston"}, "ChIJy-wLUfx744kRg_bPmayCUSo": {"geometry": {"location": {"lat": 42.2887053, "lng": -71.0937888}, "viewport": {"northeast": {"lat": 42.2903869, "lng": -71.09251526970849}, "southwest": {"lat": 42.287675, "lng": -71.09521323029149}}}, "icon": "https://maps.gstatic.com/mapfiles/place_api/icons/generic_recreational-71.png", "id": "13c5a67d181e3ebd4697fd31826a097069ff1b9f", "name": "Canterbury Brookside", "place_id": "ChIJy-wLUfx744kRg_bPmayCUSo", "reference": "ChIJy-wLUfx744kRg_bPmayCUSo", "scope": "GOOGLE", "types": ["park", "premise", "point_of_interest", "establishment"], "vicinity": "Boston"}, "ChIJgS1moFd544kRy0ZKdo1dXq8": {"geometry": {"location": {"lat": 42.2921066, "lng": -71.1006594}, "viewport": {"northeast": {"lat": 42.2931511, "lng": -71.0959946}, "southwest": {"lat": 42.2900997, "lng": -71.1043998}}}, "icon": "https://maps.gstatic.com/mapfiles/place_api/icons/generic_recreational-71.png", "id": "8429bad8862e56a30fd4ec1fdbf973727230f602", "name": "Canterbury II", "place_id": "ChIJgS1moFd544kRy0ZKdo1dXq8", "reference": "ChIJgS1moFd544kRy0ZKdo1dXq8", "scope": "GOOGLE", "types": ["park", "premise", "point_of_interest", "establishment"], "vicinity": "Boston"}, "ChIJh-CN2yx644kRI8h5WPc98wQ": {"geometry": {"location": {"lat": 42.31519779999999, "lng": -71.0913748}, "viewport": {"northeast": {"lat": 42.335885, "lng": -71.06649519999999}, "southwest": {"lat": 42.29179790000001, "lng": -71.1067612}}}, "icon": "https://maps.gstatic.com/mapfiles/place_api/icons/geocode-71.png", "id": "33d978342c31fa28698809200432caaeeab1c79d", "name": "Roxbury", "photos": [{"height": 5312, "html_attributions": ["<a href=\"https://maps.google.com/maps/contrib/108141736953672835093/photos\">Warriorprincess4916</a>"], "photo_reference": "CmRaAAAAW4k8ovTxxM9GvrMMGIZxOEPQI94zHKiI9-FTN2WbbgPP4vMEspFoz_kG9JWserRRLyrRvEIxiRzzlXacLzCb8DIEJxAMmzIIvDg5-PTeAyvK8QmSupOf2-k3oZu5lOxSEhBKqLHRkHCT_gwj76gUX1FvGhSQMv8oLB6cliA4KA7hF5LXNzettw", "width": 2988}], "place_id": "ChIJh-CN2yx644kRI8h5WPc98wQ", "reference": "ChIJh-CN2yx644kRI8h5WPc98wQ", "scope": "GOOGLE", "types": ["neighborhood", "political"], "vicinity": "Dorchester Center"}}