{"ChIJpSUHhAmC44kRfq9wm3sIklU": {"geometry": {"location": {"lat": 42.3370413, "lng": -71.20922139999999}, "viewport": {"northeast": {"lat": 42.3679719, "lng": -71.1569968}, "southwest": {"lat": 42.2827739, "lng": -71.270359}}}, "icon": "https://maps.gstatic.com/mapfiles/place_api/icons/geocode-71.png", "id": "d74f935d4736f725e4eba20abe314f6094a27c4a", "name": "Newton", "photos": [{"height": 1536, "html_attributions": ["<a href=\"https://maps.google.com/maps/contrib/103956073675495355808/photos\">Fumiaki Imamura</a>"], "photo_reference": "CmRZAAAAi2VYh64pOH0hK9Rwi7GzsqesRM3LWS2FsuDEhlY1gFZLVOY4wBQa-noYAhkoKLy3Wx-dg6Qs8vOLpD8k5HGlLmXxZTAPMIK7Qx4-1yZ_pe-sdshX5VF9RWI9vT1dMRErEhCCvPE1_81E-gXLvMFE2SEmGhQX9LurOUAZz2d4JfdGn1tCxFq24Q", "width": 2048}], "place_id": "ChIJpSUHhAmC44kRfq9wm3sIklU", "reference": "ChIJpSUHhAmC44kRfq9wm3sIklU", "scope": "GOOGLE", "types": ["locality", "political"], "vicinity": "Newton"}, "ChIJHWTP8fl544kRA5IJHP6uYWM": {"geometry": {"location": {"lat": 42.316238, "lng": -71.1792473}, "viewport": {"northeast": {"lat": 42.3175328302915, "lng": -71.17796266970849}, "southwest": {"lat": 42.3148348697085, "lng": -71.1806606302915}}}, "icon": "https://maps.gstatic.com/mapfiles/place_api/icons/generic_business-71.png", "id": "8b74de81192c83838833a76c3f6c6a93e7b34916", "name": "CHESTNUT HILL STRING INSTRUMENTS", "photos": [{"height": 1334, "html_attributions": ["<a href=\"https://maps.google.com/maps/contrib/100691542056039640424/photos\">CHESTNUT HILL STRING INSTRUMENTS</a>"], "photo_reference": "CmRaAAAAKIew7AqdZsibfxhEPkVrNo-hWQrkg5UloPLOWv1e5FLJNBbsBBCnvRf1ZK59NiAoxgg-dzDhaWAVGjCzcVgsAZsnG1eb1LEWgA9Q1Eei0XUKQijc2pwm4EpETx0COzPIEhAvRYaM4iYqLuliPv3EfrwfGhRg8xWS9DtsLFs7RDV-GyYWZr1MxQ", "width": 750}], "place_id": "ChIJHWTP8fl544kRA5IJHP6uYWM", "plus_code": {"compound_code": "8R8C+F8 Newton, Massachusetts, United States", "global_code": "87JC8R8C+F8"}, "reference": "ChIJHWTP8fl544kRA5IJHP6uYWM", "scope": "GOOGLE", "types": ["point_of_interest", "establishment"], "vicinity": "342C Boylston Street, Newton"}, "ChIJ2R5K471444kRJEkYTKC9H9c": {"geometry": {"location": {"lat": 42.3146119, "lng": -71.17530049999999}, "viewport": {"northeast": {"lat": 42.3167646, "lng": -71.170746}, "southwest": {"lat": 42.3122682, "lng": -71.1789368}}}, "icon": "https://maps.gstatic.com/mapfiles/place_api/icons/generic_recreational-71.png", "id": "5c39d203796328e2c6784da666cd9ac090ecbace", "name": "Lost Pond Reservation", "place_id": "ChIJ2R5K471444kRJEkYTKC9H9c", "reference": "ChIJ2R5K471444kRJEkYTKC9H9c", "scope": "GOOGLE", "types": ["park", "premise", "point_of_interest", "establishment"], "vicinity": "Brookline"}, "ChIJhZirQQB544kRB9LbXEfedZQ": {"geometry": {"location": {"lat": 42.33176419999999, "lng": -71.1211635}, "viewport": {"northeast": {"lat": 42.3518109, "lng": -71.1056969}, "southwest": {"lat": 42.29459689999999, "lng": -71.1789959}}}, "icon": "https://maps.gstatic.com/mapfiles/place_api/icons/geocode-71.png", "id": "92986b2d1f69af2f2a7e29d34ced8adfa8573beb", "name": "Brookline", "photos": [{"height": 651, "html_attributions": ["<a href=\"https://maps.google.com/maps/contrib/114772942214832951419/photos\">Michael Ahn</a>"], "photo_reference": "CmRaAAAAqcMOMotjT9dVwlCJlmALQlSo_17Su1RNDNlqewsRiyf8XSxFz9Csfqc7LrilbLmU061iiBFKLUGz7Glgu3MuDkrVEyLL2-UzDn0wW0Z2KxAvI8jpl7As4dKhWZWPLqM4EhA1t111E3LSuWoXiptNY-OTGhQnK5SzQv8-sgFwvgdToFyxdhEXuw", "width": 1608}], "place_id": "ChIJhZirQQB544kRB9LbXEfedZQ", "reference": "ChIJhZirQQB544kRB9LbXEfedZQ", "scope": "GOOGLE", "types": ["locality", "political"], "vicinity": "Brookline"}}