{"ChIJGzE9DS1l44kRoOhiASS_fHg": {"geometry": {"location": {"lat": 42.3600825, "lng": -71.0588801}, "viewport": {"northeast": {"lat": 42.40081989999999, "lng": -70.749455}, "southwest": {"lat": 42.22788, "lng": -71.191113}}}, "icon": "https://maps.gstatic.com/mapfiles/place_api/icons/geocode-71.png", "id": "06755c25d2b34d13942a4713971756a55b870ced", "name": "Boston", "photos": [{"height": 3024, "html_attributions": ["<a href=\"https://maps.google.com/maps/contrib/104670289779338733432/photos\">Natalia Zalucean</a>"], "photo_reference": "CmRaAAAA0bMkBMM_0LVObFvEsClLCdGC7zijd2HK4viOHlsAtVUbgIpvjVnWDWrzVNPDZM_QXPEM0xmD-QJI4CMGqHK-fnKCyZGK-kjnn05mnXTpPKQ1Il6r3e14arMtMS4MB-ZiEhCBX86YNozZ9bYI8Gpjs_S4GhR71YxY1pH44Y2Kk_ZSJ2i_3rjvLQ", "width": 4032}], "place_id": "ChIJGzE9DS1l44kRoOhiASS_fHg", "reference": "ChIJGzE9DS1l44kRoOhiASS_fHg", "scope": "GOOGLE", "types": ["locality", "political"], "vicinity": "Boston"}, "ChIJkTMH_Nd544kRgSSRJdcAS5A": {"geometry": {"location": {"lat": 42.36486420000001, "lng": -71.1333799}, "viewport": {"northeast": {"lat": 42.3660977302915, "lng": -71.13202601970849}, "southwest": {"lat": 42.36339976970851, "lng": -71.13472398029151}}}, "icon": "https://maps.gstatic.com/mapfiles/place_api/icons/generic_business-71.png", "id": "5ebc54388a534cce25ef3df016a886e6da27b07b", "name": "WBZ-TV", "photos": [{"height": 1836, "html_attributions": ["<a href=\"https://maps.google.com/maps/contrib/104095367793440444126/photos\">Christopher Hsu</a>"], "photo_reference": "CmRaAAAAiWXSnNMffV7xnS0LqRYAANnVc9JYNKWO1D4RwJ9gCV6xi_1cpT2OhKzYtZa7x38pCh4LJpyGMUl4vlYw7VdywuskjWySUQrwQWv1erdtJ5eW0yNb1C61lrtRM0KnHUKjEhCAPuBwTJuQfCjec1WH1HDUGhS4rBphPlZGM94EfOkR6oyLp4y2Ag", "width": 3264}], "place_id": "ChIJkTMH_Nd544kRgSSRJdcAS5A", "plus_code": {"compound_code": "9V78+WJ Boston, Massachusetts, United States", "global_code": "87JC9V78+WJ"}, "rating": 4.2, "reference": "ChIJkTMH_Nd544kRgSSRJdcAS5A", "scope": "GOOGLE", "types": ["point_of_interest", "establishment"], "user_ratings_total": 30, "vicinity": "1170 Soldiers Field Road, Allston"}, "ChIJb43MyWJ344kRS_fFq9rt2Mc": {"geometry": {"location": {"lat": 42.3661387, "lng": -71.1320865}, "viewport": {"northeast": {"lat": 42.3675676802915, "lng": -71.1308762697085}, "southwest": {"lat": 42.3648697197085, "lng": -71.13357423029152}}}, "icon": "https://maps.gstatic.com/mapfiles/place_api/icons/generic_business-71.png", "id": "ad1ecb406d4ae26a3c6c993f2c583a0aa4991efa", "name": "ION Media Networks", "place_id": "ChIJb43MyWJ344kRS_fFq9rt2Mc", "plus_code": {"compound_code": "9V89+F5 Boston, Massachusetts, United States", "global_code": "87JC9V89+F5"}, "reference": "ChIJb43MyWJ344kRS_fFq9rt2Mc", "scope": "GOOGLE", "types": ["point_of_interest", "establishment"], "vicinity": "1120 Soldiers Field Road, Allston"}, "ChIJkTMH_Nd544kRXKruhw3yBSI": {"geometry": {"location": {"lat": 42.36484, "lng": -71.133364}, "viewport": {"northeast": {"lat": 42.3660856302915, "lng": -71.13202601970849}, "southwest": {"lat": 42.3633876697085, "lng": -71.13472398029151}}}, "icon": "https://maps.gstatic.com/mapfiles/place_api/icons/shopping-71.png", "id": "6424569748fb2cd5eabd12857478e89413012bb5", "name": "WBZ Call for Action", "place_id": "ChIJkTMH_Nd544kRXKruhw3yBSI", "plus_code": {"compound_code": "9V78+WM Boston, Massachusetts, United States", "global_code": "87JC9V78+WM"}, "rating": 5, "reference": "ChIJkTMH_Nd544kRXKruhw3yBSI", "scope": "GOOGLE", "types": ["store", "point_of_interest", "establishment"], "user_ratings_total": 1, "vicinity": "1170 Soldiers Field Road, Allston"}, "ChIJKTvZJmN344kR9uuI0pHPi2o": {"geometry": {"location": {"lat": 42.3674213, "lng": -71.1319204}, "viewport": {"northeast": {"lat": 42.3688347802915, "lng": -71.13036676970849}, "southwest": {"lat": 42.3661368197085, "lng": -71.13306473029151}}}, "icon": "https://maps.gstatic.com/mapfiles/place_api/icons/generic_business-71.png", "id": "071df704585528cd52e1c16e41147cd9bb9df812", "name": "Finish Area Launch Site", "place_id": "ChIJKTvZJmN344kR9uuI0pHPi2o", "plus_code": {"compound_code": "9V89+X6 Boston, Massachusetts, United States", "global_code": "87JC9V89+X6"}, "reference": "ChIJKTvZJmN344kR9uuI0pHPi2o", "scope": "GOOGLE", "types": ["point_of_interest", "establishment"], "vicinity": "Doctor Paul Dudley White Bike Path, Boston"}, "ChIJkTMH_Nd544kRDsagR6i4bVo": {"geometry": {"location": {"lat": 42.3648531, "lng": -71.13340389999999}, "viewport": {"northeast": {"lat": 42.3660921802915, "lng": -71.13202601970849}, "southwest": {"lat": 42.3633942197085, "lng": -71.13472398029151}}}, "icon": "https://maps.gstatic.com/mapfiles/place_api/icons/generic_business-71.png", "id": "9fe0b114784477eb9dd41a01d4206e11c47f225d", "name": "CBS", "place_id": "ChIJkTMH_Nd544kRDsagR6i4bVo", "plus_code": {"compound_code": "9V78+WJ Boston, Massachusetts, United States", "global_code": "87JC9V78+WJ"}, "rating": 3, "reference": "ChIJkTMH_Nd544kRDsagR6i4bVo", "scope": "GOOGLE", "types": ["point_of_interest", "establishment"], "user_ratings_total": 5, "vicinity": "1170 Soldiers Field Road, Boston"}, "ChIJb43MyWJ344kRB8IRbTA77fA": {"geometry": {"location": {"lat": 42.3661387, "lng": -71.1320865}, "viewport": {"northeast": {"lat": 42.3674481802915, "lng": -71.13062946970848}, "southwest": {"lat": 42.36475021970851, "lng": -71.1333274302915}}}, "icon": "https://maps.gstatic.com/mapfiles/place_api/icons/generic_business-71.png", "id": "cdc6013580bcafba1220d6c06ff37a998c043da3", "name": "WBPX", "place_id": "ChIJb43MyWJ344kRB8IRbTA77fA", "plus_code": {"compound_code": "9V89+F5 Boston, Massachusetts, United States", "global_code": "87JC9V89+F5"}, "rating": 5, "reference": "ChIJb43MyWJ344kRB8IRbTA77fA", "scope": "GOOGLE", "types": ["point_of_interest", "establishment"], "user_ratings_total": 1, "vicinity": "1120 Soldiers Field Road, Allston"}, "ChIJCbV-xWJ344kRVV9Tyeg2_hk": {"geometry": {"location": {"lat": 42.3665812, "lng": -71.13220319999999}, "viewport": {"northeast": {"lat": 42.36791163029149, "lng": -71.13087586970848}, "southwest": {"lat": 42.3652136697085, "lng": -71.1335738302915}}}, "icon": "https://maps.gstatic.com/mapfiles/place_api/icons/generic_business-71.png", "id": "bdff8d6429d82265c7eebd8fb39b11592595bd92", "name": "The Park", "place_id": "ChIJCbV-xWJ344kRVV9Tyeg2_hk", "plus_code": {"compound_code": "9V89+J4 Boston, Massachusetts, United States", "global_code": "87JC9V89+J4"}, "reference": "ChIJCbV-xWJ344kRVV9Tyeg2_hk", "scope": "GOOGLE", "types": ["gym", "health", "point_of_interest", "establishment"], "vicinity": "1075 Soldiers Field Road, Boston"}, "ChIJp2xNFX1344kRgqwHdcN9xs4": {"geometry": {"location": {"lat": 42.366519, "lng": -71.1345059}, "viewport": {"northeast": {"lat": 42.3674690802915, "lng": -71.1336588697085}, "southwest": {"lat": 42.3647711197085, "lng": -71.1363568302915}}}, "icon": "https://maps.gstatic.com/mapfiles/place_api/icons/generic_business-71.png", "id": "0e69216225ff2901006062b63ee8b61fc6560887", "name": "Herter Park Amphitheater", "photos": [{"height": 747, "html_attributions": ["<a href=\"https://maps.google.com/maps/contrib/115615531115120884089/photos\">Kerin Shea</a>"], "photo_reference": "CmRaAAAA4OU9iHg85rQNu2xEZZ_X51Trxs-g068RqGgK3HdHsDFr7V5orTrXposyt_vHBoNRbkG1j5SYlnLbCovbBNKD-Be2xLf0-BlADqa2Fx04zZE2mlFAkNS75yzlVzccdwjMEhCG0rx8LjGGIYaLZK33mDRTGhS8Bbe6-GnaIXpQZcuRA1R95pOEvQ", "width": 1328}], "place_id": "ChIJp2xNFX1344kRgqwHdcN9xs4", "plus_code": {"compound_code": "9V88+J5 Boston, Massachusetts, United States", "global_code": "87JC9V88+J5"}, "rating": 4.6, "reference": "ChIJp2xNFX1344kRgqwHdcN9xs4", "scope": "GOOGLE", "types": ["point_of_interest", "establishment"], "user_ratings_total": 21, "vicinity": "1175 Soldiers Field Road, Boston"}, "ChIJkTMH_Nd544kRpWAKYw-N8OM": {"geometry": {"location": {"lat": 42.36484, "lng": -71.133364}, "viewport": {"northeast": {"lat": 42.3660856302915, "lng": -71.13202601970849}, "southwest": {"lat": 42.3633876697085, "lng": -71.13472398029151}}}, "icon": "https://maps.gstatic.com/mapfiles/place_api/icons/generic_business-71.png", "id": "b466e3c49d13c5838af88e2c8b0901603c8899aa", "name": "Westinghouse Broadcasting Co", "place_id": "ChIJkTMH_Nd544kRpWAKYw-N8OM", "plus_code": {"compound_code": "9V78+WM Boston, Massachusetts, United States", "global_code": "87JC9V78+WM"}, "reference": "ChIJkTMH_Nd544kRpWAKYw-N8OM", "scope": "GOOGLE", "types": ["point_of_interest", "establishment"], "vicinity": "1170 Soldiers Field Road, Allston"}, "ChIJkTMH_Nd544kRB7n7R9Di7wE": {"geometry": {"location": {"lat": 42.36484, "lng": -71.133364}, "viewport": {"northeast": {"lat": 42.3660856302915, "lng": -71.13202601970849}, "southwest": {"lat": 42.3633876697085, "lng": -71.13472398029151}}}, "icon": "https://maps.gstatic.com/mapfiles/place_api/icons/generic_business-71.png", "id": "6f94b7fb1ece5c93b7e86056610b9d51daf3589d", "name": "TV-38 UPN 38", "place_id": "ChIJkTMH_Nd544kRB7n7R9Di7wE", "plus_code": {"compound_code": "9V78+WM Boston, Massachusetts, United States", "global_code": "87JC9V78+WM"}, "reference": "ChIJkTMH_Nd544kRB7n7R9Di7wE", "scope": "GOOGLE", "types": ["point_of_interest", "establishment"], "vicinity": "1170 Soldiers Field Road, Allston"}, "ChIJkTMH_Nd544kRyPeHfH5qAdU": {"geometry": {"location": {"lat": 42.36484, "lng": -71.133364}, "viewport": {"northeast": {"lat": 42.3660856302915, "lng": -71.13202601970849}, "southwest": {"lat": 42.3633876697085, "lng": -71.13472398029151}}}, "icon": "https://maps.gstatic.com/mapfiles/place_api/icons/generic_business-71.png", "id": "896616cb0141a971fbdd39f75ec327f48107712d", "name": "WSBK", "place_id": "ChIJkTMH_Nd544kRyPeHfH5qAdU", "plus_code": {"compound_code": "9V78+WM Boston, Massachusetts, United States", "global_code": "87JC9V78+WM"}, "rating": 5, "reference": "ChIJkTMH_Nd544kRyPeHfH5qAdU", "scope": "GOOGLE", "types": ["point_of_interest", "establishment"], "user_ratings_total": 1, "vicinity": "1170 Soldiers Field Road, Allston"}, "ChIJqwvMWFd344kRCXaegWnKhEk": {"geometry": {"location": {"lat": 42.36517550000001, "lng": -71.1315915}, "viewport": {"northeast": {"lat": 42.3665593802915, "lng": -71.13041846970849}, "southwest": {"lat": 42.3638614197085, "lng": -71.1331164302915}}}, "icon": "https://maps.gstatic.com/mapfiles/place_api/icons/generic_business-71.png", "id": "7fe997e923c136a9cefaab88bdee75202f3edf23", "name": "Ice Rink", "place_id": "ChIJqwvMWFd344kRCXaegWnKhEk", "plus_code": {"compound_code": "9V89+39 Boston, Massachusetts, United States", "global_code": "87JC9V89+39"}, "rating": 3, "reference": "ChIJqwvMWFd344kRCXaegWnKhEk", "scope": "GOOGLE", "types": ["point_of_interest", "establishment"], "user_ratings_total": 1, "vicinity": "BOST-2200542000, Boston"}, "ChIJkTMH_Nd544kR2Dz18mv8wFM": {"geometry": {"location": {"lat": 42.36484, "lng": -71.133364}, "viewport": {"northeast": {"lat": 42.3660856302915, "lng": -71.13202601970849}, "southwest": {"lat": 42.3633876697085, "lng": -71.13472398029151}}}, "icon": "https://maps.gstatic.com/mapfiles/place_api/icons/generic_business-71.png", "id": "518cd911cc5b2952d9b5602778d22c8b031a8b2d", "name": "Wods", "place_id": "ChIJkTMH_Nd544kR2Dz18mv8wFM", "plus_code": {"compound_code": "9V78+WM Boston, Massachusetts, United States", "global_code": "87JC9V78+WM"}, "reference": "ChIJkTMH_Nd544kR2Dz18mv8wFM", "scope": "GOOGLE", "types": ["point_of_interest", "establishment"], "vicinity": "1170 Soldiers Field Road, Allston"}, "ChIJq-kbomJ344kRDFsIEpGtSI4": {"geometry": {"location": {"lat": 42.3651418, "lng": -71.13154899999999}, "viewport": {"northeast": {"lat": 42.36653078029151, "lng": -71.1304015197085}, "southwest": {"lat": 42.36383281970851, "lng": -71.1330994802915}}}, "icon": "https://maps.gstatic.com/mapfiles/place_api/icons/generic_business-71.png", "id": "b237ff45e08c16f32ffff2b0136242c969c30876", "name": "Allston Roller Hockey", "opening_hours": {"open_now": false}, "photos": [{"height": 424, "html_attributions": ["<a href=\"https://maps.google.com/maps/contrib/108872973729790878982/photos\">Timothy Joyce</a>"], "photo_reference": "CmRaAAAANLWch7BJCyJGGIQKnZamFM-FiHtE3oaXfgNfodrQbV4tyflmRdncoJ9mYV8DIqFwhRc1rrEDnt0rBtOvDf2pXit7PjO_16kZnUAe03njfeo9BuSrrYCAeuEZ6gWPUX-gEhD4xv59Pb-eeqiD-g21sVQAGhQbr06ev4EjjVjPwLBZ8eCVqf5ePQ", "width": 640}], "place_id": "ChIJq-kbomJ344kRDFsIEpGtSI4", "plus_code": {"compound_code": "9V89+39 Boston, Massachusetts, United States", "global_code": "87JC9V89+39"}, "reference": "ChIJq-kbomJ344kRDFsIEpGtSI4", "scope": "GOOGLE", "types": ["point_of_interest", "establishment"], "vicinity": "1120-1150 Soldiers Field Road, Boston"}, "ChIJW6AF_Nd544kRCQmvPUGagvM": {"geometry": {"location": {"lat": 42.36486420000001, "lng": -71.1333799}, "viewport": {"northeast": {"lat": 42.3660977302915, "lng": -71.13202601970849}, "southwest": {"lat": 42.36339976970851, "lng": -71.13472398029151}}}, "icon": "https://maps.gstatic.com/mapfiles/place_api/icons/generic_business-71.png", "id": "835027ccbe7218b32759bac92dbb8b74c840b30c", "name": "Jack Williams' Wednesday's Child", "place_id": "ChIJW6AF_Nd544kRCQmvPUGagvM", "plus_code": {"compound_code": "9V78+WJ Boston, Massachusetts, United States", "global_code": "87JC9V78+WJ"}, "reference": "ChIJW6AF_Nd544kRCQmvPUGagvM", "scope": "GOOGLE", "types": ["point_of_interest", "establishment"], "vicinity": "1170 Soldiers Field Road, Boston"}, "ChIJW6AF_Nd544kRFCKA6t-pRuI": {"geometry": {"location": {"lat": 42.36486420000001, "lng": -71.1333799}, "viewport": {"northeast": {"lat": 42.3660977302915, "lng": -71.13202601970849}, "southwest": {"lat": 42.36339976970851, "lng": -71.13472398029151}}}, "icon": "https://maps.gstatic.com/mapfiles/place_api/icons/generic_business-71.png", "id": "8a9fd20ed3e7bcacb68dfeccd7b68eb4b0102438", "name": "WBZ -- CBS Studios", "photos": [{"height": 2988, "html_attributions": ["<a href=\"https://maps.google.com/maps/contrib/108398310617775769156/photos\">Chris Frothingham</a>"], "photo_reference": "CmRaAAAAYBv17QbvoasDC6n6wLUUC2eqBns0fkZOPQ-d8oEuqY-SROoFdVQxUvzQDELkTkax5ick0B8ZHPmi9zyXlydmoQ-76RtU4lcX25t7c5Je-nPVyFudOyYcGhLBZTeDmFJJEhDMPr5mU9NmyswBEJ6F3naRGhTfsYHqD0latEDeXePKXXZzVsBO-Q", "width": 5312}], "place_id": "ChIJW6AF_Nd544kRFCKA6t-pRuI", "plus_code": {"compound_code": "9V78+WJ Boston, Massachusetts, United States", "global_code": "87JC9V78+WJ"}, "reference": "ChIJW6AF_Nd544kRFCKA6t-pRuI", "scope": "GOOGLE", "types": ["point_of_interest", "establishment"], "vicinity": "1170 Soldiers Field Road, Boston"}, "ChIJW6AF_Nd544kR9LEfGQcvqK0": {"geometry": {"location": {"lat": 42.36486420000001, "lng": -71.1333799}, "viewport": {"northeast": {"lat": 42.3660977302915, "lng": -71.13202601970849}, "southwest": {"lat": 42.36339976970851, "lng": -71.13472398029151}}}, "icon": "https://maps.gstatic.com/mapfiles/place_api/icons/generic_business-71.png", "id": "14f349a9d72d06f44b6f4f76a8519356453cbf2e", "name": "Jordan Rich", "place_id": "ChIJW6AF_Nd544kR9LEfGQcvqK0", "plus_code": {"compound_code": "9V78+WJ Boston, Massachusetts, United States", "global_code": "87JC9V78+WJ"}, "reference": "ChIJW6AF_Nd544kR9LEfGQcvqK0", "scope": "GOOGLE", "types": ["point_of_interest", "establishment"], "vicinity": "1170 Soldiers Field Road, Boston"}, "ChIJIcPgus9544kRjk7LevvW_Os": {"geometry": {"location": {"lat": 42.3539038, "lng": -71.1337112}, "viewport": {"northeast": {"lat": 42.37437389999999, "lng": -71.110533}, "southwest": {"lat": 42.3460228, "lng": -71.143925}}}, "icon": "https://maps.gstatic.com/mapfiles/place_api/icons/geocode-71.png", "id": "e7453d23034c3414f98e19df650f49a83b645952", "name": "Allston", "photos": [{"height": 1536, "html_attributions": ["<a href=\"https://maps.google.com/maps/contrib/104422420120565835220/photos\">Welmyr De Baguio</a>"], "photo_reference": "CmRaAAAA7OhA5gJC83sVG9fYj05zwyjk4nJDdhuMy_anLviJxrQ_BJuAV3EWhnZC68GOPpqk9L_QuwCoXNbCOMRJRowQlC4K53bQ73QsvNBV67OnTTc68dFlPqbRNFq-yH24b8vLEhDSExtqOQO48qVO-rBvwqODGhQ-Ls_fqBrVYAVcclCPOBzFKHbe1g", "width": 1536}], "place_id": "ChIJIcPgus9544kRjk7LevvW_Os", "reference": "ChIJIcPgus9544kRjk7LevvW_Os", "scope": "GOOGLE", "types": ["neighborhood", "political"], "vicinity": "Boston"}}