{"ChIJGzE9DS1l44kRoOhiASS_fHg": {"geometry": {"location": {"lat": 42.3600825, "lng": -71.0588801}, "viewport": {"northeast": {"lat": 42.40081989999999, "lng": -70.749455}, "southwest": {"lat": 42.22788, "lng": -71.191113}}}, "icon": "https://maps.gstatic.com/mapfiles/place_api/icons/geocode-71.png", "id": "06755c25d2b34d13942a4713971756a55b870ced", "name": "Boston", "photos": [{"height": 3024, "html_attributions": ["<a href=\"https://maps.google.com/maps/contrib/104670289779338733432/photos\">Natalia Zalucean</a>"], "photo_reference": "CmRaAAAAscuq-k1wzFlyRH7grS5K6JtWYyAuyFJsK90ER70AfxC7ONM22_aC4xH9uD_ih_zRfqJZpByO-ebNBn7OLKIv-BRoN1eq7JhpILusx6XJa3T84XZVC_wb8jkm7hNOhYbNEhALHgH8Qj-X9e2er3PiLZQYGhR8Fw-E_oNJO2Yvy-1xJqrfQ5Vh8g", "width": 4032}], "place_id": "ChIJGzE9DS1l44kRoOhiASS_fHg", "reference": "ChIJGzE9DS1l44kRoOhiASS_fHg", "scope": "GOOGLE", "types": ["locality", "political"], "vicinity": "Boston"}, "ChIJvRRLuhJ_44kRtaPHKaekW2E": {"geometry": {"location": {"lat": 42.26771909999999, "lng": -71.16736999999999}, "viewport": {"northeast": {"lat": 42.26909648029149, "lng": -71.16622936970849}, "southwest": {"lat": 42.2663985197085, "lng": -71.1689273302915}}}, "icon": "https://maps.gstatic.com/mapfiles/place_api/icons/generic_business-71.png", "id": "20e5320ac4321de82424130af8d6571f2d29ff63", "name": "Habitat For Humanity ReStore", "opening_hours": {"open_now": true}, "photos": [{"height": 1536, "html_attributions": ["<a href=\"https://maps.google.com/maps/contrib/114734921732569776819/photos\">Habitat Greater Boston</a>"], "photo_reference": "CmRaAAAAei1kopRPb2PqT0MzS4gWWdinGerDnw9UPhBDIQ59EdLBlTcxw45e8LkTghTncnjVbgZoUQUBU9QV62Ua-m8jPuXv3S0_OMQA7HnZjzhV3jB75G2tAmMmfxYp9oWMuLdwEhAU-xAcBYJGMYphKGrJ3WQ6GhSS2aYJ_Q6IBld6CefJQoKidLjyfA", "width": 2048}], "place_id": "ChIJvRRLuhJ_44kRtaPHKaekW2E", "plus_code": {"compound_code": "7R9M+33 Boston, Massachusetts, United States", "global_code": "87JC7R9M+33"}, "rating": 4.8, "reference": "ChIJvRRLuhJ_44kRtaPHKaekW2E", "scope": "GOOGLE", "types": ["hardware_store", "furniture_store", "home_goods_store", "store", "point_of_interest", "establishment"], "user_ratings_total": 12, "vicinity": "1580 VFW Parkway, West Roxbury"}, "ChIJw5UbWm1_44kRFxhe6o85t80": {"geometry": {"location": {"lat": 42.266627, "lng": -71.16998079999999}, "viewport": {"northeast": {"lat": 42.2681183802915, "lng": -71.16840546970849}, "southwest": {"lat": 42.2654204197085, "lng": -71.17110343029151}}}, "icon": "https://maps.gstatic.com/mapfiles/place_api/icons/shopping-71.png", "id": "162965e3f24030b0557d64674b5e19589983b677", "name": "Prime Honda - Boston", "opening_hours": {"open_now": true}, "photos": [{"height": 3456, "html_attributions": ["<a href=\"https://maps.google.com/maps/contrib/112743079973080120154/photos\">Prime Honda - Boston</a>"], "photo_reference": "CmRaAAAAJ4nuWUBiaOSNQiqrtz75ufB9xCzPn9q96Py__mtxDncfLAp1bfV8jVxbn6PvFZ0YU0nYJQDJM7rQOZ2ho6vRLLwDIfjjcVinBGTfIUQdpS9B_Yvb99iynjhE0VSGR9kCEhCi2eIvxeV58NWXFSOpeZ7TGhQW7_YQIDC2x8QTUPy8FHI9JhNidA", "width": 5184}], "place_id": "ChIJw5UbWm1_44kRFxhe6o85t80", "plus_code": {"compound_code": "7R8J+M2 Boston, Massachusetts, United States", "global_code": "87JC7R8J+M2"}, "rating": 4.3, "reference": "ChIJw5UbWm1_44kRFxhe6o85t80", "scope": "GOOGLE", "types": ["car_dealer", "car_repair", "store", "point_of_interest", "establishment"], "user_ratings_total": 571, "vicinity": "1575 VFW Parkway, West Roxbury"}, "ChIJO3YZD5J-44kRHwjaZazxKUc": {"geometry": {"location": {"lat": 42.2657675, "lng": -71.1691171}, "viewport": {"northeast": {"lat": 42.2671859302915, "lng": -71.16754106970849}, "southwest": {"lat": 42.2644879697085, "lng": -71.17023903029151}}}, "icon": "https://maps.gstatic.com/mapfiles/place_api/icons/shopping-71.png", "id": "b5f6dfaf71b982dfac533bea559872915253ea33", "name": "Prime Toyota - Boston", "opening_hours": {"open_now": true}, "photos": [{"height": 2584, "html_attributions": ["<a href=\"https://maps.google.com/maps/contrib/111671763710408732584/photos\">Prime Toyota - Boston</a>"], "photo_reference": "CmRaAAAAtKE7khzlbssgmM7X0SgTvKduK59Rsuln9iadQujaX1yfO1DtfjUfmxXpOwo6nM3aMepVR-ZFUJUcTejbiioflxXkVJX19W3CT7GZAjBu2XDZfloXGN5j6qGWbqA4-IMDEhAKAlRY2zbxG2PfknHXESoeGhSWJr9HsZ_kmDXrmcTuRNF1gjzYXA", "width": 2592}], "place_id": "ChIJO3YZD5J-44kRHwjaZazxKUc", "plus_code": {"compound_code": "7R8J+89 Boston, Massachusetts, United States", "global_code": "87JC7R8J+89"}, "rating": 4.4, "reference": "ChIJO3YZD5J-44kRHwjaZazxKUc", "scope": "GOOGLE", "types": ["car_dealer", "car_repair", "store", "point_of_interest", "establishment"], "user_ratings_total": 645, "vicinity": "1605 VFW Parkway, West Roxbury"}, "ChIJvRRLuhJ_44kRXIFMtfKSqns": {"geometry": {"location": {"lat": 42.2673177, "lng": -71.1674515}, "viewport": {"northeast": {"lat": 42.26869628029149, "lng": -71.1663197697085}, "southwest": {"lat": 42.2659983197085, "lng": -71.1690177302915}}}, "icon": "https://maps.gstatic.com/mapfiles/place_api/icons/generic_business-71.png", "id": "a85d7683ec1c71c7a59a75d193afa8fce1dc7bcd", "name": "Laser Quest", "opening_hours": {"open_now": false}, "photos": [{"height": 288, "html_attributions": ["<a href=\"https://maps.google.com/maps/contrib/104399950064808680492/photos\">Laser Quest</a>"], "photo_reference": "CmRaAAAA-O46fqBajUpmeYE6Ad2R74y8TFdeTHcyBxoJLA4RbiNbROsK4FMJb7-VUpekmyftzu2-_aKaZ3WCVYtDWCuOiZwABJt1bdJh-qelvEgMb0a_gPagvezQsKQOMLRFJCcEEhBpi63_u8Bzth50pYGuC-lLGhQ5cPgrMgvu4_MTlPg79k6YBiB--Q", "width": 512}], "place_id": "ChIJvRRLuhJ_44kRXIFMtfKSqns", "plus_code": {"compound_code": "7R8M+W2 Boston, Massachusetts, United States", "global_code": "87JC7R8M+W2"}, "rating": 4.3, "reference": "ChIJvRRLuhJ_44kRXIFMtfKSqns", "scope": "GOOGLE", "types": ["point_of_interest", "establishment"], "user_ratings_total": 190, "vicinity": "1580 VFW Parkway, West Roxbury"}, "ChIJR519rBJ_44kRtR5jAzePlHE": {"geometry": {"location": {"lat": 42.2668155, "lng": -71.1685485}, "viewport": {"northeast": {"lat": 42.2681079802915, "lng": -71.1673215697085}, "southwest": {"lat": 42.2654100197085, "lng": -71.17001953029151}}}, "icon": "https://maps.gstatic.com/mapfiles/place_api/icons/restaurant-71.png", "id": "3c9fe924c385ee32591a2fcfc7dfc6fb8619276a", "name": "Taco Bell", "opening_hours": {"open_now": true}, "photos": [{"height": 600, "html_attributions": ["<a href=\"https://maps.google.com/maps/contrib/118436311041206279555/photos\">Taco Bell</a>"], "photo_reference": "CmRaAAAAlvv1pG6dEDt3cjtJr4fqsGZtkhmp-5mkdX36hwD4ecU4dg9P0HGLC9LegkasDJtQJWvyDjRpg9tih8oypiaw_UfRhtjIvXlHagWi-QSTgbM1TQeBpIcxqgjjotqoo0wcEhAW-bGY2Zda1wOOZH2gFz76GhQNpytmOEPCbrdSosOeUP1tYiI9cQ", "width": 600}], "place_id": "ChIJR519rBJ_44kRtR5jAzePlHE", "plus_code": {"compound_code": "7R8J+PH Boston, Massachusetts, United States", "global_code": "87JC7R8J+PH"}, "price_level": 1, "rating": 3.6, "reference": "ChIJR519rBJ_44kRtR5jAzePlHE", "scope": "GOOGLE", "types": ["meal_takeaway", "restaurant", "point_of_interest", "food", "establishment"], "user_ratings_total": 344, "vicinity": "1560 VFW Parkway, West Roxbury"}, "ChIJvRRLuhJ_44kRiHruwKVfovI": {"geometry": {"location": {"lat": 42.267551, "lng": -71.16841699999999}, "viewport": {"northeast": {"lat": 42.2687268802915, "lng": -71.1670133197085}, "southwest": {"lat": 42.2660289197085, "lng": -71.16971128029151}}}, "icon": "https://maps.gstatic.com/mapfiles/place_api/icons/generic_business-71.png", "id": "b80f9b6afdad8b122952eb7e950ab78fa2f1f6c0", "name": "Kids' Fun Stop", "opening_hours": {"open_now": true}, "photos": [{"height": 550, "html_attributions": ["<a href=\"https://maps.google.com/maps/contrib/114086698817212251758/photos\">Kids&#39; Fun Stop</a>"], "photo_reference": "CmRaAAAA7ZdCx943CnX04rdh9SsoNrRkyPihQP7ZP3FdVcxrs7WmoM2g0fhvVtE7LatF0K89rOECaIZJ2fIMhkY9Bvn6FsyfgJnM7FP_HaJanz4eOLXcbQlgfkORSYg_IX5DMM8fEhBwcvQlRuRBYA-S0fptLDLXGhQOHR6QbDA8NfbpK9d_ozWAtUD9cQ", "width": 733}], "place_id": "ChIJvRRLuhJ_44kRiHruwKVfovI", "plus_code": {"compound_code": "7R9J+2J Boston, Massachusetts, United States", "global_code": "87JC7R9J+2J"}, "rating": 4.1, "reference": "ChIJvRRLuhJ_44kRiHruwKVfovI", "scope": "GOOGLE", "types": ["point_of_interest", "establishment"], "user_ratings_total": 62, "vicinity": "1580 VFW Parkway, West Roxbury"}, "ChIJR519rBJ_44kRLF6sBdN6iOw": {"geometry": {"location": {"lat": 42.266815, "lng": -71.1685631}, "viewport": {"northeast": {"lat": 42.2681099802915, "lng": -71.16733076970849}, "southwest": {"lat": 42.26541201970851, "lng": -71.17002873029149}}}, "icon": "https://maps.gstatic.com/mapfiles/place_api/icons/restaurant-71.png", "id": "3a979761ded32c239e14d222be2cfc92a58d1d01", "name": "Long John Silver's", "opening_hours": {"open_now": true}, "photos": [{"height": 1490, "html_attributions": ["<a href=\"https://maps.google.com/maps/contrib/115246325717341040040/photos\">Nancy Bleam</a>"], "photo_reference": "CmRaAAAAXtdv0tNfrt0pqgOW6pKPN8_1bK4DtLcWZfKSUOjNQmmdsFdg6f90-dqDj1kYOauRmfQHxDYWdIngwl6rNI3oUiIK6c4hQiaMkAmIY6C17Ngeq5Y0HfaLsVzMbYRL3kuGEhA_pnFngntXK4LzNYglHwnCGhThFrHv-A4WAKYRSd13fukpBmMbtw", "width": 2761}], "place_id": "ChIJR519rBJ_44kRLF6sBdN6iOw", "plus_code": {"compound_code": "7R8J+PH Boston, Massachusetts, United States", "global_code": "87JC7R8J+PH"}, "price_level": 1, "rating": 3.3, "reference": "ChIJR519rBJ_44kRLF6sBdN6iOw", "scope": "GOOGLE", "types": ["restaurant", "point_of_interest", "food", "establishment"], "user_ratings_total": 39, "vicinity": "1560 VFW Parkway, West Roxbury"}, "ChIJcSgLoHJ_44kRYBVrUc1FMBs": {"geometry": {"location": {"lat": 42.26588, "lng": -71.169003}, "viewport": {"northeast": {"lat": 42.2672752802915, "lng": -71.16750251970849}, "southwest": {"lat": 42.2645773197085, "lng": -71.17020048029151}}}, "icon": "https://maps.gstatic.com/mapfiles/place_api/icons/shopping-71.png", "id": "854e57e78372d1d3b5c0dd8305b2e71a225abb2c", "name": "Prime Scion Boston", "opening_hours": {"open_now": true}, "place_id": "ChIJcSgLoHJ_44kRYBVrUc1FMBs", "plus_code": {"compound_code": "7R8J+99 Boston, Massachusetts, United States", "global_code": "87JC7R8J+99"}, "reference": "ChIJcSgLoHJ_44kRYBVrUc1FMBs", "scope": "GOOGLE", "types": ["car_dealer", "car_repair", "store", "point_of_interest", "establishment"], "vicinity": "1605 VFW Parkway, West Roxbury"}, "ChIJQxBhTm1_44kReFIY8Xu4LSE": {"geometry": {"location": {"lat": 42.267486, "lng": -71.169506}, "viewport": {"northeast": {"lat": 42.2687896802915, "lng": -71.1682095197085}, "southwest": {"lat": 42.2660917197085, "lng": -71.1709074802915}}}, "icon": "https://maps.gstatic.com/mapfiles/place_api/icons/generic_business-71.png", "id": "fc4c6b9264a2cbf8c33c1e5979c5146caaa1f32b", "name": "U-Haul of Vfw Parkway West Roxbury", "opening_hours": {"open_now": true}, "photos": [{"height": 3024, "html_attributions": ["<a href=\"https://maps.google.com/maps/contrib/113250550084820187093/photos\">Alex Podobedov</a>"], "photo_reference": "CmRaAAAAduY9l80uWPHFtp-9tkuoBcJhOZTDebRtRCgNSEnLY5Wzn4Xez6lGBV9rpz6n6U9PaNH6lcdMuzUzL2BvqOfl3nnywJMGh-45-7sU1DLNjv8oymv1kkmnpLs73GQ7vGPjEhBJp7SJqWsY4DGBK5BHe3A3GhQGGoqNFt0oTBWgZsvlbdela2xoXA", "width": 4032}], "place_id": "ChIJQxBhTm1_44kReFIY8Xu4LSE", "plus_code": {"compound_code": "7R8J+X5 Boston, Massachusetts, United States", "global_code": "87JC7R8J+X5"}, "price_level": 1, "rating": 2.6, "reference": "ChIJQxBhTm1_44kReFIY8Xu4LSE", "scope": "GOOGLE", "types": ["moving_company", "storage", "store", "point_of_interest", "establishment"], "user_ratings_total": 32, "vicinity": "1550 VFW Parkway, West Roxbury"}, "ChIJfzHlvkl_44kRaEEPmcmdwIs": {"geometry": {"location": {"lat": 42.2659124, "lng": -71.1678893}, "viewport": {"northeast": {"lat": 42.2673118302915, "lng": -71.1665367697085}, "southwest": {"lat": 42.2646138697085, "lng": -71.1692347302915}}}, "icon": "https://maps.gstatic.com/mapfiles/place_api/icons/restaurant-71.png", "id": "51f320429089efc5c0b04406b7415cb246672fcb", "name": "Burger King", "opening_hours": {"open_now": true}, "photos": [{"height": 1056, "html_attributions": ["<a href=\"https://maps.google.com/maps/contrib/100771853410849511632/photos\">Burger King</a>"], "photo_reference": "CmRaAAAAWofChj1VJADTWFrumy9MPP7PXV67Q06sclDM8yiATg8K1kFO_3dF9xhXk131WILNKYzlTQjOvJaLmRd5N_jjU0a_Lye4PfOlZrYDWL3rA86obudN5e9bJl1R3MCJ_0RaEhB5gNZ-zV31mm4UnB9uLpHhGhT8DYOYUSB-DoC_8T7ik8CiJEtCWQ", "width": 868}], "place_id": "ChIJfzHlvkl_44kRaEEPmcmdwIs", "plus_code": {"compound_code": "7R8J+9R Boston, Massachusetts, United States", "global_code": "87JC7R8J+9R"}, "price_level": 1, "rating": 3.4, "reference": "ChIJfzHlvkl_44kRaEEPmcmdwIs", "scope": "GOOGLE", "types": ["restaurant", "point_of_interest", "food", "establishment"], "user_ratings_total": 174, "vicinity": "1610 VFW Parkway, West Roxbury"}, "ChIJmdlMtBJ_44kRccH_N0bwL3A": {"geometry": {"location": {"lat": 42.2675965, "lng": -71.16838469999999}, "viewport": {"northeast": {"lat": 42.2688160802915, "lng": -71.1671761197085}, "southwest": {"lat": 42.2661181197085, "lng": -71.1698740802915}}}, "icon": "https://maps.gstatic.com/mapfiles/place_api/icons/generic_business-71.png", "id": "43a1c3a733ab46b44f8ff7564010e237a152fd6e", "name": "Rain Masters Lawn Irrigation", "place_id": "ChIJmdlMtBJ_44kRccH_N0bwL3A", "plus_code": {"compound_code": "7R9J+2J Boston, Massachusetts, United States", "global_code": "87JC7R9J+2J"}, "reference": "ChIJmdlMtBJ_44kRccH_N0bwL3A", "scope": "GOOGLE", "types": ["general_contractor", "point_of_interest", "establishment"], "vicinity": "1566 VFW Parkway, West Roxbury"}, "ChIJPcjAvhJ_44kRCp9FNXBuuTE": {"geometry": {"location": {"lat": 42.267224, "lng": -71.167802}, "viewport": {"northeast": {"lat": 42.2685835802915, "lng": -71.16651501970848}, "southwest": {"lat": 42.26588561970851, "lng": -71.16921298029149}}}, "icon": "https://maps.gstatic.com/mapfiles/place_api/icons/shopping-71.png", "id": "56daa32da878468310daf6412d570bfa16f55a7d", "name": "Off Price Closeouts West Roxbury", "opening_hours": {"open_now": true}, "photos": [{"height": 720, "html_attributions": ["<a href=\"https://maps.google.com/maps/contrib/104483690448813803177/photos\">Lira Centeno</a>"], "photo_reference": "CmRaAAAAfagZZomG7gj_mX7Q224zDpnTE0r09lbRcHryE_9KbkjMwrsMxt5SPDpUG8kGhhEAEQjudSbl1ErwTxBbxwc987L7J_BxgTNTIA-XYLER7uhOF_Fp0ow8Hkmaz8VWogEpEhB1w-KerHxu_JsbHGhnRgciGhQ2hrkl9S2PAJo2_3G_qKyGNjD6Xw", "width": 720}], "place_id": "ChIJPcjAvhJ_44kRCp9FNXBuuTE", "plus_code": {"compound_code": "7R8J+VV Boston, Massachusetts, United States", "global_code": "87JC7R8J+VV"}, "rating": 5, "reference": "ChIJPcjAvhJ_44kRCp9FNXBuuTE", "scope": "GOOGLE", "types": ["clothing_store", "store", "point_of_interest", "establishment"], "user_ratings_total": 1, "vicinity": "1580 VFW Parkway, West Roxbury"}, "ChIJH-ZhTGx_44kRzMq4WFqf8sg": {"geometry": {"location": {"lat": 42.2663598, "lng": -71.1676712}, "viewport": {"northeast": {"lat": 42.26753263029149, "lng": -71.1663604697085}, "southwest": {"lat": 42.26483466970849, "lng": -71.16905843029151}}}, "icon": "https://maps.gstatic.com/mapfiles/place_api/icons/shopping-71.png", "id": "7f2a1ab9691e149c7fa1ee3f0849bb66fb95fdc4", "name": "Party City", "opening_hours": {"open_now": true}, "photos": [{"height": 3024, "html_attributions": ["<a href=\"https://maps.google.com/maps/contrib/116058170693245712502/photos\">Victor Brunko</a>"], "photo_reference": "CmRaAAAA636NN0hrhO0PwwD6SlSbNxnd-Ouqnbqv4IH-eYdS_8NW3PDkNaItWciWKoIb9VCpiv7H3S4vEJs4l4u08t1lZQ8akvzEnDoKJ4PbHnVKBxU12eHVQgIdyW-x1apyXM1JEhAqqY5Sq-L_4BpOjnBt8FmBGhRqfG7XcKHOLnT7Nyse6Rl_qzvNVw", "width": 4032}], "place_id": "ChIJH-ZhTGx_44kRzMq4WFqf8sg", "plus_code": {"compound_code": "7R8J+GW Boston, Massachusetts, United States", "global_code": "87JC7R8J+GW"}, "price_level": 2, "rating": 4.2, "reference": "ChIJH-ZhTGx_44kRzMq4WFqf8sg", "scope": "GOOGLE", "types": ["clothing_store", "home_goods_store", "store", "point_of_interest", "food", "establishment"], "user_ratings_total": 104, "vicinity": "1580 VFW Parkway, West Roxbury"}, "ChIJPcjAvhJ_44kRj2JlSqcFn7g": {"geometry": {"location": {"lat": 42.26725340000001, "lng": -71.1674307}, "viewport": {"northeast": {"lat": 42.2686423802915, "lng": -71.1663156197085}, "southwest": {"lat": 42.2659444197085, "lng": -71.1690135802915}}}, "icon": "https://maps.gstatic.com/mapfiles/place_api/icons/generic_business-71.png", "id": "49cb85eecb4fb2c57115eeeea345a4f47387ada1", "name": "Key Quest Escape Room", "opening_hours": {"open_now": false}, "place_id": "ChIJPcjAvhJ_44kRj2JlSqcFn7g", "plus_code": {"compound_code": "7R8M+W2 Boston, Massachusetts, United States", "global_code": "87JC7R8M+W2"}, "rating": 3.7, "reference": "ChIJPcjAvhJ_44kRj2JlSqcFn7g", "scope": "GOOGLE", "types": ["point_of_interest", "establishment"], "user_ratings_total": 3, "vicinity": "1580 VFW Parkway, West Roxbury"}, "ChIJad-eUG1_44kRyzfROuF0Iso": {"geometry": {"location": {"lat": 42.26664479999999, "lng": -71.1700092}, "viewport": {"northeast": {"lat": 42.26813763029149, "lng": -71.16843156970849}, "southwest": {"lat": 42.26543966970849, "lng": -71.17112953029151}}}, "icon": "https://maps.gstatic.com/mapfiles/place_api/icons/generic_business-71.png", "id": "c1e8985e29652c0d23aef6c6fe2b183aacb6a2d4", "name": "Honda Service", "opening_hours": {"open_now": true}, "place_id": "ChIJad-eUG1_44kRyzfROuF0Iso", "plus_code": {"compound_code": "7R8H+MX Boston, Massachusetts, United States", "global_code": "87JC7R8H+MX"}, "reference": "ChIJad-eUG1_44kRyzfROuF0Iso", "scope": "GOOGLE", "types": ["car_repair", "point_of_interest", "establishment"], "vicinity": "1575 VFW Parkway, West Roxbury"}, "ChIJJXS0QWh_44kRiXGolvi093M": {"geometry": {"location": {"lat": 42.2672786, "lng": -71.1681315}, "viewport": {"northeast": {"lat": 42.2686100802915, "lng": -71.1666800697085}, "southwest": {"lat": 42.2659121197085, "lng": -71.16937803029151}}}, "icon": "https://maps.gstatic.com/mapfiles/place_api/icons/shopping-71.png", "id": "fda248491dfaa4b4e4e339b2da6d95443218031c", "name": "Dollar Tree", "opening_hours": {"open_now": true}, "photos": [{"height": 925, "html_attributions": ["<a href=\"https://maps.google.com/maps/contrib/115238430078660007770/photos\">Dollar Tree</a>"], "photo_reference": "CmRaAAAAzSKZJi7fbLF7AVYdhW7C4Gdn3woTsb0MEyTIox1188sNQ5SM6rpEZ-GdkjfzxX5J8hv7v49MSNQ-bN5lHOnNGgDzsd4Rb2NW_W9uHRWeRNYQBzOuE41krY6hvl0MDrIREhCPqt2xIZCaD5mu1wLIOorDGhQfXwhDNR33mWwTiHVHxE43FmsJaQ", "width": 925}], "place_id": "ChIJJXS0QWh_44kRiXGolvi093M", "plus_code": {"compound_code": "7R8J+WP Boston, Massachusetts, United States", "global_code": "87JC7R8J+WP"}, "price_level": 1, "rating": 4.5, "reference": "ChIJJXS0QWh_44kRiXGolvi093M", "scope": "GOOGLE", "types": ["furniture_store", "grocery_or_supermarket", "home_goods_store", "store", "point_of_interest", "food", "establishment"], "user_ratings_total": 2, "vicinity": "1580 VFW Parkway, West Roxbury"}, "ChIJ43C4tBJ_44kRteuJuuqoY9U": {"geometry": {"location": {"lat": 42.2674672, "lng": -71.1685426}, "viewport": {"northeast": {"lat": 42.2687546302915, "lng": -71.1672604197085}, "southwest": {"lat": 42.2660566697085, "lng": -71.1699583802915}}}, "icon": "https://maps.gstatic.com/mapfiles/place_api/icons/generic_business-71.png", "id": "4f178516ed4f467342ee3229fb556fc93e538dfe", "name": "Gold Landscaping", "place_id": "ChIJ43C4tBJ_44kRteuJuuqoY9U", "plus_code": {"compound_code": "7R8J+XH Boston, Massachusetts, United States", "global_code": "87JC7R8J+XH"}, "reference": "ChIJ43C4tBJ_44kRteuJuuqoY9U", "scope": "GOOGLE", "types": ["general_contractor", "point_of_interest", "establishment"], "vicinity": "West Roxbury"}, "ChIJjSIYoHJ_44kRjMmvlQG9WWc": {"geometry": {"location": {"lat": 42.26664479999999, "lng": -71.1700092}, "viewport": {"northeast": {"lat": 42.26813763029149, "lng": -71.16843156970849}, "southwest": {"lat": 42.26543966970849, "lng": -71.17112953029151}}}, "icon": "https://maps.gstatic.com/mapfiles/place_api/icons/shopping-71.png", "id": "c29bb949a98a83df1f723be2a3f90ceb8a7ab2d9", "name": "Honda Parts", "opening_hours": {"open_now": true}, "photos": [{"height": 1080, "html_attributions": ["<a href=\"https://maps.google.com/maps/contrib/100786816391539792128/photos\">Brianna Hinton</a>"], "photo_reference": "CmRaAAAAHp7KLQ-HUzMT3XFaWGb1_PHLGeAzGHIrXJcddk4SHjGyPMfWapFBzOJJp7IDycv6QIGiT4ecNUDJSs6-FNLMjUeWVVRYdil5QDLreDUS8C4qNvkA_aEtwgn-Whkmu9mmEhCs3clVlEbZBmpkShjzwX4bGhS5NNgag4X03xEJzkq4-E6lzGqgtQ", "width": 1920}], "place_id": "ChIJjSIYoHJ_44kRjMmvlQG9WWc", "plus_code": {"compound_code": "7R8H+MX Boston, Massachusetts, United States", "global_code": "87JC7R8H+MX"}, "rating": 5, "reference": "ChIJjSIYoHJ_44kRjMmvlQG9WWc", "scope": "GOOGLE", "types": ["car_repair", "store", "point_of_interest", "establishment"], "user_ratings_total": 3, "vicinity": "1575 VFW Parkway, West Roxbury"}, "ChIJzxYuijx_44kRRILba9QQn0k": {"geometry": {"location": {"lat": 42.27975539999999, "lng": -71.1626756}, "viewport": {"northeast": {"lat": 42.303697, "lng": -71.12789599999999}, "southwest": {"lat": 42.25289799999999, "lng": -71.191198}}}, "icon": "https://maps.gstatic.com/mapfiles/place_api/icons/geocode-71.png", "id": "20de47f271a3ccaf647bdac7b9ee10bd6e83a6c4", "name": "West Roxbury", "photos": [{"height": 603, "html_attributions": ["<a href=\"https://maps.google.com/maps/contrib/117808102006877461743/photos\">Andri Kyrychok</a>"], "photo_reference": "CmRaAAAA_BJMA5zDvUsgEv7fpoXVpFfsEw0yJnnqHRjBM4PblAd-9hwIvxCvk5ZPUQPzKOUVExa0j22ilU0UA1nZiNDJVnismYiXEr8mI00xlhv6kUEQ5dtQmxVlaqwNmxAevuwDEhBocCsLmu5MytF9h_u1dtxfGhSYtrHbb4S8VE2qKdm1ALIZWbRB-w", "width": 546}], "place_id": "ChIJzxYuijx_44kRRILba9QQn0k", "reference": "ChIJzxYuijx_44kRRILba9QQn0k", "scope": "GOOGLE", "types": ["neighborhood", "political"], "vicinity": "Boston"}, "ChIJfzHlvkl_44kR3vlvi7nBJTM": {"geometry": {"location": {"lat": 42.266658, "lng": -71.170058}, "viewport": {"northeast": {"lat": 42.2681569802915, "lng": -71.16847056970849}, "southwest": {"lat": 42.2654590197085, "lng": -71.17116853029151}}}, "icon": "https://maps.gstatic.com/mapfiles/place_api/icons/generic_business-71.png", "id": "fce81f2d3c96ee0aefa0ace1b2d98885144c3dd1", "name": "Boston Rent A Car", "place_id": "ChIJfzHlvkl_44kR3vlvi7nBJTM", "plus_code": {"compound_code": "7R8H+MX Boston, Massachusetts, United States", "global_code": "87JC7R8H+MX"}, "reference": "ChIJfzHlvkl_44kR3vlvi7nBJTM", "scope": "GOOGLE", "types": ["car_rental", "point_of_interest", "establishment"], "vicinity": "1575 VFW Parkway, Boston"}, "ChIJtd4anxN_44kRpHHNhnwuglY": {"geometry": {"location": {"lat": 42.266348, "lng": -71.1669458}, "viewport": {"northeast": {"lat": 42.2775151, "lng": -71.1630392}, "southwest": {"lat": 42.261743, "lng": -71.1677801}}}, "icon": "https://maps.gstatic.com/mapfiles/place_api/icons/generic_recreational-71.png", "id": "3b105e9ca52e4276ded842db03d0f00ae619db38", "name": "New Haven Street Park", "place_id": "ChIJtd4anxN_44kRpHHNhnwuglY", "reference": "ChIJtd4anxN_44kRpHHNhnwuglY", "scope": "GOOGLE", "types": ["park", "premise", "point_of_interest", "establishment"], "vicinity": "Boston"}}