{"ChIJGzE9DS1l44kRoOhiASS_fHg": {"geometry": {"location": {"lat": 42.3600825, "lng": -71.0588801}, "viewport": {"northeast": {"lat": 42.40081989999999, "lng": -70.749455}, "southwest": {"lat": 42.22788, "lng": -71.191113}}}, "icon": "https://maps.gstatic.com/mapfiles/place_api/icons/geocode-71.png", "id": "06755c25d2b34d13942a4713971756a55b870ced", "name": "Boston", "photos": [{"height": 3024, "html_attributions": ["<a href=\"https://maps.google.com/maps/contrib/104670289779338733432/photos\">Natalia Zalucean</a>"], "photo_reference": "CmRaAAAA_vPul4EHRKCFXOsl_49RHIX86lLXy39A2WL_ZDcj8kR0LuNuy30u2o17DZVk7tcejd7ewkIjaOmT_tHMcIgXNKDHLDsErVvPO0TBGZmDCL2FQDh8KdjVqnemOYUJ9JQQEhBL5ftxx3FE3OJbNmSS0HHpGhSO11-zx812ei83-tFnW3drWqwXIg", "width": 4032}], "place_id": "ChIJGzE9DS1l44kRoOhiASS_fHg", "reference": "ChIJGzE9DS1l44kRoOhiASS_fHg", "scope": "GOOGLE", "types": ["locality", "political"], "vicinity": "Boston"}, "ChIJFQ3PUZB644kRWtxS7Zxain4": {"geometry": {"location": {"lat": 42.30065269999999, "lng": -71.055587}, "viewport": {"northeast": {"lat": 42.30187123029149, "lng": -71.0541479697085}, "southwest": {"lat": 42.2991732697085, "lng": -71.0568459302915}}}, "icon": "https://maps.gstatic.com/mapfiles/place_api/icons/generic_business-71.png", "id": "7e54d44b64132a422156f3013bec620cf13fffa9", "name": "European Motorsport LLC", "opening_hours": {"open_now": true}, "photos": [{"height": 3264, "html_attributions": ["<a href=\"https://maps.google.com/maps/contrib/111562277484267438334/photos\">European Motorsport LLC</a>"], "photo_reference": "CmRaAAAAtKNPPCXpt6YHmAkzzZggbGSC82tje-A-dc2UilLpqEvqlOkNAvdeanFmfofvebw3XnAq_lzPRmsBY8dc6n2oa1u0kJWeEXhSiwCxxNfLp-0rGLst6ue8Cqb6A_rzJ0slEhB3vIYUPxoBcrLFbSRUdSHrGhSbMu_09FCvtfNySC9KMT9_FIOdaw", "width": 2448}], "place_id": "ChIJFQ3PUZB644kRWtxS7Zxain4", "plus_code": {"compound_code": "8W2V+7Q Boston, Massachusetts, United States", "global_code": "87JC8W2V+7Q"}, "rating": 4.9, "reference": "ChIJFQ3PUZB644kRWtxS7Zxain4", "scope": "GOOGLE", "types": ["car_repair", "point_of_interest", "establishment"], "user_ratings_total": 31, "vicinity": "51 Park Street, Dorchester"}, "ChIJ2X46kqZ744kRs7IJWVw0FRk": {"geometry": {"location": {"lat": 42.3010853, "lng": -71.0546428}, "viewport": {"northeast": {"lat": 42.3024091802915, "lng": -71.0532503697085}, "southwest": {"lat": 42.2997112197085, "lng": -71.05594833029151}}}, "icon": "https://maps.gstatic.com/mapfiles/place_api/icons/shopping-71.png", "id": "9b049e54eb5640f79d01984c45838078c38c585f", "name": "All Brand Appliance Parts", "opening_hours": {"open_now": true}, "photos": [{"height": 960, "html_attributions": ["<a href=\"https://maps.google.com/maps/contrib/106686224977377166928/photos\">All Brand Appliance Parts</a>"], "photo_reference": "CmRaAAAA82UCdXjSvzGzOyQhEU_ap9CXBaFBvsckd-P-4sOmnXfTT-CxVqVYTrw3DcJXXRHk04q11YblOEareBmVL0MJC1TVkZE-zxvc6Hv0hQRXlhq-43313DGs2RtIydkJ6-fLEhCxmJPhmGg38uU2I8z_YGteGhQdkZN676gLiiseZfZ64uC1A9fUEA", "width": 1280}], "place_id": "ChIJ2X46kqZ744kRs7IJWVw0FRk", "plus_code": {"compound_code": "8W2W+C4 Boston, Massachusetts, United States", "global_code": "87JC8W2W+C4"}, "rating": 4.4, "reference": "ChIJ2X46kqZ744kRs7IJWVw0FRk", "scope": "GOOGLE", "types": ["store", "point_of_interest", "establishment"], "user_ratings_total": 13, "vicinity": "37 Park Street, Dorchester"}, "ChIJyzpPK6R744kR7H5SpsCskfg": {"geometry": {"location": {"lat": 42.3020003, "lng": -71.0560247}, "viewport": {"northeast": {"lat": 42.3033340302915, "lng": -71.0547983197085}, "southwest": {"lat": 42.3006360697085, "lng": -71.0574962802915}}}, "icon": "https://maps.gstatic.com/mapfiles/place_api/icons/generic_business-71.png", "id": "bb07acdf8e04140c2603e2282f3cf6e58de87284", "name": "BELL (Building Educated Leaders for Life)", "opening_hours": {"open_now": true}, "place_id": "ChIJyzpPK6R744kR7H5SpsCskfg", "plus_code": {"compound_code": "8W2V+RH Boston, Massachusetts, United States", "global_code": "87JC8W2V+RH"}, "rating": 5, "reference": "ChIJyzpPK6R744kR7H5SpsCskfg", "scope": "GOOGLE", "types": ["point_of_interest", "establishment"], "user_ratings_total": 1, "vicinity": "60 Clayton Street, Dorchester"}, "ChIJFZaX1KV744kRURI4QcyHyfU": {"geometry": {"location": {"lat": 42.3020184, "lng": -71.0560162}, "viewport": {"northeast": {"lat": 42.3033513802915, "lng": -71.0547959697085}, "southwest": {"lat": 42.3006534197085, "lng": -71.0574939302915}}}, "icon": "https://maps.gstatic.com/mapfiles/place_api/icons/generic_business-71.png", "id": "07f81459e7b02deca9b7fd14d89ee3943d5908a8", "name": "ESI Waterproofing & Masonry", "opening_hours": {"open_now": true}, "photos": [{"height": 400, "html_attributions": ["<a href=\"https://maps.google.com/maps/contrib/114389869491200921862/photos\">ESI Waterproofing &amp; Masonry</a>"], "photo_reference": "CmRaAAAA49azFU7mG2nCoUEaDpcP8p2USObPlhhKSLcUvyFM_Qf8JqNfF7Fmx2v6jsHwG31kyVTLcECwII18kiwJVbyw6ixm4WCaZgt7afBXkchttc3UZ171f1vtL8oXhDKSy-GQEhBTv2d9m3LP0LOsHOc41t3tGhQd4cQOf0-MswdKHUNHQ0RgRpkVFw", "width": 610}], "place_id": "ChIJFZaX1KV744kRURI4QcyHyfU", "plus_code": {"compound_code": "8W2V+RH Boston, Massachusetts, United States", "global_code": "87JC8W2V+RH"}, "reference": "ChIJFZaX1KV744kRURI4QcyHyfU", "scope": "GOOGLE", "types": ["general_contractor", "point_of_interest", "establishment"], "vicinity": "60 Clayton Street, Dorchester"}, "ChIJV9DL1qV744kRkngvtlvb5pc": {"geometry": {"location": {"lat": 42.302421, "lng": -71.05606999999999}, "viewport": {"northeast": {"lat": 42.3037652302915, "lng": -71.05484971970849}, "southwest": {"lat": 42.3010672697085, "lng": -71.0575476802915}}}, "icon": "https://maps.gstatic.com/mapfiles/place_api/icons/worship_general-71.png", "id": "a6d27fb6356faba99362153e838e6cc4de25a451", "name": "Mujeres Unidas Avanzando", "photos": [{"height": 5312, "html_attributions": ["<a href=\"https://maps.google.com/maps/contrib/118175985435926540870/photos\">Samantha</a>"], "photo_reference": "CmRaAAAAvIizuzHo3TO1ZLwcN-Gkjnu5XYt7ynlrk6jHCA8VDR1tQ6kvqvVqK0f2bdc1MRbtRxPBy4NQZutSr0HpGdzWfF41fpHmpf3WALtG2ndBMM6nI9Ged6CuwfdEB6fBMUf8EhChA8rJLRf0Q5y7EwYZbDHqGhSDWCrOJYJumcE0IRrk5J_LEx_3DQ", "width": 2988}], "place_id": "ChIJV9DL1qV744kRkngvtlvb5pc", "plus_code": {"compound_code": "8W2V+XH Boston, Massachusetts, United States", "global_code": "87JC8W2V+XH"}, "rating": 4.9, "reference": "ChIJV9DL1qV744kRkngvtlvb5pc", "scope": "GOOGLE", "types": ["church", "place_of_worship", "store", "point_of_interest", "establishment"], "user_ratings_total": 23, "vicinity": "54 Clayton Street # 1, Dorchester"}, "ChIJdalyZKZ744kRcfJqhM1jBfs": {"geometry": {"location": {"lat": 42.302138, "lng": -71.0547}, "viewport": {"northeast": {"lat": 42.3035168302915, "lng": -71.0534870697085}, "southwest": {"lat": 42.30081886970851, "lng": -71.0561850302915}}}, "icon": "https://maps.gstatic.com/mapfiles/place_api/icons/generic_business-71.png", "id": "fdd306836032a884d92c4ae20038486d8a2b54a4", "name": "Corbett Plastering Inc", "opening_hours": {"open_now": true}, "place_id": "ChIJdalyZKZ744kRcfJqhM1jBfs", "plus_code": {"compound_code": "8W2W+V4 Boston, Massachusetts, United States", "global_code": "87JC8W2W+V4"}, "reference": "ChIJdalyZKZ744kRcfJqhM1jBfs", "scope": "GOOGLE", "types": ["point_of_interest", "establishment"], "vicinity": "28 Beach Street, Dorchester"}, "ChIJV9DL1qV744kRIfuw2ofMQmQ": {"geometry": {"location": {"lat": 42.302421, "lng": -71.05606999999999}, "viewport": {"northeast": {"lat": 42.3037652302915, "lng": -71.05484971970849}, "southwest": {"lat": 42.3010672697085, "lng": -71.0575476802915}}}, "icon": "https://maps.gstatic.com/mapfiles/place_api/icons/generic_business-71.png", "id": "97aaea791b6325b81829550d24e12f1e71bb63b7", "name": "Liberty Realty", "place_id": "ChIJV9DL1qV744kRIfuw2ofMQmQ", "plus_code": {"compound_code": "8W2V+XH Boston, Massachusetts, United States", "global_code": "87JC8W2V+XH"}, "reference": "ChIJV9DL1qV744kRIfuw2ofMQmQ", "scope": "GOOGLE", "types": ["real_estate_agency", "point_of_interest", "establishment"], "vicinity": "54 Clayton Street, Dorchester"}, "ChIJMw83CGF744kRfKCnlwkIcBU": {"geometry": {"location": {"lat": 42.30338179999999, "lng": -71.0548714}, "viewport": {"northeast": {"lat": 42.3046932802915, "lng": -71.0533518197085}, "southwest": {"lat": 42.3019953197085, "lng": -71.0560497802915}}}, "icon": "https://maps.gstatic.com/mapfiles/place_api/icons/generic_business-71.png", "id": "811734e6b13185dbc08e3bc96ee5ee37bf0713d9", "name": "Work Inc", "opening_hours": {"open_now": true}, "photos": [{"height": 2988, "html_attributions": ["<a href=\"https://maps.google.com/maps/contrib/109572268133904771448/photos\">Al Mahanna</a>"], "photo_reference": "CmRaAAAALfR99V6QyOkcMJVw7ekRhnStIETp6FHaitBFHl9gMbqlkGzMba_SOo0Rt_Y4Lra9rs9_q2Bp0cO35qIcAcAZF8_fSCvAfOAiA4UU3ThqlaBucQqqb2VQQ0HSecuSV6QTEhBYkSfl7zJMbKTuyxxeu1s1GhRBpYajymSsYzox7NvVzokkucVCnw", "width": 5312}], "place_id": "ChIJMw83CGF744kRfKCnlwkIcBU", "plus_code": {"compound_code": "8W3W+93 Boston, Massachusetts, United States", "global_code": "87JC8W3W+93"}, "rating": 4.2, "reference": "ChIJMw83CGF744kRfKCnlwkIcBU", "scope": "GOOGLE", "types": ["point_of_interest", "establishment"], "user_ratings_total": 34, "vicinity": "25 Beach Street, Dorchester"}, "ChIJN5RCnqZ744kRUtdDO8Ysuh4": {"geometry": {"location": {"lat": 42.3005653, "lng": -71.0556035}, "viewport": {"northeast": {"lat": 42.30181598029149, "lng": -71.0541866697085}, "southwest": {"lat": 42.2991180197085, "lng": -71.05688463029152}}}, "icon": "https://maps.gstatic.com/mapfiles/place_api/icons/generic_business-71.png", "id": "d92fd4eb3d464d5192e13d45897068f950fd35f4", "name": "Rubble Makers", "place_id": "ChIJN5RCnqZ744kRUtdDO8Ysuh4", "plus_code": {"compound_code": "8W2V+6Q Boston, Massachusetts, United States", "global_code": "87JC8W2V+6Q"}, "reference": "ChIJN5RCnqZ744kRUtdDO8Ysuh4", "scope": "GOOGLE", "types": ["general_contractor", "point_of_interest", "establishment"], "vicinity": "51 Park Street, Dorchester"}, "ChIJg5uMZx5644kRgoDhuS4BsXY": {"geometry": {"location": {"lat": 42.3005653, "lng": -71.0556035}, "viewport": {"northeast": {"lat": 42.30181598029149, "lng": -71.0541866697085}, "southwest": {"lat": 42.2991180197085, "lng": -71.05688463029152}}}, "icon": "https://maps.gstatic.com/mapfiles/place_api/icons/generic_business-71.png", "id": "8908b6093a044074eafd7a2e2d1f6926722a8b1b", "name": "Duane Corporation", "photos": [{"height": 689, "html_attributions": ["<a href=\"https://maps.google.com/maps/contrib/117251285712549476899/photos\">Craig Ruskey</a>"], "photo_reference": "CmRaAAAAryijcAxjtbTGN3tVjZCfoaoW0Hm13ons5iWyZJZQl6Q89dsY_S_j0acJ2hbiQWCLudLKyG48YvsmP6oI9FbFwkenitobuS661Lql7In7nOW7byOLx0sVdz-9WUh4M25DEhA2oyaW_3_5E6LBLgYQaQa9GhTC9MsXCEW-8GPxCLpuPkfpFfS5YQ", "width": 960}], "place_id": "ChIJg5uMZx5644kRgoDhuS4BsXY", "plus_code": {"compound_code": "8W2V+6Q Boston, Massachusetts, United States", "global_code": "87JC8W2V+6Q"}, "rating": 5, "reference": "ChIJg5uMZx5644kRgoDhuS4BsXY", "scope": "GOOGLE", "types": ["point_of_interest", "establishment"], "user_ratings_total": 1, "vicinity": "51 Park Street, Dorchester"}, "ChIJq6rG1qV744kRsx7OJrW9KUw": {"geometry": {"location": {"lat": 42.3024201, "lng": -71.05602139999999}, "viewport": {"northeast": {"lat": 42.3037634302915, "lng": -71.0548253197085}, "southwest": {"lat": 42.3010654697085, "lng": -71.0575232802915}}}, "icon": "https://maps.gstatic.com/mapfiles/place_api/icons/generic_business-71.png", "id": "fe7c9771d47c26d09409942e7d5699244deaf748", "name": "Alfred Kiranga", "place_id": "ChIJq6rG1qV744kRsx7OJrW9KUw", "plus_code": {"compound_code": "8W2V+XH Boston, Massachusetts, United States", "global_code": "87JC8W2V+XH"}, "reference": "ChIJq6rG1qV744kRsx7OJrW9KUw", "scope": "GOOGLE", "types": ["real_estate_agency", "point_of_interest", "establishment"], "vicinity": "54 Clayton Street, Boston"}, "ChIJwyAXCKd744kR2ZNWcdCiwfg": {"geometry": {"location": {"lat": 42.300476, "lng": -71.054211}, "viewport": {"northeast": {"lat": 42.3018997802915, "lng": -71.05278341970849}, "southwest": {"lat": 42.2992018197085, "lng": -71.0554813802915}}}, "icon": "https://maps.gstatic.com/mapfiles/place_api/icons/generic_business-71.png", "id": "ca15dcc7e468eb46df24d6c75ad358e367c25f2c", "name": "Beyond Web Design", "opening_hours": {"open_now": true}, "photos": [{"height": 922, "html_attributions": ["<a href=\"https://maps.google.com/maps/contrib/107574251516887561230/photos\">Beyond Web Design</a>"], "photo_reference": "CmRaAAAAY9qegCTn9pbWbhiIYY0fMxYGEvQmXuJ2ps2iL-nUHUbLA_juAqlWWzOQtSgmGM6rUN2SJmJfAvnFOGsEhmfduHC7BmX6lLmrglo9_4veQhv1c7Q-J8D7e27XsF7Ui4_fEhCj1ZHtR2I-Ws60cFuNuXftGhQ0DyD-SUdqeDLe5zX5cg1MGhCOEg", "width": 1230}], "place_id": "ChIJwyAXCKd744kR2ZNWcdCiwfg", "plus_code": {"compound_code": "8W2W+58 Boston, Massachusetts, United States", "global_code": "87JC8W2W+58"}, "rating": 5, "reference": "ChIJwyAXCKd744kR2ZNWcdCiwfg", "scope": "GOOGLE", "types": ["point_of_interest", "establishment"], "user_ratings_total": 12, "vicinity": "5 Ashland Street, Boston"}, "ChIJ2X46kqZ744kR6gkWSHi9mzo": {"geometry": {"location": {"lat": 42.3011497, "lng": -71.054675}, "viewport": {"northeast": {"lat": 42.3024556302915, "lng": -71.0532514197085}, "southwest": {"lat": 42.2997576697085, "lng": -71.05594938029151}}}, "icon": "https://maps.gstatic.com/mapfiles/place_api/icons/generic_business-71.png", "id": "4123f036cadf6ca23126c5d182730d88c39a05cf", "name": "Tipp Electric Inc", "place_id": "ChIJ2X46kqZ744kR6gkWSHi9mzo", "plus_code": {"compound_code": "8W2W+F4 Boston, Massachusetts, United States", "global_code": "87JC8W2W+F4"}, "rating": 5, "reference": "ChIJ2X46kqZ744kR6gkWSHi9mzo", "scope": "GOOGLE", "types": ["electrician", "point_of_interest", "establishment"], "user_ratings_total": 1, "vicinity": "37 Park Street #144, Dorchester"}, "ChIJ8Tli0aV744kRYNLMu5ioAHw": {"geometry": {"location": {"lat": 42.302372, "lng": -71.0561987}, "viewport": {"northeast": {"lat": 42.3037186302915, "lng": -71.05491256970849}, "southwest": {"lat": 42.3010206697085, "lng": -71.0576105302915}}}, "icon": "https://maps.gstatic.com/mapfiles/place_api/icons/generic_business-71.png", "id": "1c32b901719c7b5d4e0a97eca9cbd889f8f439e5", "name": "Mua", "place_id": "ChIJ8Tli0aV744kRYNLMu5ioAHw", "plus_code": {"compound_code": "8W2V+WG Boston, Massachusetts, United States", "global_code": "87JC8W2V+WG"}, "reference": "ChIJ8Tli0aV744kRYNLMu5ioAHw", "scope": "GOOGLE", "types": ["point_of_interest", "establishment"], "vicinity": "54 Clayton Street, Dorchester"}, "ChIJpcDwTqZ744kRNgbAmpN3FhM": {"geometry": {"location": {"lat": 42.3023167, "lng": -71.05326529999999}, "viewport": {"northeast": {"lat": 42.30367563029151, "lng": -71.05193436970849}, "southwest": {"lat": 42.30097766970851, "lng": -71.0546323302915}}}, "icon": "https://maps.gstatic.com/mapfiles/place_api/icons/generic_business-71.png", "id": "c13478a616c9f8f15e8848ad749137261ab16a01", "name": "Harbour Ponte Development", "place_id": "ChIJpcDwTqZ744kRNgbAmpN3FhM", "plus_code": {"compound_code": "8W2W+WM Boston, Massachusetts, United States", "global_code": "87JC8W2W+WM"}, "reference": "ChIJpcDwTqZ744kRNgbAmpN3FhM", "scope": "GOOGLE", "types": ["point_of_interest", "establishment"], "vicinity": "11 Park Street, Dorchester"}, "ChIJq6ruoKZ744kRC9Z4xG88qj4": {"geometry": {"location": {"lat": 42.3005653, "lng": -71.0556035}, "viewport": {"northeast": {"lat": 42.30181598029149, "lng": -71.0541866697085}, "southwest": {"lat": 42.2991180197085, "lng": -71.05688463029152}}}, "icon": "https://maps.gstatic.com/mapfiles/place_api/icons/generic_business-71.png", "id": "2757e31a10527bb8171646aa90153712ea7e9fbb", "name": "Duane Wrecking Corp", "place_id": "ChIJq6ruoKZ744kRC9Z4xG88qj4", "plus_code": {"compound_code": "8W2V+6Q Boston, Massachusetts, United States", "global_code": "87JC8W2V+6Q"}, "reference": "ChIJq6ruoKZ744kRC9Z4xG88qj4", "scope": "GOOGLE", "types": ["general_contractor", "point_of_interest", "establishment"], "vicinity": "51 Park Street, Dorchester"}, "ChIJN5RCnqZ744kRSMiBD5vgqpM": {"geometry": {"location": {"lat": 42.3005653, "lng": -71.0556035}, "viewport": {"northeast": {"lat": 42.30181598029149, "lng": -71.0541866697085}, "southwest": {"lat": 42.2991180197085, "lng": -71.05688463029152}}}, "icon": "https://maps.gstatic.com/mapfiles/place_api/icons/generic_business-71.png", "id": "32e7024e519ff51195c26057971c89ee84e41e8c", "name": "Truck Taxi", "opening_hours": {"open_now": true}, "photos": [{"height": 1600, "html_attributions": ["<a href=\"https://maps.google.com/maps/contrib/107179203853256707902/photos\">Truck Taxi</a>"], "photo_reference": "CmRaAAAAAxBQhdA5XVIPLx8I4wGComuWs-k5BnZp67ClHFU9P2y9DSLJv1_IZHPucVvxf8BBMZRPgIdN-Su_WYcp0fPdmNNiUYSbnk0gPezhNp_u_z8Sx8XUqXHY7LuYfyK1uJm7EhBmAJVotwaFHK2dpyjGK8-TGhT9Qt1NnZVYbXc-wURuTX8nYYRv6A", "width": 1200}], "place_id": "ChIJN5RCnqZ744kRSMiBD5vgqpM", "plus_code": {"compound_code": "8W2V+6Q Boston, Massachusetts, United States", "global_code": "87JC8W2V+6Q"}, "reference": "ChIJN5RCnqZ744kRSMiBD5vgqpM", "scope": "GOOGLE", "types": ["point_of_interest", "establishment"], "vicinity": "51 Park Street, Dorchester"}, "ChIJr7KvwYl744kRRx58u0-DZBA": {"geometry": {"location": {"lat": 42.3033961, "lng": -71.0548839}, "viewport": {"northeast": {"lat": 42.3047057302915, "lng": -71.0533559197085}, "southwest": {"lat": 42.3020077697085, "lng": -71.0560538802915}}}, "icon": "https://maps.gstatic.com/mapfiles/place_api/icons/generic_business-71.png", "id": "db8855a37307ad331309c9a1ab314680d41a36f6", "name": "Green LLC", "place_id": "ChIJr7KvwYl744kRRx58u0-DZBA", "plus_code": {"compound_code": "8W3W+92 Boston, Massachusetts, United States", "global_code": "87JC8W3W+92"}, "reference": "ChIJr7KvwYl744kRRx58u0-DZBA", "scope": "GOOGLE", "types": ["general_contractor", "point_of_interest", "establishment"], "vicinity": "25 Beach Street #550, Boston"}, "ChIJs4veGkl644kROEK8ix2v_oY": {"geometry": {"location": {"lat": 42.30163049999999, "lng": -71.067605}, "viewport": {"northeast": {"lat": 42.3358969, "lng": -71.0325551}, "southwest": {"lat": 42.267598, "lng": -71.0800369}}}, "icon": "https://maps.gstatic.com/mapfiles/place_api/icons/geocode-71.png", "id": "9e12301fdeebf54c1266b9986602466425a9c326", "name": "Dorchester", "photos": [{"height": 1944, "html_attributions": ["<a href=\"https://maps.google.com/maps/contrib/118366960396286562471/photos\">Michael Laferriere</a>"], "photo_reference": "CmRaAAAATiWeNUt7MDCaZGOp50YMSYe2Fq76tffGyRORQaXQpbV4nNECobfiCDXqjgGv_aAy1P5gOO1PQOLAdxH66NSF8H6A6zGR9tUIIs7jZwLi8MnTi1k9DvfeFgI46YZC6q2REhCxV_b4cAHFMCG3ArYGs-TKGhQjBaH5BCTuKf4tlXar_RIsZBZw8Q", "width": 2592}], "place_id": "ChIJs4veGkl644kROEK8ix2v_oY", "reference": "ChIJs4veGkl644kROEK8ix2v_oY", "scope": "GOOGLE", "types": ["neighborhood", "political"], "vicinity": "Dorchester Center"}, "ChIJbRpE_ph744kRDb6ipkqq7NM": {"geometry": {"location": {"lat": 42.3033961, "lng": -71.0548839}, "viewport": {"northeast": {"lat": 42.3047057302915, "lng": -71.0533559197085}, "southwest": {"lat": 42.3020077697085, "lng": -71.0560538802915}}}, "icon": "https://maps.gstatic.com/mapfiles/place_api/icons/generic_business-71.png", "id": "1d1b53cf828c01d7f4542e236fd8c6874f72756c", "name": "PM Towing Pros Boston", "opening_hours": {"open_now": true}, "place_id": "ChIJbRpE_ph744kRDb6ipkqq7NM", "plus_code": {"compound_code": "8W3W+92 Boston, Massachusetts, United States", "global_code": "87JC8W3W+92"}, "reference": "ChIJbRpE_ph744kRDb6ipkqq7NM", "scope": "GOOGLE", "types": ["point_of_interest", "establishment"], "vicinity": "25 Beach Street #77, Boston"}, "ChIJYdALkYB744kR3bxKunHQ3lQ": {"geometry": {"location": {"lat": 42.3033961, "lng": -71.0548839}, "viewport": {"northeast": {"lat": 42.3047057302915, "lng": -71.0533559197085}, "southwest": {"lat": 42.3020077697085, "lng": -71.0560538802915}}}, "icon": "https://maps.gstatic.com/mapfiles/place_api/icons/generic_business-71.png", "id": "e4212e6e292f2ac45658762c02c34015ee581161", "name": "Wiegand-Wehner", "place_id": "ChIJYdALkYB744kR3bxKunHQ3lQ", "plus_code": {"compound_code": "8W3W+92 Boston, Massachusetts, United States", "global_code": "87JC8W3W+92"}, "reference": "ChIJYdALkYB744kR3bxKunHQ3lQ", "scope": "GOOGLE", "types": ["point_of_interest", "establishment"], "vicinity": "25 Beach Street #201, Boston"}, "ChIJnYzbkKZ744kRJtLyppKwpHw": {"geometry": {"location": {"lat": 42.3009573, "lng": -71.05474459999999}, "viewport": {"northeast": {"lat": 42.30233673029149, "lng": -71.05347166970849}, "southwest": {"lat": 42.29963876970849, "lng": -71.0561696302915}}}, "icon": "https://maps.gstatic.com/mapfiles/place_api/icons/generic_recreational-71.png", "id": "ccddcebe344808e3d4772b4f5b4bdb619c8e29f4", "name": "Michael Scalia Square", "place_id": "ChIJnYzbkKZ744kRJtLyppKwpHw", "reference": "ChIJnYzbkKZ744kRJtLyppKwpHw", "scope": "GOOGLE", "types": ["park", "premise", "point_of_interest", "establishment"], "vicinity": "Boston"}}