{"ChIJGzE9DS1l44kRoOhiASS_fHg": {"geometry": {"location": {"lat": 42.3600825, "lng": -71.0588801}, "viewport": {"northeast": {"lat": 42.40081989999999, "lng": -70.749455}, "southwest": {"lat": 42.22788, "lng": -71.191113}}}, "icon": "https://maps.gstatic.com/mapfiles/place_api/icons/geocode-71.png", "id": "06755c25d2b34d13942a4713971756a55b870ced", "name": "Boston", "photos": [{"height": 3024, "html_attributions": ["<a href=\"https://maps.google.com/maps/contrib/104670289779338733432/photos\">Natalia Zalucean</a>"], "photo_reference": "CmRaAAAAecLzpHlW8KZwp2gEdemnIdfNVK_kMf-JBhzx7mrCdJDgqCH0m0alsi4URL9kEB5BDcLixmsyMftt0WabEMWW-QlGhfUkf0-ZJE8GXxvKCBUqimG7zqJgVOwBzL_zCKXUEhBElvawWWJLzgbMKtxM_Dv_GhR3CepwNCfHBjOv6_6cCQwtUCOiRw", "width": 4032}], "place_id": "ChIJGzE9DS1l44kRoOhiASS_fHg", "reference": "ChIJGzE9DS1l44kRoOhiASS_fHg", "scope": "GOOGLE", "types": ["locality", "political"], "vicinity": "Boston"}, "ChIJcwBGcih644kR-pyKQ7s7C9I": {"geometry": {"location": {"lat": 42.32924200000001, "lng": -71.095479}, "viewport": {"northeast": {"lat": 42.33071898029151, "lng": -71.09448421970849}, "southwest": {"lat": 42.32802101970851, "lng": -71.09718218029151}}}, "icon": "https://maps.gstatic.com/mapfiles/place_api/icons/school-71.png", "id": "7cc5db0923c3c10ea326d58e58ef37720eb8bcef", "name": "Roxbury Community College", "photos": [{"height": 600, "html_attributions": ["<a href=\"https://maps.google.com/maps/contrib/117996531154397489940/photos\">Kayla Morrow</a>"], "photo_reference": "CmRaAAAApyYCfUGAX3Aq5nr93ahvUE4ZPf1O_MniWNd0UHQ-j8Kx63ohrjMMujSmldzP8Pz-TliTBwdzUxgAVLJcoPQ4oplcQvpDEKJTxYWc81DChgxhFEDDmvlM71hvPb6G_UtEEhB_YKkx5iDos1L0rv85svGeGhTq4Hf30qiFy7LzOlpZNnkgc-uExA", "width": 1032}], "place_id": "ChIJcwBGcih644kR-pyKQ7s7C9I", "plus_code": {"compound_code": "8WH3+MR Boston, Massachusetts, United States", "global_code": "87JC8WH3+MR"}, "rating": 3.8, "reference": "ChIJcwBGcih644kR-pyKQ7s7C9I", "scope": "GOOGLE", "types": ["university", "point_of_interest", "establishment"], "user_ratings_total": 39, "vicinity": "1234 Columbus Avenue, Roxbury Crossing"}, "ChIJJb1XRW5644kRnzN7erw94nA": {"geometry": {"location": {"lat": 42.32788299999999, "lng": -71.09549}, "viewport": {"northeast": {"lat": 42.32923563029149, "lng": -71.0941518697085}, "southwest": {"lat": 42.32653766970849, "lng": -71.0968498302915}}}, "icon": "https://maps.gstatic.com/mapfiles/place_api/icons/generic_business-71.png", "id": "3c01540ae23258ef4bdeb332cf6838b99f1c188b", "name": "Alphabet Arm Design", "place_id": "ChIJJb1XRW5644kRnzN7erw94nA", "plus_code": {"compound_code": "8WH3+5R Boston, Massachusetts, United States", "global_code": "87JC8WH3+5R"}, "reference": "ChIJJb1XRW5644kRnzN7erw94nA", "scope": "GOOGLE", "types": ["point_of_interest", "establishment"], "vicinity": "100 Centre Street, Boston"}, "ChIJjfi8ZCh644kR61pIJp3A2tc": {"geometry": {"location": {"lat": 42.32935990000001, "lng": -71.0947521}, "viewport": {"northeast": {"lat": 42.3306699302915, "lng": -71.09345256970848}, "southwest": {"lat": 42.3279719697085, "lng": -71.09615053029148}}}, "icon": "https://maps.gstatic.com/mapfiles/place_api/icons/lodging-71.png", "id": "7ad582e486e5d06995aeff6cd4502f3cc756ebe6", "name": "Fort Hill Inn", "photos": [{"height": 1536, "html_attributions": ["<a href=\"https://maps.google.com/maps/contrib/116389747718688837125/photos\">Fort Hill Inn</a>"], "photo_reference": "CmRaAAAA9pscIy0YSkyIjACWhzRwGcWGkN3Cs43BoaC6x4VAUpLBlEByz7t44nphaLkqNpkXCW_Jan-9IL69OcOXCyQpEaE5CeKfa1V-YkMGs-tRihnV0tL7-BEpmy6loI5Z8CPrEhAJuocL3pRUMPQ7JYZRvdvDGhR9hqB0g_Yq6LZj1rq1x3ehXfcsdQ", "width": 2048}], "place_id": "ChIJjfi8ZCh644kR61pIJp3A2tc", "plus_code": {"compound_code": "8WH4+P3 Boston, Massachusetts, United States", "global_code": "87JC8WH4+P3"}, "rating": 4.3, "reference": "ChIJjfi8ZCh644kR61pIJp3A2tc", "scope": "GOOGLE", "types": ["lodging", "point_of_interest", "establishment"], "user_ratings_total": 26, "vicinity": "3 Centre Place, Boston"}, "ChIJMycqISZ644kR-XmJzbLRLk4": {"geometry": {"location": {"lat": 42.329846, "lng": -71.0931006}, "viewport": {"northeast": {"lat": 42.3311237302915, "lng": -71.0917201197085}, "southwest": {"lat": 42.3284257697085, "lng": -71.0944180802915}}}, "icon": "https://maps.gstatic.com/mapfiles/place_api/icons/generic_business-71.png", "id": "168c02c6604c08361eb6c807e9e4427e0a7cc165", "name": "YouthBuild Boston", "opening_hours": {"open_now": true}, "place_id": "ChIJMycqISZ644kR-XmJzbLRLk4", "plus_code": {"compound_code": "8WH4+WQ Boston, Massachusetts, United States", "global_code": "87JC8WH4+WQ"}, "rating": 4, "reference": "ChIJMycqISZ644kR-XmJzbLRLk4", "scope": "GOOGLE", "types": ["point_of_interest", "establishment"], "user_ratings_total": 11, "vicinity": "27 Centre Street, Roxbury"}, "ChIJw5A-uih644kRS06kMTQcrSA": {"geometry": {"location": {"lat": 42.328774, "lng": -71.092226}, "viewport": {"northeast": {"lat": 42.33016463029149, "lng": -71.0907732197085}, "southwest": {"lat": 42.3274666697085, "lng": -71.09347118029152}}}, "icon": "https://maps.gstatic.com/mapfiles/place_api/icons/worship_general-71.png", "id": "a136f9e1c5ce1ed9517515b1e3ed428d375baf9a", "name": "Timothy Baptist Church", "photos": [{"height": 2048, "html_attributions": ["<a href=\"https://maps.google.com/maps/contrib/109660778989248542763/photos\">K LEVY</a>"], "photo_reference": "CmRaAAAAr1ESJDBI9QRsUyJKc-xZMxeoy1CZUdKBVZ2ZlqGxDxbmBcVsIXBFamCQUmDZMs0fDxj13QK0JQ2ND-gPQjw8PMMqA4b5gzoyepcCFxjbcoSLrOsIzwcil_kK3oJG7JujEhAlrVaSKzpM_lAhAwqwDeNZGhSlCgD_BaRD2_iP1F8rjzMEJteIUQ", "width": 1536}], "place_id": "ChIJw5A-uih644kRS06kMTQcrSA", "plus_code": {"compound_code": "8WH5+G4 Boston, Massachusetts, United States", "global_code": "87JC8WH5+G4"}, "rating": 4.8, "reference": "ChIJw5A-uih644kRS06kMTQcrSA", "scope": "GOOGLE", "types": ["church", "place_of_worship", "point_of_interest", "establishment"], "user_ratings_total": 5, "vicinity": "35 Highland Street, Roxbury"}, "ChIJ1-EMoCh644kRCrEpo5LXmKE": {"geometry": {"location": {"lat": 42.3295784, "lng": -71.09272}, "viewport": {"northeast": {"lat": 42.3310185302915, "lng": -71.09141131970848}, "southwest": {"lat": 42.3283205697085, "lng": -71.0941092802915}}}, "icon": "https://maps.gstatic.com/mapfiles/place_api/icons/generic_business-71.png", "id": "880d38f5f70e58cf41923c010598ab614ea78512", "name": "Budget Truck Rental", "opening_hours": {"open_now": true}, "place_id": "ChIJ1-EMoCh644kRCrEpo5LXmKE", "plus_code": {"compound_code": "8WH4+RW Boston, Massachusetts, United States", "global_code": "87JC8WH4+RW"}, "rating": 3.5, "reference": "ChIJ1-EMoCh644kRCrEpo5LXmKE", "scope": "GOOGLE", "types": ["point_of_interest", "establishment"], "user_ratings_total": 6, "vicinity": "22 Centre Street, Roxbury"}, "ChIJ8_d0txF644kR91PoUCiJEO8": {"geometry": {"location": {"lat": 42.3291213, "lng": -71.09416929999999}, "viewport": {"northeast": {"lat": 42.3305323302915, "lng": -71.09288861970849}, "southwest": {"lat": 42.3278343697085, "lng": -71.0955865802915}}}, "icon": "https://maps.gstatic.com/mapfiles/place_api/icons/generic_business-71.png", "id": "0ff9a24857c3943f6158017e264956e6590268b5", "name": "Berger Food Safety Consulting", "opening_hours": {"open_now": true}, "place_id": "ChIJ8_d0txF644kR91PoUCiJEO8", "plus_code": {"compound_code": "8WH4+J8 Boston, Massachusetts, United States", "global_code": "87JC8WH4+J8"}, "rating": 5, "reference": "ChIJ8_d0txF644kR91PoUCiJEO8", "scope": "GOOGLE", "types": ["point_of_interest", "establishment"], "user_ratings_total": 12, "vicinity": "48 Centre Street, Boston"}, "ChIJlzR-0zp644kR5cauT3yCCko": {"geometry": {"location": {"lat": 42.329579, "lng": -71.0927339}, "viewport": {"northeast": {"lat": 42.33101733029149, "lng": -71.0914244197085}, "southwest": {"lat": 42.3283193697085, "lng": -71.09412238029151}}}, "icon": "https://maps.gstatic.com/mapfiles/place_api/icons/generic_business-71.png", "id": "354f02b6d6d7743a4b6656a44987c9971894afcc", "name": "Phillip's Auto Services", "opening_hours": {"open_now": true}, "photos": [{"height": 2560, "html_attributions": ["<a href=\"https://maps.google.com/maps/contrib/115765384507650879158/photos\">cleavroy tuitt</a>"], "photo_reference": "CmRaAAAAjgQqEYithyGRiyzli4RcVKwpXN-bpe9AuMQhC4KE8MtaYdVgYFOaBuWpVXp0mxLh0rgJ2nIDrlpPUfcKfZgq6oo6fRz47CTxBaXq2YBZhtC0fYSU1p_6qDitNeJAydhTEhCDZwNk2VY7jZJKS3qhzwXZGhSCIvdRzxDXLojTuszezxCm-99Qeg", "width": 1440}], "place_id": "ChIJlzR-0zp644kR5cauT3yCCko", "plus_code": {"compound_code": "8WH4+RW Boston, Massachusetts, United States", "global_code": "87JC8WH4+RW"}, "rating": 4, "reference": "ChIJlzR-0zp644kR5cauT3yCCko", "scope": "GOOGLE", "types": ["car_repair", "point_of_interest", "establishment"], "user_ratings_total": 12, "vicinity": "22 Centre Street, Boston"}, "ChIJMQr6-Ch644kRmG88bzkNT7U": {"geometry": {"location": {"lat": 42.32806009999999, "lng": -71.0941271}, "viewport": {"northeast": {"lat": 42.32947153029149, "lng": -71.09275031970849}, "southwest": {"lat": 42.32677356970849, "lng": -71.0954482802915}}}, "icon": "https://maps.gstatic.com/mapfiles/place_api/icons/generic_business-71.png", "id": "98e17650627bcc07b73ed489b7aaf89fde3bbb96", "name": "New Image Associates", "place_id": "ChIJMQr6-Ch644kRmG88bzkNT7U", "plus_code": {"compound_code": "8WH4+68 Boston, Massachusetts, United States", "global_code": "87JC8WH4+68"}, "reference": "ChIJMQr6-Ch644kRmG88bzkNT7U", "scope": "GOOGLE", "types": ["point_of_interest", "establishment"], "vicinity": "40 Linwood Street, Roxbury"}, "ChIJM4LI3Ct644kRlMNnNAwuKG4": {"geometry": {"location": {"lat": 42.3291679, "lng": -71.0942736}, "viewport": {"northeast": {"lat": 42.3305420302915, "lng": -71.0929613197085}, "southwest": {"lat": 42.3278440697085, "lng": -71.09565928029151}}}, "icon": "https://maps.gstatic.com/mapfiles/place_api/icons/school-71.png", "id": "bca1dcd3e40b85060a45b30e25db9086b8ceb639", "name": "Food Safety for Managers", "place_id": "ChIJM4LI3Ct644kRlMNnNAwuKG4", "plus_code": {"compound_code": "8WH4+M7 Boston, Massachusetts, United States", "global_code": "87JC8WH4+M7"}, "reference": "ChIJM4LI3Ct644kRlMNnNAwuKG4", "scope": "GOOGLE", "types": ["point_of_interest", "establishment"], "vicinity": "48 Centre Street, Boston"}, "ChIJwUROlCh644kRU_l3zLQvcb0": {"geometry": {"location": {"lat": 42.3287073, "lng": -71.09309549999999}, "viewport": {"northeast": {"lat": 42.3301083802915, "lng": -71.0915822697085}, "southwest": {"lat": 42.32741041970851, "lng": -71.0942802302915}}}, "icon": "https://maps.gstatic.com/mapfiles/place_api/icons/school-71.png", "id": "e7c5bfb98361d8d0a136feb4f278d0128887bc77", "name": "Paige Academy", "place_id": "ChIJwUROlCh644kRU_l3zLQvcb0", "plus_code": {"compound_code": "8WH4+FQ Boston, Massachusetts, United States", "global_code": "87JC8WH4+FQ"}, "rating": 4.2, "reference": "ChIJwUROlCh644kRU_l3zLQvcb0", "scope": "GOOGLE", "types": ["school", "point_of_interest", "establishment"], "user_ratings_total": 5, "vicinity": "26/28 Highland Avenue, Boston"}, "ChIJcwBGcih644kRk-cWrL7Q8EQ": {"geometry": {"location": {"lat": 42.32950299999999, "lng": -71.0953802}, "viewport": {"northeast": {"lat": 42.33097338029149, "lng": -71.09435031970848}, "southwest": {"lat": 42.32827541970849, "lng": -71.09704828029149}}}, "icon": "https://maps.gstatic.com/mapfiles/place_api/icons/shopping-71.png", "id": "7cd55e499c870b25d3a69abfcf20649c52c78ec9", "name": "Roxbury Community College Bookstore", "opening_hours": {"open_now": true}, "place_id": "ChIJcwBGcih644kRk-cWrL7Q8EQ", "plus_code": {"compound_code": "8WH3+RR Boston, Massachusetts, United States", "global_code": "87JC8WH3+RR"}, "rating": 4.2, "reference": "ChIJcwBGcih644kRk-cWrL7Q8EQ", "scope": "GOOGLE", "types": ["book_store", "store", "point_of_interest", "establishment"], "user_ratings_total": 13, "vicinity": "1234 Columbus Avenue, Boston"}, "ChIJrbLYRSh644kRN6gvBiijsi4": {"geometry": {"location": {"lat": 42.32846800000001, "lng": -71.095457}, "viewport": {"northeast": {"lat": 42.3297734802915, "lng": -71.09400391970848}, "southwest": {"lat": 42.3270755197085, "lng": -71.09670188029149}}}, "icon": "https://maps.gstatic.com/mapfiles/place_api/icons/worship_general-71.png", "id": "e3c7be883f9d64a5c62e59c082820e1be0c11a65", "name": "Fellowship Mission Church", "opening_hours": {"open_now": false}, "photos": [{"height": 1196, "html_attributions": ["<a href=\"https://maps.google.com/maps/contrib/111407018958495141669/photos\">Fellowship Mission Church</a>"], "photo_reference": "CmRaAAAA_jQkZmlASeXoP4GCv2KPj9DZRjPygaXGp0EG8WPavmPWD8qoE3fzGVw9JJeP3NqO42osvDg0b-W9LxcGHLEX99YVoMSJ6Mk04uECgpR96mQSQFXaa3nGS0C6oIGWPWioEhCH2DcIGnLgmkWYxNh81TMDGhQgQpPqXFdd9W_tKgM1IvKOiKbkYQ", "width": 2048}], "place_id": "ChIJrbLYRSh644kRN6gvBiijsi4", "plus_code": {"compound_code": "8WH3+9R Boston, Massachusetts, United States", "global_code": "87JC8WH3+9R"}, "rating": 5, "reference": "ChIJrbLYRSh644kRN6gvBiijsi4", "scope": "GOOGLE", "types": ["church", "place_of_worship", "point_of_interest", "establishment"], "user_ratings_total": 4, "vicinity": "85 Centre Street, Roxbury"}, "ChIJKTlMpCh644kR2C6TzI2eCIk": {"geometry": {"location": {"lat": 42.32915599999999, "lng": -71.092392}, "viewport": {"northeast": {"lat": 42.3305228302915, "lng": -71.0909425197085}, "southwest": {"lat": 42.3278248697085, "lng": -71.09364048029151}}}, "icon": "https://maps.gstatic.com/mapfiles/place_api/icons/generic_business-71.png", "id": "c2f4fd0ccc6760e8c6b44d3ba2e2eceab0b5e43b", "name": "Boltz Real Estate", "place_id": "ChIJKTlMpCh644kR2C6TzI2eCIk", "plus_code": {"compound_code": "8WH5+M2 Boston, Massachusetts, United States", "global_code": "87JC8WH5+M2"}, "rating": 5, "reference": "ChIJKTlMpCh644kR2C6TzI2eCIk", "scope": "GOOGLE", "types": ["real_estate_agency", "point_of_interest", "establishment"], "user_ratings_total": 1, "vicinity": "16 Morley Street, Roxbury"}, "ChIJt3SI0yd644kRevWu6m1xBYY": {"geometry": {"location": {"lat": 42.3300855, "lng": -71.0939494}, "viewport": {"northeast": {"lat": 42.33149658029149, "lng": -71.09259511970849}, "southwest": {"lat": 42.32879861970849, "lng": -71.09529308029151}}}, "icon": "https://maps.gstatic.com/mapfiles/place_api/icons/generic_business-71.png", "id": "c29b2a75b3b45a06c7faa1421a0e301a01207a0b", "name": "Lorenzo Pitts Inc", "place_id": "ChIJt3SI0yd644kRevWu6m1xBYY", "plus_code": {"compound_code": "8WJ4+2C Boston, Massachusetts, United States", "global_code": "87JC8WJ4+2C"}, "reference": "ChIJt3SI0yd644kRevWu6m1xBYY", "scope": "GOOGLE", "types": ["real_estate_agency", "point_of_interest", "establishment"], "vicinity": "270 Roxbury Street, Roxbury"}, "ChIJ1Sm9xSh644kRu_koOwYRfPU": {"geometry": {"location": {"lat": 42.3280109, "lng": -71.09222199999999}, "viewport": {"northeast": {"lat": 42.3293786802915, "lng": -71.09094596970849}, "southwest": {"lat": 42.3266807197085, "lng": -71.09364393029149}}}, "icon": "https://maps.gstatic.com/mapfiles/place_api/icons/generic_business-71.png", "id": "efdbdd087e9741f703662cf95874c21db3b68e63", "name": "Management Innovators Inc", "opening_hours": {"open_now": true}, "place_id": "ChIJ1Sm9xSh644kRu_koOwYRfPU", "plus_code": {"compound_code": "8WH5+64 Boston, Massachusetts, United States", "global_code": "87JC8WH5+64"}, "rating": 5, "reference": "ChIJ1Sm9xSh644kRu_koOwYRfPU", "scope": "GOOGLE", "types": ["finance", "point_of_interest", "establishment"], "user_ratings_total": 1, "vicinity": "56 Highland Street, Boston"}, "ChIJld3lvyh644kRJylAwvScHHA": {"geometry": {"location": {"lat": 42.32857060000001, "lng": -71.0927468}, "viewport": {"northeast": {"lat": 42.3299355802915, "lng": -71.0913473197085}, "southwest": {"lat": 42.32723761970851, "lng": -71.09404528029151}}}, "icon": "https://maps.gstatic.com/mapfiles/place_api/icons/generic_business-71.png", "id": "88039d4eca4b8083bc468d46547ccb86b9a16426", "name": "BST Lingo", "place_id": "ChIJld3lvyh644kRJylAwvScHHA", "plus_code": {"compound_code": "8WH4+CW Boston, Massachusetts, United States", "global_code": "87JC8WH4+CW"}, "reference": "ChIJld3lvyh644kRJylAwvScHHA", "scope": "GOOGLE", "types": ["point_of_interest", "establishment"], "vicinity": "24 Highland Avenue, Boston"}, "ChIJzdQOtyh644kRaBV6-G2wpuc": {"geometry": {"location": {"lat": 42.328521, "lng": -71.09186199999999}, "viewport": {"northeast": {"lat": 42.3299028302915, "lng": -71.09060761970849}, "southwest": {"lat": 42.3272048697085, "lng": -71.09330558029151}}}, "icon": "https://maps.gstatic.com/mapfiles/place_api/icons/generic_business-71.png", "id": "d7097f9d7b8800f166e9f520a91e9b01aad39039", "name": "Fort Hill Massage", "opening_hours": {"open_now": true}, "photos": [{"height": 537, "html_attributions": ["<a href=\"https://maps.google.com/maps/contrib/101875785229692670929/photos\">Fort Hill Massage</a>"], "photo_reference": "CmRaAAAARkPi8JMVlpnTwrifsBu1tGYc9ReyGZ_60JZ6x2gFQQ8lCvpWA74FinrAFFFNZdF0ZTc8rmS5IFUS1TFJQzd3lIBH7wgG4Q3bvRfkazHE6ciplnWRcdR6nZt9aQR7WqqQEhAryJy95rOU9TKzt4x3cAPGGhQafeKCZpVBju_i1SPxKXdfJlJZUg", "width": 480}], "place_id": "ChIJzdQOtyh644kRaBV6-G2wpuc", "plus_code": {"compound_code": "8WH5+C7 Boston, Massachusetts, United States", "global_code": "87JC8WH5+C7"}, "rating": 5, "reference": "ChIJzdQOtyh644kRaBV6-G2wpuc", "scope": "GOOGLE", "types": ["point_of_interest", "establishment"], "user_ratings_total": 3, "vicinity": "40 Highland Street, Boston"}, "ChIJh-CN2yx644kRI8h5WPc98wQ": {"geometry": {"location": {"lat": 42.31519779999999, "lng": -71.0913748}, "viewport": {"northeast": {"lat": 42.335885, "lng": -71.06649519999999}, "southwest": {"lat": 42.29179790000001, "lng": -71.1067612}}}, "icon": "https://maps.gstatic.com/mapfiles/place_api/icons/geocode-71.png", "id": "33d978342c31fa28698809200432caaeeab1c79d", "name": "Roxbury", "photos": [{"height": 5312, "html_attributions": ["<a href=\"https://maps.google.com/maps/contrib/108141736953672835093/photos\">Warriorprincess4916</a>"], "photo_reference": "CmRaAAAA28GeFvdJ563jWtpT3Y9QKYUaxjF5tA3KU7r07pvL9BOFaSDtowbpuAXV41h81oGfvtPwN-9BCvnvjXCP6AgD_hbWDH9qTuN-oCamrEftADtK9Rx9rsr3eUeHVxjr6Z4vEhCLm3q0e7bVBa0I6d0rlMbkGhSsh40gyxn04Alm72Cqv1OtN-ku5Q", "width": 2988}], "place_id": "ChIJh-CN2yx644kRI8h5WPc98wQ", "reference": "ChIJh-CN2yx644kRI8h5WPc98wQ", "scope": "GOOGLE", "types": ["neighborhood", "political"], "vicinity": "Dorchester Center"}, "ChIJ7dU7hih644kRgXtgH1D_hec": {"geometry": {"location": {"lat": 42.329386, "lng": -71.094099}, "viewport": {"northeast": {"lat": 42.3307505302915, "lng": -71.09276426970848}, "southwest": {"lat": 42.3280525697085, "lng": -71.0954622302915}}}, "icon": "https://maps.gstatic.com/mapfiles/place_api/icons/bus-71.png", "id": "966ee0270b3b7ee68b294e5e5ad81ceaa92c6d35", "name": "Centre St @ Gardner St", "place_id": "ChIJ7dU7hih644kRgXtgH1D_hec", "plus_code": {"compound_code": "8WH4+Q9 Boston, Massachusetts, United States", "global_code": "87JC8WH4+Q9"}, "reference": "ChIJ7dU7hih644kRgXtgH1D_hec", "scope": "GOOGLE", "types": ["bus_station", "transit_station", "point_of_interest", "establishment"], "vicinity": "United States"}, "ChIJpWDwZih644kR6LM5uong5p4": {"geometry": {"location": {"lat": 42.32899339999999, "lng": -71.09477389999999}, "viewport": {"northeast": {"lat": 42.33031793029149, "lng": -71.09338141970849}, "southwest": {"lat": 42.3276199697085, "lng": -71.0960793802915}}}, "icon": "https://maps.gstatic.com/mapfiles/place_api/icons/generic_business-71.png", "id": "f09ea554013cfb6f4961a3ed6114eb3fad40ebe4", "name": "A-FB", "place_id": "ChIJpWDwZih644kR6LM5uong5p4", "plus_code": {"compound_code": "8WH4+H3 Boston, Massachusetts, United States", "global_code": "87JC8WH4+H3"}, "reference": "ChIJpWDwZih644kR6LM5uong5p4", "scope": "GOOGLE", "types": ["point_of_interest", "establishment"], "vicinity": "67 Centre Street, Roxbury"}, "ChIJQbgtVih644kRi5nxv8Q8SqE": {"geometry": {"location": {"lat": 42.32803, "lng": -71.09438399999999}, "viewport": {"northeast": {"lat": 42.32948118029149, "lng": -71.09298016970848}, "southwest": {"lat": 42.3267832197085, "lng": -71.09567813029149}}}, "icon": "https://maps.gstatic.com/mapfiles/place_api/icons/generic_business-71.png", "id": "f71c82614cdb7b425b9ebd7df009db09910a32c7", "name": "In the Word Ministry", "place_id": "ChIJQbgtVih644kRi5nxv8Q8SqE", "plus_code": {"compound_code": "8WH4+66 Boston, Massachusetts, United States", "global_code": "87JC8WH4+66"}, "reference": "ChIJQbgtVih644kRi5nxv8Q8SqE", "scope": "GOOGLE", "types": ["point_of_interest", "establishment"], "vicinity": "44 Linwood Street, Roxbury"}, "ChIJ3eBdWyh644kRLxFc0DnujhQ": {"geometry": {"location": {"lat": 42.328574, "lng": -71.094998}, "viewport": {"northeast": {"lat": 42.3299327302915, "lng": -71.0936669697085}, "southwest": {"lat": 42.3272347697085, "lng": -71.0963649302915}}}, "icon": "https://maps.gstatic.com/mapfiles/place_api/icons/bus-71.png", "id": "06bf2403c1ccd9c458ce171d40f371f10ec08a69", "name": "Centre St @ Linwood St", "place_id": "ChIJ3eBdWyh644kRLxFc0DnujhQ", "plus_code": {"compound_code": "8WH4+C2 Boston, Massachusetts, United States", "global_code": "87JC8WH4+C2"}, "reference": "ChIJ3eBdWyh644kRLxFc0DnujhQ", "scope": "GOOGLE", "types": ["bus_station", "transit_station", "point_of_interest", "establishment"], "vicinity": "United States"}, "ChIJCa7v5yh644kRbw7xlP3FgU4": {"geometry": {"location": {"lat": 42.3279176, "lng": -71.0931698}, "viewport": {"northeast": {"lat": 42.3292803802915, "lng": -71.0918148697085}, "southwest": {"lat": 42.3265824197085, "lng": -71.0945128302915}}}, "icon": "https://maps.gstatic.com/mapfiles/place_api/icons/generic_business-71.png", "id": "e70f2dc93dc1b5f7f94266de72ccc205587f0b42", "name": "Doiley Inc", "place_id": "ChIJCa7v5yh644kRbw7xlP3FgU4", "plus_code": {"compound_code": "8WH4+5P Boston, Massachusetts, United States", "global_code": "87JC8WH4+5P"}, "reference": "ChIJCa7v5yh644kRbw7xlP3FgU4", "scope": "GOOGLE", "types": ["point_of_interest", "establishment"], "vicinity": "14 Linwood Street, Roxbury"}, "ChIJS1e0nyh644kR2BLDxEAMADw": {"geometry": {"location": {"lat": 42.329657, "lng": -71.093032}, "viewport": {"northeast": {"lat": 42.3310192302915, "lng": -71.09168886970849}, "southwest": {"lat": 42.3283212697085, "lng": -71.0943868302915}}}, "icon": "https://maps.gstatic.com/mapfiles/place_api/icons/bus-71.png", "id": "6fc8d76ca1343b8e56dacd55df511dc48f7e7869", "name": "Centre St @ Highland Ave", "place_id": "ChIJS1e0nyh644kR2BLDxEAMADw", "plus_code": {"compound_code": "8WH4+VQ Boston, Massachusetts, United States", "global_code": "87JC8WH4+VQ"}, "reference": "ChIJS1e0nyh644kR2BLDxEAMADw", "scope": "GOOGLE", "types": ["bus_station", "transit_station", "point_of_interest", "establishment"], "vicinity": "United States"}, "ChIJ0bCwxih644kRMC-mm776ZCI": {"geometry": {"location": {"lat": 42.3282128, "lng": -71.0924467}, "viewport": {"northeast": {"lat": 42.3296029302915, "lng": -71.0910695697085}, "southwest": {"lat": 42.3269049697085, "lng": -71.0937675302915}}}, "icon": "https://maps.gstatic.com/mapfiles/place_api/icons/generic_business-71.png", "id": "fea1a8632493fcc3af3d0cf0d291d7317f9060f1", "name": "William Lloyd Garrison Fountian", "opening_hours": {"open_now": true}, "place_id": "ChIJ0bCwxih644kRMC-mm776ZCI", "plus_code": {"compound_code": "8WH5+72 Boston, Massachusetts, United States", "global_code": "87JC8WH5+72"}, "reference": "ChIJ0bCwxih644kRMC-mm776ZCI", "scope": "GOOGLE", "types": ["point_of_interest", "establishment"], "vicinity": "Kittredge Park, Boston"}, "ChIJMycqISZ644kRrwQ8jFD4YHI": {"geometry": {"location": {"lat": 42.3298887, "lng": -71.0931157}, "viewport": {"northeast": {"lat": 42.3311454802915, "lng": -71.09172596970848}, "southwest": {"lat": 42.3284475197085, "lng": -71.0944239302915}}}, "icon": "https://maps.gstatic.com/mapfiles/place_api/icons/generic_business-71.png", "id": "c89b8758a2fbd29d7c0434f9d1541a753ec87033", "name": "Dudley Economic Empowerment", "place_id": "ChIJMycqISZ644kRrwQ8jFD4YHI", "plus_code": {"compound_code": "8WH4+XQ Boston, Massachusetts, United States", "global_code": "87JC8WH4+XQ"}, "reference": "ChIJMycqISZ644kRrwQ8jFD4YHI", "scope": "GOOGLE", "types": ["point_of_interest", "establishment"], "vicinity": "27 Centre Street, Roxbury"}, "ChIJ_xWESyh644kRpnafKSZ5vQQ": {"geometry": {"location": {"lat": 42.3279119, "lng": -71.0953486}, "viewport": {"northeast": {"lat": 42.3292862802915, "lng": -71.09407591970849}, "southwest": {"lat": 42.3265883197085, "lng": -71.09677388029151}}}, "icon": "https://maps.gstatic.com/mapfiles/place_api/icons/school-71.png", "id": "64b916c1c317b439700ac3f3618a5946a3be94c3", "name": "Sun & Stars Home Day Care Inc", "place_id": "ChIJ_xWESyh644kRpnafKSZ5vQQ", "plus_code": {"compound_code": "8WH3+5V Boston, Massachusetts, United States", "global_code": "87JC8WH3+5V"}, "reference": "ChIJ_xWESyh644kRpnafKSZ5vQQ", "scope": "GOOGLE", "types": ["point_of_interest", "establishment"], "vicinity": "96 Centre Street, Roxbury"}, "ChIJDT8ZrCl644kR6ItOYQEV-bM": {"geometry": {"location": {"lat": 42.3275146, "lng": -71.09477559999999}, "viewport": {"northeast": {"lat": 42.3288088302915, "lng": -71.09345466970848}, "southwest": {"lat": 42.3261108697085, "lng": -71.0961526302915}}}, "icon": "https://maps.gstatic.com/mapfiles/place_api/icons/generic_business-71.png", "id": "7e1f7de057afd82986928f32929e50e585062c39", "name": "Eliacin Group LLC", "place_id": "ChIJDT8ZrCl644kR6ItOYQEV-bM", "plus_code": {"compound_code": "8WH4+23 Boston, Massachusetts, United States", "global_code": "87JC8WH4+23"}, "rating": 4, "reference": "ChIJDT8ZrCl644kR6ItOYQEV-bM", "scope": "GOOGLE", "types": ["real_estate_agency", "point_of_interest", "establishment"], "user_ratings_total": 1, "vicinity": "135 Cedar Street, Roxbury"}, "ChIJP79CKSZ644kROzYOkg8_OoE": {"geometry": {"location": {"lat": 42.3300855, "lng": -71.0939494}, "viewport": {"northeast": {"lat": 42.33149658029149, "lng": -71.09259511970849}, "southwest": {"lat": 42.32879861970849, "lng": -71.09529308029151}}}, "icon": "https://maps.gstatic.com/mapfiles/place_api/icons/generic_business-71.png", "id": "c3fad380f932f42d5ad88c8bb3e2879f9f843e38", "name": "Lorenzovest Holdings Corporation", "place_id": "ChIJP79CKSZ644kROzYOkg8_OoE", "plus_code": {"compound_code": "8WJ4+2C Boston, Massachusetts, United States", "global_code": "87JC8WJ4+2C"}, "reference": "ChIJP79CKSZ644kROzYOkg8_OoE", "scope": "GOOGLE", "types": ["point_of_interest", "establishment"], "vicinity": "270 Roxbury Street, Roxbury"}, "ChIJH-IVyCh644kRBqXPa5B8K0g": {"geometry": {"location": {"lat": 42.3283289, "lng": -71.092029}, "viewport": {"northeast": {"lat": 42.3297060802915, "lng": -71.09075651970849}, "southwest": {"lat": 42.3270081197085, "lng": -71.0934544802915}}}, "icon": "https://maps.gstatic.com/mapfiles/place_api/icons/generic_business-71.png", "id": "f9f5924f521ef154e76b35741700d0c6aec965e2", "name": "Groupglobal", "place_id": "ChIJH-IVyCh644kRBqXPa5B8K0g", "plus_code": {"compound_code": "8WH5+85 Boston, Massachusetts, United States", "global_code": "87JC8WH5+85"}, "reference": "ChIJH-IVyCh644kRBqXPa5B8K0g", "scope": "GOOGLE", "types": ["point_of_interest", "establishment"], "vicinity": "44 Highland Street, Roxbury"}, "ChIJC5P_bCh644kR2M7AU8Vn19Q": {"geometry": {"location": {"lat": 42.3294427, "lng": -71.0956497}, "viewport": {"northeast": {"lat": 42.3308788302915, "lng": -71.0945298697085}, "southwest": {"lat": 42.3281808697085, "lng": -71.0972278302915}}}, "icon": "https://maps.gstatic.com/mapfiles/place_api/icons/generic_business-71.png", "id": "3fa76a1de221cce9d3a3e5c7b77f693332222d38", "name": "christopher columbus pard", "place_id": "ChIJC5P_bCh644kR2M7AU8Vn19Q", "plus_code": {"compound_code": "8WH3+QP Boston, Massachusetts, United States", "global_code": "87JC8WH3+QP"}, "reference": "ChIJC5P_bCh644kR2M7AU8Vn19Q", "scope": "GOOGLE", "types": ["point_of_interest", "establishment"], "vicinity": "1234 Columbus Avenue, Boston"}, "ChIJ8fWilGN544kRXPUjdbsd-k8": {"geometry": {"location": {"lat": 42.32959, "lng": -71.095587}, "viewport": {"northeast": {"lat": 42.3308349802915, "lng": -71.0946511697085}, "southwest": {"lat": 42.3281370197085, "lng": -71.0973491302915}}}, "icon": "https://maps.gstatic.com/mapfiles/place_api/icons/shopping-71.png", "id": "c59830586f6c0b66a70f95c4caad607b26a37b43", "name": "The Spotted Cougar", "opening_hours": {"open_now": true}, "place_id": "ChIJ8fWilGN544kRXPUjdbsd-k8", "plus_code": {"compound_code": "8WH3+RQ Boston, Massachusetts, United States", "global_code": "87JC8WH3+RQ"}, "reference": "ChIJ8fWilGN544kRXPUjdbsd-k8", "scope": "GOOGLE", "types": ["store", "point_of_interest", "establishment"], "vicinity": "2 Grott\u043e Glen Rd, Apt 1, Jamaica Plain"}, "ChIJRbaztCl644kRdK0IQpxyKGI": {"geometry": {"location": {"lat": 42.327778, "lng": -71.095518}, "viewport": {"northeast": {"lat": 42.3291379802915, "lng": -71.09420581970849}, "southwest": {"lat": 42.3264400197085, "lng": -71.09690378029151}}}, "icon": "https://maps.gstatic.com/mapfiles/place_api/icons/bus-71.png", "id": "8b8a2b7455aa8fb6552f777afbcec698c9b4e4ef", "name": "Centre St @ Cedar St", "place_id": "ChIJRbaztCl644kRdK0IQpxyKGI", "plus_code": {"compound_code": "8WH3+4Q Boston, Massachusetts, United States", "global_code": "87JC8WH3+4Q"}, "reference": "ChIJRbaztCl644kRdK0IQpxyKGI", "scope": "GOOGLE", "types": ["bus_station", "transit_station", "point_of_interest", "establishment"], "vicinity": "United States"}, "ChIJpV1qYCh644kRPYllUeaX-qo": {"geometry": {"location": {"lat": 42.32884079999999, "lng": -71.0944852}, "viewport": {"northeast": {"lat": 42.3302163302915, "lng": -71.09310346970848}, "southwest": {"lat": 42.3275183697085, "lng": -71.0958014302915}}}, "icon": "https://maps.gstatic.com/mapfiles/place_api/icons/generic_recreational-71.png", "id": "8fc7b4fa78df5db1024333b59616def166543b77", "name": "Centre Place Garden", "place_id": "ChIJpV1qYCh644kRPYllUeaX-qo", "reference": "ChIJpV1qYCh644kRPYllUeaX-qo", "scope": "GOOGLE", "types": ["park", "premise", "point_of_interest", "establishment"], "vicinity": "Boston"}, "ChIJBdYemyh644kRc_ZyN1zh3Ec": {"geometry": {"location": {"lat": 42.3293377, "lng": -71.09369600000001}, "viewport": {"northeast": {"lat": 42.3307446302915, "lng": -71.09214951970849}, "southwest": {"lat": 42.3280466697085, "lng": -71.0948474802915}}}, "icon": "https://maps.gstatic.com/mapfiles/place_api/icons/generic_recreational-71.png", "id": "90895f609d773f2bca6b859829fb4bf07ba7c0f8", "name": "John Eliot Square Urban Wild", "place_id": "ChIJBdYemyh644kRc_ZyN1zh3Ec", "reference": "ChIJBdYemyh644kRc_ZyN1zh3Ec", "scope": "GOOGLE", "types": ["park", "premise", "point_of_interest", "establishment"], "vicinity": "Boston"}, "ChIJfaJYWSh644kRAMX8mn3t6oI": {"geometry": {"location": {"lat": 42.3285011, "lng": -71.0946709}, "viewport": {"northeast": {"lat": 42.3298435302915, "lng": -71.09336611970849}, "southwest": {"lat": 42.3271455697085, "lng": -71.0960640802915}}}, "icon": "https://maps.gstatic.com/mapfiles/place_api/icons/generic_recreational-71.png", "id": "eb5596a4241549b56bc708d3c60ce5c4da9c633c", "name": "Linwood Park", "place_id": "ChIJfaJYWSh644kRAMX8mn3t6oI", "reference": "ChIJfaJYWSh644kRAMX8mn3t6oI", "scope": "GOOGLE", "types": ["park", "premise", "point_of_interest", "establishment"], "vicinity": "Boston"}, "ChIJuYt3-yh644kRAUDUHH3R5TQ": {"geometry": {"location": {"lat": 42.32785200000001, "lng": -71.09369600000001}, "viewport": {"northeast": {"lat": 42.3291792302915, "lng": -71.0924330197085}, "southwest": {"lat": 42.3264812697085, "lng": -71.0951309802915}}}, "icon": "https://maps.gstatic.com/mapfiles/place_api/icons/generic_recreational-71.png", "id": "9bbc72ce73402ec6b27c1733e104149357cd9e35", "name": "Highland Park 400 Garden", "place_id": "ChIJuYt3-yh644kRAUDUHH3R5TQ", "reference": "ChIJuYt3-yh644kRAUDUHH3R5TQ", "scope": "GOOGLE", "types": ["park", "premise", "point_of_interest", "establishment"], "vicinity": "Boston"}, "ChIJJdIk6Ch644kRFuw4hO6nCds": {"geometry": {"location": {"lat": 42.3280225, "lng": -71.0929532}, "viewport": {"northeast": {"lat": 42.3293892302915, "lng": -71.0915564197085}, "southwest": {"lat": 42.3266912697085, "lng": -71.09425438029152}}}, "icon": "https://maps.gstatic.com/mapfiles/place_api/icons/generic_recreational-71.png", "id": "7ef33af4294a6f610c1c37de6a4a8b9bd610f439", "name": "Kittredge Park", "place_id": "ChIJJdIk6Ch644kRFuw4hO6nCds", "reference": "ChIJJdIk6Ch644kRFuw4hO6nCds", "scope": "GOOGLE", "types": ["park", "premise", "point_of_interest", "establishment"], "vicinity": "Boston"}, "ChIJ76StwSh644kRhdHOkOT1jD8": {"geometry": {"location": {"lat": 42.3283172, "lng": -71.09272109999999}, "viewport": {"northeast": {"lat": 42.3296907302915, "lng": -71.0913643697085}, "southwest": {"lat": 42.3269927697085, "lng": -71.09406233029151}}}, "icon": "https://maps.gstatic.com/mapfiles/place_api/icons/generic_recreational-71.png", "id": "e6e0ed75894debbdd5f92ee7e71803cd413fe0b9", "name": "Highland Avenue Community Garden", "place_id": "ChIJ76StwSh644kRhdHOkOT1jD8", "reference": "ChIJ76StwSh644kRhdHOkOT1jD8", "scope": "GOOGLE", "types": ["park", "premise", "point_of_interest", "establishment"], "vicinity": "Boston"}, "ChIJyfqP4ih644kR0IamQllKya4": {"geometry": {"location": {"lat": 42.3274599, "lng": -71.0931389}, "viewport": {"northeast": {"lat": 42.3288288802915, "lng": -71.09211241970849}, "southwest": {"lat": 42.3261309197085, "lng": -71.09481038029149}}}, "icon": "https://maps.gstatic.com/mapfiles/place_api/icons/generic_recreational-71.png", "id": "50de255913fd061aa6992272892e48c62fb089e0", "name": "Cedar Street Garden", "place_id": "ChIJyfqP4ih644kR0IamQllKya4", "reference": "ChIJyfqP4ih644kR0IamQllKya4", "scope": "GOOGLE", "types": ["park", "premise", "point_of_interest", "establishment"], "vicinity": "Boston"}, "ChIJU-OOwyh644kRZou2EIUK5BQ": {"geometry": {"location": {"lat": 42.3280627, "lng": -71.0925354}, "viewport": {"northeast": {"lat": 42.3294194302915, "lng": -71.0911718697085}, "southwest": {"lat": 42.3267214697085, "lng": -71.09386983029151}}}, "icon": "https://maps.gstatic.com/mapfiles/place_api/icons/generic_recreational-71.png", "id": "44565e0318d2de0322d1cdbd156a17d25769d4c4", "name": "Alvah Kittredge Park", "place_id": "ChIJU-OOwyh644kRZou2EIUK5BQ", "reference": "ChIJU-OOwyh644kRZou2EIUK5BQ", "scope": "GOOGLE", "types": ["park", "premise", "point_of_interest", "establishment"], "vicinity": "Boston"}, "ChIJB6VuAyl644kRPb-PQuoFYdM": {"geometry": {"location": {"lat": 42.3272577, "lng": -71.09369600000001}, "viewport": {"northeast": {"lat": 42.3285909302915, "lng": -71.09237371970849}, "southwest": {"lat": 42.3258929697085, "lng": -71.09507168029151}}}, "icon": "https://maps.gstatic.com/mapfiles/place_api/icons/generic_recreational-71.png", "id": "fb9b05d4856f5e462b236fdea94bee80df2d1864", "name": "Allan Crite Community Garden", "place_id": "ChIJB6VuAyl644kRPb-PQuoFYdM", "reference": "ChIJB6VuAyl644kRPb-PQuoFYdM", "scope": "GOOGLE", "types": ["park", "premise", "point_of_interest", "establishment"], "vicinity": "Boston"}}