{"ChIJGzE9DS1l44kRoOhiASS_fHg": {"geometry": {"location": {"lat": 42.3600825, "lng": -71.0588801}, "viewport": {"northeast": {"lat": 42.40081989999999, "lng": -70.749455}, "southwest": {"lat": 42.22788, "lng": -71.191113}}}, "icon": "https://maps.gstatic.com/mapfiles/place_api/icons/geocode-71.png", "id": "06755c25d2b34d13942a4713971756a55b870ced", "name": "Boston", "photos": [{"height": 3024, "html_attributions": ["<a href=\"https://maps.google.com/maps/contrib/104670289779338733432/photos\">Natalia Zalucean</a>"], "photo_reference": "CmRaAAAA7k7rAU9s3GFo29JqcRqW36Qv8T1KAED1big51mufI7tIGOUFL5wz3T5TzyJkf-MHDE7gKs4X39tKcbWIXYS0rRaYhJTenCgceTLTqCpWwARQ3OcVdyYuTaJtqQfUqk19EhBWJujGfw3cdxgQR3eGKQ-9GhSAo-yBwB9rhq5Qtp-HgHhAKOrwbQ", "width": 4032}], "place_id": "ChIJGzE9DS1l44kRoOhiASS_fHg", "reference": "ChIJGzE9DS1l44kRoOhiASS_fHg", "scope": "GOOGLE", "types": ["locality", "political"], "vicinity": "Boston"}, "ChIJ05TyhURw44kRxqoBZ3mJu-M": {"geometry": {"location": {"lat": 42.372665, "lng": -71.03527199999999}, "viewport": {"northeast": {"lat": 42.3740644802915, "lng": -71.03400766970849}, "southwest": {"lat": 42.3713665197085, "lng": -71.0367056302915}}}, "icon": "https://maps.gstatic.com/mapfiles/place_api/icons/restaurant-71.png", "id": "659c2cb9c7ebf93055bcf8387305b25fbc6a9a96", "name": "Santarpio's Pizza", "opening_hours": {"open_now": true}, "photos": [{"height": 3036, "html_attributions": ["<a href=\"https://maps.google.com/maps/contrib/100946621078537444373/photos\">mcblargblarg</a>"], "photo_reference": "CmRaAAAAtq93LWjkHQzTj_OoCrF_gQSMxhHwiSyEUpB4UJ8PFeExOd2RQU2ErpbFhxjKnFM_n9NQCfnlqQE6ccbUuzYFEAEK4yCIpAbdTOreFKGkrh-o-PygVF7DXYQ3EQZBLNeREhBHA1b38v-Px2HipTVlsGC8GhQ0Co-2-LY1kNUamL_jOxqFy_z0Dg", "width": 4048}], "place_id": "ChIJ05TyhURw44kRxqoBZ3mJu-M", "plus_code": {"compound_code": "9XF7+3V Boston, Massachusetts, United States", "global_code": "87JC9XF7+3V"}, "price_level": 1, "rating": 4.5, "reference": "ChIJ05TyhURw44kRxqoBZ3mJu-M", "scope": "GOOGLE", "types": ["restaurant", "point_of_interest", "food", "establishment"], "user_ratings_total": 1415, "vicinity": "111 Chelsea Street, Boston"}, "ChIJrZ-_D0Nw44kR1bD9w6B4RpM": {"geometry": {"location": {"lat": 42.3708781, "lng": -71.03489239999999}, "viewport": {"northeast": {"lat": 42.37227368029151, "lng": -71.03361681970848}, "southwest": {"lat": 42.36957571970851, "lng": -71.0363147802915}}}, "icon": "https://maps.gstatic.com/mapfiles/place_api/icons/generic_business-71.png", "id": "71e7633faca084d88d1a1557a09cc87de1cbc492", "name": "East Boston Neighborhood Health", "opening_hours": {"open_now": true}, "place_id": "ChIJrZ-_D0Nw44kR1bD9w6B4RpM", "plus_code": {"compound_code": "9XC8+92 Boston, Massachusetts, United States", "global_code": "87JC9XC8+92"}, "reference": "ChIJrZ-_D0Nw44kR1bD9w6B4RpM", "scope": "GOOGLE", "types": ["health", "point_of_interest", "establishment"], "vicinity": "151 Orleans Street, Boston"}, "ChIJaZ4DVkNw44kRHcA0-cK5DT4": {"geometry": {"location": {"lat": 42.3723909, "lng": -71.0369158}, "viewport": {"northeast": {"lat": 42.3738713802915, "lng": -71.03577696970851}, "southwest": {"lat": 42.37117341970851, "lng": -71.03847493029151}}}, "icon": "https://maps.gstatic.com/mapfiles/place_api/icons/generic_business-71.png", "id": "a348fe6f5fc99aa136f5ff73ce850bb08f88b761", "name": "Paris Street Pool", "opening_hours": {"open_now": true}, "photos": [{"height": 4032, "html_attributions": ["<a href=\"https://maps.google.com/maps/contrib/110221283281497770571/photos\">Vanessa Escobar</a>"], "photo_reference": "CmRaAAAAfgJ38A2j89y8n2fzZ4LlULu8OdGw962xDUm2k5sqXlfqLVHI3XnYqusR5Bz7SmS_boDX8eRLCiweVj3zrF_cQuO3wxQSdQIdknsMtkNvQVXOaU00A7XZhUtOmQz6EXVJEhBpMGq_4qnVGSD48UeMW7_QGhR2ef8FvPH6AzGGUeN5cKepaUdtCw", "width": 3024}], "place_id": "ChIJaZ4DVkNw44kRHcA0-cK5DT4", "plus_code": {"compound_code": "9XC7+X6 Boston, Massachusetts, United States", "global_code": "87JC9XC7+X6"}, "rating": 3.4, "reference": "ChIJaZ4DVkNw44kRHcA0-cK5DT4", "scope": "GOOGLE", "types": ["point_of_interest", "establishment"], "user_ratings_total": 34, "vicinity": "113 Paris Street, East Boston"}, "ChIJJ8yER0Nw44kRHVbqAHM_VPs": {"geometry": {"location": {"lat": 42.37126300000001, "lng": -71.036881}, "viewport": {"northeast": {"lat": 42.37266903029149, "lng": -71.03562146970849}, "southwest": {"lat": 42.3699710697085, "lng": -71.0383194302915}}}, "icon": "https://maps.gstatic.com/mapfiles/place_api/icons/generic_business-71.png", "id": "70bc6dd79e1fb00f64a1666c2dc11d0ea1b1ca0c", "name": "Venus Spa & Salon", "opening_hours": {"open_now": true}, "photos": [{"height": 631, "html_attributions": ["<a href=\"https://maps.google.com/maps/contrib/116468528463978350989/photos\">Venus Spa &amp; Salon</a>"], "photo_reference": "CmRaAAAAxoUJ8wW96SVtz_xzL7i7d5-JwxfW160jI0_cq29F9O0UXsmqEAP5Ne3rSEai4gJfCou7hdXSOSP0_EtbaJogfnKWv0TKbGuZGBg6PmsyjVlTNAbI_GcVQ50smikHgXjjEhCV4RsPbFGwswPmIz5T5GExGhRWH57ic1M2xQqVIUk-8RZNyEsOSg", "width": 1120}], "place_id": "ChIJJ8yER0Nw44kRHVbqAHM_VPs", "plus_code": {"compound_code": "9XC7+G6 Boston, Massachusetts, United States", "global_code": "87JC9XC7+G6"}, "rating": 5, "reference": "ChIJJ8yER0Nw44kRHVbqAHM_VPs", "scope": "GOOGLE", "types": ["beauty_salon", "spa", "health", "point_of_interest", "establishment"], "user_ratings_total": 32, "vicinity": "55 Chelsea Street, Boston"}, "ChIJWa_3mkRw44kRB2R01Drosfg": {"geometry": {"location": {"lat": 42.3727329, "lng": -71.035838}, "viewport": {"northeast": {"lat": 42.3740162302915, "lng": -71.0343861697085}, "southwest": {"lat": 42.3713182697085, "lng": -71.0370841302915}}}, "icon": "https://maps.gstatic.com/mapfiles/place_api/icons/generic_business-71.png", "id": "c86455e24104b9a835997213ec8882e9c69445ea", "name": "Sober Surroundings LLC", "place_id": "ChIJWa_3mkRw44kRB2R01Drosfg", "plus_code": {"compound_code": "9XF7+3M Boston, Massachusetts, United States", "global_code": "87JC9XF7+3M"}, "reference": "ChIJWa_3mkRw44kRB2R01Drosfg", "scope": "GOOGLE", "types": ["health", "point_of_interest", "establishment"], "vicinity": "110 Chelsea Street, East Boston"}, "ChIJ2Q6pLF1w44kR586825HffB4": {"geometry": {"location": {"lat": 42.3727359, "lng": -71.0356024}, "viewport": {"northeast": {"lat": 42.3740616302915, "lng": -71.03421701970849}, "southwest": {"lat": 42.3713636697085, "lng": -71.0369149802915}}}, "icon": "https://maps.gstatic.com/mapfiles/place_api/icons/generic_business-71.png", "id": "f0ab7c8e9fff0f594bddb2c32c23564dafe09df9", "name": "Inner Harbor Jewelers", "opening_hours": {"open_now": true}, "photos": [{"height": 750, "html_attributions": ["<a href=\"https://maps.google.com/maps/contrib/117171657910013891949/photos\">Inner Harbor Jewelers</a>"], "photo_reference": "CmRaAAAAFR6byg1QKJERBhmFdcGD0AAqngKXtOENtSaMScURYzvWC83VVpbbmhbcLSEssgYUmVx9wFmHWr_hXhKIwHTbef_dk5AcgvJgeqo4_0lRoq9x3XIvogx5WLe7xWZtgqjBEhAQi9XelBqGMFpbReLIIXdjGhRRG0VJHZB-S5lRuEctFIch4GSCUQ", "width": 1000}], "place_id": "ChIJ2Q6pLF1w44kR586825HffB4", "plus_code": {"compound_code": "9XF7+3Q Boston, Massachusetts, United States", "global_code": "87JC9XF7+3Q"}, "rating": 5, "reference": "ChIJ2Q6pLF1w44kR586825HffB4", "scope": "GOOGLE", "types": ["jewelry_store", "store", "point_of_interest", "establishment"], "user_ratings_total": 18, "vicinity": "112 Chelsea Street, Boston"}, "ChIJZzVdikRw44kRB4_ZmQvXZQo": {"geometry": {"location": {"lat": 42.3730544, "lng": -71.0349399}, "viewport": {"northeast": {"lat": 42.3744348802915, "lng": -71.0336399197085}, "southwest": {"lat": 42.3717369197085, "lng": -71.03633788029151}}}, "icon": "https://maps.gstatic.com/mapfiles/place_api/icons/generic_business-71.png", "id": "5213efc92784bd4d0407307d49909586b0cd8525", "name": "Veterans Sober House", "place_id": "ChIJZzVdikRw44kRB4_ZmQvXZQo", "plus_code": {"compound_code": "9XF8+62 Boston, Massachusetts, United States", "global_code": "87JC9XF8+62"}, "reference": "ChIJZzVdikRw44kRB4_ZmQvXZQo", "scope": "GOOGLE", "types": ["health", "point_of_interest", "establishment"], "vicinity": "133 Chelsea Street, Boston"}, "ChIJBWqgRUNw44kRRqz56dW612Y": {"geometry": {"location": {"lat": 42.371704, "lng": -71.037048}, "viewport": {"northeast": {"lat": 42.3729853802915, "lng": -71.0355929697085}, "southwest": {"lat": 42.3702874197085, "lng": -71.03829093029151}}}, "icon": "https://maps.gstatic.com/mapfiles/place_api/icons/generic_business-71.png", "id": "e2960c64890df3647829da2f156aaee7395d8cf0", "name": "canastuj house cleaning", "place_id": "ChIJBWqgRUNw44kRRqz56dW612Y", "plus_code": {"compound_code": "9XC7+M5 Boston, Massachusetts, United States", "global_code": "87JC9XC7+M5"}, "reference": "ChIJBWqgRUNw44kRRqz56dW612Y", "scope": "GOOGLE", "types": ["point_of_interest", "establishment"], "vicinity": "68 Chelsea Street, Boston"}, "ChIJE3S3D0Nw44kRKey5eca6s9w": {"geometry": {"location": {"lat": 42.3705295, "lng": -71.0355565}, "viewport": {"northeast": {"lat": 42.37189788029149, "lng": -71.0342379697085}, "southwest": {"lat": 42.3691999197085, "lng": -71.0369359302915}}}, "icon": "https://maps.gstatic.com/mapfiles/place_api/icons/generic_business-71.png", "id": "8a6f8aa4e3afcc9e6c7f2fdc50bb86f46ed5e41c", "name": "Gumball Factory Lofts", "photos": [{"height": 550, "html_attributions": ["<a href=\"https://maps.google.com/maps/contrib/110417044691073598182/photos\">Highrise Condos</a>"], "photo_reference": "CmRaAAAAwwNkvvprEE7i1IjnCTkHY2tZbPgKwLpXtvmX1pZKLtyRe1FsessCaZhxIpxrhhARmqRa8iUhZiTeJWQ9Gx0sn61IaAB90WD5PvUuG6v_KmLSxVnNg06ydsfP1oxqmAyQEhA4IFbGe79-ScloFPlzqP-qGhRPFQjxSkAg7mS9xY4INWtPl0N9Dw", "width": 800}], "place_id": "ChIJE3S3D0Nw44kRKey5eca6s9w", "plus_code": {"compound_code": "9XC7+6Q Boston, Massachusetts, United States", "global_code": "87JC9XC7+6Q"}, "rating": 3.7, "reference": "ChIJE3S3D0Nw44kRKey5eca6s9w", "scope": "GOOGLE", "types": ["point_of_interest", "establishment"], "user_ratings_total": 3, "vicinity": "150 Orleans Street, Boston"}, "ChIJU7AyXkNw44kRJvguEuewGHw": {"geometry": {"location": {"lat": 42.3721457, "lng": -71.0363702}, "viewport": {"northeast": {"lat": 42.3734566802915, "lng": -71.0349615697085}, "southwest": {"lat": 42.3707587197085, "lng": -71.0376595302915}}}, "icon": "https://maps.gstatic.com/mapfiles/place_api/icons/restaurant-71.png", "id": "ad202aefd7530178660d3b9fbdb44a876df0458e", "name": "Latino's Restaurant", "opening_hours": {"open_now": true}, "photos": [{"height": 2560, "html_attributions": ["<a href=\"https://maps.google.com/maps/contrib/100755472642127516261/photos\">Maria Rodriguez</a>"], "photo_reference": "CmRaAAAAsPaDNW1rGZN6yBoWRSpEWCuGX6I_l4HXPbKlI9GoFTjm86AEipUv4_YrD7_64eDsIZ-EwBCUxgGdOzzr_Z2EzCb0QOSKa-SsEkmMJf_QXO2vEmqgHvY12gD6SVjRoclqEhC8AfwsFE6I9oIeA3VnHYjxGhTyqsrb8zaSUMF7HDLavHWtbH8NFA", "width": 1440}], "place_id": "ChIJU7AyXkNw44kRJvguEuewGHw", "plus_code": {"compound_code": "9XC7+VF Boston, Massachusetts, United States", "global_code": "87JC9XC7+VF"}, "rating": 4, "reference": "ChIJU7AyXkNw44kRJvguEuewGHw", "scope": "GOOGLE", "types": ["restaurant", "point_of_interest", "food", "establishment"], "user_ratings_total": 27, "vicinity": "88 Chelsea Street, Boston"}, "ChIJl0zdkERw44kRdM-HxCMuK_Y": {"geometry": {"location": {"lat": 42.372864, "lng": -71.0359726}, "viewport": {"northeast": {"lat": 42.3742734802915, "lng": -71.03455336970849}, "southwest": {"lat": 42.37157551970851, "lng": -71.0372513302915}}}, "icon": "https://maps.gstatic.com/mapfiles/place_api/icons/generic_business-71.png", "id": "ea3da498133d91bad5e76422f53061059ad5f729", "name": "Second Wind Physical Therapy & Sports Medicine", "place_id": "ChIJl0zdkERw44kRdM-HxCMuK_Y", "plus_code": {"compound_code": "9XF7+4J Boston, Massachusetts, United States", "global_code": "87JC9XF7+4J"}, "rating": 5, "reference": "ChIJl0zdkERw44kRdM-HxCMuK_Y", "scope": "GOOGLE", "types": ["physiotherapist", "health", "point_of_interest", "establishment"], "user_ratings_total": 2, "vicinity": "115 Porter Street # 1, Boston"}, "ChIJu0ewrlxw44kRTOOJPy4_Cyo": {"geometry": {"location": {"lat": 42.370252, "lng": -71.035164}, "viewport": {"northeast": {"lat": 42.3716462302915, "lng": -71.0337787197085}, "southwest": {"lat": 42.3689482697085, "lng": -71.0364766802915}}}, "icon": "https://maps.gstatic.com/mapfiles/place_api/icons/generic_business-71.png", "id": "a26125fa795c612deaab0c780089692fcda0f653", "name": "Independent Realty Management", "place_id": "ChIJu0ewrlxw44kRTOOJPy4_Cyo", "plus_code": {"compound_code": "9XC7+4W Boston, Massachusetts, United States", "global_code": "87JC9XC7+4W"}, "reference": "ChIJu0ewrlxw44kRTOOJPy4_Cyo", "scope": "GOOGLE", "types": ["real_estate_agency", "point_of_interest", "establishment"], "vicinity": "99 Gove Street # 10, East Boston"}, "ChIJIb7RnENw44kRlb_Eq7qUaqo": {"geometry": {"location": {"lat": 42.371369, "lng": -71.0347389}, "viewport": {"northeast": {"lat": 42.3726883302915, "lng": -71.03334321970848}, "southwest": {"lat": 42.3699903697085, "lng": -71.0360411802915}}}, "icon": "https://maps.gstatic.com/mapfiles/place_api/icons/generic_business-71.png", "id": "27925e4c30f3459c7303ea699719438e5b20c1b0", "name": "J.M. Mechanical Services, Inc.", "opening_hours": {"open_now": true}, "place_id": "ChIJIb7RnENw44kRlb_Eq7qUaqo", "plus_code": {"compound_code": "9XC8+G4 Boston, Massachusetts, United States", "global_code": "87JC9XC8+G4"}, "rating": 3, "reference": "ChIJIb7RnENw44kRlb_Eq7qUaqo", "scope": "GOOGLE", "types": ["general_contractor", "point_of_interest", "establishment"], "user_ratings_total": 3, "vicinity": "172 Orleans Street, Boston"}, "ChIJNWW8cUNw44kRNlYY4hT6dsU": {"geometry": {"location": {"lat": 42.371392, "lng": -71.03553699999999}, "viewport": {"northeast": {"lat": 42.3727409802915, "lng": -71.0341880197085}, "southwest": {"lat": 42.3700430197085, "lng": -71.0368859802915}}}, "icon": "https://maps.gstatic.com/mapfiles/place_api/icons/doctor-71.png", "id": "890e40ff7799daad3c07a45010a0b6d780c08582", "name": "EBNHC Employee Parking Lot", "place_id": "ChIJNWW8cUNw44kRNlYY4hT6dsU", "plus_code": {"compound_code": "9XC7+HQ Boston, Massachusetts, United States", "global_code": "87JC9XC7+HQ"}, "rating": 3, "reference": "ChIJNWW8cUNw44kRNlYY4hT6dsU", "scope": "GOOGLE", "types": ["hospital", "point_of_interest", "establishment"], "user_ratings_total": 2, "vicinity": "135-B South Bremen Street, Boston"}, "ChIJsdL4YkNw44kRVT6ROg2eMGc": {"geometry": {"location": {"lat": 42.37211399999999, "lng": -71.035839}, "viewport": {"northeast": {"lat": 42.37352858029149, "lng": -71.03459416970848}, "southwest": {"lat": 42.37083061970849, "lng": -71.0372921302915}}}, "icon": "https://maps.gstatic.com/mapfiles/place_api/icons/generic_business-71.png", "id": "9e6d950adc60471baf68429fedd02ea034281f5e", "name": "America Financial Services", "place_id": "ChIJsdL4YkNw44kRVT6ROg2eMGc", "plus_code": {"compound_code": "9XC7+RM Boston, Massachusetts, United States", "global_code": "87JC9XC7+RM"}, "rating": 5, "reference": "ChIJsdL4YkNw44kRVT6ROg2eMGc", "scope": "GOOGLE", "types": ["accounting", "finance", "point_of_interest", "establishment"], "user_ratings_total": 5, "vicinity": "93 Chelsea Street, East Boston"}, "ChIJsdL4YkNw44kRz_-JxWy_bdA": {"geometry": {"location": {"lat": 42.37211399999999, "lng": -71.035839}, "viewport": {"northeast": {"lat": 42.37352858029149, "lng": -71.03459416970848}, "southwest": {"lat": 42.37083061970849, "lng": -71.0372921302915}}}, "icon": "https://maps.gstatic.com/mapfiles/place_api/icons/generic_business-71.png", "id": "e2b5d686b0aa2e55123efe4199697e45476f02fc", "name": "Algarin Attorney Barbara At Law", "place_id": "ChIJsdL4YkNw44kRz_-JxWy_bdA", "plus_code": {"compound_code": "9XC7+RM Boston, Massachusetts, United States", "global_code": "87JC9XC7+RM"}, "reference": "ChIJsdL4YkNw44kRz_-JxWy_bdA", "scope": "GOOGLE", "types": ["lawyer", "point_of_interest", "establishment"], "vicinity": "93 Chelsea Street, Boston"}, "ChIJy2CzgkRw44kRLXRZksWJcUk": {"geometry": {"location": {"lat": 42.3722207, "lng": -71.03565739999999}, "viewport": {"northeast": {"lat": 42.3736465302915, "lng": -71.0344287697085}, "southwest": {"lat": 42.3709485697085, "lng": -71.0371267302915}}}, "icon": "https://maps.gstatic.com/mapfiles/place_api/icons/shopping-71.png", "id": "00c704ff059e6f4da374d7a9b847b3eb92c5429c", "name": "Million Market", "place_id": "ChIJy2CzgkRw44kRLXRZksWJcUk", "plus_code": {"compound_code": "9XC7+VP Boston, Massachusetts, United States", "global_code": "87JC9XC7+VP"}, "rating": 5, "reference": "ChIJy2CzgkRw44kRLXRZksWJcUk", "scope": "GOOGLE", "types": ["grocery_or_supermarket", "store", "point_of_interest", "food", "establishment"], "user_ratings_total": 1, "vicinity": "99 Chelsea Street, East Boston"}, "ChIJT7A9YkNw44kRTMYN_2MHWHU": {"geometry": {"location": {"lat": 42.37218499999999, "lng": -71.0359723}, "viewport": {"northeast": {"lat": 42.3735603302915, "lng": -71.0346651697085}, "southwest": {"lat": 42.3708623697085, "lng": -71.03736313029151}}}, "icon": "https://maps.gstatic.com/mapfiles/place_api/icons/generic_business-71.png", "id": "4a4cffb71f37f9bb6a6ac16e5ebaaede163377d4", "name": "Iglesia Apostoles Y Profetas", "place_id": "ChIJT7A9YkNw44kRTMYN_2MHWHU", "plus_code": {"compound_code": "9XC7+VJ Boston, Massachusetts, United States", "global_code": "87JC9XC7+VJ"}, "reference": "ChIJT7A9YkNw44kRTMYN_2MHWHU", "scope": "GOOGLE", "types": ["point_of_interest", "establishment"], "vicinity": "93 Chelsea Street, Boston"}, "ChIJw8RbIFtw44kR5riss54MeeI": {"geometry": {"location": {"lat": 42.37021370000001, "lng": -71.0388601}, "viewport": {"northeast": {"lat": 42.3987239, "lng": -70.9865939}, "southwest": {"lat": 42.347397, "lng": -71.045895}}}, "icon": "https://maps.gstatic.com/mapfiles/place_api/icons/geocode-71.png", "id": "1555c7295ebc731502b9d96f86583f84b299bb98", "name": "East Boston", "photos": [{"height": 4000, "html_attributions": ["<a href=\"https://maps.google.com/maps/contrib/105981093830108277006/photos\">Leo Fu</a>"], "photo_reference": "CmRaAAAADs6vikIxoVp4rsoGTnZ8Bo48vlpl6EYh3cx9hflorksOJP2qb7Z-aYKeZtlSGiTVsH_tKDycm7jY2JQ4QDxGaXim2rbLx--bV24d29bTYo3g8oucAGVq_QcNZjZdMhKwEhAkFEoJGhBI2RbpNgV-RQfLGhQbzKd7wO3CO9gZEx_cLPj3_PHy_A", "width": 6000}], "place_id": "ChIJw8RbIFtw44kR5riss54MeeI", "reference": "ChIJw8RbIFtw44kR5riss54MeeI", "scope": "GOOGLE", "types": ["neighborhood", "political"], "vicinity": "Boston"}, "ChIJt_QSaUNw44kR7vbjK9OvpZM": {"geometry": {"location": {"lat": 42.371492, "lng": -71.03616699999999}, "viewport": {"northeast": {"lat": 42.37278573029149, "lng": -71.0347306197085}, "southwest": {"lat": 42.37008776970849, "lng": -71.0374285802915}}}, "icon": "https://maps.gstatic.com/mapfiles/place_api/icons/restaurant-71.png", "id": "b0e0ff1916acfedb15f6b21e4b09d22954797a3a", "name": "South Station, Boston", "place_id": "ChIJt_QSaUNw44kR7vbjK9OvpZM", "plus_code": {"compound_code": "9XC7+HG Boston, Massachusetts, United States", "global_code": "87JC9XC7+HG"}, "rating": 4.5, "reference": "ChIJt_QSaUNw44kR7vbjK9OvpZM", "scope": "GOOGLE", "types": ["restaurant", "point_of_interest", "food", "establishment"], "user_ratings_total": 2, "vicinity": "116 South Bremen Street, Boston"}, "ChIJozdMg0Rw44kRwvrOWJVRx7o": {"geometry": {"location": {"lat": 42.37237199999999, "lng": -71.035532}, "viewport": {"northeast": {"lat": 42.37378838029149, "lng": -71.0342886197085}, "southwest": {"lat": 42.37109041970849, "lng": -71.03698658029151}}}, "icon": "https://maps.gstatic.com/mapfiles/place_api/icons/generic_business-71.png", "id": "e5a94bd366085d68770c2e2f32695cd218ccc4ba", "name": "Rose's Alterations & Dry Cleaning", "place_id": "ChIJozdMg0Rw44kRwvrOWJVRx7o", "plus_code": {"compound_code": "9XC7+WQ Boston, Massachusetts, United States", "global_code": "87JC9XC7+WQ"}, "rating": 5, "reference": "ChIJozdMg0Rw44kRwvrOWJVRx7o", "scope": "GOOGLE", "types": ["laundry", "point_of_interest", "establishment"], "user_ratings_total": 1, "vicinity": "103 Chelsea Street, Boston"}, "ChIJPwbVgERw44kR8eJ8a8qv5qI": {"geometry": {"location": {"lat": 42.372405, "lng": -71.035096}, "viewport": {"northeast": {"lat": 42.37370123029149, "lng": -71.0336635697085}, "southwest": {"lat": 42.3710032697085, "lng": -71.03636153029152}}}, "icon": "https://maps.gstatic.com/mapfiles/place_api/icons/generic_business-71.png", "id": "d2a44448e12d6fa0fd7d3c2790aa133fc5b6d0ab", "name": "Fabios Restoration", "photos": [{"height": 607, "html_attributions": ["<a href=\"https://maps.google.com/maps/contrib/100782460373407018314/photos\">Fabios Restoration</a>"], "photo_reference": "CmRaAAAASukmh3FjGeowm0wICpmlCXCW4N1IxPxsBI2Gmt6mJhnz-guJ_YP8GA_EZwiex5qzFZukupAh-nbDIaroJgHZrB4WkhsSAPbemjyVr1fMm6adx3d5Eq1rsH5VkJimMNeWEhB3w_DiSYXXSKNs_LAEGqxJGhSUsJVHtlXIKoANlNcswjEGp21iNw", "width": 1080}], "place_id": "ChIJPwbVgERw44kR8eJ8a8qv5qI", "plus_code": {"compound_code": "9XC7+XX Boston, Massachusetts, United States", "global_code": "87JC9XC7+XX"}, "rating": 5, "reference": "ChIJPwbVgERw44kR8eJ8a8qv5qI", "scope": "GOOGLE", "types": ["painter", "furniture_store", "home_goods_store", "store", "general_contractor", "point_of_interest", "establishment"], "user_ratings_total": 2, "vicinity": "158 Bremen Street, Boston"}, "ChIJVy-J1y5x44kRCykM9iPaMnM": {"geometry": {"location": {"lat": 42.37132159999999, "lng": -71.03627399999999}, "viewport": {"northeast": {"lat": 42.37263183029149, "lng": -71.03486366970849}, "southwest": {"lat": 42.36993386970849, "lng": -71.03756163029149}}}, "icon": "https://maps.gstatic.com/mapfiles/place_api/icons/school-71.png", "id": "b9938dc1fe44a621775a56529ac861c32fbd0950", "name": "Breamen St 108", "place_id": "ChIJVy-J1y5x44kRCykM9iPaMnM", "plus_code": {"compound_code": "9XC7+GF Boston, Massachusetts, United States", "global_code": "87JC9XC7+GF"}, "reference": "ChIJVy-J1y5x44kRCykM9iPaMnM", "scope": "GOOGLE", "types": ["school", "point_of_interest", "establishment"], "vicinity": "174-96 Bremen Street, Boston"}, "ChIJ68ijhERw44kR6-I3djUm_b4": {"geometry": {"location": {"lat": 42.3725008, "lng": -71.0355691}, "viewport": {"northeast": {"lat": 42.3738828802915, "lng": -71.0342719697085}, "southwest": {"lat": 42.3711849197085, "lng": -71.03696993029152}}}, "icon": "https://maps.gstatic.com/mapfiles/place_api/icons/generic_business-71.png", "id": "34d7414fff84c4d59e7d8f51f64e709617db99f1", "name": "La Despensa De Don Pedro", "place_id": "ChIJ68ijhERw44kR6-I3djUm_b4", "plus_code": {"compound_code": "9XF7+2Q Boston, Massachusetts, United States", "global_code": "87JC9XF7+2Q"}, "reference": "ChIJ68ijhERw44kR6-I3djUm_b4", "scope": "GOOGLE", "types": ["point_of_interest", "establishment"], "vicinity": "105 Chelsea Street, Boston"}, "ChIJNzShdENw44kRfcyPnv1Y0zI": {"geometry": {"location": {"lat": 42.37101639999999, "lng": -71.0352742}, "viewport": {"northeast": {"lat": 42.3723128802915, "lng": -71.0338425697085}, "southwest": {"lat": 42.3696149197085, "lng": -71.0365405302915}}}, "icon": "https://maps.gstatic.com/mapfiles/place_api/icons/generic_business-71.png", "id": "ea558836503618ec7d2f562e78d98b4ca6e34fc4", "name": "164 Orleans St Parking", "place_id": "ChIJNzShdENw44kRfcyPnv1Y0zI", "plus_code": {"compound_code": "9XC7+CV Boston, Massachusetts, United States", "global_code": "87JC9XC7+CV"}, "reference": "ChIJNzShdENw44kRfcyPnv1Y0zI", "scope": "GOOGLE", "types": ["parking", "point_of_interest", "establishment"], "vicinity": "164 Orleans Street, Boston"}, "ChIJR5ZLXENw44kRxx4-c9Ho_eY": {"geometry": {"location": {"lat": 42.37198980000001, "lng": -71.0366063}, "viewport": {"northeast": {"lat": 42.3732908802915, "lng": -71.0351822197085}, "southwest": {"lat": 42.3705929197085, "lng": -71.03788018029151}}}, "icon": "https://maps.gstatic.com/mapfiles/place_api/icons/school-71.png", "id": "cab5c94c75909909aedb67a5ad5286e29c950fea", "name": "Little Steps Family Care", "opening_hours": {"open_now": true}, "photos": [{"height": 2036, "html_attributions": ["<a href=\"https://maps.google.com/maps/contrib/104927610103218764956/photos\">Catalina Sanchez Zapata</a>"], "photo_reference": "CmRaAAAAzNIsZNaVDYmBBVrox9v8_vMVGcwUTXdY3245TQsc1Ffchn5JZ9pf3Slzi3Zrt2KSzZJ9jIugyUweKqVo4MwQz_PHv_OyC3TIdYGOmAOGh3hFPDrknink26D1rEePHXXiEhDAgDtt0c2h-1qtN3OWXMtBGhQmxHPp35W3vU8rnZqG1ueSuAHeHA", "width": 2036}], "place_id": "ChIJR5ZLXENw44kRxx4-c9Ho_eY", "plus_code": {"compound_code": "9XC7+Q9 Boston, Massachusetts, United States", "global_code": "87JC9XC7+Q9"}, "reference": "ChIJR5ZLXENw44kRxx4-c9Ho_eY", "scope": "GOOGLE", "types": ["school", "point_of_interest", "establishment"], "vicinity": "80 Chelsea Street, Boston"}, "ChIJe2PphURw44kRbbMVx8IUD7k": {"geometry": {"location": {"lat": 42.37266320000001, "lng": -71.0353016}, "viewport": {"northeast": {"lat": 42.37405768029149, "lng": -71.0340289197085}, "southwest": {"lat": 42.3713597197085, "lng": -71.03672688029151}}}, "icon": "https://maps.gstatic.com/mapfiles/place_api/icons/atm-71.png", "id": "0dfc60c06a739afb0b6f00e894d6d664747572cc", "name": "ATM", "place_id": "ChIJe2PphURw44kRbbMVx8IUD7k", "plus_code": {"compound_code": "9XF7+3V Boston, Massachusetts, United States", "global_code": "87JC9XF7+3V"}, "reference": "ChIJe2PphURw44kRbbMVx8IUD7k", "scope": "GOOGLE", "types": ["atm", "finance", "point_of_interest", "establishment"], "vicinity": "111 Chelsea Street, Boston"}, "ChIJ05TyhURw44kRqRKq2AS7Gwc": {"geometry": {"location": {"lat": 42.37266320000001, "lng": -71.0353016}, "viewport": {"northeast": {"lat": 42.37405768029149, "lng": -71.0340289197085}, "southwest": {"lat": 42.3713597197085, "lng": -71.03672688029151}}}, "icon": "https://maps.gstatic.com/mapfiles/place_api/icons/restaurant-71.png", "id": "5c9089f7d14ceae00fe4824a245ff34fa158773b", "name": "JFS Inc", "place_id": "ChIJ05TyhURw44kRqRKq2AS7Gwc", "plus_code": {"compound_code": "9XF7+3V Boston, Massachusetts, United States", "global_code": "87JC9XF7+3V"}, "reference": "ChIJ05TyhURw44kRqRKq2AS7Gwc", "scope": "GOOGLE", "types": ["restaurant", "point_of_interest", "food", "establishment"], "vicinity": "111 Chelsea Street, Boston"}, "ChIJywTRrJJx44kR6FKWfWWe8eI": {"geometry": {"location": {"lat": 42.37233459999999, "lng": -71.03454479999999}, "viewport": {"northeast": {"lat": 42.37370738029149, "lng": -71.03316786970849}, "southwest": {"lat": 42.37100941970849, "lng": -71.0358658302915}}}, "icon": "https://maps.gstatic.com/mapfiles/place_api/icons/generic_business-71.png", "id": "118f98e1d811f29393e14ed7d5d38401579339c8", "name": "CO-G", "opening_hours": {"open_now": true}, "photos": [{"height": 579, "html_attributions": ["<a href=\"https://maps.google.com/maps/contrib/109674826983335426863/photos\">CO-G</a>"], "photo_reference": "CmRaAAAAATaY_x_riSvrlxKhkcJxbFCXYXt7SmxxRoXCx5cNHVdYOYyc-zrmE58xKVZx1806JeyFTjR1Pdx7nj2UhXkvphSqD__nfaDEs6etuDH0GzsZUVHsghXNZkjnjU4m_GzLEhCZUBp99yFDjMItMI6dbG0wGhSHDcBqv2Fl7fJ2jrVHR4dfqBYyeg", "width": 578}], "place_id": "ChIJywTRrJJx44kR6FKWfWWe8eI", "plus_code": {"compound_code": "9XC8+W5 Boston, Massachusetts, United States", "global_code": "87JC9XC8+W5"}, "reference": "ChIJywTRrJJx44kR6FKWfWWe8eI", "scope": "GOOGLE", "types": ["point_of_interest", "establishment"], "vicinity": "156 Porter Street #147, Boston"}, "ChIJg4-i-dNx44kR600kwoKMq4g": {"geometry": {"location": {"lat": 42.37175240000001, "lng": -71.036991}, "viewport": {"northeast": {"lat": 42.3730338802915, "lng": -71.0355361197085}, "southwest": {"lat": 42.3703359197085, "lng": -71.03823408029152}}}, "icon": "https://maps.gstatic.com/mapfiles/place_api/icons/generic_business-71.png", "id": "1c700d578527e38df62518af49f9dff07f8e2a95", "name": "Heringer services", "opening_hours": {"open_now": true}, "photos": [{"height": 338, "html_attributions": ["<a href=\"https://maps.google.com/maps/contrib/106148609192243256587/photos\">Heringer services</a>"], "photo_reference": "CmRaAAAADDVRIbSX_7Bj0gvXiLgWZsveJdsnRv644m6TkupE3t4UWaVv_38G335rYd9IM6iq7ks9-5B85QIrYea6rE5u5LFxYvULUTlhFdwkl3Mo4SZCsKar8-6fsiBwdeEenhQyEhD8JJrLYjvr3_0Oy-bx7tSfGhShWdfFb5i8k6-6F5ktVWs9RAVkiA", "width": 600}], "place_id": "ChIJg4-i-dNx44kR600kwoKMq4g", "plus_code": {"compound_code": "9XC7+P6 Boston, Massachusetts, United States", "global_code": "87JC9XC7+P6"}, "reference": "ChIJg4-i-dNx44kR600kwoKMq4g", "scope": "GOOGLE", "types": ["point_of_interest", "establishment"], "vicinity": "70 Chelsea Street, East Boston"}, "ChIJMc_cPMBx44kRcHg-19IgeSM": {"geometry": {"location": {"lat": 42.3707834, "lng": -71.03625749999999}, "viewport": {"northeast": {"lat": 42.3721323802915, "lng": -71.0349085197085}, "southwest": {"lat": 42.3694344197085, "lng": -71.0376064802915}}}, "icon": "https://maps.gstatic.com/mapfiles/place_api/icons/generic_business-71.png", "id": "d8e6410169eb18f74a60e018da27fbb963edad5d", "name": "The Gove Street Greenway Crossing", "opening_hours": {"open_now": true}, "place_id": "ChIJMc_cPMBx44kRcHg-19IgeSM", "plus_code": {"compound_code": "9XC7+8F Boston, Massachusetts, United States", "global_code": "87JC9XC7+8F"}, "reference": "ChIJMc_cPMBx44kRcHg-19IgeSM", "scope": "GOOGLE", "types": ["point_of_interest", "establishment"], "vicinity": "BOST-0103918002, Boston"}, "ChIJuw0Wl0Rw44kR9Cctf--x3cA": {"geometry": {"location": {"lat": 42.3729778, "lng": -71.0360749}, "viewport": {"northeast": {"lat": 42.3743731802915, "lng": -71.03467206970849}, "southwest": {"lat": 42.3716752197085, "lng": -71.0373700302915}}}, "icon": "https://maps.gstatic.com/mapfiles/place_api/icons/restaurant-71.png", "id": "2b59b5c81926f8f5c6d272b4c372cdc6c9293d21", "name": "Craft Table & Bar", "opening_hours": {"open_now": false}, "photos": [{"height": 3036, "html_attributions": ["<a href=\"https://maps.google.com/maps/contrib/104878356959149367867/photos\">Axel Ringwood</a>"], "photo_reference": "CmRaAAAA2zKwhyEPl5cNS5ooUCWPlvLngXMHP6PrqZn_oPb42Ge6sotbbqwdIoLwfx_1Y9a-7oMj3yyZoTI0Ltr8L21S5VKtiruUYwnVDRUsBRHqSqdrw_lanYSSebGsDpHpbsgIEhAP1UNhW-BTzeTNquXaKy-sGhSIBECda1oXxu1JRMkla2gPXfoObQ", "width": 4048}], "place_id": "ChIJuw0Wl0Rw44kR9Cctf--x3cA", "plus_code": {"compound_code": "9XF7+5H Boston, Massachusetts, United States", "global_code": "87JC9XF7+5H"}, "price_level": 2, "rating": 4.3, "reference": "ChIJuw0Wl0Rw44kR9Cctf--x3cA", "scope": "GOOGLE", "types": ["bar", "restaurant", "point_of_interest", "food", "establishment"], "user_ratings_total": 114, "vicinity": "107 Porter Street, Boston"}, "ChIJq6oui0Rw44kRqdc9F5sBlOk": {"geometry": {"location": {"lat": 42.37329090000001, "lng": -71.0351283}, "viewport": {"northeast": {"lat": 42.37458598029151, "lng": -71.03369546970849}, "southwest": {"lat": 42.37188801970851, "lng": -71.0363934302915}}}, "icon": "https://maps.gstatic.com/mapfiles/place_api/icons/generic_business-71.png", "id": "17c08abf9cc35c2c1b051303b25641bf2fe1b58b", "name": "DeLoach Digital Consulting", "place_id": "ChIJq6oui0Rw44kRqdc9F5sBlOk", "plus_code": {"compound_code": "9XF7+8W Boston, Massachusetts, United States", "global_code": "87JC9XF7+8W"}, "reference": "ChIJq6oui0Rw44kRqdc9F5sBlOk", "scope": "GOOGLE", "types": ["point_of_interest", "establishment"], "vicinity": "132 Chelsea Street, Boston"}, "ChIJM2_ID0Nw44kR-eqMQmkaofk": {"geometry": {"location": {"lat": 42.3704736, "lng": -71.0360104}, "viewport": {"northeast": {"lat": 42.3717784302915, "lng": -71.03471396970849}, "southwest": {"lat": 42.3690804697085, "lng": -71.03741193029151}}}, "icon": "https://maps.gstatic.com/mapfiles/place_api/icons/generic_business-71.png", "id": "6cc1dd04576f9838ea061eb0257985816e8b1bcf", "name": "Richard J. Cresta, LICSW", "place_id": "ChIJM2_ID0Nw44kR-eqMQmkaofk", "plus_code": {"compound_code": "9XC7+5H Boston, Massachusetts, United States", "global_code": "87JC9XC7+5H"}, "reference": "ChIJM2_ID0Nw44kR-eqMQmkaofk", "scope": "GOOGLE", "types": ["doctor", "health", "point_of_interest", "establishment"], "vicinity": "150 Orleans Street, East Boston, MA 02128, Boston"}, "ChIJr9vUOUNw44kRvYKBAZe3JHo": {"geometry": {"location": {"lat": 42.3711266, "lng": -71.03713429999999}, "viewport": {"northeast": {"lat": 42.3725146802915, "lng": -71.03584776970848}, "southwest": {"lat": 42.3698167197085, "lng": -71.03854573029149}}}, "icon": "https://maps.gstatic.com/mapfiles/place_api/icons/restaurant-71.png", "id": "f2e3eae7d4d65f03af9e729f6ab08b5973c94c81", "name": "Toasted Flats", "opening_hours": {"open_now": true}, "photos": [{"height": 2048, "html_attributions": ["<a href=\"https://maps.google.com/maps/contrib/109228794756478589203/photos\">Toasted Flats</a>"], "photo_reference": "CmRaAAAA5lx_Rw1Xar-BPjJm3VgpYpfjgqYBgAbubEl_zoO9hYmir074YTGbmtLks2JZiRQY6WChpCdUja3gLFlZiVpt2VEXsIvqgICW8VY3IBBwXagvz0aR-4taF_z_Ij8g8O4sEhAu9J0vgoRZEtjaSUa4zpLuGhQXx_uidHsa9AWAjayzpldwiqci6Q", "width": 1536}], "place_id": "ChIJr9vUOUNw44kRvYKBAZe3JHo", "plus_code": {"compound_code": "9XC7+F4 Boston, Massachusetts, United States", "global_code": "87JC9XC7+F4"}, "price_level": 1, "rating": 5, "reference": "ChIJr9vUOUNw44kRvYKBAZe3JHo", "scope": "GOOGLE", "types": ["restaurant", "point_of_interest", "food", "establishment"], "user_ratings_total": 44, "vicinity": "53 Chelsea Street, Boston"}, "ChIJRw0gNkNw44kRZYmYUDcSPn0": {"geometry": {"location": {"lat": 42.37132949999999, "lng": -71.0373482}, "viewport": {"northeast": {"lat": 42.3726362302915, "lng": -71.0359317197085}, "southwest": {"lat": 42.3699382697085, "lng": -71.0386296802915}}}, "icon": "https://maps.gstatic.com/mapfiles/place_api/icons/generic_business-71.png", "id": "69e3e7686e885e4cd01a8b22478543c456240c42", "name": "Marlen's Beauty Salon", "opening_hours": {"open_now": false}, "photos": [{"height": 1836, "html_attributions": ["<a href=\"https://maps.google.com/maps/contrib/107181359498924744975/photos\">Maria E Lopez Posada</a>"], "photo_reference": "CmRaAAAAQPvMbWESHQC8hsThbWJDz-mJRNrgUWuFKrf7YEEfbMyyYbyvU19KV4iUN5yQFUX-bpuuL_vXmJ7IJPgZa08jBljbcXhucjaWCFZ53x7Zw07_-5ecf9BTiSbOzY7i5_jMEhCdhefXGmow6hUarsamu3KNGhSYI3G3B_km_c3K9X6mtEevaEZpCg", "width": 3264}], "place_id": "ChIJRw0gNkNw44kRZYmYUDcSPn0", "plus_code": {"compound_code": "9XC7+G3 Boston, Massachusetts, United States", "global_code": "87JC9XC7+G3"}, "rating": 4.5, "reference": "ChIJRw0gNkNw44kRZYmYUDcSPn0", "scope": "GOOGLE", "types": ["beauty_salon", "hair_care", "point_of_interest", "establishment"], "user_ratings_total": 54, "vicinity": "54 Chelsea Street, Boston"}, "ChIJryiVZkRw44kRSNY2nscffCw": {"geometry": {"location": {"lat": 42.3729677, "lng": -71.0344447}, "viewport": {"northeast": {"lat": 42.3742692802915, "lng": -71.0331343197085}, "southwest": {"lat": 42.3715713197085, "lng": -71.03583228029152}}}, "icon": "https://maps.gstatic.com/mapfiles/place_api/icons/generic_business-71.png", "id": "82be2e0ab70a682728ce3d5e6379bb462341902e", "name": "Rocky Mountain SpringWater Co.", "place_id": "ChIJryiVZkRw44kRSNY2nscffCw", "plus_code": {"compound_code": "9XF8+56 Boston, Massachusetts, United States", "global_code": "87JC9XF8+56"}, "reference": "ChIJryiVZkRw44kRSNY2nscffCw", "scope": "GOOGLE", "types": ["point_of_interest", "establishment"], "vicinity": "Boston"}, "ChIJw2PQb0Rw44kR4165tSerXwI": {"geometry": {"location": {"lat": 42.37235099999999, "lng": -71.03399379999999}, "viewport": {"northeast": {"lat": 42.3805938, "lng": -71.0179864}, "southwest": {"lat": 42.3641072, "lng": -71.0500012}}}, "icon": "https://maps.gstatic.com/mapfiles/place_api/icons/generic_recreational-71.png", "id": "a0aba9b2e203fc35c74a521cfce3bb9130c6fc39", "name": "Bremen Street Dog Park", "place_id": "ChIJw2PQb0Rw44kR4165tSerXwI", "reference": "ChIJw2PQb0Rw44kR4165tSerXwI", "scope": "GOOGLE", "types": ["premise", "park", "point_of_interest", "establishment"], "vicinity": "Boston"}}