{"ChIJGzE9DS1l44kRoOhiASS_fHg": {"geometry": {"location": {"lat": 42.3600825, "lng": -71.0588801}, "viewport": {"northeast": {"lat": 42.40081989999999, "lng": -70.749455}, "southwest": {"lat": 42.22788, "lng": -71.191113}}}, "icon": "https://maps.gstatic.com/mapfiles/place_api/icons/geocode-71.png", "id": "06755c25d2b34d13942a4713971756a55b870ced", "name": "Boston", "photos": [{"height": 3024, "html_attributions": ["<a href=\"https://maps.google.com/maps/contrib/104670289779338733432/photos\">Natalia Zalucean</a>"], "photo_reference": "CmRaAAAA8iPkjjHmxRWwC0zgKWiC0_XOMKrrdlh3Kch1Ar-jqsShEyG6hvHtoBT1TF26lxG5BFBnBmBlUSRXdiVwnDz_-7PTBCP45Szlxfi9_3LE6AGeBYWU8pueUNLVSZribd9iEhDZjgeqkYI_CK7k7kVhgI6zGhSBpJhMmLP04lGTeIEI3py8iSUfOg", "width": 4032}], "place_id": "ChIJGzE9DS1l44kRoOhiASS_fHg", "reference": "ChIJGzE9DS1l44kRoOhiASS_fHg", "scope": "GOOGLE", "types": ["locality", "political"], "vicinity": "Boston"}, "ChIJRbOQXNl544kRAlfufW-kD-Y": {"geometry": {"location": {"lat": 42.3601306, "lng": -71.1280132}, "viewport": {"northeast": {"lat": 42.3615959802915, "lng": -71.1265127197085}, "southwest": {"lat": 42.3588980197085, "lng": -71.12921068029151}}}, "icon": "https://maps.gstatic.com/mapfiles/place_api/icons/school-71.png", "id": "a45dd21a3acf5201cf75ce084acf9efbdf90ac3e", "name": "Honan-Allston Branch of the Boston Public Library", "opening_hours": {"open_now": true}, "photos": [{"height": 3024, "html_attributions": ["<a href=\"https://maps.google.com/maps/contrib/113120365174899388537/photos\">Cadu Ferreira</a>"], "photo_reference": "CmRaAAAAdf1ep4l-xmH6m8fprVbYfA2LJOxAxca7LbUmd5MfzxDtZSKHNPxqE1EQFl5dPwALd5e78HcscoPk0rzSBLYC8xz9xh1ve_FTVt4XM4wPDwD6RuzdVFJvLm-7q06UvE63EhC-gxAOvTY_xUu4C2O1wVBKGhQMsOiH5uRZi6tQyPbSfw1IXTpLZw", "width": 4032}], "place_id": "ChIJRbOQXNl544kRAlfufW-kD-Y", "plus_code": {"compound_code": "9V6C+3Q Boston, Massachusetts, United States", "global_code": "87JC9V6C+3Q"}, "rating": 4.6, "reference": "ChIJRbOQXNl544kRAlfufW-kD-Y", "scope": "GOOGLE", "types": ["library", "point_of_interest", "establishment"], "user_ratings_total": 30, "vicinity": "300 North Harvard Street, Allston"}, "ChIJoUCgJNl544kRuj2afFb0Ues": {"geometry": {"location": {"lat": 42.36131659999999, "lng": -71.1281314}, "viewport": {"northeast": {"lat": 42.3627191302915, "lng": -71.12679771970849}, "southwest": {"lat": 42.3600211697085, "lng": -71.1294956802915}}}, "icon": "https://maps.gstatic.com/mapfiles/place_api/icons/generic_business-71.png", "id": "ebb04cf90dc9311f27dbce20eb3c3a833cedcdaa", "name": "Mings Auto Repair", "opening_hours": {"open_now": true}, "photos": [{"height": 968, "html_attributions": ["<a href=\"https://maps.google.com/maps/contrib/117928228529707527126/photos\">Mings Auto Repair</a>"], "photo_reference": "CmRaAAAAEERL7NiUGKma2kh0x-XzDNqrdjhmcnxHekaweDwW3GsiaEyBYOsd1l9BcXz6PBOsqPsFj2J8SbsRYleD6h8KXjijX1ztzM3QH39vdsHPC7kSnVpLlPt5UhH5qByyNgq_EhCKf_hU_jpu9HJ9qGIy0UfaGhQRwLaWKIY3OqzFE7UjWKUUTpL5_A", "width": 1296}], "place_id": "ChIJoUCgJNl544kRuj2afFb0Ues", "plus_code": {"compound_code": "9V6C+GP Boston, Massachusetts, United States", "global_code": "87JC9V6C+GP"}, "rating": 4.7, "reference": "ChIJoUCgJNl544kRuj2afFb0Ues", "scope": "GOOGLE", "types": ["car_repair", "store", "point_of_interest", "establishment"], "user_ratings_total": 24, "vicinity": "14 Rena Street, Allston"}, "ChIJg-4Qbdl544kRZRTH1hcH35o": {"geometry": {"location": {"lat": 42.3608002, "lng": -71.12911249999999}, "viewport": {"northeast": {"lat": 42.3620925802915, "lng": -71.12784566970849}, "southwest": {"lat": 42.3593946197085, "lng": -71.1305436302915}}}, "icon": "https://maps.gstatic.com/mapfiles/place_api/icons/generic_business-71.png", "id": "cab7b8a1a45312c2b8fb062454e4eba1f27fedb8", "name": "Brosnan Realty Group", "opening_hours": {"open_now": true}, "place_id": "ChIJg-4Qbdl544kRZRTH1hcH35o", "plus_code": {"compound_code": "9V6C+89 Boston, Massachusetts, United States", "global_code": "87JC9V6C+89"}, "reference": "ChIJg-4Qbdl544kRZRTH1hcH35o", "scope": "GOOGLE", "types": ["real_estate_agency", "point_of_interest", "establishment"], "vicinity": "276 North Harvard Street, Allston"}, "ChIJRbA2H9l544kRuhzi264DpXA": {"geometry": {"location": {"lat": 42.3616879, "lng": -71.12869979999999}, "viewport": {"northeast": {"lat": 42.3630433302915, "lng": -71.12726786970849}, "southwest": {"lat": 42.3603453697085, "lng": -71.1299658302915}}}, "icon": "https://maps.gstatic.com/mapfiles/place_api/icons/generic_business-71.png", "id": "780fab071a6667ac393c9bf4e445e889538b6ec8", "name": "Pipefitters Local 537", "opening_hours": {"open_now": true}, "photos": [{"height": 5312, "html_attributions": ["<a href=\"https://maps.google.com/maps/contrib/110344343594715306000/photos\">Tim Wood</a>"], "photo_reference": "CmRaAAAAatPjYSULOZkU-rIAmxg-DdF0JhL2SxV1Y_LjhesCZVF9uAlX-rMJm5bkhmqqSIAA-KcQC7NFPt50fdyPnq9l23kKbCJ2zeaYFRhbrHOvRej5aI9kdypC5SZwNDU8i7lLEhAfsC5NzIJ1BWAQtsl3UPfoGhSquN1v_ZvNIN0hadkhcXhCdfUflg", "width": 2988}], "place_id": "ChIJRbA2H9l544kRuhzi264DpXA", "plus_code": {"compound_code": "9V6C+MG Boston, Massachusetts, United States", "global_code": "87JC9V6C+MG"}, "rating": 5, "reference": "ChIJRbA2H9l544kRuhzi264DpXA", "scope": "GOOGLE", "types": ["point_of_interest", "establishment"], "user_ratings_total": 4, "vicinity": "35 Travis Street, Allston"}, "ChIJRbA2H9l544kR7Qrdna6dB84": {"geometry": {"location": {"lat": 42.3616261, "lng": -71.1287576}, "viewport": {"northeast": {"lat": 42.36298533029149, "lng": -71.12729276970849}, "southwest": {"lat": 42.36028736970849, "lng": -71.1299907302915}}}, "icon": "https://maps.gstatic.com/mapfiles/place_api/icons/shopping-71.png", "id": "4c4681386562b4f15b62a7d660a7d48ede8e6743", "name": "Pipe Fitters Trust Funds", "place_id": "ChIJRbA2H9l544kR7Qrdna6dB84", "plus_code": {"compound_code": "9V6C+MF Boston, Massachusetts, United States", "global_code": "87JC9V6C+MF"}, "reference": "ChIJRbA2H9l544kR7Qrdna6dB84", "scope": "GOOGLE", "types": ["store", "general_contractor", "point_of_interest", "establishment"], "vicinity": "35 Travis Street, Allston"}, "ChIJG0_0bdl544kR2PgFX0fHXvI": {"geometry": {"location": {"lat": 42.360488, "lng": -71.1293049}, "viewport": {"northeast": {"lat": 42.36188843029149, "lng": -71.12788121970848}, "southwest": {"lat": 42.35919046970849, "lng": -71.1305791802915}}}, "icon": "https://maps.gstatic.com/mapfiles/place_api/icons/worship_general-71.png", "id": "52f9d7689cd3dcf5cc377dc8f2d54159e14a0fd5", "name": "Hill Memorial Baptist Church", "photos": [{"height": 3024, "html_attributions": ["<a href=\"https://maps.google.com/maps/contrib/102796280924261096183/photos\">Julio Garcia</a>"], "photo_reference": "CmRaAAAAM3rdVPfyykx-KvHFcU6ANDxHqfK3o3ZfMePPXxp0kI5MsVw6UKdXZjVk7K4LjpIOCRoH27KIK-WtoC3J-CZ4xQNZTe-qK3nDsBYoEjYNWLudVMNWLmSV-JzHBz3hD19sEhBeK8UqtXDocWGnCEILK4Q6GhRY2VbprXAKoURQ7WNmzsNpGtH1vA", "width": 4032}], "place_id": "ChIJG0_0bdl544kR2PgFX0fHXvI", "plus_code": {"compound_code": "9V6C+57 Boston, Massachusetts, United States", "global_code": "87JC9V6C+57"}, "reference": "ChIJG0_0bdl544kR2PgFX0fHXvI", "scope": "GOOGLE", "types": ["church", "place_of_worship", "point_of_interest", "establishment"], "vicinity": "276 North Harvard Street, Allston"}, "ChIJrwRbDtl544kR-tVwlutvLiw": {"geometry": {"location": {"lat": 42.3612776, "lng": -71.12937099999999}, "viewport": {"northeast": {"lat": 42.3625651802915, "lng": -71.12799541970848}, "southwest": {"lat": 42.3598672197085, "lng": -71.1306933802915}}}, "icon": "https://maps.gstatic.com/mapfiles/place_api/icons/generic_business-71.png", "id": "1b36f911ead26f3811203ae686d70dc273e76730", "name": "New Media Design and Hosting", "place_id": "ChIJrwRbDtl544kR-tVwlutvLiw", "plus_code": {"compound_code": "9V6C+G7 Boston, Massachusetts, United States", "global_code": "87JC9V6C+G7"}, "reference": "ChIJrwRbDtl544kR-tVwlutvLiw", "scope": "GOOGLE", "types": ["point_of_interest", "establishment"], "vicinity": "1 Rena Street, Allston"}, "ChIJja-6Ytl544kRvi3v9Fm6J28": {"geometry": {"location": {"lat": 42.359711, "lng": -71.129206}, "viewport": {"northeast": {"lat": 42.36111158029149, "lng": -71.12792641970849}, "southwest": {"lat": 42.35841361970849, "lng": -71.1306243802915}}}, "icon": "https://maps.gstatic.com/mapfiles/place_api/icons/generic_business-71.png", "id": "99f42de213fc531d55b12714b063d82b6d1e4ff7", "name": "Joseph Lee Photography", "opening_hours": {"open_now": true}, "photos": [{"height": 1363, "html_attributions": ["<a href=\"https://maps.google.com/maps/contrib/115581932417298222569/photos\">Joseph Lee Photography</a>"], "photo_reference": "CmRaAAAAAVJofdhvg560MlpaTBHy6VmHrJuCre-ms47yAEC2DXnXOIc2SVvNP0-nVqlol61yyrLOFK3knJ8RR2l0ZSocXpIVHgtPwJRnV6K0mXSgTZCBiLy0LepiBnakajV1fU2zEhCFnx3dhKdkRr0tQzmuw01fGhTPt4Rl8vWa20rzm1Q_NEV_Nlmi-A", "width": 2048}], "place_id": "ChIJja-6Ytl544kRvi3v9Fm6J28", "plus_code": {"compound_code": "9V5C+V8 Boston, Massachusetts, United States", "global_code": "87JC9V5C+V8"}, "rating": 5, "reference": "ChIJja-6Ytl544kRvi3v9Fm6J28", "scope": "GOOGLE", "types": ["point_of_interest", "establishment"], "user_ratings_total": 1, "vicinity": "20 Coolidge Road, Allston"}, "ChIJQcx3yd5544kRoG6sfbXQtNw": {"geometry": {"location": {"lat": 42.360569, "lng": -71.12659390000002}, "viewport": {"northeast": {"lat": 42.3619333302915, "lng": -71.1252604697085}, "southwest": {"lat": 42.3592353697085, "lng": -71.1279584302915}}}, "icon": "https://maps.gstatic.com/mapfiles/place_api/icons/generic_business-71.png", "id": "410ed5082061fc62f89835f981bc88a8ec62762e", "name": "Cicconi & Sons Construction Co", "place_id": "ChIJQcx3yd5544kRoG6sfbXQtNw", "plus_code": {"compound_code": "9V6F+69 Boston, Massachusetts, United States", "global_code": "87JC9V6F+69"}, "reference": "ChIJQcx3yd5544kRoG6sfbXQtNw", "scope": "GOOGLE", "types": ["general_contractor", "point_of_interest", "establishment"], "vicinity": "38 Eatonia Street, Allston"}, "ChIJY8CnF9l544kR_aRywXpdSrs": {"geometry": {"location": {"lat": 42.3611887, "lng": -71.12869429999999}, "viewport": {"northeast": {"lat": 42.3625936802915, "lng": -71.12737326970849}, "southwest": {"lat": 42.3598957197085, "lng": -71.1300712302915}}}, "icon": "https://maps.gstatic.com/mapfiles/place_api/icons/generic_business-71.png", "id": "2ef9333b76e2780fd989fa59e2817c8c73e974cf", "name": "Mc Intyre Cleaning Co", "place_id": "ChIJY8CnF9l544kR_aRywXpdSrs", "plus_code": {"compound_code": "9V6C+FG Boston, Massachusetts, United States", "global_code": "87JC9V6C+FG"}, "reference": "ChIJY8CnF9l544kR_aRywXpdSrs", "scope": "GOOGLE", "types": ["point_of_interest", "establishment"], "vicinity": "6 Rena Street, Allston"}, "ChIJow7jbtl544kRZ_fVCZxJ0iU": {"geometry": {"location": {"lat": 42.360395, "lng": -71.129009}, "viewport": {"northeast": {"lat": 42.3617595802915, "lng": -71.12763741970849}, "southwest": {"lat": 42.35906161970851, "lng": -71.1303353802915}}}, "icon": "https://maps.gstatic.com/mapfiles/place_api/icons/bus-71.png", "id": "64c2c7e397f0b80ad17070a59cd95a9b06dcf6a6", "name": "N Harvard St @ Coolidge Rd", "photos": [{"height": 3024, "html_attributions": ["<a href=\"https://maps.google.com/maps/contrib/117219169851260022012/photos\">KHOGELICOM HUSSEINCOM</a>"], "photo_reference": "CmRaAAAAmqJT-O148EZfGltS09YmtTMNddE6pGV91jiw0sDXpc0ykGHWH-PctU4BQ_aHRBqvfZHWeC1QeUZfKX-V07hJbUWtY3bD8A2yNIjw1ov73eryGQp5aDU-d5zFT8DehHS5EhCVfBv7s9-XyePDfPbEkGsJGhRVEfOesZEXJLJu9JH4OVVp3tPzqg", "width": 4032}], "place_id": "ChIJow7jbtl544kRZ_fVCZxJ0iU", "plus_code": {"compound_code": "9V6C+59 Boston, Massachusetts, United States", "global_code": "87JC9V6C+59"}, "rating": 5, "reference": "ChIJow7jbtl544kRZ_fVCZxJ0iU", "scope": "GOOGLE", "types": ["bus_station", "transit_station", "point_of_interest", "establishment"], "user_ratings_total": 2, "vicinity": "United States"}, "ChIJVbmuGNl544kRMV5-rBzjx9Y": {"geometry": {"location": {"lat": 42.3616152, "lng": -71.12853969999999}, "viewport": {"northeast": {"lat": 42.3629620802915, "lng": -71.1272144197085}, "southwest": {"lat": 42.36026411970851, "lng": -71.1299123802915}}}, "icon": "https://maps.gstatic.com/mapfiles/place_api/icons/generic_business-71.png", "id": "6c84af70f2357f1e705566acbf39e506bb065020", "name": "Supreme Auto Body", "opening_hours": {"open_now": true}, "place_id": "ChIJVbmuGNl544kRMV5-rBzjx9Y", "plus_code": {"compound_code": "9V6C+JH Boston, Massachusetts, United States", "global_code": "87JC9V6C+JH"}, "reference": "ChIJVbmuGNl544kRMV5-rBzjx9Y", "scope": "GOOGLE", "types": ["car_repair", "point_of_interest", "establishment"], "vicinity": "38 Travis Street, Allston"}, "ChIJYTQOaNl544kRu_uYYtqF7cU": {"geometry": {"location": {"lat": 42.36019, "lng": -71.128574}, "viewport": {"northeast": {"lat": 42.3615310802915, "lng": -71.12723616970848}, "southwest": {"lat": 42.3588331197085, "lng": -71.12993413029149}}}, "icon": "https://maps.gstatic.com/mapfiles/place_api/icons/bus-71.png", "id": "74c480bf4660e52930715b530b9f493807d62cf9", "name": "N Harvard St @ Oxford St", "place_id": "ChIJYTQOaNl544kRu_uYYtqF7cU", "plus_code": {"compound_code": "9V6C+3H Boston, Massachusetts, United States", "global_code": "87JC9V6C+3H"}, "reference": "ChIJYTQOaNl544kRu_uYYtqF7cU", "scope": "GOOGLE", "types": ["bus_station", "transit_station", "point_of_interest", "establishment"], "vicinity": "United States"}, "ChIJXYMdStl544kRSog25mrMInE": {"geometry": {"location": {"lat": 42.3601136, "lng": -71.12809440000001}, "viewport": {"northeast": {"lat": 42.3613775802915, "lng": -71.1268644697085}, "southwest": {"lat": 42.3586796197085, "lng": -71.1295624302915}}}, "icon": "https://maps.gstatic.com/mapfiles/place_api/icons/generic_recreational-71.png", "id": "3320eb55de473fe23df01a9e03c40f756ff5a8f2", "name": "Rena Park", "place_id": "ChIJXYMdStl544kRSog25mrMInE", "plus_code": {"compound_code": "9V6C+2Q Boston, Massachusetts, United States", "global_code": "87JC9V6C+2Q"}, "rating": 3, "reference": "ChIJXYMdStl544kRSog25mrMInE", "scope": "GOOGLE", "types": ["park", "point_of_interest", "establishment"], "user_ratings_total": 2, "vicinity": "300 North Harvard Street, Allston"}, "ChIJ93MNWtl544kRAY8BUWYu46Q": {"geometry": {"location": {"lat": 42.3599781, "lng": -71.1271893}, "viewport": {"northeast": {"lat": 42.3613856802915, "lng": -71.12591276970849}, "southwest": {"lat": 42.3586877197085, "lng": -71.1286107302915}}}, "icon": "https://maps.gstatic.com/mapfiles/place_api/icons/generic_business-71.png", "id": "0b04ae52d3dfdc7e420b08262d0a4bf11de845fd", "name": "J & P Garage Inc", "opening_hours": {"open_now": true}, "place_id": "ChIJ93MNWtl544kRAY8BUWYu46Q", "plus_code": {"compound_code": "9V5F+X4 Boston, Massachusetts, United States", "global_code": "87JC9V5F+X4"}, "rating": 5, "reference": "ChIJ93MNWtl544kRAY8BUWYu46Q", "scope": "GOOGLE", "types": ["car_repair", "point_of_interest", "establishment"], "user_ratings_total": 10, "vicinity": "9 Eatonia Street, Allston"}, "ChIJQb9p49h544kRJDjk7ukj4OY": {"geometry": {"location": {"lat": 42.3622729, "lng": -71.12896409999999}, "viewport": {"northeast": {"lat": 42.36362388029149, "lng": -71.12772051970848}, "southwest": {"lat": 42.3609259197085, "lng": -71.1304184802915}}}, "icon": "https://maps.gstatic.com/mapfiles/place_api/icons/generic_business-71.png", "id": "3ff286070301468025dc25c8da6367ff33af380b", "name": "Abbey Group", "place_id": "ChIJQb9p49h544kRJDjk7ukj4OY", "plus_code": {"compound_code": "9V6C+WC Boston, Massachusetts, United States", "global_code": "87JC9V6C+WC"}, "reference": "ChIJQb9p49h544kRJDjk7ukj4OY", "scope": "GOOGLE", "types": ["point_of_interest", "establishment"], "vicinity": "25 Travis Street, Allston"}, "ChIJ3UUa29h544kRoqO7YXob6oI": {"geometry": {"location": {"lat": 42.3623365, "lng": -71.1279933}, "viewport": {"northeast": {"lat": 42.3637154302915, "lng": -71.1266494697085}, "southwest": {"lat": 42.3610174697085, "lng": -71.1293474302915}}}, "icon": "https://maps.gstatic.com/mapfiles/place_api/icons/generic_business-71.png", "id": "a6905b22f76b75232e6cec215d79e532bf4d7711", "name": "Zipcar", "opening_hours": {"open_now": true}, "photos": [{"height": 499, "html_attributions": ["<a href=\"https://maps.google.com/maps/contrib/116900663096796270551/photos\">Zipcar</a>"], "photo_reference": "CmRaAAAApdA8jTKnx5ljyoRFMMjXBVPidJvzQYxon4SIRJaE8U-KgSL53MDaTMyTbkQ1_LAn3PEG27gUTThgz-nODWRyKsM0pdv2pkUbfqsy23Fr0K9H7mM_re5cLtzeT1w3LIWaEhDNg5zJLx0egg2XoKICKkX5GhT2tlpzuFQap1Vx6ioxhw-VmZQufQ", "width": 499}], "place_id": "ChIJ3UUa29h544kRoqO7YXob6oI", "plus_code": {"compound_code": "9V6C+WR Boston, Massachusetts, United States", "global_code": "87JC9V6C+WR"}, "reference": "ChIJ3UUa29h544kRoqO7YXob6oI", "scope": "GOOGLE", "types": ["car_rental", "point_of_interest", "establishment"], "vicinity": "28 Travis Street, Allston"}, "ChIJvRxR0Nh544kRlI-BfVtkimI": {"geometry": {"location": {"lat": 42.362248, "lng": -71.12761739999999}, "viewport": {"northeast": {"lat": 42.3636884302915, "lng": -71.12628411970849}, "southwest": {"lat": 42.36099046970851, "lng": -71.1289820802915}}}, "icon": "https://maps.gstatic.com/mapfiles/place_api/icons/school-71.png", "id": "7afe516c6d639eaedf7aafd0876f6e6dc187cff0", "name": "Harvard Transportation Services", "opening_hours": {"open_now": true}, "place_id": "ChIJvRxR0Nh544kRlI-BfVtkimI", "plus_code": {"compound_code": "9V6C+VX Boston, Massachusetts, United States", "global_code": "87JC9V6C+VX"}, "reference": "ChIJvRxR0Nh544kRlI-BfVtkimI", "scope": "GOOGLE", "types": ["point_of_interest", "establishment"], "vicinity": "156 Western Avenue, Allston"}, "ChIJIcPgus9544kRjk7LevvW_Os": {"geometry": {"location": {"lat": 42.3539038, "lng": -71.1337112}, "viewport": {"northeast": {"lat": 42.37437389999999, "lng": -71.110533}, "southwest": {"lat": 42.3460228, "lng": -71.143925}}}, "icon": "https://maps.gstatic.com/mapfiles/place_api/icons/geocode-71.png", "id": "e7453d23034c3414f98e19df650f49a83b645952", "name": "Allston", "photos": [{"height": 1536, "html_attributions": ["<a href=\"https://maps.google.com/maps/contrib/104422420120565835220/photos\">Welmyr De Baguio</a>"], "photo_reference": "CmRaAAAA8JTLCSam7cX5MYEAm5yfzaYEZ7mqXdXPOL4e5SW4r-c5U7IeOfaMXaorIwxLCuZcYCi2vvl0wXhh9X10l9x91YcT3shNdPJ21lwy37_zaU2dycWQLNsd7oVi9del022VEhCqrTVDqZRCDokruTXr2iuaGhRVYBTt_9TwYeeoX4sQcY8IWuv4AQ", "width": 1536}], "place_id": "ChIJIcPgus9544kRjk7LevvW_Os", "reference": "ChIJIcPgus9544kRjk7LevvW_Os", "scope": "GOOGLE", "types": ["neighborhood", "political"], "vicinity": "Boston"}, "ChIJsU0FNtl544kRNblly-FYYrs": {"geometry": {"location": {"lat": 42.3606104, "lng": -71.1273053}, "viewport": {"northeast": {"lat": 42.3619430302915, "lng": -71.1260945697085}, "southwest": {"lat": 42.3592450697085, "lng": -71.12879253029152}}}, "icon": "https://maps.gstatic.com/mapfiles/place_api/icons/generic_recreational-71.png", "id": "e6e8261ea26a4e57f21a7a8cc9853325ca87fdfd", "name": "Library Park", "place_id": "ChIJsU0FNtl544kRNblly-FYYrs", "reference": "ChIJsU0FNtl544kRNblly-FYYrs", "scope": "GOOGLE", "types": ["park", "premise", "point_of_interest", "establishment"], "vicinity": "Boston"}, "ChIJAVpY-9h544kRw3hRPX48TBk": {"geometry": {"location": {"lat": 42.3623695, "lng": -71.1293115}, "viewport": {"northeast": {"lat": 42.3706136, "lng": -71.1133041}, "southwest": {"lat": 42.3541243, "lng": -71.14531889999999}}}, "icon": "https://maps.gstatic.com/mapfiles/place_api/icons/generic_business-71.png", "id": "df8051799a4f04cdfc05f9231774fa93a11e0b6b", "name": "25TR", "place_id": "ChIJAVpY-9h544kRw3hRPX48TBk", "reference": "ChIJAVpY-9h544kRw3hRPX48TBk", "scope": "GOOGLE", "types": ["premise", "parking", "point_of_interest", "establishment"], "vicinity": "Boston"}, "ChIJM2mE_tF544kRp8NaOxcZbwQ": {"geometry": {"location": {"lat": 42.360916, "lng": -71.1298108}, "viewport": {"northeast": {"lat": 42.3623114302915, "lng": -71.12839241970849}, "southwest": {"lat": 42.3596134697085, "lng": -71.13109038029151}}}, "icon": "https://maps.gstatic.com/mapfiles/place_api/icons/restaurant-71.png", "id": "3261fb48f2eaa52575b4252d5b46a5b7ac3efade", "name": "Sandwich Schlepper", "place_id": "ChIJM2mE_tF544kRp8NaOxcZbwQ", "plus_code": {"compound_code": "9V6C+93 Boston, Massachusetts, United States", "global_code": "87JC9V6C+93"}, "reference": "ChIJM2mE_tF544kRp8NaOxcZbwQ", "scope": "GOOGLE", "types": ["restaurant", "point_of_interest", "food", "establishment"], "vicinity": "253 North Harvard Street #261, Boston"}}