{"ChIJGzE9DS1l44kRoOhiASS_fHg": {"geometry": {"location": {"lat": 42.3600825, "lng": -71.0588801}, "viewport": {"northeast": {"lat": 42.40081989999999, "lng": -70.749455}, "southwest": {"lat": 42.22788, "lng": -71.191113}}}, "icon": "https://maps.gstatic.com/mapfiles/place_api/icons/geocode-71.png", "id": "06755c25d2b34d13942a4713971756a55b870ced", "name": "Boston", "photos": [{"height": 3024, "html_attributions": ["<a href=\"https://maps.google.com/maps/contrib/104670289779338733432/photos\">Natalia Zalucean</a>"], "photo_reference": "CmRaAAAABFiPsnyeSBdxvZ743QCazhhA0Fev26SRiLvCaF47ooG1brk-3yH0EMXwm3qEONqraC7FQa8tUxIyw3omFGvgTMEfWONNTqb0W_Gq_H9jgarXHKgP5LTwfDhhkopnuXK1EhDW8tXND6XIw3LyaPcV5GdlGhQ4vpAIITIax6EhwA07vO4VGXsEFg", "width": 4032}], "place_id": "ChIJGzE9DS1l44kRoOhiASS_fHg", "reference": "ChIJGzE9DS1l44kRoOhiASS_fHg", "scope": "GOOGLE", "types": ["locality", "political"], "vicinity": "Boston"}, "ChIJq8wDGCt_44kRevMjSkXV5NQ": {"geometry": {"location": {"lat": 42.29045490000001, "lng": -71.1485786}, "viewport": {"northeast": {"lat": 42.29179068029149, "lng": -71.14721951970849}, "southwest": {"lat": 42.2890927197085, "lng": -71.14991748029149}}}, "icon": "https://maps.gstatic.com/mapfiles/place_api/icons/generic_business-71.png", "id": "e4e5ef2de4a96d48968ddde99b63bf6e1474c743", "name": "Sharper Web Solutions", "photos": [{"height": 312, "html_attributions": ["<a href=\"https://maps.google.com/maps/contrib/118092730257216088484/photos\">Sharper Web Solutions</a>"], "photo_reference": "CmRaAAAA16efa5KPU_Lm803o_XHmnKSus5Zg9vcaBG5D1-vQgVgX-vVe3l0uBL9we7RmXojFyG-eMFA5MiyGKgZnkM_sCCYpzGs1X7T3yfqECbs0Bwx0HwAEwwwTIFFOxZ3-F0eYEhCAI8cRtFHtscwIDj-VXGSyGhQBY0urHD1yQ1Hs0SRbqvvlAsLqGQ", "width": 423}], "place_id": "ChIJq8wDGCt_44kRevMjSkXV5NQ", "plus_code": {"compound_code": "7VR2+5H Boston, Massachusetts, United States", "global_code": "87JC7VR2+5H"}, "reference": "ChIJq8wDGCt_44kRevMjSkXV5NQ", "scope": "GOOGLE", "types": ["point_of_interest", "establishment"], "vicinity": "11 Halford Road, Boston"}, "ChIJaTVqotx444kR_F7R_Axe3MU": {"geometry": {"location": {"lat": 42.291289, "lng": -71.14697199999999}, "viewport": {"northeast": {"lat": 42.29263943029149, "lng": -71.14564806970849}, "southwest": {"lat": 42.2899414697085, "lng": -71.1483460302915}}}, "icon": "https://maps.gstatic.com/mapfiles/place_api/icons/generic_business-71.png", "id": "14ce411bcf67b6287ca4d8856fddfc9d726a460f", "name": "Adb Marketing Communications", "place_id": "ChIJaTVqotx444kR_F7R_Axe3MU", "plus_code": {"compound_code": "7VR3+G6 Boston, Massachusetts, United States", "global_code": "87JC7VR3+G6"}, "reference": "ChIJaTVqotx444kR_F7R_Axe3MU", "scope": "GOOGLE", "types": ["point_of_interest", "establishment"], "vicinity": "1125 West Roxbury Parkway, Chestnut Hill"}, "ChIJ3UWPLyt_44kRNdRtR-VdkSs": {"geometry": {"location": {"lat": 42.291039, "lng": -71.14842999999999}, "viewport": {"northeast": {"lat": 42.2924355802915, "lng": -71.14696061970848}, "southwest": {"lat": 42.2897376197085, "lng": -71.14965858029149}}}, "icon": "https://maps.gstatic.com/mapfiles/place_api/icons/generic_business-71.png", "id": "84f699ca2cb9a51ecbe7d3091efcbcb744a7db67", "name": "Mc Conn Communications", "place_id": "ChIJ3UWPLyt_44kRNdRtR-VdkSs", "plus_code": {"compound_code": "7VR2+CJ Boston, Massachusetts, United States", "global_code": "87JC7VR2+CJ"}, "reference": "ChIJ3UWPLyt_44kRNdRtR-VdkSs", "scope": "GOOGLE", "types": ["point_of_interest", "establishment"], "vicinity": "100 Church Street, West Roxbury"}, "ChIJG3Lj39l444kRVWcKK90eqJs": {"geometry": {"location": {"lat": 42.291289, "lng": -71.14697199999999}, "viewport": {"northeast": {"lat": 42.29263943029149, "lng": -71.14564806970849}, "southwest": {"lat": 42.2899414697085, "lng": -71.1483460302915}}}, "icon": "https://maps.gstatic.com/mapfiles/place_api/icons/generic_business-71.png", "id": "f93e78e385d730b0c436b55e13c7793054ab0988", "name": "Frank J. Hurley, LMHC", "place_id": "ChIJG3Lj39l444kRVWcKK90eqJs", "plus_code": {"compound_code": "7VR3+G6 Boston, Massachusetts, United States", "global_code": "87JC7VR3+G6"}, "reference": "ChIJG3Lj39l444kRVWcKK90eqJs", "scope": "GOOGLE", "types": ["health", "point_of_interest", "establishment"], "vicinity": "West Roxbury"}, "ChIJQY8VzSp_44kRf8QHKUptyGU": {"geometry": {"location": {"lat": 42.291289, "lng": -71.14697199999999}, "viewport": {"northeast": {"lat": 42.29263943029149, "lng": -71.14564806970849}, "southwest": {"lat": 42.2899414697085, "lng": -71.1483460302915}}}, "icon": "https://maps.gstatic.com/mapfiles/place_api/icons/generic_business-71.png", "id": "ed5ef57deb4ab34589c3abf320605aaae25a639d", "name": "Anne D. Hurley, PhD", "place_id": "ChIJQY8VzSp_44kRf8QHKUptyGU", "reference": "ChIJQY8VzSp_44kRf8QHKUptyGU", "scope": "GOOGLE", "types": ["doctor", "health", "point_of_interest", "establishment"], "vicinity": "West Roxbury Parkway, Chestnut Hill"}, "ChIJG4rSMCt_44kRFZ7oB2PaMik": {"geometry": {"location": {"lat": 42.291217, "lng": -71.14892499999999}, "viewport": {"northeast": {"lat": 42.29248443029149, "lng": -71.14751246970849}, "southwest": {"lat": 42.2897864697085, "lng": -71.1502104302915}}}, "icon": "https://maps.gstatic.com/mapfiles/place_api/icons/generic_business-71.png", "id": "fa7c102687159d3e0400661f1c97e7c2419dc1f7", "name": "Mass Anesthesia Corporation", "place_id": "ChIJG4rSMCt_44kRFZ7oB2PaMik", "plus_code": {"compound_code": "7VR2+FC Boston, Massachusetts, United States", "global_code": "87JC7VR2+FC"}, "reference": "ChIJG4rSMCt_44kRFZ7oB2PaMik", "scope": "GOOGLE", "types": ["doctor", "health", "point_of_interest", "establishment"], "vicinity": "17 Pierpont Road, West Roxbury"}, "ChIJzxYuijx_44kRRILba9QQn0k": {"geometry": {"location": {"lat": 42.27975539999999, "lng": -71.1626756}, "viewport": {"northeast": {"lat": 42.303697, "lng": -71.12789599999999}, "southwest": {"lat": 42.25289799999999, "lng": -71.191198}}}, "icon": "https://maps.gstatic.com/mapfiles/place_api/icons/geocode-71.png", "id": "20de47f271a3ccaf647bdac7b9ee10bd6e83a6c4", "name": "West Roxbury", "photos": [{"height": 603, "html_attributions": ["<a href=\"https://maps.google.com/maps/contrib/117808102006877461743/photos\">Andri Kyrychok</a>"], "photo_reference": "CmRaAAAA4Gu_tY8yFBwMx01gcDr683cz-Woe49Ksyz52x2HOj02d86YHVIOg_74PK2KDNvA2x3NMs67FAb0d37PfZ0CQERXBAGxRWH1So6GqxDUWQayYEOyoQtLfFT2nZcOqWRwREhClc7_un4b9rwcU3F1bc2VGGhRfymccvj30gJzgn41KBdlUzeK0nQ", "width": 546}], "place_id": "ChIJzxYuijx_44kRRILba9QQn0k", "reference": "ChIJzxYuijx_44kRRILba9QQn0k", "scope": "GOOGLE", "types": ["neighborhood", "political"], "vicinity": "Boston"}}