{"ChIJGzE9DS1l44kRoOhiASS_fHg": {"geometry": {"location": {"lat": 42.3600825, "lng": -71.0588801}, "viewport": {"northeast": {"lat": 42.40081989999999, "lng": -70.749455}, "southwest": {"lat": 42.22788, "lng": -71.191113}}}, "icon": "https://maps.gstatic.com/mapfiles/place_api/icons/geocode-71.png", "id": "06755c25d2b34d13942a4713971756a55b870ced", "name": "Boston", "photos": [{"height": 3024, "html_attributions": ["<a href=\"https://maps.google.com/maps/contrib/104670289779338733432/photos\">Natalia Zalucean</a>"], "photo_reference": "CmRaAAAAaPjFI6BmsyVFYrjVbH4mcBBSyVgH9D9-bajo15yv0zrTXYnLH1w86JJkCb_D62oBk1MGtym_eeWjhLGbkjHky99N4C9KCauUC8muZCKnZAV3ncWj3PkpyOTRJEkKvfuUEhAs_2GSaP82INzdAXeIu13OGhR4eEJnE_W6PS8h25tjL9pXhzXPPQ", "width": 4032}], "place_id": "ChIJGzE9DS1l44kRoOhiASS_fHg", "reference": "ChIJGzE9DS1l44kRoOhiASS_fHg", "scope": "GOOGLE", "types": ["locality", "political"], "vicinity": "Boston"}, "ChIJw8w10yd544kRCxIy_4-ypAs": {"geometry": {"location": {"lat": 42.30040579999999, "lng": -71.1418946}, "viewport": {"northeast": {"lat": 42.3017641302915, "lng": -71.14051661970849}, "southwest": {"lat": 42.2990661697085, "lng": -71.1432145802915}}}, "icon": "https://maps.gstatic.com/mapfiles/place_api/icons/generic_business-71.png", "id": "cd5244705576b8fc938c2ce54fef81cbcf7023fe", "name": "Rauschenbach Patent Law Group", "place_id": "ChIJw8w10yd544kRCxIy_4-ypAs", "plus_code": {"compound_code": "8V25+56 Boston, Massachusetts, United States", "global_code": "87JC8V25+56"}, "reference": "ChIJw8w10yd544kRCxIy_4-ypAs", "scope": "GOOGLE", "types": ["lawyer", "point_of_interest", "establishment"], "vicinity": "43 Hackensack Road, Chestnut Hill"}, "ChIJ6V60NSZ544kR7YtnA4EGBws": {"geometry": {"location": {"lat": 42.29896900000001, "lng": -71.141831}, "viewport": {"northeast": {"lat": 42.3003976802915, "lng": -71.14040631970849}, "southwest": {"lat": 42.2976997197085, "lng": -71.14310428029151}}}, "icon": "https://maps.gstatic.com/mapfiles/place_api/icons/generic_business-71.png", "id": "655729050cf8c4ac1acb7f8fb67f71bfebc11248", "name": "Kenneth A Davis Consulting", "place_id": "ChIJ6V60NSZ544kR7YtnA4EGBws", "plus_code": {"compound_code": "7VX5+H7 Boston, Massachusetts, United States", "global_code": "87JC7VX5+H7"}, "reference": "ChIJ6V60NSZ544kR7YtnA4EGBws", "scope": "GOOGLE", "types": ["point_of_interest", "establishment"], "vicinity": "11 Hackensack Circle, Chestnut Hill"}, "ChIJzxYuijx_44kRRILba9QQn0k": {"geometry": {"location": {"lat": 42.27975539999999, "lng": -71.1626756}, "viewport": {"northeast": {"lat": 42.303697, "lng": -71.12789599999999}, "southwest": {"lat": 42.25289799999999, "lng": -71.191198}}}, "icon": "https://maps.gstatic.com/mapfiles/place_api/icons/geocode-71.png", "id": "20de47f271a3ccaf647bdac7b9ee10bd6e83a6c4", "name": "West Roxbury", "photos": [{"height": 603, "html_attributions": ["<a href=\"https://maps.google.com/maps/contrib/117808102006877461743/photos\">Andri Kyrychok</a>"], "photo_reference": "CmRaAAAASy1A5eJ2EKezSOSlzATLIioaDTiq6RGInhqfgV5XvtO3P7km2RwamIB8uNINHituT_YqcdFFK5pX2rQqyCGsfOAMhQyfKLZoyeclQgzYR1e-IrC5WIr9OI0OOoAjgKBEEhD9r_74zfb1FFqW0seFHFgRGhRw_mbQnssoHrqZihSKtNEvh6ziDA", "width": 546}], "place_id": "ChIJzxYuijx_44kRRILba9QQn0k", "reference": "ChIJzxYuijx_44kRRILba9QQn0k", "scope": "GOOGLE", "types": ["neighborhood", "political"], "vicinity": "Boston"}}