{"ChIJGzE9DS1l44kRoOhiASS_fHg": {"geometry": {"location": {"lat": 42.3600825, "lng": -71.0588801}, "viewport": {"northeast": {"lat": 42.40081989999999, "lng": -70.749455}, "southwest": {"lat": 42.22788, "lng": -71.191113}}}, "icon": "https://maps.gstatic.com/mapfiles/place_api/icons/geocode-71.png", "id": "06755c25d2b34d13942a4713971756a55b870ced", "name": "Boston", "photos": [{"height": 3024, "html_attributions": ["<a href=\"https://maps.google.com/maps/contrib/104670289779338733432/photos\">Natalia Zalucean</a>"], "photo_reference": "CmRaAAAAN0GJOXC-FoGmqlqID5cs-ZtBNTwMtBN92JxmHVGs8Rh51wIvn0lOStLZyKrqAUDKTZsAaWlbq1R4W_JZ-0fGhUqkqf6s-OGBeXkd8hoDP-tpJqmQSvDd2sgQzj8N2VoREhDzqBYPRJ97D8Bkup50AxdgGhSzV_5oGuothLVu8tpprllWVLM9ew", "width": 4032}], "place_id": "ChIJGzE9DS1l44kRoOhiASS_fHg", "reference": "ChIJGzE9DS1l44kRoOhiASS_fHg", "scope": "GOOGLE", "types": ["locality", "political"], "vicinity": "Boston"}, "ChIJo5AbWsx-44kR5cPC_R7M-MA": {"geometry": {"location": {"lat": 42.28217599999999, "lng": -71.13295049999999}, "viewport": {"northeast": {"lat": 42.28348343029149, "lng": -71.13153056970849}, "southwest": {"lat": 42.28078546970849, "lng": -71.1342285302915}}}, "icon": "https://maps.gstatic.com/mapfiles/place_api/icons/shopping-71.png", "id": "be59df9e06dd27583c865bf47d0b43c2a5820fc5", "name": "Tony's Market", "opening_hours": {"open_now": true}, "photos": [{"height": 3348, "html_attributions": ["<a href=\"https://maps.google.com/maps/contrib/117088773030001410469/photos\">bob jenkins</a>"], "photo_reference": "CmRaAAAAQBK-8qrPfijaP1WiDpgM_FGvyw0jXbIDX92N1AcsJBVVNUI29cOi2zYhijqbQFWcDyHhngj1x7CDUvR_ALSIoBLV3LMDKOFUP69aJ6tqAbd8_qJsqtNPLcTEzLse0Uf9EhA2YaB6u6VHTt9PLNkWwUI8GhQ8kAjVHRFhsxUoH6er3L2hH5ozEA", "width": 5952}], "place_id": "ChIJo5AbWsx-44kR5cPC_R7M-MA", "plus_code": {"compound_code": "7VJ8+VR Boston, Massachusetts, United States", "global_code": "87JC7VJ8+VR"}, "rating": 4.5, "reference": "ChIJo5AbWsx-44kR5cPC_R7M-MA", "scope": "GOOGLE", "types": ["supermarket", "grocery_or_supermarket", "store", "point_of_interest", "food", "establishment"], "user_ratings_total": 40, "vicinity": "4381 Washington Street, Roslindale"}, "ChIJ_yW9P85-44kRsJKf4uqQOkY": {"geometry": {"location": {"lat": 42.282691, "lng": -71.131586}, "viewport": {"northeast": {"lat": 42.2841450802915, "lng": -71.13041391970849}, "southwest": {"lat": 42.2814471197085, "lng": -71.1331118802915}}}, "icon": "https://maps.gstatic.com/mapfiles/place_api/icons/generic_business-71.png", "id": "b35b076c4e3bfedecf3e62d5cfcbb1bc504a1ca8", "name": "Small Yvonne DDS", "photos": [{"height": 450, "html_attributions": ["<a href=\"https://maps.google.com/maps/contrib/117986095105477980437/photos\">Small Yvonne DDS</a>"], "photo_reference": "CmRaAAAAHnqnFWtsmZzCqyC-cSAF0vrJbbSCfLTwqC9YjHBlw5gtKukQyzGS7pSSAhsPQDdMzd0fkpu_dKSoeRHOk8Afl-Nj2QpFqNWcSOXB0_3-WdJ_N7ohb4B1BKVkphISUaiJEhC_ox4aX43Z2Rcn95LtAl1GGhSoOfjRKoQjg4U09pbiYBHXk4zd2g", "width": 642}], "place_id": "ChIJ_yW9P85-44kRsJKf4uqQOkY", "plus_code": {"compound_code": "7VM9+39 Boston, Massachusetts, United States", "global_code": "87JC7VM9+39"}, "reference": "ChIJ_yW9P85-44kRsJKf4uqQOkY", "scope": "GOOGLE", "types": ["dentist", "health", "point_of_interest", "establishment"], "vicinity": "4354 Washington Street, Roslindale"}, "ChIJlTNbOc5-44kRmJ5n2RgMTuQ": {"geometry": {"location": {"lat": 42.282491, "lng": -71.13180899999999}, "viewport": {"northeast": {"lat": 42.2839427302915, "lng": -71.13063596970849}, "southwest": {"lat": 42.2812447697085, "lng": -71.13333393029151}}}, "icon": "https://maps.gstatic.com/mapfiles/place_api/icons/civic_building-71.png", "id": "3bafbec7246e0f98aba97f49700ae7baf1572444", "name": "Housing Opportunities Unlimited", "place_id": "ChIJlTNbOc5-44kRmJ5n2RgMTuQ", "plus_code": {"compound_code": "7VJ9+X7 Boston, Massachusetts, United States", "global_code": "87JC7VJ9+X7"}, "reference": "ChIJlTNbOc5-44kRmJ5n2RgMTuQ", "scope": "GOOGLE", "types": ["local_government_office", "point_of_interest", "establishment"], "vicinity": "4360 Washington Street, Roslindale"}, "ChIJ3S_sJc5-44kRsmPecXQUm-U": {"geometry": {"location": {"lat": 42.2824299, "lng": -71.13258929999999}, "viewport": {"northeast": {"lat": 42.2837529802915, "lng": -71.1311959697085}, "southwest": {"lat": 42.2810550197085, "lng": -71.1338939302915}}}, "icon": "https://maps.gstatic.com/mapfiles/place_api/icons/generic_business-71.png", "id": "7cdb7c443f5574544e0c5cb459b883e1d34691a9", "name": "DETAILS HOME IMPROVEMENT", "place_id": "ChIJ3S_sJc5-44kRsmPecXQUm-U", "plus_code": {"compound_code": "7VJ8+XX Boston, Massachusetts, United States", "global_code": "87JC7VJ8+XX"}, "rating": 5, "reference": "ChIJ3S_sJc5-44kRsmPecXQUm-U", "scope": "GOOGLE", "types": ["general_contractor", "point_of_interest", "establishment"], "user_ratings_total": 3, "vicinity": "4373 Washington Street, Roslindale"}, "ChIJrVmLcc5-44kR32YmW3Iu1tk": {"geometry": {"location": {"lat": 42.2833662, "lng": -71.13108849999999}, "viewport": {"northeast": {"lat": 42.28477683029149, "lng": -71.12984716970848}, "southwest": {"lat": 42.28207886970849, "lng": -71.1325451302915}}}, "icon": "https://maps.gstatic.com/mapfiles/place_api/icons/shopping-71.png", "id": "53dad27325e5f18d4adb231c84375adcced22674", "name": "Best of Boston", "opening_hours": {"open_now": true}, "place_id": "ChIJrVmLcc5-44kR32YmW3Iu1tk", "plus_code": {"compound_code": "7VM9+8H Boston, Massachusetts, United States", "global_code": "87JC7VM9+8H"}, "rating": 4.2, "reference": "ChIJrVmLcc5-44kR32YmW3Iu1tk", "scope": "GOOGLE", "types": ["car_repair", "store", "point_of_interest", "establishment"], "user_ratings_total": 22, "vicinity": "4334 Washington Street, Roslindale"}, "ChIJgQmjcs5-44kR9KymU-iU0yc": {"geometry": {"location": {"lat": 42.28341400000001, "lng": -71.131722}, "viewport": {"northeast": {"lat": 42.2847017802915, "lng": -71.13027001970849}, "southwest": {"lat": 42.28200381970851, "lng": -71.1329679802915}}}, "icon": "https://maps.gstatic.com/mapfiles/place_api/icons/restaurant-71.png", "id": "60375cd3db17765d5e6b0a4d9aeb3e0fe927fa0b", "name": "lean meals express", "place_id": "ChIJgQmjcs5-44kR9KymU-iU0yc", "plus_code": {"compound_code": "7VM9+98 Boston, Massachusetts, United States", "global_code": "87JC7VM9+98"}, "reference": "ChIJgQmjcs5-44kR9KymU-iU0yc", "scope": "GOOGLE", "types": ["restaurant", "point_of_interest", "food", "establishment"], "vicinity": "4337A Washington Street, Boston"}, "ChIJDReZ1NF-44kRobqVYDQ8M-8": {"geometry": {"location": {"lat": 42.2820376, "lng": -71.1332493}, "viewport": {"northeast": {"lat": 42.2833178802915, "lng": -71.13178301970851}, "southwest": {"lat": 42.2806199197085, "lng": -71.13448098029151}}}, "icon": "https://maps.gstatic.com/mapfiles/place_api/icons/civic_building-71.png", "id": "4b27aea890d4bf85beb815b09928a5dd70dbcf1c", "name": "Josef Porteleki, Justice of the Peace", "opening_hours": {"open_now": true}, "photos": [{"height": 2048, "html_attributions": ["<a href=\"https://maps.google.com/maps/contrib/101272459522844259815/photos\">Josef Porteleki, Justice of the Peace</a>"], "photo_reference": "CmRaAAAAxIJu2OeHSz9g6rCGmtoC5wSHh3XFY20L6U7itatIoh9-Z9CRINLYMYTy7mzCYvH6ORlv1XJjh4UuaL41VK-jaK2b0vfnpiHWVP5nJoWUBY1rhWDRljEoU6ly1upQ7F4YEhBTqcThQaX8T66PJW0UCqSbGhQ8dzCLM4ie0SDadMjKJNBzdJsAZg", "width": 1536}], "place_id": "ChIJDReZ1NF-44kRobqVYDQ8M-8", "plus_code": {"compound_code": "7VJ8+RP Boston, Massachusetts, United States", "global_code": "87JC7VJ8+RP"}, "rating": 5, "reference": "ChIJDReZ1NF-44kRobqVYDQ8M-8", "scope": "GOOGLE", "types": ["courthouse", "point_of_interest", "establishment"], "user_ratings_total": 1, "vicinity": "4391 Washington Street, Roslindale"}, "ChIJnTWU1c9-44kRHV7Q6n5_rVI": {"geometry": {"location": {"lat": 42.281623, "lng": -71.132888}, "viewport": {"northeast": {"lat": 42.28304823029149, "lng": -71.13166911970848}, "southwest": {"lat": 42.28035026970849, "lng": -71.1343670802915}}}, "icon": "https://maps.gstatic.com/mapfiles/place_api/icons/generic_business-71.png", "id": "c077b836cda9673ac73ce7d0a4affede30c0a35f", "name": "Ross & Toner PC", "place_id": "ChIJnTWU1c9-44kRHV7Q6n5_rVI", "plus_code": {"compound_code": "7VJ8+JR Boston, Massachusetts, United States", "global_code": "87JC7VJ8+JR"}, "reference": "ChIJnTWU1c9-44kRHV7Q6n5_rVI", "scope": "GOOGLE", "types": ["lawyer", "point_of_interest", "establishment"], "vicinity": "4394 Washington Street, Roslindale"}, "ChIJnTWU1c9-44kRk29L0-FVfEY": {"geometry": {"location": {"lat": 42.281623, "lng": -71.132888}, "viewport": {"northeast": {"lat": 42.28304823029149, "lng": -71.13166911970848}, "southwest": {"lat": 42.28035026970849, "lng": -71.1343670802915}}}, "icon": "https://maps.gstatic.com/mapfiles/place_api/icons/generic_business-71.png", "id": "9de81a519ad8374319e2ab9f3e50029a55cbca9e", "name": "Advanced Digital Websites Inc", "place_id": "ChIJnTWU1c9-44kRk29L0-FVfEY", "plus_code": {"compound_code": "7VJ8+JR Boston, Massachusetts, United States", "global_code": "87JC7VJ8+JR"}, "reference": "ChIJnTWU1c9-44kRk29L0-FVfEY", "scope": "GOOGLE", "types": ["point_of_interest", "establishment"], "vicinity": "4394 Washington Street, Roslindale"}, "ChIJNdiXcs5-44kRVt4jlcMNAHg": {"geometry": {"location": {"lat": 42.2834055, "lng": -71.1313895}, "viewport": {"northeast": {"lat": 42.28473578029151, "lng": -71.13000911970849}, "southwest": {"lat": 42.28203781970851, "lng": -71.1327070802915}}}, "icon": "https://maps.gstatic.com/mapfiles/place_api/icons/generic_business-71.png", "id": "9d83ba19c410174ae2c6f50b884cf65ca013924f", "name": "Washington St @ Albano St", "place_id": "ChIJNdiXcs5-44kRVt4jlcMNAHg", "plus_code": {"compound_code": "7VM9+9C Boston, Massachusetts, United States", "global_code": "87JC7VM9+9C"}, "reference": "ChIJNdiXcs5-44kRVt4jlcMNAHg", "scope": "GOOGLE", "types": ["transit_station", "point_of_interest", "establishment"], "vicinity": "United States"}, "ChIJ5XK0F85-44kRYkQBysULJ6I": {"geometry": {"location": {"lat": 42.2829714, "lng": -71.132057}, "viewport": {"northeast": {"lat": 42.2842854802915, "lng": -71.13064926970848}, "southwest": {"lat": 42.2815875197085, "lng": -71.1333472302915}}}, "icon": "https://maps.gstatic.com/mapfiles/place_api/icons/shopping-71.png", "id": "bbf2bfbfcc5003a68494cc260e3ad5d1afb8b1e6", "name": "R & R Food Market", "opening_hours": {"open_now": true}, "photos": [{"height": 4032, "html_attributions": ["<a href=\"https://maps.google.com/maps/contrib/110785918984342244547/photos\">Matt Street</a>"], "photo_reference": "CmRaAAAAJKIFT-IhFUXYyRym6DjvC9X_f13J69fHzsLUL8hqQFmUl9EtPKCwzgTdRlw1J_KIEhetzNlo1vbG63exHIX3TLhwcOC9OP5L3XGgXlK8ZKAGTU_MfKkh8L9KU2gbeXKXEhCh3zrDWaSDiBu4gOigNPCLGhTixefHW5fORZ23kcfnXY6nlQOwlA", "width": 3024}], "place_id": "ChIJ5XK0F85-44kRYkQBysULJ6I", "plus_code": {"compound_code": "7VM9+55 Boston, Massachusetts, United States", "global_code": "87JC7VM9+55"}, "rating": 4.8, "reference": "ChIJ5XK0F85-44kRYkQBysULJ6I", "scope": "GOOGLE", "types": ["store", "point_of_interest", "establishment"], "user_ratings_total": 8, "vicinity": "4355 Washington Street, Roslindale"}, "ChIJZUDjFs5-44kRrucXWIJbLBU": {"geometry": {"location": {"lat": 42.28306449999999, "lng": -71.13202249999999}, "viewport": {"northeast": {"lat": 42.28436653029149, "lng": -71.1305945197085}, "southwest": {"lat": 42.28166856970849, "lng": -71.1332924802915}}}, "icon": "https://maps.gstatic.com/mapfiles/place_api/icons/generic_business-71.png", "id": "a1f07ff3ea5a00ee4e84f0294e21677b4c4fa155", "name": "The Razor Barber Shop", "opening_hours": {"open_now": true}, "photos": [{"height": 4656, "html_attributions": ["<a href=\"https://maps.google.com/maps/contrib/107548819472645866836/photos\">Brian Lawrence</a>"], "photo_reference": "CmRaAAAAdiRWhRiox4A5gfcgrUXBlrjvHdscsNA7upzNB7nArgeRSE7aeiG_dc8p3wEAVoqH2bLuHoFleh2yvdLXml4ITStTRvTMUAVe8KJZSeD-5f8NBU9YgH4REkoQBINBPBwSEhBxQtzJsrzR7hqligt8tSlMGhRrVnwRjqdgQs6kJTH_Xixt7unvWg", "width": 2620}], "place_id": "ChIJZUDjFs5-44kRrucXWIJbLBU", "plus_code": {"compound_code": "7VM9+65 Boston, Massachusetts, United States", "global_code": "87JC7VM9+65"}, "rating": 5, "reference": "ChIJZUDjFs5-44kRrucXWIJbLBU", "scope": "GOOGLE", "types": ["hair_care", "health", "point_of_interest", "establishment"], "user_ratings_total": 4, "vicinity": "4341 Washington Street, Roslindale"}, "ChIJ2WpSRGx_44kR1UmQfW6MdVw": {"geometry": {"location": {"lat": 42.28326939999999, "lng": -71.1332692}, "viewport": {"northeast": {"lat": 42.2845989802915, "lng": -71.13194341970849}, "southwest": {"lat": 42.2819010197085, "lng": -71.1346413802915}}}, "icon": "https://maps.gstatic.com/mapfiles/place_api/icons/school-71.png", "id": "093fec55c72b75fc9f2112cee266e3a8c5593dad", "name": "Stevens' Academy of English Learning", "opening_hours": {"open_now": true}, "photos": [{"height": 897, "html_attributions": ["<a href=\"https://maps.google.com/maps/contrib/115486977506199621247/photos\">Stevens&#39; Academy of English Learning</a>"], "photo_reference": "CmRaAAAAI1jWpgrqdN5VR56NOakmoL2MWjTwe_e8vKp5yZZ8l86kQnHRLbp8PyRSCcPIscprkEvlFg1Ypr-jCyDtxBI8ULBMUOdlHzCRKNYd6js-Byj-Q3uEx1vLYh1QvvWJgJi5EhBPhSVobxQuggAQMS0fYEWaGhQd-B09lfrMRkZY4aHseSB_fILWGg", "width": 598}], "place_id": "ChIJ2WpSRGx_44kR1UmQfW6MdVw", "plus_code": {"compound_code": "7VM8+8M Boston, Massachusetts, United States", "global_code": "87JC7VM8+8M"}, "rating": 5, "reference": "ChIJ2WpSRGx_44kR1UmQfW6MdVw", "scope": "GOOGLE", "types": ["point_of_interest", "establishment"], "user_ratings_total": 4, "vicinity": "Hayes Road, Boston"}, "ChIJ_cSEEs5-44kRdPDzcH4tas4": {"geometry": {"location": {"lat": 42.283377, "lng": -71.1316867}, "viewport": {"northeast": {"lat": 42.2846784302915, "lng": -71.1302576697085}, "southwest": {"lat": 42.2819804697085, "lng": -71.1329556302915}}}, "icon": "https://maps.gstatic.com/mapfiles/place_api/icons/shopping-71.png", "id": "58b84e373cbbb29e221939ef67e49caeeb3d36d0", "name": "MVP Liquors", "opening_hours": {"open_now": true}, "photos": [{"height": 4160, "html_attributions": ["<a href=\"https://maps.google.com/maps/contrib/117904613468487334295/photos\">Rafael Lara</a>"], "photo_reference": "CmRaAAAAmgjosgE0ZaoVvH3qdQkkr2ooQR_qKo6FItafhHfnbx07Tg5-7Zt3vFnSE_ls6wGNhsq3CVpqFsnWJJPlWOsd9r6Le1NHrZ7zNXj6ctlYrdSbz-oiARnbt5iP6frXlHwWEhBwB3PQYe_kK0EjJlx1SNybGhSRXwV2xJDZxnKKd-D7KGmhLJpsiw", "width": 2340}], "place_id": "ChIJ_cSEEs5-44kRdPDzcH4tas4", "plus_code": {"compound_code": "7VM9+98 Boston, Massachusetts, United States", "global_code": "87JC7VM9+98"}, "rating": 4.5, "reference": "ChIJ_cSEEs5-44kRdPDzcH4tas4", "scope": "GOOGLE", "types": ["liquor_store", "store", "point_of_interest", "establishment"], "user_ratings_total": 16, "vicinity": "4339 Washington Street, Roslindale"}, "ChIJN95bEs5-44kR-OgBgXh4x0E": {"geometry": {"location": {"lat": 42.28332989999999, "lng": -71.1316468}, "viewport": {"northeast": {"lat": 42.28464778029149, "lng": -71.13024541970849}, "southwest": {"lat": 42.28194981970849, "lng": -71.13294338029151}}}, "icon": "https://maps.gstatic.com/mapfiles/place_api/icons/generic_business-71.png", "id": "9392a54b3439e1c727f22db63fd7f76fdebb0df2", "name": "Cesi's Hair Styles", "place_id": "ChIJN95bEs5-44kR-OgBgXh4x0E", "plus_code": {"compound_code": "7VM9+88 Boston, Massachusetts, United States", "global_code": "87JC7VM9+88"}, "rating": 4.6, "reference": "ChIJN95bEs5-44kR-OgBgXh4x0E", "scope": "GOOGLE", "types": ["hair_care", "health", "point_of_interest", "establishment"], "user_ratings_total": 5, "vicinity": "4341 Washington Street, Roslindale"}, "ChIJN95bEs5-44kRp47iHDcRHTQ": {"geometry": {"location": {"lat": 42.2832583, "lng": -71.1315896}, "viewport": {"northeast": {"lat": 42.2846134802915, "lng": -71.13025111970849}, "southwest": {"lat": 42.28191551970851, "lng": -71.1329490802915}}}, "icon": "https://maps.gstatic.com/mapfiles/place_api/icons/generic_business-71.png", "id": "6297e8d0d2ea56c21e24ab211d0ed85a20e3e5b3", "name": "Sun Travel Agency", "place_id": "ChIJN95bEs5-44kRp47iHDcRHTQ", "plus_code": {"compound_code": "7VM9+89 Boston, Massachusetts, United States", "global_code": "87JC7VM9+89"}, "rating": 1, "reference": "ChIJN95bEs5-44kRp47iHDcRHTQ", "scope": "GOOGLE", "types": ["travel_agency", "point_of_interest", "establishment"], "user_ratings_total": 1, "vicinity": "4341 Washington Street # A, Roslindale"}, "ChIJawZgDc5-44kRlTzQJPqOeQQ": {"geometry": {"location": {"lat": 42.2834125, "lng": -71.1316339}, "viewport": {"northeast": {"lat": 42.2847164802915, "lng": -71.13020921970849}, "southwest": {"lat": 42.2820185197085, "lng": -71.1329071802915}}}, "icon": "https://maps.gstatic.com/mapfiles/place_api/icons/atm-71.png", "id": "7f61da7699a778ad5c5508220db725a003dc2390", "name": "Instant Money Service", "place_id": "ChIJawZgDc5-44kRlTzQJPqOeQQ", "plus_code": {"compound_code": "7VM9+98 Boston, Massachusetts, United States", "global_code": "87JC7VM9+98"}, "reference": "ChIJawZgDc5-44kRlTzQJPqOeQQ", "scope": "GOOGLE", "types": ["atm", "finance", "point_of_interest", "establishment"], "vicinity": "4337 Washington Street, Boston"}, "ChIJawZgDc5-44kRtGgQeU9cXmQ": {"geometry": {"location": {"lat": 42.283413, "lng": -71.13163399999999}, "viewport": {"northeast": {"lat": 42.2847168802915, "lng": -71.13020911970848}, "southwest": {"lat": 42.2820189197085, "lng": -71.1329070802915}}}, "icon": "https://maps.gstatic.com/mapfiles/place_api/icons/restaurant-71.png", "id": "24d417b761ee4f7cb00f8cee9c1171f079e3eba4", "name": "Las Palmas Restaurant", "opening_hours": {"open_now": true}, "photos": [{"height": 676, "html_attributions": ["<a href=\"https://maps.google.com/maps/contrib/111871737853368040966/photos\">Las Palmas Restaurant</a>"], "photo_reference": "CmRaAAAAAoyy_KscxI1ngF0YaQf6r_CupmAIZLqLkt0prvXiT4PNRZnWylmQw6rzNOtvnkl7VIogLtsfsf4oqt3bvzGYJl_HBzhha-ZDpJ49qAxs7oiwBkuoKLVCfGQ7OfncrdV0EhCHmwuBp7K00ROEbY25gCdWGhSuMMKfqyHLe8GbPDvXGw_ff3SrMQ", "width": 865}], "place_id": "ChIJawZgDc5-44kRtGgQeU9cXmQ", "plus_code": {"compound_code": "7VM9+98 Boston, Massachusetts, United States", "global_code": "87JC7VM9+98"}, "price_level": 1, "rating": 4, "reference": "ChIJawZgDc5-44kRtGgQeU9cXmQ", "scope": "GOOGLE", "types": ["restaurant", "point_of_interest", "food", "establishment"], "user_ratings_total": 31, "vicinity": "4337 Washington Street, Roslindale"}, "ChIJZ_jeNsh-44kRDpddSEjrCd4": {"geometry": {"location": {"lat": 42.2832142, "lng": -71.1270268}, "viewport": {"northeast": {"lat": 42.301598, "lng": -71.09695909999999}, "southwest": {"lat": 42.2575859, "lng": -71.147601}}}, "icon": "https://maps.gstatic.com/mapfiles/place_api/icons/geocode-71.png", "id": "2cdf5de1734d80a609b83de9d29125ad0ec6aa4e", "name": "Roslindale", "photos": [{"height": 3120, "html_attributions": ["<a href=\"https://maps.google.com/maps/contrib/100299987382337147743/photos\">SPRING GARDEN</a>"], "photo_reference": "CmRaAAAAlroqyQZqFXoWjUmiKh3ULt-bPDqUQpvYuyZMGpIu_8_sWzcLWYzSmVnB7jIwjwKEz-_cheyFeb8NF7syrOONDdlJgqU3mPuz1aK0mAtI9qp8qTrI4Hx4VqM-ETiH8aMjEhAdzd-ZMnuquqDWXQTsus9lGhRZODTbsSHJhMfWtW6q5CuYJng13w", "width": 4160}], "place_id": "ChIJZ_jeNsh-44kRDpddSEjrCd4", "reference": "ChIJZ_jeNsh-44kRDpddSEjrCd4", "scope": "GOOGLE", "types": ["neighborhood", "political"], "vicinity": "Dorchester Center"}, "ChIJaYHDKM5-44kRL8SBTgFlvos": {"geometry": {"location": {"lat": 42.282287, "lng": -71.132671}, "viewport": {"northeast": {"lat": 42.28362918029149, "lng": -71.13131031970849}, "southwest": {"lat": 42.28093121970849, "lng": -71.1340082802915}}}, "icon": "https://maps.gstatic.com/mapfiles/place_api/icons/bus-71.png", "id": "fd8e39428c361f8f92c2063354f7059e5cca2db1", "name": "Washington St @ Durnell Ave", "place_id": "ChIJaYHDKM5-44kRL8SBTgFlvos", "plus_code": {"compound_code": "7VJ8+WW Boston, Massachusetts, United States", "global_code": "87JC7VJ8+WW"}, "reference": "ChIJaYHDKM5-44kRL8SBTgFlvos", "scope": "GOOGLE", "types": ["bus_station", "transit_station", "point_of_interest", "establishment"], "vicinity": "United States"}, "ChIJawZgDc5-44kRa908E4Z01mw": {"geometry": {"location": {"lat": 42.2834298, "lng": -71.1315359}, "viewport": {"northeast": {"lat": 42.2847480802915, "lng": -71.13013526970849}, "southwest": {"lat": 42.2820501197085, "lng": -71.13283323029151}}}, "icon": "https://maps.gstatic.com/mapfiles/place_api/icons/generic_business-71.png", "id": "a1ee8ba6c5b02695e8f0ccecb87019b990bb9d79", "name": "Lee Laundry & Dry Cleaning", "opening_hours": {"open_now": true}, "photos": [{"height": 4032, "html_attributions": ["<a href=\"https://maps.google.com/maps/contrib/117916657830235902318/photos\">Royal Galayrr</a>"], "photo_reference": "CmRaAAAAvKyP-EiAjqwfDU73Ud0XTGTQsZZPQChESxkOoLX4I5WBMOna27qRO8PixFQmuB--hE4SjszZzZu-LbgTCiwsEbZzqOxhO9Exqh11f1BMHwrxlX86pY7f4VO0vh_UmbW8EhBKM12FUpsCKHXolS1278wcGhSwuEiUei8ho2H_7dlpkS-PwmcWZg", "width": 3024}], "place_id": "ChIJawZgDc5-44kRa908E4Z01mw", "plus_code": {"compound_code": "7VM9+99 Boston, Massachusetts, United States", "global_code": "87JC7VM9+99"}, "reference": "ChIJawZgDc5-44kRa908E4Z01mw", "scope": "GOOGLE", "types": ["laundry", "point_of_interest", "establishment"], "vicinity": "4337 Washington Street, Roslindale"}, "ChIJQddGbc5-44kRwYD7V_x91HM": {"geometry": {"location": {"lat": 42.28330399999999, "lng": -71.131416}, "viewport": {"northeast": {"lat": 42.2846645802915, "lng": -71.13008641970849}, "southwest": {"lat": 42.2819666197085, "lng": -71.1327843802915}}}, "icon": "https://maps.gstatic.com/mapfiles/place_api/icons/bus-71.png", "id": "17d0bdd81535ea1c4f8b4dd2c57fa2c08eb70d5f", "name": "Washington St @ Albano St", "place_id": "ChIJQddGbc5-44kRwYD7V_x91HM", "plus_code": {"compound_code": "7VM9+8C Boston, Massachusetts, United States", "global_code": "87JC7VM9+8C"}, "reference": "ChIJQddGbc5-44kRwYD7V_x91HM", "scope": "GOOGLE", "types": ["bus_station", "transit_station", "point_of_interest", "establishment"], "vicinity": "United States"}, "ChIJfcoVbM5-44kRTF1g8oWDRK0": {"geometry": {"location": {"lat": 42.28309540000001, "lng": -71.131187}, "viewport": {"northeast": {"lat": 42.2845006302915, "lng": -71.12976956970849}, "southwest": {"lat": 42.2818026697085, "lng": -71.1324675302915}}}, "icon": "https://maps.gstatic.com/mapfiles/place_api/icons/generic_business-71.png", "id": "bd011c9b34475d1f6ee2ed7625d0cf997e110151", "name": "Mass Equity Realty", "place_id": "ChIJfcoVbM5-44kRTF1g8oWDRK0", "plus_code": {"compound_code": "7VM9+6G Boston, Massachusetts, United States", "global_code": "87JC7VM9+6G"}, "reference": "ChIJfcoVbM5-44kRTF1g8oWDRK0", "scope": "GOOGLE", "types": ["real_estate_agency", "point_of_interest", "establishment"], "vicinity": "50 Albano Street, Roslindale"}, "ChIJg5nZK85-44kRX0aBSafX_xU": {"geometry": {"location": {"lat": 42.282087, "lng": -71.132727}, "viewport": {"northeast": {"lat": 42.2834480302915, "lng": -71.13139861970849}, "southwest": {"lat": 42.2807500697085, "lng": -71.1340965802915}}}, "icon": "https://maps.gstatic.com/mapfiles/place_api/icons/bus-71.png", "id": "e09b459726d22328254dfa078c4826a90260ae86", "name": "Washington St @ Rosecliff St", "photos": [{"height": 4032, "html_attributions": ["<a href=\"https://maps.google.com/maps/contrib/110785918984342244547/photos\">Matt Street</a>"], "photo_reference": "CmRaAAAA5NS5_p7RFtynEHuLFzSH9jHYMqWkHNQT5hiMRyUjxH7-ogvekrX6zie1diOIebsoXOu_njie08cjnidcdZG0eLnZu2o6Pgng1qzlrfOYg8CIXVGVbtZB7Y4uLB42k1l0EhDmsFkuzyybqsfUn6Tgye5HGhQez59RT6qN4OWpeU81Dv0wP2eYyg", "width": 1960}], "place_id": "ChIJg5nZK85-44kRX0aBSafX_xU", "plus_code": {"compound_code": "7VJ8+RW Boston, Massachusetts, United States", "global_code": "87JC7VJ8+RW"}, "rating": 4, "reference": "ChIJg5nZK85-44kRX0aBSafX_xU", "scope": "GOOGLE", "types": ["bus_station", "transit_station", "point_of_interest", "establishment"], "user_ratings_total": 1, "vicinity": "United States"}, "ChIJS_Edc85-44kRTwkhgxKu3uY": {"geometry": {"location": {"lat": 42.283507, "lng": -71.131363}, "viewport": {"northeast": {"lat": 42.2848474802915, "lng": -71.1299991697085}, "southwest": {"lat": 42.2821495197085, "lng": -71.1326971302915}}}, "icon": "https://maps.gstatic.com/mapfiles/place_api/icons/bus-71.png", "id": "bed98e034e7a611e3470bf03d9a88fabbd1055e7", "name": "Washington St @ Albano St", "place_id": "ChIJS_Edc85-44kRTwkhgxKu3uY", "plus_code": {"compound_code": "7VM9+CF Boston, Massachusetts, United States", "global_code": "87JC7VM9+CF"}, "reference": "ChIJS_Edc85-44kRTwkhgxKu3uY", "scope": "GOOGLE", "types": ["bus_station", "transit_station", "point_of_interest", "establishment"], "vicinity": "United States"}, "ChIJE1xZGS5_44kRavo_bdLAmC4": {"geometry": {"location": {"lat": 42.2836872, "lng": -71.1334675}, "viewport": {"northeast": {"lat": 42.2850841302915, "lng": -71.13219381970849}, "southwest": {"lat": 42.2823861697085, "lng": -71.1348917802915}}}, "icon": "https://maps.gstatic.com/mapfiles/place_api/icons/shopping-71.png", "id": "7966b099d256041d74d54a5ad730b2f89e3655da", "name": "Invent Boston", "opening_hours": {"open_now": true}, "photos": [{"height": 3264, "html_attributions": ["<a href=\"https://maps.google.com/maps/contrib/116767596686780959719/photos\">Invent Boston</a>"], "photo_reference": "CmRaAAAAPNalSoYGbYuJjuheOsZl7ogVL4LKOQAyey7XRsiK_XwbdZN0xE-ZgCV4P_3o2CAzNbMSgoDGU6LRbWYpqNb5wO9U3DhAsvYPIr2xNLuZ8VRah7DcGiF__ZUt81sHXh_kEhDgwlT82oIlLp0ut1v-Bb1DGhSnc19Urst4Hbs6cJPjjLlzxucxjA", "width": 2448}], "place_id": "ChIJE1xZGS5_44kRavo_bdLAmC4", "plus_code": {"compound_code": "7VM8+FJ Boston, Massachusetts, United States", "global_code": "87JC7VM8+FJ"}, "reference": "ChIJE1xZGS5_44kRavo_bdLAmC4", "scope": "GOOGLE", "types": ["store", "point_of_interest", "establishment"], "vicinity": "128 Birch Street, Roslindale"}, "ChIJMT9wcc5-44kRuyPfMLFioec": {"geometry": {"location": {"lat": 42.2835295, "lng": -71.1311266}, "viewport": {"northeast": {"lat": 42.2849027302915, "lng": -71.1298199197085}, "southwest": {"lat": 42.2822047697085, "lng": -71.1325178802915}}}, "icon": "https://maps.gstatic.com/mapfiles/place_api/icons/atm-71.png", "id": "e9c12a2bac7b09b444469da68535b846ceae305d", "name": "ATM", "place_id": "ChIJMT9wcc5-44kRuyPfMLFioec", "plus_code": {"compound_code": "7VM9+CG Boston, Massachusetts, United States", "global_code": "87JC7VM9+CG"}, "reference": "ChIJMT9wcc5-44kRuyPfMLFioec", "scope": "GOOGLE", "types": ["atm", "finance", "point_of_interest", "establishment"], "vicinity": "4334 Washington Street, Roslindale"}, "ChIJDReZ1NF-44kRoB0mVRL68w0": {"geometry": {"location": {"lat": 42.2820376, "lng": -71.1332493}, "viewport": {"northeast": {"lat": 42.2833178802915, "lng": -71.13178301970851}, "southwest": {"lat": 42.2806199197085, "lng": -71.13448098029151}}}, "icon": "https://maps.gstatic.com/mapfiles/place_api/icons/shopping-71.png", "id": "e47e6272ea7172a04bb94429f7c03d7a10da6b2e", "name": "Porteleki Josef", "place_id": "ChIJDReZ1NF-44kRoB0mVRL68w0", "plus_code": {"compound_code": "7VJ8+RP Boston, Massachusetts, United States", "global_code": "87JC7VJ8+RP"}, "reference": "ChIJDReZ1NF-44kRoB0mVRL68w0", "scope": "GOOGLE", "types": ["hardware_store", "store", "point_of_interest", "establishment"], "vicinity": "4391 Washington Street, Roslindale"}, "ChIJX93d1M9-44kRou8Da3iDqWI": {"geometry": {"location": {"lat": 42.28174, "lng": -71.132757}, "viewport": {"northeast": {"lat": 42.2831662302915, "lng": -71.13153991970849}, "southwest": {"lat": 42.2804682697085, "lng": -71.1342378802915}}}, "icon": "https://maps.gstatic.com/mapfiles/place_api/icons/worship_general-71.png", "id": "857ff3c6cbf477effefd6ba9ff5c5fe238c6ec7e", "name": "Greek Orthodox Church GOC", "place_id": "ChIJX93d1M9-44kRou8Da3iDqWI", "plus_code": {"compound_code": "7VJ8+MV Boston, Massachusetts, United States", "global_code": "87JC7VJ8+MV"}, "rating": 5, "reference": "ChIJX93d1M9-44kRou8Da3iDqWI", "scope": "GOOGLE", "types": ["church", "place_of_worship", "point_of_interest", "establishment"], "user_ratings_total": 1, "vicinity": "4390 Washington Street, Roslindale"}, "ChIJoWt2dc5-44kR0bcOntJsON0": {"geometry": {"location": {"lat": 42.28389, "lng": -71.131304}, "viewport": {"northeast": {"lat": 42.28516388029149, "lng": -71.1298239197085}, "southwest": {"lat": 42.2824659197085, "lng": -71.1325218802915}}}, "icon": "https://maps.gstatic.com/mapfiles/place_api/icons/worship_general-71.png", "id": "e2262c5a5afee07fd73b6baa1c5537620f91c0e6", "name": "Defenders of Christian Faith", "place_id": "ChIJoWt2dc5-44kR0bcOntJsON0", "plus_code": {"compound_code": "7VM9+HF Boston, Massachusetts, United States", "global_code": "87JC7VM9+HF"}, "reference": "ChIJoWt2dc5-44kR0bcOntJsON0", "scope": "GOOGLE", "types": ["church", "place_of_worship", "point_of_interest", "establishment"], "vicinity": "4329 Washington Street, Roslindale"}, "ChIJS248LNB-44kRjdg2mJH8Pxc": {"geometry": {"location": {"lat": 42.2816874, "lng": -71.1335139}, "viewport": {"northeast": {"lat": 42.2829875302915, "lng": -71.1320815697085}, "southwest": {"lat": 42.2802895697085, "lng": -71.13477953029151}}}, "icon": "https://maps.gstatic.com/mapfiles/place_api/icons/generic_business-71.png", "id": "49cfe271841251e0cce8c0214a9ed6d77cc9183a", "name": "Pearl Nails Salon", "opening_hours": {"open_now": true}, "photos": [{"height": 1932, "html_attributions": ["<a href=\"https://maps.google.com/maps/contrib/107740550841431982782/photos\">Monicellia Pruitt</a>"], "photo_reference": "CmRaAAAAVBFgPIukZbBncDopHeJ3OOJuwCkr2b5qOBFMzc8yQOsayVLkDCBIjKXLPV-rsDKvv3Elz5_rpWUA34ILoSmyqAhsjmuiTn-CrgiirN_57xC50kxPZ8t_SyJbfgCK6rWWEhAsBHXhDmSOO0mI3KDmbJ7CGhQeYDScmu9Y_luDISTiNJH7iLgs0Q", "width": 2576}], "place_id": "ChIJS248LNB-44kRjdg2mJH8Pxc", "plus_code": {"compound_code": "7VJ8+MH Boston, Massachusetts, United States", "global_code": "87JC7VJ8+MH"}, "rating": 3.7, "reference": "ChIJS248LNB-44kRjdg2mJH8Pxc", "scope": "GOOGLE", "types": ["beauty_salon", "point_of_interest", "establishment"], "user_ratings_total": 23, "vicinity": "4399 Washington Street, Roslindale"}, "ChIJPeE_LNB-44kRl-d_DDG3aak": {"geometry": {"location": {"lat": 42.2816797, "lng": -71.1334068}, "viewport": {"northeast": {"lat": 42.2830005802915, "lng": -71.13200991970848}, "southwest": {"lat": 42.2803026197085, "lng": -71.1347078802915}}}, "icon": "https://maps.gstatic.com/mapfiles/place_api/icons/generic_business-71.png", "id": "f3d54795c8c036dc2b004f1684b8efa130ff8655", "name": "Laundry Basket", "opening_hours": {"open_now": true}, "photos": [{"height": 528, "html_attributions": ["<a href=\"https://maps.google.com/maps/contrib/100079730399810915366/photos\">Laundry Basket</a>"], "photo_reference": "CmRaAAAAXeyropcdvNtASQZfx9ydk12gINkk3353UEKid_HvhueGaYtEVC8PY5jLFteaMvb32hAo3ezAYQpXPeRdrT4CESDwLP4eOziDpEt8em7V-WksLgnHvdGhfHJAD_wDPFfPEhCrVWMMaOmvQUtdsxyb8UjSGhSbw978LYxrUBHXY4VLsV184d7GvQ", "width": 876}], "place_id": "ChIJPeE_LNB-44kRl-d_DDG3aak", "plus_code": {"compound_code": "7VJ8+MJ Boston, Massachusetts, United States", "global_code": "87JC7VJ8+MJ"}, "rating": 4.6, "reference": "ChIJPeE_LNB-44kRl-d_DDG3aak", "scope": "GOOGLE", "types": ["laundry", "point_of_interest", "establishment"], "user_ratings_total": 8, "vicinity": "4395 Washington Street, Roslindale"}, "ChIJ7Z04zM9-44kRiI3Fj8WrpZM": {"geometry": {"location": {"lat": 42.2815008, "lng": -71.13204329999999}, "viewport": {"northeast": {"lat": 42.2828862302915, "lng": -71.1307542197085}, "southwest": {"lat": 42.2801882697085, "lng": -71.13345218029151}}}, "icon": "https://maps.gstatic.com/mapfiles/place_api/icons/shopping-71.png", "id": "91421b6d18be4b869f3886431256f6739f5ae23f", "name": "Blooms & Greens Flower Shop", "place_id": "ChIJ7Z04zM9-44kRiI3Fj8WrpZM", "plus_code": {"compound_code": "7VJ9+J5 Boston, Massachusetts, United States", "global_code": "87JC7VJ9+J5"}, "reference": "ChIJ7Z04zM9-44kRiI3Fj8WrpZM", "scope": "GOOGLE", "types": ["florist", "store", "point_of_interest", "establishment"], "vicinity": "6 Otis Place, Roslindale"}, "ChIJj-Zwx4Z544kR8jssJ5_46qA": {"geometry": {"location": {"lat": 42.28165389999999, "lng": -71.1335095}, "viewport": {"northeast": {"lat": 42.28296128029149, "lng": -71.1320895697085}, "southwest": {"lat": 42.28026331970849, "lng": -71.1347875302915}}}, "icon": "https://maps.gstatic.com/mapfiles/place_api/icons/generic_business-71.png", "id": "09547dbec432d88ac5ebdc4e8043c1637e52b933", "name": "Kunevich & Lau Insurance", "opening_hours": {"open_now": true}, "place_id": "ChIJj-Zwx4Z544kR8jssJ5_46qA", "plus_code": {"compound_code": "7VJ8+MH Boston, Massachusetts, United States", "global_code": "87JC7VJ8+MH"}, "reference": "ChIJj-Zwx4Z544kR8jssJ5_46qA", "scope": "GOOGLE", "types": ["insurance_agency", "point_of_interest", "establishment"], "vicinity": "4401 Washington Street, Roslindale"}, "ChIJG5InLNB-44kRM5kLCcgy2g8": {"geometry": {"location": {"lat": 42.2816363, "lng": -71.133472}, "viewport": {"northeast": {"lat": 42.2829538302915, "lng": -71.1320693697085}, "southwest": {"lat": 42.2802558697085, "lng": -71.13476733029152}}}, "icon": "https://maps.gstatic.com/mapfiles/place_api/icons/generic_business-71.png", "id": "cf273ef8682202f2883c11ca8f5d75223a776f54", "name": "Protection Insurance Agency", "opening_hours": {"open_now": true}, "photos": [{"height": 4032, "html_attributions": ["<a href=\"https://maps.google.com/maps/contrib/110785918984342244547/photos\">Matt Street</a>"], "photo_reference": "CmRaAAAAQp_6jTYXQt0E1kK5Uq5d4QwNINTcEEK0plXtjg7UgdtnPurK3kOGdSgissjsyJ4sY0nu8T18pjUeeUuSqA4c47Sx4gri8zQxPRL3QQSFZ3eh1eIMkSqKYX-EoRxZXMuOEhBt-Ev-8i_to6N2EjRfP98XGhSFwlonsF-BDahnxnNf72dHPtuQvg", "width": 1960}], "place_id": "ChIJG5InLNB-44kRM5kLCcgy2g8", "plus_code": {"compound_code": "7VJ8+MJ Boston, Massachusetts, United States", "global_code": "87JC7VJ8+MJ"}, "reference": "ChIJG5InLNB-44kRM5kLCcgy2g8", "scope": "GOOGLE", "types": ["insurance_agency", "point_of_interest", "establishment"], "vicinity": "4401 Washington Street, Roslindale"}, "ChIJQ7XkLNB-44kR9gQ_iFAjVmc": {"geometry": {"location": {"lat": 42.281636, "lng": -71.133472}, "viewport": {"northeast": {"lat": 42.2829535802915, "lng": -71.1320694697085}, "southwest": {"lat": 42.28025561970851, "lng": -71.13476743029152}}}, "icon": "https://maps.gstatic.com/mapfiles/place_api/icons/generic_business-71.png", "id": "c98b3e217a507813c8d534f956dbaa4291610a2c", "name": "Protection Insurance Agency", "opening_hours": {"open_now": true}, "photos": [{"height": 302, "html_attributions": ["<a href=\"https://maps.google.com/maps/contrib/117469162412188616321/photos\">Protection Insurance Agency</a>"], "photo_reference": "CmRaAAAA0MX_nNSKtC9IPbyG4z0WcvwDfXIFzH45R-HkjVri7_d1moxl7t5_HS8bC-7m499uMskgTM8IJV_IFWPSDjDuLLMjBqfts6RR-TfIw4HErdIJby8sa9kCSlj53j3e97U4EhCol8fg6byJ9_1PNFTGAcYbGhSZl_V9eATiCn5pMXoY8-1UxwoA3w", "width": 500}], "place_id": "ChIJQ7XkLNB-44kR9gQ_iFAjVmc", "plus_code": {"compound_code": "7VJ8+MJ Boston, Massachusetts, United States", "global_code": "87JC7VJ8+MJ"}, "rating": 5, "reference": "ChIJQ7XkLNB-44kR9gQ_iFAjVmc", "scope": "GOOGLE", "types": ["insurance_agency", "point_of_interest", "establishment"], "user_ratings_total": 1, "vicinity": "4401 Washington Street, Roslindale"}}