{"ChIJGzE9DS1l44kRoOhiASS_fHg": {"geometry": {"location": {"lat": 42.3600825, "lng": -71.0588801}, "viewport": {"northeast": {"lat": 42.40081989999999, "lng": -70.749455}, "southwest": {"lat": 42.22788, "lng": -71.191113}}}, "icon": "https://maps.gstatic.com/mapfiles/place_api/icons/geocode-71.png", "id": "06755c25d2b34d13942a4713971756a55b870ced", "name": "Boston", "photos": [{"height": 3024, "html_attributions": ["<a href=\"https://maps.google.com/maps/contrib/104670289779338733432/photos\">Natalia Zalucean</a>"], "photo_reference": "CmRaAAAAaMtl_FJ_1S6J5KFUF1U5sbnh9gCEu6VjVAJjK1_fApmVF9DXuvQnSF5TGa2UXpJIzzz9JGLZIhvOdsf7zSoyOnCjc07FTtgz2j1eA9golekRrHHzTsPNRcLbgtsEwOdmEhDdGFsd9bIyyY79kolTQ0QDGhRWt5Lbgu9kK2Pkc8jWhm0d3gYGfQ", "width": 4032}], "place_id": "ChIJGzE9DS1l44kRoOhiASS_fHg", "reference": "ChIJGzE9DS1l44kRoOhiASS_fHg", "scope": "GOOGLE", "types": ["locality", "political"], "vicinity": "Boston"}, "ChIJoxBSCnV844kRxbheUArcw00": {"geometry": {"location": {"lat": 42.2769284, "lng": -71.07094769999999}, "viewport": {"northeast": {"lat": 42.2784171302915, "lng": -71.06880224999999}, "southwest": {"lat": 42.2757191697085, "lng": -71.07166285}}}, "icon": "https://maps.gstatic.com/mapfiles/place_api/icons/generic_recreational-71.png", "id": "c5033e2c2aa559e35a8207d2bdbea09882bc1432", "name": "William G. Walsh Playground", "opening_hours": {"open_now": true}, "photos": [{"height": 2988, "html_attributions": ["<a href=\"https://maps.google.com/maps/contrib/103719436956121298919/photos\">haynes munroe</a>"], "photo_reference": "CmRaAAAAoNGvV9HFPnfVQAe3BMMjaUP9eLeCjp9YHhHKnB0I-pUd20iEZ4VxmJB6gQfhyaGkQYcDnVRZGiif9HWFr44tjzZqqZ8UWZO7dsKvrp1QHrwufc-Pt3Ka7zxNmZAfZ7HbEhAPcgSaEk17kdY_P3XMdtuUGhQ6nUa6d12Dcm5PoX5yoqyptxzifA", "width": 5312}], "place_id": "ChIJoxBSCnV844kRxbheUArcw00", "plus_code": {"compound_code": "7WGH+QJ Boston, Massachusetts, United States", "global_code": "87JC7WGH+QJ"}, "rating": 4.3, "reference": "ChIJoxBSCnV844kRxbheUArcw00", "scope": "GOOGLE", "types": ["park", "point_of_interest", "establishment"], "user_ratings_total": 38, "vicinity": "967 Washington Street, Boston"}, "ChIJG9opiHV844kRCP3nN1gB7gk": {"geometry": {"location": {"lat": 42.27819759999999, "lng": -71.06967949999999}, "viewport": {"northeast": {"lat": 42.2795343302915, "lng": -71.0682259697085}, "southwest": {"lat": 42.27683636970851, "lng": -71.0709239302915}}}, "icon": "https://maps.gstatic.com/mapfiles/place_api/icons/generic_business-71.png", "id": "bf4eca0a70380b42b3fafc74f6f9483198422d06", "name": "Empire Energy Oil, Trucking and Construction, Inc.", "opening_hours": {"open_now": true}, "place_id": "ChIJG9opiHV844kRCP3nN1gB7gk", "plus_code": {"compound_code": "7WHJ+74 Boston, Massachusetts, United States", "global_code": "87JC7WHJ+74"}, "rating": 5, "reference": "ChIJG9opiHV844kRCP3nN1gB7gk", "scope": "GOOGLE", "types": ["plumber", "home_goods_store", "store", "point_of_interest", "establishment"], "user_ratings_total": 1, "vicinity": "935 Washington Street #7, Dorchester Center"}, "ChIJr7GRZYp744kRBg42C3Xx_Ds": {"geometry": {"location": {"lat": 42.27894909999999, "lng": -71.0699331}, "viewport": {"northeast": {"lat": 42.2803442302915, "lng": -71.06844246970849}, "southwest": {"lat": 42.2776462697085, "lng": -71.0711404302915}}}, "icon": "https://maps.gstatic.com/mapfiles/place_api/icons/generic_business-71.png", "id": "b7f9275962bedd1aa81a48716aae2ea4274b1240", "name": "Hyatt Associates", "opening_hours": {"open_now": true}, "photos": [{"height": 534, "html_attributions": ["<a href=\"https://maps.google.com/maps/contrib/116771197267171174868/photos\">Hyatt Associates</a>"], "photo_reference": "CmRaAAAAz1MrRDF1YltDUxBAzlGBlDGXY25YQ2q0OWeZvgv0oZFT7_LEMix3GndK6crhVtvp-NqvLpZTSf2EuDGQtx7hTOdqS3_s0galGNU2WyN5mha20shOcACP54aITTFSDNduEhDQL0RbGsiL2IfGFMfv_G3yGhT57i_LP00n0eDBeMsdFYRvjINVLA", "width": 528}], "place_id": "ChIJr7GRZYp744kRBg42C3Xx_Ds", "plus_code": {"compound_code": "7WHJ+H2 Boston, Massachusetts, United States", "global_code": "87JC7WHJ+H2"}, "reference": "ChIJr7GRZYp744kRBg42C3Xx_Ds", "scope": "GOOGLE", "types": ["point_of_interest", "establishment"], "vicinity": "925 Washington Street #4, Boston"}, "ChIJi-K2mM9744kRmXAvVXJb0Qk": {"geometry": {"location": {"lat": 42.27894909999999, "lng": -71.0699331}, "viewport": {"northeast": {"lat": 42.2803442302915, "lng": -71.06844246970849}, "southwest": {"lat": 42.2776462697085, "lng": -71.0711404302915}}}, "icon": "https://maps.gstatic.com/mapfiles/place_api/icons/generic_business-71.png", "id": "f7185603ab0da8abd285bc2f28f095a907e44265", "name": "Kings & Kueens Unisex Hair Salon", "opening_hours": {"open_now": false}, "photos": [{"height": 946, "html_attributions": ["<a href=\"https://maps.google.com/maps/contrib/100213517405571982597/photos\">Kings &amp; Kueens Unisex Hair Salon</a>"], "photo_reference": "CmRaAAAASreutDZL7vg6k38q75SZ4Cd2-IAckeZkcHqOPi83jBslxMw9OAozICc6rrRJZGmxbl-rOEuIYiDt3PQPk5Epr8QkSr4yV_inmHJ-3XTrCz4yLGIYcg4ZI63cWtrsxoncEhCqYvXIociRZJ-iKwa66mK3GhSENHxIZxUGxrmJLJCKGBlw_3wY7w", "width": 946}], "place_id": "ChIJi-K2mM9744kRmXAvVXJb0Qk", "plus_code": {"compound_code": "7WHJ+H2 Boston, Massachusetts, United States", "global_code": "87JC7WHJ+H2"}, "rating": 5, "reference": "ChIJi-K2mM9744kRmXAvVXJb0Qk", "scope": "GOOGLE", "types": ["hair_care", "point_of_interest", "establishment"], "user_ratings_total": 3, "vicinity": "925 Washington Street #10, Dorchester"}, "ChIJo9qk4XB644kRzcSbr4kl6i0": {"geometry": {"location": {"lat": 42.27894909999999, "lng": -71.0699331}, "viewport": {"northeast": {"lat": 42.2803442302915, "lng": -71.06844246970849}, "southwest": {"lat": 42.2776462697085, "lng": -71.0711404302915}}}, "icon": "https://maps.gstatic.com/mapfiles/place_api/icons/generic_business-71.png", "id": "5266da66c9dbc497aaddc718493d18c30b28c727", "name": "Sunrise Insurance", "opening_hours": {"open_now": true}, "place_id": "ChIJo9qk4XB644kRzcSbr4kl6i0", "plus_code": {"compound_code": "7WHJ+H2 Boston, Massachusetts, United States", "global_code": "87JC7WHJ+H2"}, "rating": 4.4, "reference": "ChIJo9qk4XB644kRzcSbr4kl6i0", "scope": "GOOGLE", "types": ["insurance_agency", "point_of_interest", "establishment"], "user_ratings_total": 7, "vicinity": "925 Washington Street # 2, Dorchester Center"}, "ChIJoePvxud744kRQgKP4JA469w": {"geometry": {"location": {"lat": 42.2789463, "lng": -71.06992819999999}, "viewport": {"northeast": {"lat": 42.2803409802915, "lng": -71.0684389197085}, "southwest": {"lat": 42.2776430197085, "lng": -71.0711368802915}}}, "icon": "https://maps.gstatic.com/mapfiles/place_api/icons/generic_business-71.png", "id": "c454c427180e719b5387eb43438a3a2e4111c1b6", "name": "Chester-Chester Income Tax Services", "opening_hours": {"open_now": true}, "place_id": "ChIJoePvxud744kRQgKP4JA469w", "plus_code": {"compound_code": "7WHJ+H2 Boston, Massachusetts, United States", "global_code": "87JC7WHJ+H2"}, "rating": 5, "reference": "ChIJoePvxud744kRQgKP4JA469w", "scope": "GOOGLE", "types": ["accounting", "finance", "point_of_interest", "establishment"], "user_ratings_total": 2, "vicinity": "925 Washington Street, Boston"}, "ChIJT-zhbop744kRl_QE8pNtamM": {"geometry": {"location": {"lat": 42.278946, "lng": -71.06992799999999}, "viewport": {"northeast": {"lat": 42.2803406802915, "lng": -71.06843871970848}, "southwest": {"lat": 42.2776427197085, "lng": -71.07113668029149}}}, "icon": "https://maps.gstatic.com/mapfiles/place_api/icons/generic_business-71.png", "id": "b395f96e5f0d70cc4ca10c93a551d9f01ce408cc", "name": "Chester and Chester Income Tax Service", "opening_hours": {"open_now": true}, "photos": [{"height": 596, "html_attributions": ["<a href=\"https://maps.google.com/maps/contrib/116791963134338287843/photos\">Chester and Chester Income Tax Service</a>"], "photo_reference": "CmRaAAAANLV2P2ihIkeea0L3C49Wz4tUZe85JXAblBwtQyPNSF8QXmywwj05gN_7DhwfYkEjgAPFOB6lsHsoF5QVAmUSIxZbCg1PdHXT6izyinwL5bRnuztu4HhwM1oNzSOPuMY4EhA15AiUnZCx57xwCnPDqydyGhQGhIQ_oCR5_-9hkFsrQdxrhSyvuw", "width": 960}], "place_id": "ChIJT-zhbop744kRl_QE8pNtamM", "plus_code": {"compound_code": "7WHJ+H2 Boston, Massachusetts, United States", "global_code": "87JC7WHJ+H2"}, "rating": 5, "reference": "ChIJT-zhbop744kRl_QE8pNtamM", "scope": "GOOGLE", "types": ["accounting", "finance", "point_of_interest", "establishment"], "user_ratings_total": 6, "vicinity": "925 Washington Street Suite 8, Dorchester"}, "ChIJD2ENZYp744kRQrTmbvmTvJ8": {"geometry": {"location": {"lat": 42.27894909999999, "lng": -71.0699331}, "viewport": {"northeast": {"lat": 42.2803442302915, "lng": -71.06844246970849}, "southwest": {"lat": 42.2776462697085, "lng": -71.0711404302915}}}, "icon": "https://maps.gstatic.com/mapfiles/place_api/icons/generic_business-71.png", "id": "6e65d0abce20ce5e258959f655c9b313cfc01571", "name": "Dorchester Constable Services-Eviction", "opening_hours": {"open_now": true}, "photos": [{"height": 2100, "html_attributions": ["<a href=\"https://maps.google.com/maps/contrib/109266540317855426230/photos\">Dorchester Constable Services-Eviction</a>"], "photo_reference": "CmRaAAAAHvfGpNF2CgPJZjdmcTb30Er1eJaf6u5AdmF57AlAOi4Yoc36q-nn08VHwh9yh4dK3QZcV-ZcdGwm85bb_ookBF-iUTA-ce54E_QzC4DDLRVRl9Pj3f6FnWW4n27EbQMXEhBdi6Bgmod_wDkQZX_GqkogGhT98UFNI1PbBe6OAdjrFR-OLQ2JPA", "width": 1575}], "place_id": "ChIJD2ENZYp744kRQrTmbvmTvJ8", "plus_code": {"compound_code": "7WHJ+H2 Boston, Massachusetts, United States", "global_code": "87JC7WHJ+H2"}, "rating": 5, "reference": "ChIJD2ENZYp744kRQrTmbvmTvJ8", "scope": "GOOGLE", "types": ["point_of_interest", "establishment"], "user_ratings_total": 7, "vicinity": "925 Washington Street, Dorchester"}, "ChIJD2ENZYp744kRhIhQAgDrHzw": {"geometry": {"location": {"lat": 42.27894909999999, "lng": -71.0699331}, "viewport": {"northeast": {"lat": 42.2803442302915, "lng": -71.06844246970849}, "southwest": {"lat": 42.2776462697085, "lng": -71.0711404302915}}}, "icon": "https://maps.gstatic.com/mapfiles/place_api/icons/generic_business-71.png", "id": "8879bae9b16840bdf057dbac79ead05288241384", "name": "Income Tax Preparation Boston", "opening_hours": {"open_now": true}, "photos": [{"height": 725, "html_attributions": ["<a href=\"https://maps.google.com/maps/contrib/100864936363835480268/photos\">Income Tax Preparation Boston</a>"], "photo_reference": "CmRaAAAA8shMwTDnVJXv7q_qlpqkGiWKV-6UuxVn8MJQASYsoMleO-C-B9BC6xsLqQT5pfDsv5aZgV6JhfpK3UYEhXcKpg3loZuhnahgOAVk5XorcSJwzM9-2cpxD8RHFmxsHps6EhDvrGQB1yFSd3uO_UlAKtnJGhTzelxSdtneyEtMgGeto_rIaJ7puA", "width": 731}], "place_id": "ChIJD2ENZYp744kRhIhQAgDrHzw", "plus_code": {"compound_code": "7WHJ+H2 Boston, Massachusetts, United States", "global_code": "87JC7WHJ+H2"}, "rating": 5, "reference": "ChIJD2ENZYp744kRhIhQAgDrHzw", "scope": "GOOGLE", "types": ["accounting", "finance", "point_of_interest", "establishment"], "user_ratings_total": 4, "vicinity": "925 Washington Street, Dorchester"}, "ChIJD2ENZYp744kRE9i6-nmVTx0": {"geometry": {"location": {"lat": 42.27894909999999, "lng": -71.0699331}, "viewport": {"northeast": {"lat": 42.2803442302915, "lng": -71.06844246970849}, "southwest": {"lat": 42.2776462697085, "lng": -71.0711404302915}}}, "icon": "https://maps.gstatic.com/mapfiles/place_api/icons/generic_business-71.png", "id": "c0f4fe44151db86f1db55854f118cf8a113f327d", "name": "Rep Payee Service and Bill Pay Service Start Fresh Solutions", "place_id": "ChIJD2ENZYp744kRE9i6-nmVTx0", "plus_code": {"compound_code": "7WHJ+H2 Boston, Massachusetts, United States", "global_code": "87JC7WHJ+H2"}, "reference": "ChIJD2ENZYp744kRE9i6-nmVTx0", "scope": "GOOGLE", "types": ["finance", "point_of_interest", "establishment"], "vicinity": "925 Washington Street, Boston"}, "ChIJD2ENZYp744kRbPD9dcDcoQ4": {"geometry": {"location": {"lat": 42.27894909999999, "lng": -71.0699331}, "viewport": {"northeast": {"lat": 42.2803442302915, "lng": -71.06844246970849}, "southwest": {"lat": 42.2776462697085, "lng": -71.0711404302915}}}, "icon": "https://maps.gstatic.com/mapfiles/place_api/icons/shopping-71.png", "id": "4dd31306f0fd13e7e114c92f63f9938e7838f5a7", "name": "Let's Do It Again Maternity", "opening_hours": {"open_now": true}, "photos": [{"height": 776, "html_attributions": ["<a href=\"https://maps.google.com/maps/contrib/104166754807023169770/photos\">Let&#39;s Do It Again Maternity</a>"], "photo_reference": "CmRaAAAAMeHXMKn-4XvTJMIkQXImfCz3-yV4GsPqp895AwwCCTIInnNCRD8ooyTXtXkdlBgEi5J8_JvrFdNYPDnZKLKA3zuELfz_pqGCBryBjzAuy5j1rjdO05-gympdeE6Ptr6-EhACDp9B9iDQa0KiwEGhcSJ_GhRYiYwnSyD-Ogd3VbRdgZ0uLqzcKQ", "width": 592}], "place_id": "ChIJD2ENZYp744kRbPD9dcDcoQ4", "plus_code": {"compound_code": "7WHJ+H2 Boston, Massachusetts, United States", "global_code": "87JC7WHJ+H2"}, "rating": 5, "reference": "ChIJD2ENZYp744kRbPD9dcDcoQ4", "scope": "GOOGLE", "types": ["clothing_store", "store", "point_of_interest", "establishment"], "user_ratings_total": 2, "vicinity": "925 Washington Street B, Boston"}, "ChIJD2ENZYp744kRPpofE6XcS0Q": {"geometry": {"location": {"lat": 42.27894909999999, "lng": -71.0699331}, "viewport": {"northeast": {"lat": 42.2803442302915, "lng": -71.06844246970849}, "southwest": {"lat": 42.2776462697085, "lng": -71.0711404302915}}}, "icon": "https://maps.gstatic.com/mapfiles/place_api/icons/generic_business-71.png", "id": "51c781c1af7356fab8bdd878eb025113bb98aa0f", "name": "Above Care Staffing, LLC", "place_id": "ChIJD2ENZYp744kRPpofE6XcS0Q", "plus_code": {"compound_code": "7WHJ+H2 Boston, Massachusetts, United States", "global_code": "87JC7WHJ+H2"}, "reference": "ChIJD2ENZYp744kRPpofE6XcS0Q", "scope": "GOOGLE", "types": ["health", "point_of_interest", "establishment"], "vicinity": "925 Washington Street, Boston"}, "ChIJf0Qxfop744kRaYnzRxsgFPc": {"geometry": {"location": {"lat": 42.278512, "lng": -71.07051299999999}, "viewport": {"northeast": {"lat": 42.2798511302915, "lng": -71.06915856970849}, "southwest": {"lat": 42.2771531697085, "lng": -71.07185653029151}}}, "icon": "https://maps.gstatic.com/mapfiles/place_api/icons/bus-71.png", "id": "09595feae06aab3cb2cef1d89168aba1d133737e", "name": "Gallivan Blvd @ Washington St", "place_id": "ChIJf0Qxfop744kRaYnzRxsgFPc", "plus_code": {"compound_code": "7WHH+CQ Boston, Massachusetts, United States", "global_code": "87JC7WHH+CQ"}, "rating": 1, "reference": "ChIJf0Qxfop744kRaYnzRxsgFPc", "scope": "GOOGLE", "types": ["bus_station", "transit_station", "point_of_interest", "establishment"], "user_ratings_total": 1, "vicinity": "United States"}, "ChIJIbwCe4p744kRy61lEX5Cd6c": {"geometry": {"location": {"lat": 42.27873700000001, "lng": -71.07002349999999}, "viewport": {"northeast": {"lat": 42.2800964802915, "lng": -71.06868106970849}, "southwest": {"lat": 42.2773985197085, "lng": -71.0713790302915}}}, "icon": "https://maps.gstatic.com/mapfiles/place_api/icons/generic_business-71.png", "id": "3e092b9a0202250a326400bf4d6a9f253f7733c7", "name": "Washington St @ Gallivan Blvd", "place_id": "ChIJIbwCe4p744kRy61lEX5Cd6c", "plus_code": {"compound_code": "7WHH+FX Boston, Massachusetts, United States", "global_code": "87JC7WHH+FX"}, "reference": "ChIJIbwCe4p744kRy61lEX5Cd6c", "scope": "GOOGLE", "types": ["transit_station", "point_of_interest", "establishment"], "vicinity": "United States"}, "ChIJdXRjd4p744kR3lJ8j6DXvcg": {"geometry": {"location": {"lat": 42.2784814, "lng": -71.06961059999999}, "viewport": {"northeast": {"lat": 42.2798321802915, "lng": -71.06816581970848}, "southwest": {"lat": 42.2771342197085, "lng": -71.07086378029149}}}, "icon": "https://maps.gstatic.com/mapfiles/place_api/icons/shopping-71.png", "id": "a5e702ef76183f14ba0f99e516a98acf5059ef4b", "name": "Camden Motor Co Inc", "photos": [{"height": 697, "html_attributions": ["<a href=\"https://maps.google.com/maps/contrib/102237060978395077400/photos\">Paul C</a>"], "photo_reference": "CmRaAAAAn4VcnY0Sb6loovGLZ7dP_rPm5TNFPRN5cBXPajT9Ld-FZyq-aQNrj9YAJ61kFwu3SJElJNUGjXbOEl85_7SudQqQV9FP_YJhZpJ4frIRgGo7o5eQ4w__fpE3i4avtFYOEhDC3DvXgq8-EzmuGLgxhylTGhTQY9wKULULtCiz8LSEPdpuq7b6gw", "width": 700}], "place_id": "ChIJdXRjd4p744kR3lJ8j6DXvcg", "plus_code": {"compound_code": "7WHJ+95 Boston, Massachusetts, United States", "global_code": "87JC7WHJ+95"}, "rating": 3.8, "reference": "ChIJdXRjd4p744kR3lJ8j6DXvcg", "scope": "GOOGLE", "types": ["car_dealer", "store", "point_of_interest", "establishment"], "user_ratings_total": 4, "vicinity": "181 Gallivan Boulevard, Dorchester Center"}, "ChIJa4nlSU9944kRtbl6koWlrBA": {"geometry": {"location": {"lat": 42.2768052, "lng": -71.07212849999999}, "viewport": {"northeast": {"lat": 42.2781343302915, "lng": -71.07087966970848}, "southwest": {"lat": 42.2754363697085, "lng": -71.0735776302915}}}, "icon": "https://maps.gstatic.com/mapfiles/place_api/icons/generic_business-71.png", "id": "3d80163deda7a274097c10f363c93f3073b2974c", "name": "Wynter & Son", "opening_hours": {"open_now": true}, "place_id": "ChIJa4nlSU9944kRtbl6koWlrBA", "plus_code": {"compound_code": "7WGH+P4 Boston, Massachusetts, United States", "global_code": "87JC7WGH+P4"}, "reference": "ChIJa4nlSU9944kRtbl6koWlrBA", "scope": "GOOGLE", "types": ["general_contractor", "point_of_interest", "establishment"], "vicinity": "42 Pleasant Hill Avenue, Mattapan"}, "ChIJGQLoRHV844kRdiuOInJ1bYI": {"geometry": {"location": {"lat": 42.27802299999999, "lng": -71.072571}, "viewport": {"northeast": {"lat": 42.2793976302915, "lng": -71.0712255697085}, "southwest": {"lat": 42.2766996697085, "lng": -71.07392353029151}}}, "icon": "https://maps.gstatic.com/mapfiles/place_api/icons/bus-71.png", "id": "9883b18fc8ae67c3bc4b68fe8192b3e62fc6fb80", "name": "Gallivan Blvd @ Pleasant Hill Ave", "place_id": "ChIJGQLoRHV844kRdiuOInJ1bYI", "plus_code": {"compound_code": "7WHG+6X Boston, Massachusetts, United States", "global_code": "87JC7WHG+6X"}, "reference": "ChIJGQLoRHV844kRdiuOInJ1bYI", "scope": "GOOGLE", "types": ["bus_station", "transit_station", "point_of_interest", "establishment"], "vicinity": "United States"}, "ChIJwfjhbop744kRqlBP8vYWWLY": {"geometry": {"location": {"lat": 42.27894909999999, "lng": -71.0699331}, "viewport": {"northeast": {"lat": 42.2803442302915, "lng": -71.06844246970849}, "southwest": {"lat": 42.2776462697085, "lng": -71.0711404302915}}}, "icon": "https://maps.gstatic.com/mapfiles/place_api/icons/generic_business-71.png", "id": "d01d5fb466c9f1360854aa2ca94046a4a857af81", "name": "Sam Osagiede & Associates Law Ofcs", "place_id": "ChIJwfjhbop744kRqlBP8vYWWLY", "plus_code": {"compound_code": "7WHJ+H2 Boston, Massachusetts, United States", "global_code": "87JC7WHJ+H2"}, "reference": "ChIJwfjhbop744kRqlBP8vYWWLY", "scope": "GOOGLE", "types": ["lawyer", "point_of_interest", "establishment"], "vicinity": "925 Washington Street # 6, Dorchester Center"}, "ChIJs4veGkl644kROEK8ix2v_oY": {"geometry": {"location": {"lat": 42.30163049999999, "lng": -71.067605}, "viewport": {"northeast": {"lat": 42.3358969, "lng": -71.0325551}, "southwest": {"lat": 42.267598, "lng": -71.0800369}}}, "icon": "https://maps.gstatic.com/mapfiles/place_api/icons/geocode-71.png", "id": "9e12301fdeebf54c1266b9986602466425a9c326", "name": "Dorchester", "photos": [{"height": 1944, "html_attributions": ["<a href=\"https://maps.google.com/maps/contrib/118366960396286562471/photos\">Michael Laferriere</a>"], "photo_reference": "CmRaAAAAB3yoPtT-gokYfKxpneyfbA_qmLbdEln2yHb_j-jsOTCfPT5endvMrgMiapzzRQNeJUpcppcmcTjSr_WxODDYNniCb0dMZA2oJ7FGCUlbQkmyOP6HY52jk7bqoDmED_QBEhBvWmK3NMbQ_mshbt8ABKJXGhR78-KZdgxUzBtZjwIK0l7ocsaTOg", "width": 2592}], "place_id": "ChIJs4veGkl644kROEK8ix2v_oY", "reference": "ChIJs4veGkl644kROEK8ix2v_oY", "scope": "GOOGLE", "types": ["neighborhood", "political"], "vicinity": "Dorchester Center"}, "ChIJ7QEIc8V744kREO0iYHtUbug": {"geometry": {"location": {"lat": 42.2789463, "lng": -71.06992819999999}, "viewport": {"northeast": {"lat": 42.2803409802915, "lng": -71.0684389197085}, "southwest": {"lat": 42.2776430197085, "lng": -71.0711368802915}}}, "icon": "https://maps.gstatic.com/mapfiles/place_api/icons/generic_business-71.png", "id": "37e1fdd131f090cf240043f89e0ea24a8582c116", "name": "Chester & Chester", "place_id": "ChIJ7QEIc8V744kREO0iYHtUbug", "plus_code": {"compound_code": "7WHJ+H2 Boston, Massachusetts, United States", "global_code": "87JC7WHJ+H2"}, "reference": "ChIJ7QEIc8V744kREO0iYHtUbug", "scope": "GOOGLE", "types": ["point_of_interest", "establishment"], "vicinity": "925 Washington Street, Dorchester"}, "ChIJD2ENZYp744kRs163URX0XR0": {"geometry": {"location": {"lat": 42.2789463, "lng": -71.06992819999999}, "viewport": {"northeast": {"lat": 42.2803409802915, "lng": -71.0684389197085}, "southwest": {"lat": 42.2776430197085, "lng": -71.0711368802915}}}, "icon": "https://maps.gstatic.com/mapfiles/place_api/icons/generic_business-71.png", "id": "af6344339b05d567584e580291e89b0d67be932b", "name": "Style by Serina", "opening_hours": {"open_now": true}, "photos": [{"height": 4032, "html_attributions": ["<a href=\"https://maps.google.com/maps/contrib/111931880943304322450/photos\">Style by Serina</a>"], "photo_reference": "CmRaAAAADjkK5ENl0YInUhPL5Ufhs6jSiwSsRYnsR0b8_kWh-KNwmnpZaoQU_vJUVHTIvejENUml5AH9dnL7VlGIIU2KTmv7M-bT9Hf5nZrEKve-_7wdNB2FsZugLWowslLMg0nNEhCy17_HSH4bLFA0gi1jd-wrGhSKbjT6_XvkJckL78rClCdPAWk1XQ", "width": 3024}], "place_id": "ChIJD2ENZYp744kRs163URX0XR0", "plus_code": {"compound_code": "7WHJ+H2 Boston, Massachusetts, United States", "global_code": "87JC7WHJ+H2"}, "rating": 5, "reference": "ChIJD2ENZYp744kRs163URX0XR0", "scope": "GOOGLE", "types": ["hair_care", "point_of_interest", "establishment"], "user_ratings_total": 1, "vicinity": "925 Washington Street suite1b, Boston"}, "ChIJv19VgsJ744kR_P0-ed0fIbo": {"geometry": {"location": {"lat": 42.2789463, "lng": -71.0699281}, "viewport": {"northeast": {"lat": 42.2803409802915, "lng": -71.06843881970849}, "southwest": {"lat": 42.2776430197085, "lng": -71.07113678029151}}}, "icon": "https://maps.gstatic.com/mapfiles/place_api/icons/generic_business-71.png", "id": "e3ec29934ac63e73af17a52eabe8a197f2b5bdc1", "name": "Chester & Chester", "place_id": "ChIJv19VgsJ744kR_P0-ed0fIbo", "plus_code": {"compound_code": "7WHJ+H2 Boston, Massachusetts, United States", "global_code": "87JC7WHJ+H2"}, "reference": "ChIJv19VgsJ744kR_P0-ed0fIbo", "scope": "GOOGLE", "types": ["point_of_interest", "establishment"], "vicinity": "925 Washington Street, Dorchester"}, "ChIJwfjhbop744kR0xmmt594EAo": {"geometry": {"location": {"lat": 42.27894909999999, "lng": -71.0699331}, "viewport": {"northeast": {"lat": 42.2803442302915, "lng": -71.06844246970849}, "southwest": {"lat": 42.2776462697085, "lng": -71.0711404302915}}}, "icon": "https://maps.gstatic.com/mapfiles/place_api/icons/generic_business-71.png", "id": "b6916341aca5a60e1710a1824d3e1e266b9788a3", "name": "Nzenwa Austin Chima Law Office", "place_id": "ChIJwfjhbop744kR0xmmt594EAo", "plus_code": {"compound_code": "7WHJ+H2 Boston, Massachusetts, United States", "global_code": "87JC7WHJ+H2"}, "rating": 5, "reference": "ChIJwfjhbop744kR0xmmt594EAo", "scope": "GOOGLE", "types": ["lawyer", "point_of_interest", "establishment"], "user_ratings_total": 2, "vicinity": "925 Washington Street, Boston"}, "ChIJwfjhbop744kR0Z_Erb6Tx-Q": {"geometry": {"location": {"lat": 42.27894909999999, "lng": -71.0699331}, "viewport": {"northeast": {"lat": 42.2803442302915, "lng": -71.06844246970849}, "southwest": {"lat": 42.2776462697085, "lng": -71.0711404302915}}}, "icon": "https://maps.gstatic.com/mapfiles/place_api/icons/generic_business-71.png", "id": "e5b792f5a33e5d5db5c8d0185b55be0e65b2b9ee", "name": "Douglas P Jensen & Associates", "place_id": "ChIJwfjhbop744kR0Z_Erb6Tx-Q", "plus_code": {"compound_code": "7WHJ+H2 Boston, Massachusetts, United States", "global_code": "87JC7WHJ+H2"}, "reference": "ChIJwfjhbop744kR0Z_Erb6Tx-Q", "scope": "GOOGLE", "types": ["lawyer", "point_of_interest", "establishment"], "vicinity": "925 Washington Street # 1A, Dorchester Center"}, "ChIJo9qk4XB644kRMwWGOwD3lI8": {"geometry": {"location": {"lat": 42.27894909999999, "lng": -71.0699331}, "viewport": {"northeast": {"lat": 42.2803442302915, "lng": -71.06844246970849}, "southwest": {"lat": 42.2776462697085, "lng": -71.0711404302915}}}, "icon": "https://maps.gstatic.com/mapfiles/place_api/icons/generic_business-71.png", "id": "cca9d70ba37ec118925b8477252236db669c42ac", "name": "Horton Property", "place_id": "ChIJo9qk4XB644kRMwWGOwD3lI8", "plus_code": {"compound_code": "7WHJ+H2 Boston, Massachusetts, United States", "global_code": "87JC7WHJ+H2"}, "reference": "ChIJo9qk4XB644kRMwWGOwD3lI8", "scope": "GOOGLE", "types": ["real_estate_agency", "point_of_interest", "establishment"], "vicinity": "925 Washington Street # 11, Dorchester Center"}, "ChIJDc70sah744kRK3z48aLaP68": {"geometry": {"location": {"lat": 42.27894909999999, "lng": -71.0699331}, "viewport": {"northeast": {"lat": 42.2803442302915, "lng": -71.06844246970849}, "southwest": {"lat": 42.2776462697085, "lng": -71.0711404302915}}}, "icon": "https://maps.gstatic.com/mapfiles/place_api/icons/generic_business-71.png", "id": "69e235471f80050f9d236e6b7291b467d9e698b6", "name": "START FRESH SOLUTIONS", "opening_hours": {"open_now": false}, "photos": [{"height": 280, "html_attributions": ["<a href=\"https://maps.google.com/maps/contrib/116170707228824683759/photos\">START FRESH SOLUTIONS</a>"], "photo_reference": "CmRaAAAAv7aQ58TqyvLFovYovfLxb3MfO-Aclx_xiSauy2Nw1Uk2wTtGvMYfI1MPZOHD0qobYuBqEoz2lL6sLQDV_ym4Mg6xQlIB4lp0oLo_rlXiY1uU7r2jCH7iy6qgeuLYJbncEhDQW82F64tTP9wIsQUEdhbaGhQzsWGs44cMY4ee0QG1GEVebeVQbA", "width": 385}], "place_id": "ChIJDc70sah744kRK3z48aLaP68", "plus_code": {"compound_code": "7WHJ+H2 Boston, Massachusetts, United States", "global_code": "87JC7WHJ+H2"}, "reference": "ChIJDc70sah744kRK3z48aLaP68", "scope": "GOOGLE", "types": ["finance", "point_of_interest", "establishment"], "vicinity": "925 Washington Street, Boston"}, "ChIJwfjhbop744kRjz84f-GGdTQ": {"geometry": {"location": {"lat": 42.27894909999999, "lng": -71.0699331}, "viewport": {"northeast": {"lat": 42.2803442302915, "lng": -71.06844246970849}, "southwest": {"lat": 42.2776462697085, "lng": -71.0711404302915}}}, "icon": "https://maps.gstatic.com/mapfiles/place_api/icons/generic_business-71.png", "id": "1012347fafba639645d9ece1749c22b9b9edfe42", "name": "F & S Transfer Cargo Multi Services", "place_id": "ChIJwfjhbop744kRjz84f-GGdTQ", "plus_code": {"compound_code": "7WHJ+H2 Boston, Massachusetts, United States", "global_code": "87JC7WHJ+H2"}, "reference": "ChIJwfjhbop744kRjz84f-GGdTQ", "scope": "GOOGLE", "types": ["point_of_interest", "establishment"], "vicinity": "925 Washington Street, Dorchester Center"}, "ChIJwfjhbop744kRZ1wlq2O93dg": {"geometry": {"location": {"lat": 42.27894909999999, "lng": -71.0699331}, "viewport": {"northeast": {"lat": 42.2803442302915, "lng": -71.06844246970849}, "southwest": {"lat": 42.2776462697085, "lng": -71.0711404302915}}}, "icon": "https://maps.gstatic.com/mapfiles/place_api/icons/generic_business-71.png", "id": "01bf1d9c79a5c3600c03a18df4999c84dd18b8bc", "name": "Sach Tecnology", "place_id": "ChIJwfjhbop744kRZ1wlq2O93dg", "plus_code": {"compound_code": "7WHJ+H2 Boston, Massachusetts, United States", "global_code": "87JC7WHJ+H2"}, "reference": "ChIJwfjhbop744kRZ1wlq2O93dg", "scope": "GOOGLE", "types": ["point_of_interest", "establishment"], "vicinity": "925 Washington Street, Dorchester Center"}, "ChIJ0dorjop744kRlwkIUEHG35o": {"geometry": {"location": {"lat": 42.2791027, "lng": -71.0712558}, "viewport": {"northeast": {"lat": 42.28042793029149, "lng": -71.0698982697085}, "southwest": {"lat": 42.2777299697085, "lng": -71.07259623029151}}}, "icon": "https://maps.gstatic.com/mapfiles/place_api/icons/generic_business-71.png", "id": "c2c9d92dc81205abb9ce4a3b0e50df4a2630bccc", "name": "Web's Data Services", "place_id": "ChIJ0dorjop744kRlwkIUEHG35o", "plus_code": {"compound_code": "7WHH+JF Boston, Massachusetts, United States", "global_code": "87JC7WHH+JF"}, "rating": 5, "reference": "ChIJ0dorjop744kRlwkIUEHG35o", "scope": "GOOGLE", "types": ["point_of_interest", "establishment"], "user_ratings_total": 1, "vicinity": "25 Fendale Avenue, Dorchester Center"}, "ChIJuaqgXHV844kRHZP9c3QxGxo": {"geometry": {"location": {"lat": 42.278153, "lng": -71.072729}, "viewport": {"northeast": {"lat": 42.27946018029149, "lng": -71.0713746197085}, "southwest": {"lat": 42.2767622197085, "lng": -71.0740725802915}}}, "icon": "https://maps.gstatic.com/mapfiles/place_api/icons/bus-71.png", "id": "8862824acdd5e2000fa1264b257087cf96290936", "name": "Gallivan Blvd @ Nevada St", "place_id": "ChIJuaqgXHV844kRHZP9c3QxGxo", "plus_code": {"compound_code": "7WHG+7W Boston, Massachusetts, United States", "global_code": "87JC7WHG+7W"}, "reference": "ChIJuaqgXHV844kRHZP9c3QxGxo", "scope": "GOOGLE", "types": ["bus_station", "transit_station", "point_of_interest", "establishment"], "vicinity": "United States"}, "ChIJ6R6ZZYp744kRkybnPXfa6nY": {"geometry": {"location": {"lat": 42.2790063, "lng": -71.0699137}, "viewport": {"northeast": {"lat": 42.2803941302915, "lng": -71.06844541970851}, "southwest": {"lat": 42.2776961697085, "lng": -71.07114338029152}}}, "icon": "https://maps.gstatic.com/mapfiles/place_api/icons/generic_business-71.png", "id": "a6d24be1db8bed6e71f613e296885990c56ec877", "name": "Karma Stitch", "opening_hours": {"open_now": true}, "photos": [{"height": 1170, "html_attributions": ["<a href=\"https://maps.google.com/maps/contrib/101817775355748216792/photos\">Karma Stitch</a>"], "photo_reference": "CmRaAAAArdEiYUyxeiqf9pO2y1T0f6A8jFz1snvZUdUVtxh987Y-VdytGr3eY3wZFNwVdM9K0lYbomQPtG2fgbqQKLdOeW3NUdcLZ5Muvx9RbtpD9xmmuPGVdx-ajoAkbE23A_ceEhCq4ua2XAOHt0k2OCifP_ghGhSe3hpT_bWkNOWx3fWEbsgg7ELZVA", "width": 2048}], "place_id": "ChIJ6R6ZZYp744kRkybnPXfa6nY", "plus_code": {"compound_code": "7WHJ+J2 Boston, Massachusetts, United States", "global_code": "87JC7WHJ+J2"}, "reference": "ChIJ6R6ZZYp744kRkybnPXfa6nY", "scope": "GOOGLE", "types": ["point_of_interest", "establishment"], "vicinity": "923 Washington Street, Boston"}, "ChIJ6R6ZZYp744kRsPe0Nlx3WFE": {"geometry": {"location": {"lat": 42.278983, "lng": -71.0698547}, "viewport": {"northeast": {"lat": 42.2803646802915, "lng": -71.06840531970849}, "southwest": {"lat": 42.2776667197085, "lng": -71.0711032802915}}}, "icon": "https://maps.gstatic.com/mapfiles/place_api/icons/generic_business-71.png", "id": "ec9f9f99b1755e2e6c8ba0c2ab5ce8fe54939c69", "name": "JDLS Couture", "opening_hours": {"open_now": true}, "photos": [{"height": 1365, "html_attributions": ["<a href=\"https://maps.google.com/maps/contrib/117777857362666462803/photos\">JDLS Couture</a>"], "photo_reference": "CmRaAAAAT_Lja5n3oxNsU8GTXqMRQx05zCG1bLWvJb3OXruZf_jKUtN7FoX7wcZrqYiKdk0Ey64jMhHtYRZqaH67DbcefVTCskYbxFy-Keah1AmGtIHb2b6WHb4klKQGgg_yirfEEhBwQR7500jpgezZ1PPLyy_rGhQ_a3bxgtuxXslDgc75QtZwTMzrdw", "width": 2048}], "place_id": "ChIJ6R6ZZYp744kRsPe0Nlx3WFE", "plus_code": {"compound_code": "7WHJ+H3 Boston, Massachusetts, United States", "global_code": "87JC7WHJ+H3"}, "rating": 5, "reference": "ChIJ6R6ZZYp744kRsPe0Nlx3WFE", "scope": "GOOGLE", "types": ["point_of_interest", "establishment"], "user_ratings_total": 7, "vicinity": "923 Washington Street, Boston"}, "ChIJSQaBZYp744kR6iW-OwaXyK8": {"geometry": {"location": {"lat": 42.2789809, "lng": -71.0698476}, "viewport": {"northeast": {"lat": 42.28027683029151, "lng": -71.06846246970849}, "southwest": {"lat": 42.27757886970851, "lng": -71.0711604302915}}}, "icon": "https://maps.gstatic.com/mapfiles/place_api/icons/generic_business-71.png", "id": "e1d312771c643b460d16332e46010879e2c7bba9", "name": "My Perfect Fit", "place_id": "ChIJSQaBZYp744kR6iW-OwaXyK8", "plus_code": {"compound_code": "7WHJ+H3 Boston, Massachusetts, United States", "global_code": "87JC7WHJ+H3"}, "reference": "ChIJSQaBZYp744kR6iW-OwaXyK8", "scope": "GOOGLE", "types": ["gym", "health", "point_of_interest", "establishment"], "vicinity": "United States"}, "ChIJT-zhbop744kRo3qYPa_UQ9Q": {"geometry": {"location": {"lat": 42.27902949999999, "lng": -71.0699728}, "viewport": {"northeast": {"lat": 42.2804235302915, "lng": -71.0684855697085}, "southwest": {"lat": 42.2777255697085, "lng": -71.0711835302915}}}, "icon": "https://maps.gstatic.com/mapfiles/place_api/icons/generic_business-71.png", "id": "2ba15fae799fab8f3295416a7327b1dcac113544", "name": "E B S", "place_id": "ChIJT-zhbop744kRo3qYPa_UQ9Q", "plus_code": {"compound_code": "7WHJ+J2 Boston, Massachusetts, United States", "global_code": "87JC7WHJ+J2"}, "reference": "ChIJT-zhbop744kRo3qYPa_UQ9Q", "scope": "GOOGLE", "types": ["point_of_interest", "establishment"], "vicinity": "925 Washington Street, Dorchester Center"}, "ChIJwShiSc5744kRZkuQO1o3C34": {"geometry": {"location": {"lat": 42.27902949999999, "lng": -71.0699728}, "viewport": {"northeast": {"lat": 42.2804235302915, "lng": -71.0684855697085}, "southwest": {"lat": 42.2777255697085, "lng": -71.0711835302915}}}, "icon": "https://maps.gstatic.com/mapfiles/place_api/icons/generic_business-71.png", "id": "cb02c6de2db765958324d7f5dfc50b374e3f1916", "name": "Hair Studio 7", "place_id": "ChIJwShiSc5744kRZkuQO1o3C34", "plus_code": {"compound_code": "7WHJ+J2 Boston, Massachusetts, United States", "global_code": "87JC7WHJ+J2"}, "rating": 5, "reference": "ChIJwShiSc5744kRZkuQO1o3C34", "scope": "GOOGLE", "types": ["hair_care", "point_of_interest", "establishment"], "user_ratings_total": 2, "vicinity": "921 Washington Street, Boston"}, "ChIJI2tTzAN744kRUX1FrMzFoTk": {"geometry": {"location": {"lat": 42.2789853, "lng": -71.06985379999999}, "viewport": {"northeast": {"lat": 42.28036668029149, "lng": -71.0684053697085}, "southwest": {"lat": 42.27766871970849, "lng": -71.0711033302915}}}, "icon": "https://maps.gstatic.com/mapfiles/place_api/icons/generic_business-71.png", "id": "54a3f32eaf0af0c1c22730ea97e60f5574998726", "name": "Star barbershop", "photos": [{"height": 4032, "html_attributions": ["<a href=\"https://maps.google.com/maps/contrib/104089301537495494136/photos\">James Damas</a>"], "photo_reference": "CmRaAAAAOD-3eI4wTKUJRv7pa7ckUDYTY9ErRES_9PRCiVAe0p66jCuoeA4ss1nsfH26y1RUPKcFI3oXkOyo1DWchOqcbHU3sFvt9VFrOQkcxucbxnpNgzYBy-mXevqVKX_a0etqEhAc3ZQuNwSaxhNMHipZ8heMGhSL9JrhMFnNquwyD2sdgnKg3yqpBA", "width": 3024}], "place_id": "ChIJI2tTzAN744kRUX1FrMzFoTk", "plus_code": {"compound_code": "7WHJ+H3 Boston, Massachusetts, United States", "global_code": "87JC7WHJ+H3"}, "rating": 4.4, "reference": "ChIJI2tTzAN744kRUX1FrMzFoTk", "scope": "GOOGLE", "types": ["hair_care", "health", "point_of_interest", "establishment"], "user_ratings_total": 5, "vicinity": "923 Washington Street, Dorchester"}, "ChIJzeKv4XB644kRo2tFgPYfVs8": {"geometry": {"location": {"lat": 42.2790448, "lng": -71.0699793}, "viewport": {"northeast": {"lat": 42.2804384802915, "lng": -71.0684931697085}, "southwest": {"lat": 42.2777405197085, "lng": -71.07119113029151}}}, "icon": "https://maps.gstatic.com/mapfiles/place_api/icons/generic_business-71.png", "id": "2d172b279ab92917e7f8dbb7468ecee5f33e41f5", "name": "Kathy's Nail", "opening_hours": {"open_now": true}, "photos": [{"height": 2048, "html_attributions": ["<a href=\"https://maps.google.com/maps/contrib/109620382305385863995/photos\">Thuy Nguyen</a>"], "photo_reference": "CmRaAAAAat5U97IWiihz8zOQ05obZQNNaXnYMrRo3mrwWk4xWg5dwnkV4tLsbXiwF5UIW6Hsw3gtZnrkKgpOg-q9bomGySQgXL1qA4nPjpqOCRe7J-COdkbW-JbBYSajK1U4ITMnEhD_Ev3s16gKrBmcXVA219GLGhRxXn3oSWvegB-JYb9VZqeJGNSFdA", "width": 1536}], "place_id": "ChIJzeKv4XB644kRo2tFgPYfVs8", "plus_code": {"compound_code": "7WHJ+J2 Boston, Massachusetts, United States", "global_code": "87JC7WHJ+J2"}, "rating": 4.1, "reference": "ChIJzeKv4XB644kRo2tFgPYfVs8", "scope": "GOOGLE", "types": ["beauty_salon", "point_of_interest", "establishment"], "user_ratings_total": 50, "vicinity": "921 Washington Street, Dorchester Center"}, "ChIJ5Uml4XB644kREeoyZsVqIOY": {"geometry": {"location": {"lat": 42.2790448, "lng": -71.0699793}, "viewport": {"northeast": {"lat": 42.2804384802915, "lng": -71.0684931697085}, "southwest": {"lat": 42.2777405197085, "lng": -71.07119113029151}}}, "icon": "https://maps.gstatic.com/mapfiles/place_api/icons/generic_business-71.png", "id": "0f25a8771ede5efe101267fc903ee9c131cce3b3", "name": "Mass Construction Inc", "place_id": "ChIJ5Uml4XB644kREeoyZsVqIOY", "plus_code": {"compound_code": "7WHJ+J2 Boston, Massachusetts, United States", "global_code": "87JC7WHJ+J2"}, "reference": "ChIJ5Uml4XB644kREeoyZsVqIOY", "scope": "GOOGLE", "types": ["general_contractor", "point_of_interest", "establishment"], "vicinity": "923 Washington Street, Dorchester Center"}, "ChIJAQBkCop744kRq_d4Ooa-7Mk": {"geometry": {"location": {"lat": 42.2781184, "lng": -71.06888169999999}, "viewport": {"northeast": {"lat": 42.27940688029149, "lng": -71.06750116970849}, "southwest": {"lat": 42.27670891970849, "lng": -71.0701991302915}}}, "icon": "https://maps.gstatic.com/mapfiles/place_api/icons/lodging-71.png", "id": "279e5fdb92642233053f8276eb003a92ba758a3c", "name": "The Barnabas Suite", "place_id": "ChIJAQBkCop744kRq_d4Ooa-7Mk", "plus_code": {"compound_code": "7WHJ+6C Boston, Massachusetts, United States", "global_code": "87JC7WHJ+6C"}, "reference": "ChIJAQBkCop744kRq_d4Ooa-7Mk", "scope": "GOOGLE", "types": ["lodging", "point_of_interest", "establishment"], "vicinity": "6 Oconnell Road, Boston"}, "ChIJZx2LZYp744kRrU0VUjZaalc": {"geometry": {"location": {"lat": 42.2790403, "lng": -71.0698603}, "viewport": {"northeast": {"lat": 42.2804180802915, "lng": -71.06842286970851}, "southwest": {"lat": 42.2777201197085, "lng": -71.07112083029152}}}, "icon": "https://maps.gstatic.com/mapfiles/place_api/icons/generic_business-71.png", "id": "86f20c5d6e01ae23cc03e8a09b324f8a3f6c09de", "name": "Chichi Barber Shop", "place_id": "ChIJZx2LZYp744kRrU0VUjZaalc", "plus_code": {"compound_code": "7WHJ+J3 Boston, Massachusetts, United States", "global_code": "87JC7WHJ+J3"}, "rating": 5, "reference": "ChIJZx2LZYp744kRrU0VUjZaalc", "scope": "GOOGLE", "types": ["hair_care", "health", "point_of_interest", "establishment"], "user_ratings_total": 1, "vicinity": "Boston"}, "ChIJ5Uml4XB644kRD-Rtg3BSHOs": {"geometry": {"location": {"lat": 42.2790415, "lng": -71.0698085}, "viewport": {"northeast": {"lat": 42.2804121302915, "lng": -71.06839306970849}, "southwest": {"lat": 42.2777141697085, "lng": -71.0710910302915}}}, "icon": "https://maps.gstatic.com/mapfiles/place_api/icons/generic_business-71.png", "id": "c29b431574a26a0bfa2e39fb8116cd0f63cf6b79", "name": "Chatterjee Ranendra N MD", "place_id": "ChIJ5Uml4XB644kRD-Rtg3BSHOs", "plus_code": {"compound_code": "7WHJ+J3 Boston, Massachusetts, United States", "global_code": "87JC7WHJ+J3"}, "reference": "ChIJ5Uml4XB644kRD-Rtg3BSHOs", "scope": "GOOGLE", "types": ["doctor", "health", "point_of_interest", "establishment"], "vicinity": "923 Washington Street, Dorchester Center"}}