{"ChIJGzE9DS1l44kRoOhiASS_fHg": {"geometry": {"location": {"lat": 42.3600825, "lng": -71.0588801}, "viewport": {"northeast": {"lat": 42.40081989999999, "lng": -70.749455}, "southwest": {"lat": 42.22788, "lng": -71.191113}}}, "icon": "https://maps.gstatic.com/mapfiles/place_api/icons/geocode-71.png", "id": "06755c25d2b34d13942a4713971756a55b870ced", "name": "Boston", "photos": [{"height": 3024, "html_attributions": ["<a href=\"https://maps.google.com/maps/contrib/104670289779338733432/photos\">Natalia Zalucean</a>"], "photo_reference": "CmRaAAAAEonKPWjs7SwxSLxL2UHrSVNE9SzmaTSAuALPaHGDZsufkzsUnAyghRVyzSRFYs1WbXqypZdztSGjuFiB-D6Y2Gufb32i1Vu9bFwGFWY6__XnhU8pXU0D_kcPOBdJ37DLEhBYa07JqG0DvCWJ9BIz-DnJGhSxbgbll3W_Lwr_aLl_nsCRG-svJg", "width": 4032}], "place_id": "ChIJGzE9DS1l44kRoOhiASS_fHg", "reference": "ChIJGzE9DS1l44kRoOhiASS_fHg", "scope": "GOOGLE", "types": ["locality", "political"], "vicinity": "Boston"}, "ChIJiQVDX01444kRpxWypuh_FX8": {"geometry": {"location": {"lat": 42.3387692, "lng": -71.14610789999999}, "viewport": {"northeast": {"lat": 42.3401261802915, "lng": -71.14482316970849}, "southwest": {"lat": 42.3374282197085, "lng": -71.1475211302915}}}, "icon": "https://maps.gstatic.com/mapfiles/place_api/icons/civic_building-71.png", "id": "0e6a6c163c183b336db63006340f9896b9b8d6f6", "name": "Consulate of Chile", "opening_hours": {"open_now": false}, "photos": [{"height": 2048, "html_attributions": ["<a href=\"https://maps.google.com/maps/contrib/114738810370860438581/photos\">Consulate of Chile</a>"], "photo_reference": "CmRaAAAAcDF20BFqZ_r8_9HMSN4AXjbFjqB6Y26Pd5e8FZ4ShASwl8vPVtoy8gV8TaejaHZKQLbz8cvixvh-WBkuKJlXabR053Od0lr54db4mXHGYnFh79wlwry9n0TO2S78dmpNEhCkMHIL5Q8rFO0l3oBTtoWsGhSDeMIjcnMEVS6Qhb4W5WQ0DEIIZA", "width": 1536}], "place_id": "ChIJiQVDX01444kRpxWypuh_FX8", "plus_code": {"compound_code": "8VQ3+GH Brookline, Massachusetts, United States", "global_code": "87JC8VQ3+GH"}, "rating": 2.5, "reference": "ChIJiQVDX01444kRpxWypuh_FX8", "scope": "GOOGLE", "types": ["embassy", "point_of_interest", "establishment"], "user_ratings_total": 13, "vicinity": "7840, 19 Lanark Road, Brighton"}, "ChIJpYqcF01444kRO8JeAqK2NuE": {"geometry": {"location": {"lat": 42.3405476, "lng": -71.1465262}, "viewport": {"northeast": {"lat": 42.3418026802915, "lng": -71.1451396197085}, "southwest": {"lat": 42.3391047197085, "lng": -71.14783758029151}}}, "icon": "https://maps.gstatic.com/mapfiles/place_api/icons/generic_business-71.png", "id": "1f76c7114d0e4a6afd7bfa4b912319f02c1bdc3f", "name": "Chestnut Hill Realty Corporation", "opening_hours": {"open_now": true}, "place_id": "ChIJpYqcF01444kRO8JeAqK2NuE", "plus_code": {"compound_code": "8VR3+69 Boston, Massachusetts, United States", "global_code": "87JC8VR3+69"}, "reference": "ChIJpYqcF01444kRO8JeAqK2NuE", "scope": "GOOGLE", "types": ["real_estate_agency", "point_of_interest", "establishment"], "vicinity": "113 Kilsyth Road # B, Brighton"}, "ChIJT_AIG01444kRmYEV-IXgNc4": {"geometry": {"location": {"lat": 42.340892, "lng": -71.146908}, "viewport": {"northeast": {"lat": 42.3423061302915, "lng": -71.1456728197085}, "southwest": {"lat": 42.33960816970851, "lng": -71.1483707802915}}}, "icon": "https://maps.gstatic.com/mapfiles/place_api/icons/shopping-71.png", "id": "6af4ba5c846d87c2f027f3c2d40f8bc1e175368e", "name": "Jakob Furniture", "opening_hours": {"open_now": true}, "photos": [{"height": 495, "html_attributions": ["<a href=\"https://maps.google.com/maps/contrib/116562188186518942980/photos\">Jakob Furniture</a>"], "photo_reference": "CmRaAAAACH44EFUB6VptnRXhczxdTwmVY-NmJU1ZBiFXRTGGBmxavUQU2S_U8uV5x0yxWU9VHOI4l1uaCQENcqeUWpM0OH3FuaTMA_TTlT-I2pTefHjEfnl2oOiVGM8Jzz8aT_fDEhAHZEhyyYUM11TqAlrgjb61GhQYQS1EJ8IgCtRtJfb0D-whZF83-w", "width": 1000}], "place_id": "ChIJT_AIG01444kRmYEV-IXgNc4", "plus_code": {"compound_code": "8VR3+96 Boston, Massachusetts, United States", "global_code": "87JC8VR3+96"}, "rating": 5, "reference": "ChIJT_AIG01444kRmYEV-IXgNc4", "scope": "GOOGLE", "types": ["furniture_store", "home_goods_store", "store", "point_of_interest", "establishment"], "user_ratings_total": 2, "vicinity": "155 Sutherland Road, Brighton"}, "ChIJQzzpllJ444kRkKibHja8Uno": {"geometry": {"location": {"lat": 42.3378925, "lng": -71.146453}, "viewport": {"northeast": {"lat": 42.3393426302915, "lng": -71.1451195197085}, "southwest": {"lat": 42.3366446697085, "lng": -71.14781748029151}}}, "icon": "https://maps.gstatic.com/mapfiles/place_api/icons/generic_business-71.png", "id": "4ee016cc010f5a5065177f7263610520c8913815", "name": "Zen Dog Training", "place_id": "ChIJQzzpllJ444kRkKibHja8Uno", "plus_code": {"compound_code": "8VQ3+5C Boston, Massachusetts, United States", "global_code": "87JC8VQ3+5C"}, "reference": "ChIJQzzpllJ444kRkKibHja8Uno", "scope": "GOOGLE", "types": ["point_of_interest", "establishment"], "vicinity": "38 Englewood Avenue # B, Brighton"}, "ChIJz8G9fU1444kRgAYDE0Jj9M0": {"geometry": {"location": {"lat": 42.3390679, "lng": -71.14733000000001}, "viewport": {"northeast": {"lat": 42.3404360802915, "lng": -71.1460147697085}, "southwest": {"lat": 42.3377381197085, "lng": -71.1487127302915}}}, "icon": "https://maps.gstatic.com/mapfiles/place_api/icons/generic_business-71.png", "id": "c3fb9ca8596a618fd15943b75e341d6d97bbfaa1", "name": "5 Kilsyth Terrace", "place_id": "ChIJz8G9fU1444kRgAYDE0Jj9M0", "plus_code": {"compound_code": "8VQ3+J3 Boston, Massachusetts, United States", "global_code": "87JC8VQ3+J3"}, "reference": "ChIJz8G9fU1444kRgAYDE0Jj9M0", "scope": "GOOGLE", "types": ["point_of_interest", "establishment"], "vicinity": "5 Kilsyth Terrace, Boston"}, "ChIJq6qqqkZ444kRcvk-HR7C0vU": {"geometry": {"location": {"lat": 42.3388837, "lng": -71.14605399999999}, "viewport": {"northeast": {"lat": 42.3402576302915, "lng": -71.1447866697085}, "southwest": {"lat": 42.3375596697085, "lng": -71.1474846302915}}}, "icon": "https://maps.gstatic.com/mapfiles/place_api/icons/civic_building-71.png", "id": "e22efe1b515e40c44771caa3fa665719003198e3", "name": "Consulate of Chile", "photos": [{"height": 4032, "html_attributions": ["<a href=\"https://maps.google.com/maps/contrib/114760974701351614774/photos\">xiaoguang han</a>"], "photo_reference": "CmRaAAAAxudwLd8XcxUmhLGBtdlfz8pUpZHwEzjPWP198X0ID3F6ZSMuVeG5t0CuiqwpDeM0pbCHUQQV-KjLUcTk5kWxVISBQwY_AGI8KYPlGQTfmbG38UnaF3SruaYSr8RY4L91EhBuQJe5atqEoq3n5VExESOcGhT-ghrvux7eFYS39c2IpT8Y8lpuQw", "width": 3024}], "place_id": "ChIJq6qqqkZ444kRcvk-HR7C0vU", "plus_code": {"compound_code": "8VQ3+HH Boston, Massachusetts, United States", "global_code": "87JC8VQ3+HH"}, "rating": 4, "reference": "ChIJq6qqqkZ444kRcvk-HR7C0vU", "scope": "GOOGLE", "types": ["embassy", "point_of_interest", "establishment"], "user_ratings_total": 4, "vicinity": "1 Bernardo O'Higgins Circle, Brighton"}, "ChIJnacHn1J444kRHbMsQgwj0vU": {"geometry": {"location": {"lat": 42.33862189999999, "lng": -71.1465923}, "viewport": {"northeast": {"lat": 42.34007113029149, "lng": -71.1452077197085}, "southwest": {"lat": 42.33737316970849, "lng": -71.1479056802915}}}, "icon": "https://maps.gstatic.com/mapfiles/place_api/icons/generic_business-71.png", "id": "fa633cf5ad6b4d28e1f8f0f4d3cd1055d93af683", "name": "Dr. Edmund H. Ernst, MD", "place_id": "ChIJnacHn1J444kRHbMsQgwj0vU", "plus_code": {"compound_code": "8VQ3+C9 Boston, Massachusetts, United States", "global_code": "87JC8VQ3+C9"}, "reference": "ChIJnacHn1J444kRHbMsQgwj0vU", "scope": "GOOGLE", "types": ["doctor", "health", "point_of_interest", "establishment"], "vicinity": "157 Kilsyth Road, Brighton"}, "ChIJ019TPE1444kRyu3v4B-ZVHk": {"geometry": {"location": {"lat": 42.3404025, "lng": -71.1461456}, "viewport": {"northeast": {"lat": 42.34178283029149, "lng": -71.14480061970849}, "southwest": {"lat": 42.33908486970849, "lng": -71.1474985802915}}}, "icon": "https://maps.gstatic.com/mapfiles/place_api/icons/shopping-71.png", "id": "0c1224c95bade0fce48def0a6d81af29097b89b8", "name": "Ehrilch Seasonal Pests Control", "place_id": "ChIJ019TPE1444kRyu3v4B-ZVHk", "plus_code": {"compound_code": "8VR3+5G Boston, Massachusetts, United States", "global_code": "87JC8VR3+5G"}, "reference": "ChIJ019TPE1444kRyu3v4B-ZVHk", "scope": "GOOGLE", "types": ["home_goods_store", "store", "point_of_interest", "establishment"], "vicinity": "107 Kilsyth Road, Boston"}, "ChIJxzuDOk1444kR_dK8_PpjsJk": {"geometry": {"location": {"lat": 42.3403646, "lng": -71.1456099}, "viewport": {"northeast": {"lat": 42.3417301302915, "lng": -71.1442600697085}, "southwest": {"lat": 42.3390321697085, "lng": -71.14695803029151}}}, "icon": "https://maps.gstatic.com/mapfiles/place_api/icons/generic_business-71.png", "id": "0d1b7670644e4fd592d83906ac13ac4e8c44a73f", "name": "MSL Consulting", "place_id": "ChIJxzuDOk1444kR_dK8_PpjsJk", "plus_code": {"compound_code": "8VR3+4Q Boston, Massachusetts, United States", "global_code": "87JC8VR3+4Q"}, "reference": "ChIJxzuDOk1444kR_dK8_PpjsJk", "scope": "GOOGLE", "types": ["point_of_interest", "establishment"], "vicinity": "90 Kilsyth Road #27, Boston"}, "ChIJ3ybcOCd544kREKIJbXgCLd8": {"geometry": {"location": {"lat": 42.3382694, "lng": -71.1475914}, "viewport": {"northeast": {"lat": 42.3395525802915, "lng": -71.1462930197085}, "southwest": {"lat": 42.3368546197085, "lng": -71.14899098029152}}}, "icon": "https://maps.gstatic.com/mapfiles/place_api/icons/generic_business-71.png", "id": "5bc5ab2833d1a5ad006668c87069441a96a25f4f", "name": "The Ethical Applicant College Consulting", "place_id": "ChIJ3ybcOCd544kREKIJbXgCLd8", "plus_code": {"compound_code": "8VQ2+8X Boston, Massachusetts, United States", "global_code": "87JC8VQ2+8X"}, "reference": "ChIJ3ybcOCd544kREKIJbXgCLd8", "scope": "GOOGLE", "types": ["point_of_interest", "establishment"], "vicinity": "53 Strathmore Road #2, Boston"}, "ChIJkYJellJ444kR_m9A-bv1c60": {"geometry": {"location": {"lat": 42.3380417, "lng": -71.14649969999999}, "viewport": {"northeast": {"lat": 42.3394104802915, "lng": -71.14515371970849}, "southwest": {"lat": 42.3367125197085, "lng": -71.14785168029151}}}, "icon": "https://maps.gstatic.com/mapfiles/place_api/icons/shopping-71.png", "id": "850a85e661ce979df8d6013ff12e09cae1ec822d", "name": "Bicycle Book Swap", "place_id": "ChIJkYJellJ444kR_m9A-bv1c60", "plus_code": {"compound_code": "8VQ3+6C Brookline, Massachusetts, United States", "global_code": "87JC8VQ3+6C"}, "reference": "ChIJkYJellJ444kR_m9A-bv1c60", "scope": "GOOGLE", "types": ["book_store", "store", "point_of_interest", "establishment"], "vicinity": "38 Englewood Avenue, Brighton"}, "ChIJPRkgCU1444kRv0C1hYj4p_U": {"geometry": {"location": {"lat": 42.34047160000001, "lng": -71.1479078}, "viewport": {"northeast": {"lat": 42.3417891302915, "lng": -71.14650646970848}, "southwest": {"lat": 42.3390911697085, "lng": -71.1492044302915}}}, "icon": "https://maps.gstatic.com/mapfiles/place_api/icons/generic_business-71.png", "id": "09a81b358ee569cafc3f9237f498b49f953c866c", "name": "Schuster Co", "place_id": "ChIJPRkgCU1444kRv0C1hYj4p_U", "plus_code": {"compound_code": "8VR2+5R Boston, Massachusetts, United States", "global_code": "87JC8VR2+5R"}, "rating": 5, "reference": "ChIJPRkgCU1444kRv0C1hYj4p_U", "scope": "GOOGLE", "types": ["real_estate_agency", "point_of_interest", "establishment"], "user_ratings_total": 1, "vicinity": "130 Sutherland Road # 8, Brighton"}, "ChIJXShUQMZ544kRDd56baFfLfc": {"geometry": {"location": {"lat": 42.3405484, "lng": -71.1453622}, "viewport": {"northeast": {"lat": 42.3418176802915, "lng": -71.14404381970849}, "southwest": {"lat": 42.3391197197085, "lng": -71.1467417802915}}}, "icon": "https://maps.gstatic.com/mapfiles/place_api/icons/generic_business-71.png", "id": "d730523aca735094c6c803f34788fb8d85ba612d", "name": "City Kitty Boston", "opening_hours": {"open_now": true}, "photos": [{"height": 402, "html_attributions": ["<a href=\"https://maps.google.com/maps/contrib/112815516410082283034/photos\">City Kitty Boston</a>"], "photo_reference": "CmRaAAAAJwdMhVvkYtZHPNJ3cA6G3dRLvqdHXwWaZhLI_AO0MgkBWTc4XH25xsgHknXS3hgMESnp7kSMDm77VikXkg5CwgwmNX4NrLHpmsGU8UzPI3aszOpN2eR_2c-gRseNW2lnEhB_Hyz1BPeSQis_xqBg3g5bGhTlIBdTVTlBIB4VFJCXPeW47y02ZA", "width": 580}], "place_id": "ChIJXShUQMZ544kRDd56baFfLfc", "plus_code": {"compound_code": "8VR3+6V Boston, Massachusetts, United States", "global_code": "87JC8VR3+6V"}, "rating": 5, "reference": "ChIJXShUQMZ544kRDd56baFfLfc", "scope": "GOOGLE", "types": ["point_of_interest", "establishment"], "user_ratings_total": 5, "vicinity": "95 Kilsyth Road, Boston"}, "ChIJ53IXu1J444kRsRwaNHssp3U": {"geometry": {"location": {"lat": 42.3380544, "lng": -71.1458318}, "viewport": {"northeast": {"lat": 42.33941788029149, "lng": -71.14447266970849}, "southwest": {"lat": 42.33671991970849, "lng": -71.1471706302915}}}, "icon": "https://maps.gstatic.com/mapfiles/place_api/icons/generic_business-71.png", "id": "f53226b680f49ffe22922bb5f1a40123ab0b23af", "name": "Brookline Valuation Services", "place_id": "ChIJ53IXu1J444kRsRwaNHssp3U", "plus_code": {"compound_code": "8VQ3+6M Brookline, Massachusetts, United States", "global_code": "87JC8VQ3+6M"}, "reference": "ChIJ53IXu1J444kRsRwaNHssp3U", "scope": "GOOGLE", "types": ["point_of_interest", "establishment"], "vicinity": "27 Englewood Avenue, Brookline"}, "ChIJy_rVJk1444kRubOWJE0RN6A": {"geometry": {"location": {"lat": 42.34101459999999, "lng": -71.1459192}, "viewport": {"northeast": {"lat": 42.34232848029151, "lng": -71.14459596970849}, "southwest": {"lat": 42.33963051970851, "lng": -71.14729393029151}}}, "icon": "https://maps.gstatic.com/mapfiles/place_api/icons/generic_recreational-71.png", "id": "d0415e97fc1b4fdf3c1d3d5cd30a2fae785c83e5", "name": "Wilson Park", "place_id": "ChIJy_rVJk1444kRubOWJE0RN6A", "reference": "ChIJy_rVJk1444kRubOWJE0RN6A", "scope": "GOOGLE", "types": ["park", "premise", "point_of_interest", "establishment"], "vicinity": "Boston"}, "ChIJhZirQQB544kRB9LbXEfedZQ": {"geometry": {"location": {"lat": 42.33176419999999, "lng": -71.1211635}, "viewport": {"northeast": {"lat": 42.3518109, "lng": -71.1056969}, "southwest": {"lat": 42.29459689999999, "lng": -71.1789959}}}, "icon": "https://maps.gstatic.com/mapfiles/place_api/icons/geocode-71.png", "id": "92986b2d1f69af2f2a7e29d34ced8adfa8573beb", "name": "Brookline", "photos": [{"height": 651, "html_attributions": ["<a href=\"https://maps.google.com/maps/contrib/114772942214832951419/photos\">Michael Ahn</a>"], "photo_reference": "CmRaAAAAQmxjvLSMUHB2FbQrzDC044WNp2zAowqeMe3_MLU5So_dMFMiWY-Y3vZZNpDd2dVRzoDTyeJagp1266CE9lwWCYIwyY9YQ5tJK1nE26YD9wu3m41q56g1RMMWOsZdMwH7EhBojmyCCBB_FGR9l3HM202EGhQr3SMD6cHEjXwmocVIMygn2jujOA", "width": 1608}], "place_id": "ChIJhZirQQB544kRB9LbXEfedZQ", "reference": "ChIJhZirQQB544kRB9LbXEfedZQ", "scope": "GOOGLE", "types": ["locality", "political"], "vicinity": "Brookline"}}