{"ChIJGzE9DS1l44kRoOhiASS_fHg": {"geometry": {"location": {"lat": 42.3600825, "lng": -71.0588801}, "viewport": {"northeast": {"lat": 42.40081989999999, "lng": -70.749455}, "southwest": {"lat": 42.22788, "lng": -71.191113}}}, "icon": "https://maps.gstatic.com/mapfiles/place_api/icons/geocode-71.png", "id": "06755c25d2b34d13942a4713971756a55b870ced", "name": "Boston", "photos": [{"height": 3024, "html_attributions": ["<a href=\"https://maps.google.com/maps/contrib/104670289779338733432/photos\">Natalia Zalucean</a>"], "photo_reference": "CmRaAAAA3GkGzIidCDyh_1Eyq6Q2HyvzSkIHnBPUgz-PDGy9PS5g3w93a0hFno3vgpoLGy8Z13yWHAtMt7QYkrSmtBBIhWNt3WiiT3wi8G2UxLB5VzcpiZwg_wc7PpqeoRbDJIIFEhCstgoGtGO2ElkvYU6dloxpGhQDp0EM1BbayooKRb8eT3n3Jtm8rA", "width": 4032}], "place_id": "ChIJGzE9DS1l44kRoOhiASS_fHg", "reference": "ChIJGzE9DS1l44kRoOhiASS_fHg", "scope": "GOOGLE", "types": ["locality", "political"], "vicinity": "Boston"}, "ChIJecRudaF-44kRGfARr6cRVaY": {"geometry": {"location": {"lat": 42.267086, "lng": -71.101894}, "viewport": {"northeast": {"lat": 42.2685005302915, "lng": -71.1004477697085}, "southwest": {"lat": 42.2658025697085, "lng": -71.10314573029152}}}, "icon": "https://maps.gstatic.com/mapfiles/place_api/icons/worship_general-71.png", "id": "9f3818e795627acf0125493f04ea184a01ba1ef1", "name": "Eglise Des Elus (Church Of Elus)", "opening_hours": {"open_now": false}, "photos": [{"height": 3024, "html_attributions": ["<a href=\"https://maps.google.com/maps/contrib/105305633683735705033/photos\">Eglise Des Elus (Church Of Elus)</a>"], "photo_reference": "CmRaAAAAR4Qo-O7za3qAWT_29pmW1DeC0i2vNLP3-x1KkDOuVo7VA2xLXjgqVPYfqEgohJL5_sN64e8sxjU8UlOpDbNTzFVlJEtQtHbrEwF7utjru7G19gaHBHsfWlBrk5aquNZIEhAdxwtdvNtQHXtBbTqfoO1pGhT_A6_smVlAp5ywgnlfZEtcrNivQg", "width": 4032}], "place_id": "ChIJecRudaF-44kRGfARr6cRVaY", "plus_code": {"compound_code": "7V8X+R6 Boston, Massachusetts, United States", "global_code": "87JC7V8X+R6"}, "rating": 5, "reference": "ChIJecRudaF-44kRGfARr6cRVaY", "scope": "GOOGLE", "types": ["church", "place_of_worship", "point_of_interest", "establishment"], "user_ratings_total": 2, "vicinity": "66 Greenfield Road, Boston"}, "ChIJMUY4kKF-44kR5ucy9C1SYiM": {"geometry": {"location": {"lat": 42.2664808, "lng": -71.1025294}, "viewport": {"northeast": {"lat": 42.2678023802915, "lng": -71.1011306197085}, "southwest": {"lat": 42.2651044197085, "lng": -71.1038285802915}}}, "icon": "https://maps.gstatic.com/mapfiles/place_api/icons/generic_business-71.png", "id": "8a2d9182fb97e5d267fc804a78b8a214a6d7a423", "name": "Teri Marketing Services Inc", "place_id": "ChIJMUY4kKF-44kR5ucy9C1SYiM", "plus_code": {"compound_code": "7V8W+HX Boston, Massachusetts, United States", "global_code": "87JC7V8W+HX"}, "reference": "ChIJMUY4kKF-44kR5ucy9C1SYiM", "scope": "GOOGLE", "types": ["insurance_agency", "point_of_interest", "establishment"], "vicinity": "800 Ralston Road, Boston"}, "ChIJ39uuq9x_44kRSIcyzQtF1zs": {"geometry": {"location": {"lat": 42.26605199999999, "lng": -71.100814}, "viewport": {"northeast": {"lat": 42.26747038029149, "lng": -71.0993505197085}, "southwest": {"lat": 42.26477241970849, "lng": -71.1020484802915}}}, "icon": "https://maps.gstatic.com/mapfiles/place_api/icons/worship_general-71.png", "id": "474f097ecee39d2b241252198be5cf21c69c708e", "name": "Beulah Tabernacle Apostolic Church", "opening_hours": {"open_now": false}, "photos": [{"height": 682, "html_attributions": ["<a href=\"https://maps.google.com/maps/contrib/117494706616312600640/photos\">Beulah Tabernacle Apostolic Church</a>"], "photo_reference": "CmRaAAAAKaTRG2EVLOVEEsmv5brPzl5mmmk6KVdJi8cwnb0ux4jjrDz5BMYxhtj12k16PIN6kvSYmeV0pBwMdUxJkUhwVoJOyXVVM6NlwTEHjNZrQH1uy900z-C8pyosUnczPR7QEhBDI9_LXWrilxOj90MivaJFGhTOUvUC0BmY3pawSRZ7534MrSDDHg", "width": 1024}], "place_id": "ChIJ39uuq9x_44kRSIcyzQtF1zs", "plus_code": {"compound_code": "7V8X+CM Boston, Massachusetts, United States", "global_code": "87JC7V8X+CM"}, "rating": 5, "reference": "ChIJ39uuq9x_44kRSIcyzQtF1zs", "scope": "GOOGLE", "types": ["church", "place_of_worship", "point_of_interest", "establishment"], "user_ratings_total": 1, "vicinity": "10 Frontenac Street, Dorchester"}, "ChIJC4ZxaKF-44kRzBI3lytEhpk": {"geometry": {"location": {"lat": 42.268232, "lng": -71.102479}, "viewport": {"northeast": {"lat": 42.2695069302915, "lng": -71.10124276970849}, "southwest": {"lat": 42.2668089697085, "lng": -71.1039407302915}}}, "icon": "https://maps.gstatic.com/mapfiles/place_api/icons/generic_business-71.png", "id": "3f7666111ddbacbb480c3de387e1d48387e1f6ad", "name": "NEB Custom Software", "place_id": "ChIJC4ZxaKF-44kRzBI3lytEhpk", "plus_code": {"compound_code": "7V9X+72 Boston, Massachusetts, United States", "global_code": "87JC7V9X+72"}, "reference": "ChIJC4ZxaKF-44kRzBI3lytEhpk", "scope": "GOOGLE", "types": ["point_of_interest", "establishment"], "vicinity": "97 Greenfield Road, Mattapan"}, "ChIJo1frKaF-44kRcUwAE8BUL0I": {"geometry": {"location": {"lat": 42.26875739999999, "lng": -71.10042729999999}, "viewport": {"northeast": {"lat": 42.2701533302915, "lng": -71.09902946970851}, "southwest": {"lat": 42.2674553697085, "lng": -71.10172743029152}}}, "icon": "https://maps.gstatic.com/mapfiles/place_api/icons/generic_recreational-71.png", "id": "554875a6d017a21dc3f842b31e74d280681011b0", "name": "Fairlawn Green", "place_id": "ChIJo1frKaF-44kRcUwAE8BUL0I", "reference": "ChIJo1frKaF-44kRcUwAE8BUL0I", "scope": "GOOGLE", "types": ["park", "premise", "point_of_interest", "establishment"], "vicinity": "Boston"}, "ChIJKaX9WPN-44kRuBkSMPi0ovg": {"geometry": {"location": {"lat": 42.2565289, "lng": -71.1240559}, "viewport": {"northeast": {"lat": 42.280099, "lng": -71.09799509999999}, "southwest": {"lat": 42.227798, "lng": -71.1460957}}}, "icon": "https://maps.gstatic.com/mapfiles/place_api/icons/geocode-71.png", "id": "c0e96efb3074e45bd87b53a676a6308f74ca332d", "name": "Hyde Park", "photos": [{"height": 2448, "html_attributions": ["<a href=\"https://maps.google.com/maps/contrib/109826948244288350691/photos\">Bayoan Martinez-Yung</a>"], "photo_reference": "CmRaAAAALSgT3CcOSnxBfJypdG6kRU2DnIL2rTnRE8sSlBLRXtgWmKCIa90Pb5XxsDkP5Q-G0FHQR8XrnWk5BIJH0u0JgzLSW5v2iBkuf-RzfGs3Is06aWlfjSG89YsFRnET31oBEhAXglSoauSeRGL1eyWpj3u6GhRv6-j72jS0LUHKN63Dcs6ly-hE9A", "width": 3264}], "place_id": "ChIJKaX9WPN-44kRuBkSMPi0ovg", "reference": "ChIJKaX9WPN-44kRuBkSMPi0ovg", "scope": "GOOGLE", "types": ["neighborhood", "political"], "vicinity": "Boston"}}