{"ChIJhZirQQB544kRB9LbXEfedZQ": {"geometry": {"location": {"lat": 42.33176419999999, "lng": -71.1211635}, "viewport": {"northeast": {"lat": 42.3518109, "lng": -71.1056969}, "southwest": {"lat": 42.29459689999999, "lng": -71.1789959}}}, "icon": "https://maps.gstatic.com/mapfiles/place_api/icons/geocode-71.png", "id": "92986b2d1f69af2f2a7e29d34ced8adfa8573beb", "name": "Brookline", "photos": [{"height": 651, "html_attributions": ["<a href=\"https://maps.google.com/maps/contrib/114772942214832951419/photos\">Michael Ahn</a>"], "photo_reference": "CmRaAAAAEnZoCz9Rgj7MsXio4yI1yWgAjNo6oJCS3ybA4nVNVztnPINsuWo5eRtvmYn5vOZgPZSXNZ4z_q0YQbcmd_G_5fF87MrnicoD8e_aOtJQuH-dD-XiuNDMftZffwQR7A9KEhDDpKMUdciwg1M_cIbfr7HnGhQ2t_jvshqj_YGaS3zgBN4p6AclpQ", "width": 1608}], "place_id": "ChIJhZirQQB544kRB9LbXEfedZQ", "reference": "ChIJhZirQQB544kRB9LbXEfedZQ", "scope": "GOOGLE", "types": ["locality", "political"], "vicinity": "Brookline"}, "ChIJDfQPtex544kRbGVa4rgTlsc": {"geometry": {"location": {"lat": 42.3428999, "lng": -71.1138406}, "viewport": {"northeast": {"lat": 42.3442571802915, "lng": -71.11246116970848}, "southwest": {"lat": 42.3415592197085, "lng": -71.1151591302915}}}, "icon": "https://maps.gstatic.com/mapfiles/place_api/icons/generic_business-71.png", "id": "e30f649d34b7b46688521b09b72013fe3cbb125a", "name": "Dr. Alan L. Bateman, MD", "opening_hours": {"open_now": false}, "photos": [{"height": 450, "html_attributions": ["<a href=\"https://maps.google.com/maps/contrib/101331058512145143190/photos\">Dr. Alan L. Bateman, MD</a>"], "photo_reference": "CmRaAAAAnP47mmDxN-63KhOeiw7SXLRF45vCNlaQsOlmK0H-_C5zz2lWlDLHP_0hU_4d1hLgC0PX83dRRdE5OB3E7CXp_zXjrgVT8QJ6sRDT9XzbNEnQ9Uz_EF94lra6fPSVdrTjEhBEYDcCaE4FNtTSvAHvFEHrGhTTRiiyAQV0QBwQolBaksMZRnqeQw", "width": 651}], "place_id": "ChIJDfQPtex544kRbGVa4rgTlsc", "plus_code": {"compound_code": "8VVP+5F Brookline, Massachusetts, United States", "global_code": "87JC8VVP+5F"}, "reference": "ChIJDfQPtex544kRbGVa4rgTlsc", "scope": "GOOGLE", "types": ["doctor", "health", "point_of_interest", "establishment"], "vicinity": "366 Kent Street, Brookline"}, "ChIJo-tPXpN544kRcI5ZJ4Cf7pc": {"geometry": {"location": {"lat": 42.34178180000001, "lng": -71.11510489999999}, "viewport": {"northeast": {"lat": 42.3432028302915, "lng": -71.11374621970849}, "southwest": {"lat": 42.3405048697085, "lng": -71.1164441802915}}}, "icon": "https://maps.gstatic.com/mapfiles/place_api/icons/generic_business-71.png", "id": "a27a259cc7f40fc1cae3fd453a71aa2cc7360a3f", "name": "Fresh Tracks Inc", "place_id": "ChIJo-tPXpN544kRcI5ZJ4Cf7pc", "plus_code": {"compound_code": "8VRM+PX Brookline, Massachusetts, United States", "global_code": "87JC8VRM+PX"}, "reference": "ChIJo-tPXpN544kRcI5ZJ4Cf7pc", "scope": "GOOGLE", "types": ["point_of_interest", "establishment"], "vicinity": "131 Sewall Avenue, Brookline"}, "ChIJVVVpOJN544kRfKx71PmG920": {"geometry": {"location": {"lat": 42.3420678, "lng": -71.113588}, "viewport": {"northeast": {"lat": 42.3434463802915, "lng": -71.1121310197085}, "southwest": {"lat": 42.3407484197085, "lng": -71.1148289802915}}}, "icon": "https://maps.gstatic.com/mapfiles/place_api/icons/generic_business-71.png", "id": "502b91778340df87c2bfe097394b8770756940b8", "name": "DeFrancis Carbone", "place_id": "ChIJVVVpOJN544kRfKx71PmG920", "plus_code": {"compound_code": "8VRP+RH Brookline, Massachusetts, United States", "global_code": "87JC8VRP+RH"}, "reference": "ChIJVVVpOJN544kRfKx71PmG920", "scope": "GOOGLE", "types": ["point_of_interest", "establishment"], "vicinity": "328 Kent Street, Brookline"}, "ChIJa9hDeJN544kRg4KR7q0Q5io": {"geometry": {"location": {"lat": 42.3408086, "lng": -71.1143481}, "viewport": {"northeast": {"lat": 42.3420481302915, "lng": -71.1130192697085}, "southwest": {"lat": 42.3393501697085, "lng": -71.11571723029151}}}, "icon": "https://maps.gstatic.com/mapfiles/place_api/icons/generic_business-71.png", "id": "b8ea1526b9141c95bf72a680b7d016863d4135fc", "name": "Brookline Design Group", "place_id": "ChIJa9hDeJN544kRg4KR7q0Q5io", "plus_code": {"compound_code": "8VRP+87 Brookline, Massachusetts, United States", "global_code": "87JC8VRP+87"}, "reference": "ChIJa9hDeJN544kRg4KR7q0Q5io", "scope": "GOOGLE", "types": ["general_contractor", "point_of_interest", "establishment"], "vicinity": "138 Longwood Avenue, Brookline"}, "ChIJvZ65KO1544kRuaLd7x6dktM": {"geometry": {"location": {"lat": 42.3429545, "lng": -71.1117079}, "viewport": {"northeast": {"lat": 42.3442346302915, "lng": -71.11032431970851}, "southwest": {"lat": 42.3415366697085, "lng": -71.11302228029152}}}, "icon": "https://maps.gstatic.com/mapfiles/place_api/icons/generic_recreational-71.png", "id": "a93f354dde7f4a0aacedeba94c7618baa77ff0ed", "name": "Longwood Mall", "photos": [{"height": 2988, "html_attributions": ["<a href=\"https://maps.google.com/maps/contrib/107136543913974997935/photos\">Christophe Leroy</a>"], "photo_reference": "CmRaAAAAIqjJ0oG0D3dFAT-VoJ0CyALXmq5j2Q1vj-H97LVeKb8gZagX7DBWqsdwZpY679kPVfhIwom3UGLy0lOe-tQxVdAa0BnIloJYPn8tU9U9B_nB90jSBHvvdv21aPC_nATEEhB42OhTn7Fg7n2pnZbh-janGhQ1Kqs9V-wB5EK1XIZ0Y23C1dD0oA", "width": 5312}], "place_id": "ChIJvZ65KO1544kRuaLd7x6dktM", "plus_code": {"compound_code": "8VVQ+58 Brookline, Massachusetts, United States", "global_code": "87JC8VVQ+58"}, "rating": 4.8, "reference": "ChIJvZ65KO1544kRuaLd7x6dktM", "scope": "GOOGLE", "types": ["park", "point_of_interest", "establishment"], "user_ratings_total": 19, "vicinity": "Brookline"}, "ChIJq6o-uOx544kR28zJyKva8vg": {"geometry": {"location": {"lat": 42.34343629999999, "lng": -71.1137737}, "viewport": {"northeast": {"lat": 42.3447546302915, "lng": -71.1125369197085}, "southwest": {"lat": 42.3420566697085, "lng": -71.11523488029151}}}, "icon": "https://maps.gstatic.com/mapfiles/place_api/icons/generic_business-71.png", "id": "f2fa5e16c52d8de08782ee6ed49864c730ce4a6f", "name": "Rainbow Tribe", "place_id": "ChIJq6o-uOx544kR28zJyKva8vg", "plus_code": {"compound_code": "8VVP+9F Brookline, Massachusetts, United States", "global_code": "87JC8VVP+9F"}, "reference": "ChIJq6o-uOx544kR28zJyKva8vg", "scope": "GOOGLE", "types": ["point_of_interest", "establishment"], "vicinity": "365 Kent Street, Brookline"}, "ChIJoZM3pex544kRY1QIdA5Aeks": {"geometry": {"location": {"lat": 42.34341939999999, "lng": -71.11463069999999}, "viewport": {"northeast": {"lat": 42.34495748029148, "lng": -71.1133770197085}, "southwest": {"lat": 42.34225951970849, "lng": -71.1160749802915}}}, "icon": "https://maps.gstatic.com/mapfiles/place_api/icons/school-71.png", "id": "1ff62435775b97000970ccc923a6ee68361453b7", "name": "Ansin Religious School", "place_id": "ChIJoZM3pex544kRY1QIdA5Aeks", "plus_code": {"compound_code": "8VVP+94 Brookline, Massachusetts, United States", "global_code": "87JC8VVP+94"}, "rating": 5, "reference": "ChIJoZM3pex544kRY1QIdA5Aeks", "scope": "GOOGLE", "types": ["point_of_interest", "school", "establishment"], "user_ratings_total": 1, "vicinity": "1187 Beacon Street, Brookline"}, "ChIJo-tPXpN544kR0EIkiJA_YWo": {"geometry": {"location": {"lat": 42.341911, "lng": -71.115089}, "viewport": {"northeast": {"lat": 42.3432436302915, "lng": -71.1137422197085}, "southwest": {"lat": 42.3405456697085, "lng": -71.1164401802915}}}, "icon": "https://maps.gstatic.com/mapfiles/place_api/icons/generic_business-71.png", "id": "1ad8bbe7f3d77a300f99f944b973ccb803e9719d", "name": "Brenner Ruth G", "place_id": "ChIJo-tPXpN544kR0EIkiJA_YWo", "plus_code": {"compound_code": "8VRM+QX Brookline, Massachusetts, United States", "global_code": "87JC8VRM+QX"}, "reference": "ChIJo-tPXpN544kR0EIkiJA_YWo", "scope": "GOOGLE", "types": ["doctor", "health", "point_of_interest", "establishment"], "vicinity": "131 Sewall Avenue # 57, Brookline"}, "ChIJzam5Q5N544kRG11M97bzvSY": {"geometry": {"location": {"lat": 42.3418535, "lng": -71.1141141}, "viewport": {"northeast": {"lat": 42.3431825802915, "lng": -71.1127663697085}, "southwest": {"lat": 42.3404846197085, "lng": -71.1154643302915}}}, "icon": "https://maps.gstatic.com/mapfiles/place_api/icons/generic_business-71.png", "id": "bdce7f71c794a0c57360b83cbc4bb5dc961c06b7", "name": "Susan R. Berger, EdD", "place_id": "ChIJzam5Q5N544kRG11M97bzvSY", "plus_code": {"compound_code": "8VRP+P9 Brookline, Massachusetts, United States", "global_code": "87JC8VRP+P9"}, "reference": "ChIJzam5Q5N544kRG11M97bzvSY", "scope": "GOOGLE", "types": ["health", "point_of_interest", "establishment"], "vicinity": "155 Sewall Avenue, Brookline"}, "ChIJedlBWpN544kRluY4hQq94FQ": {"geometry": {"location": {"lat": 42.342295, "lng": -71.1146022}, "viewport": {"northeast": {"lat": 42.3436293302915, "lng": -71.11328751970849}, "southwest": {"lat": 42.3409313697085, "lng": -71.1159854802915}}}, "icon": "https://maps.gstatic.com/mapfiles/place_api/icons/generic_business-71.png", "id": "5db625ec8b85bcdab6098549874267e9b29d0eaa", "name": "Farrell Studio", "place_id": "ChIJedlBWpN544kRluY4hQq94FQ", "plus_code": {"compound_code": "8VRP+W5 Brookline, Massachusetts, United States", "global_code": "87JC8VRP+W5"}, "reference": "ChIJedlBWpN544kRluY4hQq94FQ", "scope": "GOOGLE", "types": ["point_of_interest", "establishment"], "vicinity": "51 Marshal Street, Brookline"}, "ChIJtTJlSIx544kR7qd8MYn5JaM": {"geometry": {"location": {"lat": 42.342885, "lng": -71.1145046}, "viewport": {"northeast": {"lat": 42.3442206802915, "lng": -71.1133764697085}, "southwest": {"lat": 42.3415227197085, "lng": -71.1160744302915}}}, "icon": "https://maps.gstatic.com/mapfiles/place_api/icons/generic_business-71.png", "id": "4960a96b177d6d53600ddfdd6a6a214dca39a3d9", "name": "Sheila Drakeley Photography", "opening_hours": {"open_now": true}, "photos": [{"height": 417, "html_attributions": ["<a href=\"https://maps.google.com/maps/contrib/102807146453985485350/photos\">Sheila Drakeley Photography</a>"], "photo_reference": "CmRaAAAAg9jFyj1OFPqZCVjbhjha5bisZg5QjL7f3AVDGH3FAi4LzFO_jKpvFrQmEYCJZiA0s4kkeBcGnAb2KNyDa8gItC81trLNHipztDvCma_dIQvQWCxoDLN6fcZF5seKoK7KEhDIIQc799pYcQ5l1JTEYjXPGhThqFRkZfQP8NbmKGl0AjwdxuLeaw", "width": 639}], "place_id": "ChIJtTJlSIx544kR7qd8MYn5JaM", "plus_code": {"compound_code": "8VVP+55 Brookline, Massachusetts, United States", "global_code": "87JC8VVP+55"}, "rating": 5, "reference": "ChIJtTJlSIx544kR7qd8MYn5JaM", "scope": "GOOGLE", "types": ["point_of_interest", "establishment"], "user_ratings_total": 3, "vicinity": "Brookline"}, "ChIJgT6htex544kR3NyIcFARols": {"geometry": {"location": {"lat": 42.34327270000001, "lng": -71.1138461}, "viewport": {"northeast": {"lat": 42.34460958029151, "lng": -71.11254146970849}, "southwest": {"lat": 42.34191161970851, "lng": -71.1152394302915}}}, "icon": "https://maps.gstatic.com/mapfiles/place_api/icons/generic_business-71.png", "id": "27b5255691a9f262c80c602901e1d21e6ed18162", "name": "Massachusetts Neuro Intrvention Pc", "place_id": "ChIJgT6htex544kR3NyIcFARols", "plus_code": {"compound_code": "8VVP+8F Brookline, Massachusetts, United States", "global_code": "87JC8VVP+8F"}, "reference": "ChIJgT6htex544kR3NyIcFARols", "scope": "GOOGLE", "types": ["doctor", "health", "point_of_interest", "establishment"], "vicinity": "359 Kent Street, Brookline"}, "ChIJv1o61-x544kRbsMObhVtrOQ": {"geometry": {"location": {"lat": 42.3432441, "lng": -71.1124275}, "viewport": {"northeast": {"lat": 42.34451243029149, "lng": -71.1110393697085}, "southwest": {"lat": 42.3418144697085, "lng": -71.1137373302915}}}, "icon": "https://maps.gstatic.com/mapfiles/place_api/icons/generic_business-71.png", "id": "76466aff91136f17972d1c94ee5455a90fce5787", "name": "Dr. Valerie S. Mandell, MD", "place_id": "ChIJv1o61-x544kRbsMObhVtrOQ", "plus_code": {"compound_code": "8VVQ+72 Brookline, Massachusetts, United States", "global_code": "87JC8VVQ+72"}, "reference": "ChIJv1o61-x544kRbsMObhVtrOQ", "scope": "GOOGLE", "types": ["doctor", "health", "point_of_interest", "establishment"], "vicinity": "47 Chatham Street, Brookline"}, "ChIJ28guVZN544kROU93VkcbJwI": {"geometry": {"location": {"lat": 42.3429853, "lng": -71.1150389}, "viewport": {"northeast": {"lat": 42.34434028029149, "lng": -71.11365706970848}, "southwest": {"lat": 42.3416423197085, "lng": -71.11635503029149}}}, "icon": "https://maps.gstatic.com/mapfiles/place_api/icons/generic_business-71.png", "id": "ca24ce734f76a9d7ebfac94926f18bad9efcc651", "name": "Lisa Diercks Design", "photos": [{"height": 2560, "html_attributions": ["<a href=\"https://maps.google.com/maps/contrib/118277951781608206997/photos\">Herik Moreno</a>"], "photo_reference": "CmRaAAAAI-Fty3jGaaYhO_iAtJjTMmEkHjWlqpayvm2FiY4-WqcqrMW8K5hbQapS1QSk24UTx5GH65_-URFHYjWK4lsrQb6AnZ1bZkXl5LpDaqQodAESD5uHQh7mFcFAfBDK1KnEEhCpySr5LgebnTqL3KgafV7zGhShq_rbSm1A3LZjFB6R7sBi3JsX2g", "width": 1440}], "place_id": "ChIJ28guVZN544kROU93VkcbJwI", "plus_code": {"compound_code": "8VVM+5X Brookline, Massachusetts, United States", "global_code": "87JC8VVM+5X"}, "reference": "ChIJ28guVZN544kROU93VkcbJwI", "scope": "GOOGLE", "types": ["point_of_interest", "establishment"], "vicinity": "66 Marshal Street # 7, Brookline"}, "ChIJNUZ0oZR544kRSP0mgNe4R9k": {"geometry": {"location": {"lat": 42.342132, "lng": -71.1154913}, "viewport": {"northeast": {"lat": 42.34338598029149, "lng": -71.1141423197085}, "southwest": {"lat": 42.34068801970849, "lng": -71.11684028029151}}}, "icon": "https://maps.gstatic.com/mapfiles/place_api/icons/generic_business-71.png", "id": "f1fff2f1dc4f2cb5df4ae20cb0247f0deff8bf00", "name": "Dr. Elliott G. Segal, MD", "place_id": "ChIJNUZ0oZR544kRSP0mgNe4R9k", "plus_code": {"compound_code": "8VRM+VR Brookline, Massachusetts, United States", "global_code": "87JC8VRM+VR"}, "reference": "ChIJNUZ0oZR544kRSP0mgNe4R9k", "scope": "GOOGLE", "types": ["doctor", "health", "point_of_interest", "establishment"], "vicinity": "126 Sewall Avenue, Brookline"}, "ChIJPVPr-ZR544kR23IqBGhXrZI": {"geometry": {"location": {"lat": 42.3418798, "lng": -71.1155642}, "viewport": {"northeast": {"lat": 42.34325938029149, "lng": -71.11421571970848}, "southwest": {"lat": 42.34056141970849, "lng": -71.1169136802915}}}, "icon": "https://maps.gstatic.com/mapfiles/place_api/icons/shopping-71.png", "id": "1b0250c5a60694abe4527ab91b2161e7a8b150c9", "name": "Hitech Housecalls", "place_id": "ChIJPVPr-ZR544kR23IqBGhXrZI", "plus_code": {"compound_code": "8VRM+QQ Brookline, Massachusetts, United States", "global_code": "87JC8VRM+QQ"}, "reference": "ChIJPVPr-ZR544kR23IqBGhXrZI", "scope": "GOOGLE", "types": ["electronics_store", "store", "point_of_interest", "establishment"], "vicinity": "123 Saint Paul Street # 1, Brookline"}, "ChIJzc__CpZ544kRwpEhpJGiCaA": {"geometry": {"location": {"lat": 42.3402135, "lng": -71.11959949999999}, "viewport": {"northeast": {"lat": 42.343331, "lng": -71.11258099999999}, "southwest": {"lat": 42.3344871, "lng": -71.1269708}}}, "icon": "https://maps.gstatic.com/mapfiles/place_api/icons/geocode-71.png", "id": "fa822fbb859255568b453f33c73f032e9313b8ea", "name": "Coolidge Corner South Side", "place_id": "ChIJzc__CpZ544kRwpEhpJGiCaA", "reference": "ChIJzc__CpZ544kRwpEhpJGiCaA", "scope": "GOOGLE", "types": ["neighborhood", "political"], "vicinity": "Brookline"}}