{"ChIJGzE9DS1l44kRoOhiASS_fHg": {"geometry": {"location": {"lat": 42.3600825, "lng": -71.0588801}, "viewport": {"northeast": {"lat": 42.40081989999999, "lng": -70.749455}, "southwest": {"lat": 42.22788, "lng": -71.191113}}}, "icon": "https://maps.gstatic.com/mapfiles/place_api/icons/geocode-71.png", "id": "06755c25d2b34d13942a4713971756a55b870ced", "name": "Boston", "photos": [{"height": 3024, "html_attributions": ["<a href=\"https://maps.google.com/maps/contrib/104670289779338733432/photos\">Natalia Zalucean</a>"], "photo_reference": "CmRaAAAAn_-ip4znIhWsCzNt3zi-QmO1bgw2Jg_rNq3tIKucrLVA3M0KYYFDzLqbxd3REf14l2sA8udsJ1JcFTPlln0dQE9dzMqdZ-1uM9gjULgjnlWMhc3ICmqsd49G5A1k8Gr1EhDt2KshTcq4V3zVlY55mtP8GhQDKqO0_vM1UMgydQTAwfUl87nzrQ", "width": 4032}], "place_id": "ChIJGzE9DS1l44kRoOhiASS_fHg", "reference": "ChIJGzE9DS1l44kRoOhiASS_fHg", "scope": "GOOGLE", "types": ["locality", "political"], "vicinity": "Boston"}, "ChIJ94B5RVB444kREyPYF1dsriM": {"geometry": {"location": {"lat": 42.33885779999999, "lng": -71.1546456}, "viewport": {"northeast": {"lat": 42.3401334802915, "lng": -71.1533713697085}, "southwest": {"lat": 42.3374355197085, "lng": -71.1560693302915}}}, "icon": "https://maps.gstatic.com/mapfiles/place_api/icons/generic_business-71.png", "id": "fa18495a08b53867ed17c358c5051d0b4f28140b", "name": "Black Dot Strategies", "place_id": "ChIJ94B5RVB444kREyPYF1dsriM", "plus_code": {"compound_code": "8RQW+G4 Boston, Massachusetts, United States", "global_code": "87JC8RQW+G4"}, "reference": "ChIJ94B5RVB444kREyPYF1dsriM", "scope": "GOOGLE", "types": ["point_of_interest", "establishment"], "vicinity": "1925 Commonwealth Avenue, Brighton"}, "ChIJNw0PQ1B444kRKQDXYWnCQQk": {"geometry": {"location": {"lat": 42.338942, "lng": -71.1548882}, "viewport": {"northeast": {"lat": 42.34030663029149, "lng": -71.1537046197085}, "southwest": {"lat": 42.33760866970849, "lng": -71.15640258029151}}}, "icon": "https://maps.gstatic.com/mapfiles/place_api/icons/shopping-71.png", "id": "808cec20534d0b0e46b5c614f2ac59ffc7970034", "name": "Boston Pedorthic", "opening_hours": {"open_now": false}, "place_id": "ChIJNw0PQ1B444kRKQDXYWnCQQk", "plus_code": {"compound_code": "8RQW+H2 Boston, Massachusetts, United States", "global_code": "87JC8RQW+H2"}, "rating": 4.1, "reference": "ChIJNw0PQ1B444kRKQDXYWnCQQk", "scope": "GOOGLE", "types": ["shoe_store", "pharmacy", "doctor", "store", "health", "point_of_interest", "establishment"], "user_ratings_total": 10, "vicinity": "1929 Commonwealth Ave, Brighton, Ma 02135, Brighton"}, "ChIJVV1kb1B444kRWk2W4ALJUYk": {"geometry": {"location": {"lat": 42.3385797, "lng": -71.155608}, "viewport": {"northeast": {"lat": 42.3399742302915, "lng": -71.15421786970849}, "southwest": {"lat": 42.3372762697085, "lng": -71.1569158302915}}}, "icon": "https://maps.gstatic.com/mapfiles/place_api/icons/generic_business-71.png", "id": "e8f736aadebd1409f9e46354067662c6003696f7", "name": "Canary Coalmine", "opening_hours": {"open_now": true}, "place_id": "ChIJVV1kb1B444kRWk2W4ALJUYk", "plus_code": {"compound_code": "8RQV+CQ Boston, Massachusetts, United States", "global_code": "87JC8RQV+CQ"}, "reference": "ChIJVV1kb1B444kRWk2W4ALJUYk", "scope": "GOOGLE", "types": ["point_of_interest", "establishment"], "vicinity": "89 Strathmore Road, Boston"}, "ChIJExqHJlB444kRLwfrUkZekJ8": {"geometry": {"location": {"lat": 42.34011019999999, "lng": -71.1547061}, "viewport": {"northeast": {"lat": 42.34155698029149, "lng": -71.15330091970849}, "southwest": {"lat": 42.33885901970849, "lng": -71.1559988802915}}}, "icon": "https://maps.gstatic.com/mapfiles/place_api/icons/school-71.png", "id": "c0d058741c505d1aa6f976ba78721bc579a6842a", "name": "Bais Yaakov of Boston High", "place_id": "ChIJExqHJlB444kRLwfrUkZekJ8", "plus_code": {"compound_code": "8RRW+24 Boston, Massachusetts, United States", "global_code": "87JC8RRW+24"}, "reference": "ChIJExqHJlB444kRLwfrUkZekJ8", "scope": "GOOGLE", "types": ["point_of_interest", "school", "establishment"], "vicinity": "198 Strathmore Road, Brighton"}, "ChIJ0doLnlp444kRJA0fcJB0d4c": {"geometry": {"location": {"lat": 42.3390375, "lng": -71.1568674}, "viewport": {"northeast": {"lat": 42.34046978029149, "lng": -71.1554624697085}, "southwest": {"lat": 42.33777181970849, "lng": -71.1581604302915}}}, "icon": "https://maps.gstatic.com/mapfiles/place_api/icons/generic_business-71.png", "id": "f14c230a8fc40b99a6ae7a8b544d4bd26b3470ec", "name": "Parklake Realty Corporation", "place_id": "ChIJ0doLnlp444kRJA0fcJB0d4c", "plus_code": {"compound_code": "8RQV+J7 Boston, Massachusetts, United States", "global_code": "87JC8RQV+J7"}, "rating": 5, "reference": "ChIJ0doLnlp444kRJA0fcJB0d4c", "scope": "GOOGLE", "types": ["point_of_interest", "establishment"], "user_ratings_total": 1, "vicinity": "1970 Commonwealth Avenue, Brighton"}, "ChIJKzX1QlB444kRc90r6380Y60": {"geometry": {"location": {"lat": 42.3388235, "lng": -71.1551085}, "viewport": {"northeast": {"lat": 42.3402268802915, "lng": -71.1538400697085}, "southwest": {"lat": 42.3375289197085, "lng": -71.1565380302915}}}, "icon": "https://maps.gstatic.com/mapfiles/place_api/icons/generic_business-71.png", "id": "d91251741a04bd88866da1437234a6b53e826299", "name": "Vantage Point Financial LLC", "opening_hours": {"open_now": false}, "photos": [{"height": 2592, "html_attributions": ["<a href=\"https://maps.google.com/maps/contrib/101461248409040594958/photos\">Vantage Point Financial LLC</a>"], "photo_reference": "CmRaAAAAHoS6jykBeR9lmgVLwgU7EXSOlNbr94XrEO8Cl_h4bxJaNOrbFlr5iCplIRyj-YH9M3LzWnWVYHlxAvM3nBWIY9qGQ7wFwoUuZzpR5jNBMjBFH7UGwD-Y8rEPamXYqZCjEhCjnwrgdhiZ-lZnhv3BPeUGGhTllvugVnjdi1FHld0nOGJ8DWL4CQ", "width": 3872}], "place_id": "ChIJKzX1QlB444kRc90r6380Y60", "plus_code": {"compound_code": "8RQV+GX Boston, Massachusetts, United States", "global_code": "87JC8RQV+GX"}, "reference": "ChIJKzX1QlB444kRc90r6380Y60", "scope": "GOOGLE", "types": ["finance", "point_of_interest", "establishment"], "vicinity": "1931 Commonwealth Avenue, Brighton"}, "ChIJ6fZsPVB444kRMPJPeKG_VJ0": {"geometry": {"location": {"lat": 42.3395465, "lng": -71.155204}, "viewport": {"northeast": {"lat": 42.3409563302915, "lng": -71.15375186970849}, "southwest": {"lat": 42.3382583697085, "lng": -71.1564498302915}}}, "icon": "https://maps.gstatic.com/mapfiles/place_api/icons/generic_business-71.png", "id": "8395b659f4f5ed7212a7bfb4ddd35e6150dfbde8", "name": "Sima's Trove", "place_id": "ChIJ6fZsPVB444kRMPJPeKG_VJ0", "plus_code": {"compound_code": "8RQV+RW Boston, Massachusetts, United States", "global_code": "87JC8RQV+RW"}, "reference": "ChIJ6fZsPVB444kRMPJPeKG_VJ0", "scope": "GOOGLE", "types": ["store", "point_of_interest", "establishment"], "vicinity": "245 Chestnut Hill Avenue, Brighton"}, "ChIJLXo_7O464okRsxLIiI66Vjs": {"geometry": {"location": {"lat": 42.339546, "lng": -71.1562316}, "viewport": {"northeast": {"lat": 42.34075238029151, "lng": -71.1549890197085}, "southwest": {"lat": 42.33805441970851, "lng": -71.1576869802915}}}, "icon": "https://maps.gstatic.com/mapfiles/place_api/icons/generic_business-71.png", "id": "f9a2c7de80c361c2199def0318a7257fdbf1950a", "name": "Naturalife", "opening_hours": {"open_now": true}, "place_id": "ChIJLXo_7O464okRsxLIiI66Vjs", "plus_code": {"compound_code": "8RQV+RG Boston, Massachusetts, United States", "global_code": "87JC8RQV+RG"}, "reference": "ChIJLXo_7O464okRsxLIiI66Vjs", "scope": "GOOGLE", "types": ["health", "point_of_interest", "establishment"], "vicinity": "1949 Commonwealth Avenue #7, Brighton"}, "ChIJIV_XLrF444kRY5q9fhlinuQ": {"geometry": {"location": {"lat": 42.33884199999999, "lng": -71.15455279999999}, "viewport": {"northeast": {"lat": 42.3401255802915, "lng": -71.15332496970849}, "southwest": {"lat": 42.3374276197085, "lng": -71.1560229302915}}}, "icon": "https://maps.gstatic.com/mapfiles/place_api/icons/generic_business-71.png", "id": "03bbffe87f1ba1474214241ec6d899b37eaa6b9a", "name": "Dreamfar High School Marathon, Inc.", "photos": [{"height": 1871, "html_attributions": ["<a href=\"https://maps.google.com/maps/contrib/105944553832670379716/photos\">Dreamfar High School Marathon, Inc.</a>"], "photo_reference": "CmRaAAAA0M-vnFAABGvGoBk-NXfMS1sz2jRJvj6kWrd45pbdOXEMrgdtfTHowLpf-A-VPhJQcmZONSjvdjm5LZ3nWTNnB7Fw2FQaEqNjDMLz3oBTk0IfpGRw2HiO2o6lwA6MD9vfEhDXXvkiVswhzLW2AvwaPMWNGhTEUsFspAt24f_lBYueFpkM6rkFgw", "width": 5580}], "place_id": "ChIJIV_XLrF444kRY5q9fhlinuQ", "plus_code": {"compound_code": "8RQW+G5 Boston, Massachusetts, United States", "global_code": "87JC8RQW+G5"}, "reference": "ChIJIV_XLrF444kRY5q9fhlinuQ", "scope": "GOOGLE", "types": ["point_of_interest", "establishment"], "vicinity": "1925 Commonwealth Ave #W611, Brighton"}, "ChIJtzNEMUmD44kRS5QwRLgxrQA": {"geometry": {"location": {"lat": 42.33884199999999, "lng": -71.15455279999999}, "viewport": {"northeast": {"lat": 42.3401255802915, "lng": -71.15332496970849}, "southwest": {"lat": 42.3374276197085, "lng": -71.1560229302915}}}, "icon": "https://maps.gstatic.com/mapfiles/place_api/icons/generic_business-71.png", "id": "383795347731a1b7cde0b3d2671a1b9de59de9c6", "name": "Mass Garage Doors Expert", "opening_hours": {"open_now": true}, "photos": [{"height": 568, "html_attributions": ["<a href=\"https://maps.google.com/maps/contrib/105203357592394936739/photos\">Mass Garage Doors Expert</a>"], "photo_reference": "CmRaAAAAc59VhL4bwhEdgN1hGt2aqxdsZVNsjvyS6BssrPONNo_g4dOWLf2v-k1_vxisuBaPGzeNgBojQjxk1ND126fb4RDwkk7CAiYitxM86zWL6J3sBl08RuRvdzpYeCH7uOOuEhD7qgrUOm2TJ6CLwg1w0uo4GhQwrPc4R0nWWQAG4u45gxBAcfQjAg", "width": 1009}], "place_id": "ChIJtzNEMUmD44kRS5QwRLgxrQA", "plus_code": {"compound_code": "8RQW+G5 Boston, Massachusetts, United States", "global_code": "87JC8RQW+G5"}, "rating": 4.8, "reference": "ChIJtzNEMUmD44kRS5QwRLgxrQA", "scope": "GOOGLE", "types": ["parking", "point_of_interest", "establishment"], "user_ratings_total": 76, "vicinity": "1925 Commonwealth Avenue Unit 715, Boston"}, "ChIJaVYAqFp444kRAQyVoDGYbQw": {"geometry": {"location": {"lat": 42.3400477, "lng": -71.1567647}, "viewport": {"northeast": {"lat": 42.3413784802915, "lng": -71.15540816970848}, "southwest": {"lat": 42.3386805197085, "lng": -71.15810613029149}}}, "icon": "https://maps.gstatic.com/mapfiles/place_api/icons/generic_business-71.png", "id": "5b5f3ce8f3daed6949747704feb1e67ada16ff8a", "name": "Ma Bankruptcy Help", "photos": [{"height": 1280, "html_attributions": ["From a Google User"], "photo_reference": "CmRaAAAAlw7cuvL4P5qkpHkTNqPXqk-ntEQowXVwc7b-PSxDTODha5vL1OU6iC2cJhTAzjnOdStHeq0SejOArRWPsyk_Rqy9MP_JWtWzf7uedMGSBswNCsPdbIAkjRMXYLgh8sWGEhCDxPFYTEsLbOESTlRNjs6ZGhRrVgMUr5SVTLUwB0wKIB6J1klrGg", "width": 960}], "place_id": "ChIJaVYAqFp444kRAQyVoDGYbQw", "plus_code": {"compound_code": "8RRV+27 Boston, Massachusetts, United States", "global_code": "87JC8RRV+27"}, "reference": "ChIJaVYAqFp444kRAQyVoDGYbQw", "scope": "GOOGLE", "types": ["lawyer", "point_of_interest", "establishment"], "vicinity": "South Street, Brighton"}, "ChIJk7a5SFB444kRv1NJpFZ1pkE": {"geometry": {"location": {"lat": 42.33875250000001, "lng": -71.1544234}, "viewport": {"northeast": {"lat": 42.34017903029149, "lng": -71.15294486970849}, "southwest": {"lat": 42.3374810697085, "lng": -71.1556428302915}}}, "icon": "https://maps.gstatic.com/mapfiles/place_api/icons/generic_business-71.png", "id": "e9c56a4186faabde9a3f3a64d33f884b967102f1", "name": "Reservoir Towers", "opening_hours": {"open_now": false}, "photos": [{"height": 1536, "html_attributions": ["<a href=\"https://maps.google.com/maps/contrib/112415963556028447197/photos\">Reservoir Towers</a>"], "photo_reference": "CmRaAAAAcfCD7PE7xRd10-836vM5UczVcRx4KUL9IJ0_-D3MDDc7D2FiBet2cDmeYKWptPeoLzuxDCiEADwxICrCUOmBa_hldTd0z05VQmW3v0DR_ud2a7_AnE5rMcJwOwSLbyz3EhDb0eSEobf0C_0KtbvHbyscGhTP_jNHy-MEvqDdaVCRVqlWn-A0rA", "width": 2048}], "place_id": "ChIJk7a5SFB444kRv1NJpFZ1pkE", "plus_code": {"compound_code": "8RQW+G6 Boston, Massachusetts, United States", "global_code": "87JC8RQW+G6"}, "rating": 5, "reference": "ChIJk7a5SFB444kRv1NJpFZ1pkE", "scope": "GOOGLE", "types": ["point_of_interest", "establishment"], "user_ratings_total": 5, "vicinity": "1925 Commonwealth Avenue, Boston"}, "ChIJD5OKdVB444kRs1T3OQys4qA": {"geometry": {"location": {"lat": 42.3388998, "lng": -71.1569653}, "viewport": {"northeast": {"lat": 42.3404017302915, "lng": -71.15551361970849}, "southwest": {"lat": 42.3377037697085, "lng": -71.1582115802915}}}, "icon": "https://maps.gstatic.com/mapfiles/place_api/icons/generic_business-71.png", "id": "96f95dc229db6cfb1c7e57cbfcdc6a85b7d3966c", "name": "Abigail Furey Fine Prints", "place_id": "ChIJD5OKdVB444kRs1T3OQys4qA", "plus_code": {"compound_code": "8RQV+H6 Boston, Massachusetts, United States", "global_code": "87JC8RQV+H6"}, "reference": "ChIJD5OKdVB444kRs1T3OQys4qA", "scope": "GOOGLE", "types": ["point_of_interest", "establishment"], "vicinity": "1960 Commonwealth Avenue, Brighton"}, "ChIJQ1oR409444kRcxq9-NLvhbE": {"geometry": {"location": {"lat": 42.340651, "lng": -71.1558866}, "viewport": {"northeast": {"lat": 42.3419689802915, "lng": -71.1546300697085}, "southwest": {"lat": 42.33927101970851, "lng": -71.15732803029151}}}, "icon": "https://maps.gstatic.com/mapfiles/place_api/icons/generic_business-71.png", "id": "6c24269eab5be4ee6d777e52c87fd7abd3b783cd", "name": "Stacy For Startups", "photos": [{"height": 1800, "html_attributions": ["<a href=\"https://maps.google.com/maps/contrib/105981148058397588232/photos\">Stacy For Startups</a>"], "photo_reference": "CmRaAAAAxXGXO2Bzv6ZrNGwYHyUYZ3xjVD-pRbTcIImS5ELo6SoN3dP4Q3UjRPBJVYsLjwr_LBOdWNqVJFF9IfbuOgc8Laj73w7vCKqeGKN_gMpBwhnYx-jGb98PQJJJw0EVtbBzEhDHsA0OKjO_P2sOY4_XeZHIGhTUpTYu8MdbMRwPfDYhiSNyCpWeaQ", "width": 1200}], "place_id": "ChIJQ1oR409444kRcxq9-NLvhbE", "plus_code": {"compound_code": "8RRV+7J Boston, Massachusetts, United States", "global_code": "87JC8RRV+7J"}, "reference": "ChIJQ1oR409444kRcxq9-NLvhbE", "scope": "GOOGLE", "types": ["point_of_interest", "establishment"], "vicinity": "70 Kirkwood Road, Brighton"}, "ChIJVwWzBlB444kRf3fO_p_KJ38": {"geometry": {"location": {"lat": 42.34020179999999, "lng": -71.156432}, "viewport": {"northeast": {"lat": 42.34149063029149, "lng": -71.1550580697085}, "southwest": {"lat": 42.33879266970849, "lng": -71.15775603029151}}}, "icon": "https://maps.gstatic.com/mapfiles/place_api/icons/generic_business-71.png", "id": "acdbee344b391dcbd512c920f6e3c05ebd5bc57f", "name": "Ivygate Gables Condominium", "photos": [{"height": 2988, "html_attributions": ["<a href=\"https://maps.google.com/maps/contrib/117106221119762078799/photos\">Dan</a>"], "photo_reference": "CmRaAAAArUIvz9M3_rnkUe7c8Et5mJmuPAny2dcJ9Tsn9vmNoPvM0K2WUR7_x3SHlSJJmCJ8k-eNM18azZCYpL6NCFX7FZk8CxcDuavhARVAprrV5-PYgeNTTfRfsTLdKYz2DudBEhAvTDnP0IOe37gac9KYlREHGhToEUi0UJ3pqKz9cs95GTcv6O0LOQ", "width": 5312}], "place_id": "ChIJVwWzBlB444kRf3fO_p_KJ38", "plus_code": {"compound_code": "8RRV+3C Boston, Massachusetts, United States", "global_code": "87JC8RRV+3C"}, "rating": 2, "reference": "ChIJVwWzBlB444kRf3fO_p_KJ38", "scope": "GOOGLE", "types": ["point_of_interest", "establishment"], "user_ratings_total": 1, "vicinity": "19 South Street, Brighton"}, "ChIJrYqh209444kR1IaLkS2Y09c": {"geometry": {"location": {"lat": 42.340682, "lng": -71.15477899999999}, "viewport": {"northeast": {"lat": 42.3420771802915, "lng": -71.15356011970847}, "southwest": {"lat": 42.3393792197085, "lng": -71.1562580802915}}}, "icon": "https://maps.gstatic.com/mapfiles/place_api/icons/generic_business-71.png", "id": "cf804f78f2e86ae26d0b89a3559bc3993198004e", "name": "September Rental Pads", "place_id": "ChIJrYqh209444kR1IaLkS2Y09c", "plus_code": {"compound_code": "8RRW+73 Boston, Massachusetts, United States", "global_code": "87JC8RRW+73"}, "rating": 1, "reference": "ChIJrYqh209444kR1IaLkS2Y09c", "scope": "GOOGLE", "types": ["real_estate_agency", "point_of_interest", "establishment"], "user_ratings_total": 1, "vicinity": "206 Chestnut Hill Avenue, Brighton"}, "ChIJq6o6RlB444kRU80D10zApqI": {"geometry": {"location": {"lat": 42.33884199999999, "lng": -71.15455279999999}, "viewport": {"northeast": {"lat": 42.3401255802915, "lng": -71.15332496970849}, "southwest": {"lat": 42.3374276197085, "lng": -71.1560229302915}}}, "icon": "https://maps.gstatic.com/mapfiles/place_api/icons/generic_business-71.png", "id": "11368e27cfff9e0383edcf1abb7cab8b79d445d0", "name": "ijrhas", "place_id": "ChIJq6o6RlB444kRU80D10zApqI", "reference": "ChIJq6o6RlB444kRU80D10zApqI", "scope": "GOOGLE", "types": ["point_of_interest", "establishment"], "vicinity": "1925 Commonwealth Avenue, Boston"}, "ChIJExqHJlB444kRGSxdpAOqGJI": {"geometry": {"location": {"lat": 42.34011019999999, "lng": -71.1547061}, "viewport": {"northeast": {"lat": 42.34155698029149, "lng": -71.15330091970849}, "southwest": {"lat": 42.33885901970849, "lng": -71.1559988802915}}}, "icon": "https://maps.gstatic.com/mapfiles/place_api/icons/school-71.png", "id": "59faa031616d4ae4bee69e8cabf7a4618cda3421", "name": "Alexander Hamilton School", "photos": [{"height": 3024, "html_attributions": ["<a href=\"https://maps.google.com/maps/contrib/113120365174899388537/photos\">Cadu Ferreira</a>"], "photo_reference": "CmRaAAAAZKJJojO8l0Bsjp4gpZ6BMRVqTOMfuOLNEkwEL8MMxYZ6IvNVVBNtigVgeZMwrE9zPdJGrK1YXFDKEJxyUieysI9HZDAspJuh5t7GQfVqAs2N6YhgF0jyoKEELzJNd0GBEhA1GLys9K-FaJFojHeg7_g5GhSTBNR6KUfFtJSy7NLmblyfEpcV6w", "width": 4032}], "place_id": "ChIJExqHJlB444kRGSxdpAOqGJI", "plus_code": {"compound_code": "8RRW+24 Boston, Massachusetts, United States", "global_code": "87JC8RRW+24"}, "rating": 5, "reference": "ChIJExqHJlB444kRGSxdpAOqGJI", "scope": "GOOGLE", "types": ["school", "point_of_interest", "establishment"], "user_ratings_total": 1, "vicinity": "198 Strathmore Road, Brighton"}, "ChIJxTFcO0h444kRGCt654rYf_0": {"geometry": {"location": {"lat": 42.3463503, "lng": -71.1626756}, "viewport": {"northeast": {"lat": 42.3601961, "lng": -71.1225359}, "southwest": {"lat": 42.33009699999999, "lng": -71.1747978}}}, "icon": "https://maps.gstatic.com/mapfiles/place_api/icons/geocode-71.png", "id": "cee0d4f1baeb40007d9b85efae58477902c37b34", "name": "Brighton", "photos": [{"height": 480, "html_attributions": ["<a href=\"https://maps.google.com/maps/contrib/102865163631671690431/photos\">Boston poet</a>"], "photo_reference": "CmRaAAAAWXmMl9P8eVGlwoH7BAyjENb-04qNnjHYS33jMW8AizZPs94v0y6nDGlpisWWPDoI2V-TgyaK1o328p6i3mM6STt3u9LV1XtDGeGpcRjkICdySV5OvCp4tOZSFSrg9L87EhBDNwv24bfLE_pNvWhN5MtqGhQXoVAyv9wL7ogu3KvyxkEnRU_8Yw", "width": 480}], "place_id": "ChIJxTFcO0h444kRGCt654rYf_0", "reference": "ChIJxTFcO0h444kRGCt654rYf_0", "scope": "GOOGLE", "types": ["neighborhood", "locality", "political"], "vicinity": "Boston"}, "ChIJ_cB5blB444kR_UOMUxrhCU0": {"geometry": {"location": {"lat": 42.3393044, "lng": -71.1558356}, "viewport": {"northeast": {"lat": 42.3405410302915, "lng": -71.1545763197085}, "southwest": {"lat": 42.3378430697085, "lng": -71.1572742802915}}}, "icon": "https://maps.gstatic.com/mapfiles/place_api/icons/generic_business-71.png", "id": "aced250c6964af018da38d86b8d5f6ef131e0703", "name": "Claridge House Condominium", "photos": [{"height": 2576, "html_attributions": ["<a href=\"https://maps.google.com/maps/contrib/110554378494642616763/photos\">Rodrigo Cunha</a>"], "photo_reference": "CmRaAAAAuw3nkdCp1AkFlTXx5nxGsws7qC1Cn3yx-y6KFP33mokBK1HpdpjctnbwZPD_4YUF7rgbh06fsi7ztBqe85poN6RUQAcUH5dcGWanhn0xIlYcN7RnJKGgzhZ5BN4mSr6YEhCYbX04MDjZcCuqC9O0UPtpGhSc05II_yWhSB4HQy2ST-zIUk5d2w", "width": 1932}], "place_id": "ChIJ_cB5blB444kR_UOMUxrhCU0", "plus_code": {"compound_code": "8RQV+PM Boston, Massachusetts, United States", "global_code": "87JC8RQV+PM"}, "rating": 4.3, "reference": "ChIJ_cB5blB444kR_UOMUxrhCU0", "scope": "GOOGLE", "types": ["point_of_interest", "establishment"], "user_ratings_total": 3, "vicinity": "1933 Commonwealth Avenue, Brighton"}, "ChIJr_PhZ1B444kRpLXmj5czEKc": {"geometry": {"location": {"lat": 42.33849420000001, "lng": -71.1556413}, "viewport": {"northeast": {"lat": 42.3399239302915, "lng": -71.1542193197085}, "southwest": {"lat": 42.33722596970851, "lng": -71.15691728029151}}}, "icon": "https://maps.gstatic.com/mapfiles/place_api/icons/generic_business-71.png", "id": "83f1626949dcafc6ecbc2057d0b6a8592e73c4d3", "name": "Field Corporation Realtors", "place_id": "ChIJr_PhZ1B444kRpLXmj5czEKc", "plus_code": {"compound_code": "8RQV+9P Boston, Massachusetts, United States", "global_code": "87JC8RQV+9P"}, "reference": "ChIJr_PhZ1B444kRpLXmj5czEKc", "scope": "GOOGLE", "types": ["point_of_interest", "establishment"], "vicinity": "1940 Comnwlth Av, Brighton"}, "ChIJE4xh_7h544kR1tB95nsDCjE": {"geometry": {"location": {"lat": 42.3396759, "lng": -71.1553375}, "viewport": {"northeast": {"lat": 42.3410833302915, "lng": -71.1538837697085}, "southwest": {"lat": 42.3383853697085, "lng": -71.1565817302915}}}, "icon": "https://maps.gstatic.com/mapfiles/place_api/icons/generic_business-71.png", "id": "f80105dd09790209afc3e2e615ef8ddd11dfea9a", "name": "Chabad Men's Mikva", "place_id": "ChIJE4xh_7h544kR1tB95nsDCjE", "plus_code": {"compound_code": "8RQV+VV Boston, Massachusetts, United States", "global_code": "87JC8RQV+VV"}, "reference": "ChIJE4xh_7h544kR1tB95nsDCjE", "scope": "GOOGLE", "types": ["point_of_interest", "establishment"], "vicinity": "241 Chestnut Hill Avenue, Brighton"}, "ChIJf2vAF1B444kRUdHYckAKAMM": {"geometry": {"location": {"lat": 42.3396759, "lng": -71.1553375}, "viewport": {"northeast": {"lat": 42.3410833302915, "lng": -71.1538837697085}, "southwest": {"lat": 42.3383853697085, "lng": -71.1565817302915}}}, "icon": "https://maps.gstatic.com/mapfiles/place_api/icons/worship_jewish-71.png", "id": "d70e8979c076493b197e8d1141afe41745c7fe67", "name": "Chabad Shul of Brighton", "place_id": "ChIJf2vAF1B444kRUdHYckAKAMM", "plus_code": {"compound_code": "8RQV+VV Boston, Massachusetts, United States", "global_code": "87JC8RQV+VV"}, "rating": 5, "reference": "ChIJf2vAF1B444kRUdHYckAKAMM", "scope": "GOOGLE", "types": ["synagogue", "place_of_worship", "point_of_interest", "establishment"], "user_ratings_total": 1, "vicinity": "241 Chestnut Hill Avenue, Brighton"}, "ChIJKzX1QlB444kRcXeYBA9994w": {"geometry": {"location": {"lat": 42.3388235, "lng": -71.1551085}, "viewport": {"northeast": {"lat": 42.3402268802915, "lng": -71.1538400697085}, "southwest": {"lat": 42.3375289197085, "lng": -71.1565380302915}}}, "icon": "https://maps.gstatic.com/mapfiles/place_api/icons/generic_business-71.png", "id": "c32abf69875628316da6d82883919e740cccd3ec", "name": "WMC Inc", "place_id": "ChIJKzX1QlB444kRcXeYBA9994w", "plus_code": {"compound_code": "8RQV+GX Boston, Massachusetts, United States", "global_code": "87JC8RQV+GX"}, "reference": "ChIJKzX1QlB444kRcXeYBA9994w", "scope": "GOOGLE", "types": ["point_of_interest", "establishment"], "vicinity": "1931 Commonwealth Avenue, Brighton"}, "ChIJVV1kb1B444kRjtRdQhUqkLI": {"geometry": {"location": {"lat": 42.3386172, "lng": -71.1558525}, "viewport": {"northeast": {"lat": 42.3400404802915, "lng": -71.1544363697085}, "southwest": {"lat": 42.3373425197085, "lng": -71.15713433029151}}}, "icon": "https://maps.gstatic.com/mapfiles/place_api/icons/generic_business-71.png", "id": "913956bad2b083aa5a147b2f9f996717251dad8f", "name": "Dr. Seth Kaufman, DO", "place_id": "ChIJVV1kb1B444kRjtRdQhUqkLI", "plus_code": {"compound_code": "8RQV+CM Boston, Massachusetts, United States", "global_code": "87JC8RQV+CM"}, "reference": "ChIJVV1kb1B444kRjtRdQhUqkLI", "scope": "GOOGLE", "types": ["doctor", "health", "point_of_interest", "establishment"], "vicinity": "1950 Commonwealth Avenue, Brighton"}, "ChIJmz_BdlB444kRXbEa45DrIRI": {"geometry": {"location": {"lat": 42.3389629, "lng": -71.1564379}, "viewport": {"northeast": {"lat": 42.34035928029149, "lng": -71.15505496970849}, "southwest": {"lat": 42.3376613197085, "lng": -71.1577529302915}}}, "icon": "https://maps.gstatic.com/mapfiles/place_api/icons/generic_business-71.png", "id": "fae342e95aa8ff4e63929bf05c5a2fdabe69a22d", "name": "Imagiinate", "place_id": "ChIJmz_BdlB444kRXbEa45DrIRI", "plus_code": {"compound_code": "8RQV+HC Boston, Massachusetts, United States", "global_code": "87JC8RQV+HC"}, "reference": "ChIJmz_BdlB444kRXbEa45DrIRI", "scope": "GOOGLE", "types": ["point_of_interest", "establishment"], "vicinity": "1960 Commonwealth Avenue, Boston"}, "ChIJC6KMH1B444kRrDr6dmNkIO0": {"geometry": {"location": {"lat": 42.34026, "lng": -71.15527399999999}, "viewport": {"northeast": {"lat": 42.3416085802915, "lng": -71.15394641970849}, "southwest": {"lat": 42.3389106197085, "lng": -71.15664438029151}}}, "icon": "https://maps.gstatic.com/mapfiles/place_api/icons/bus-71.png", "id": "89a77f7e4655f87405b8bf1ac4f916293e972f04", "name": "Chestnut Hill Ave @ Strathmore Rd", "place_id": "ChIJC6KMH1B444kRrDr6dmNkIO0", "plus_code": {"compound_code": "8RRV+4V Boston, Massachusetts, United States", "global_code": "87JC8RRV+4V"}, "reference": "ChIJC6KMH1B444kRrDr6dmNkIO0", "scope": "GOOGLE", "types": ["bus_station", "transit_station", "point_of_interest", "establishment"], "vicinity": "United States"}, "ChIJ94B5RVB444kRViugutWJvNE": {"geometry": {"location": {"lat": 42.3388178, "lng": -71.1545484}, "viewport": {"northeast": {"lat": 42.3401134802915, "lng": -71.1533227697085}, "southwest": {"lat": 42.3374155197085, "lng": -71.1560207302915}}}, "icon": "https://maps.gstatic.com/mapfiles/place_api/icons/generic_business-71.png", "id": "a5002275c5aed95ba3f211c4d72135ed84fc5ca0", "name": "Continental Wingate Co", "place_id": "ChIJ94B5RVB444kRViugutWJvNE", "plus_code": {"compound_code": "8RQW+G5 Boston, Massachusetts, United States", "global_code": "87JC8RQW+G5"}, "reference": "ChIJ94B5RVB444kRViugutWJvNE", "scope": "GOOGLE", "types": ["point_of_interest", "establishment"], "vicinity": "1925 Commonwealth Avenue, Brighton"}, "ChIJv8kgnlp444kRXbBfIOSVYb4": {"geometry": {"location": {"lat": 42.3389977, "lng": -71.15678079999999}, "viewport": {"northeast": {"lat": 42.34043318029149, "lng": -71.15537371970849}, "southwest": {"lat": 42.33773521970849, "lng": -71.15807168029151}}}, "icon": "https://maps.gstatic.com/mapfiles/place_api/icons/generic_business-71.png", "id": "9f6a5206cac4776060e54a7988dc0990349da300", "name": "Ilona C. Paris, LMHC", "place_id": "ChIJv8kgnlp444kRXbBfIOSVYb4", "plus_code": {"compound_code": "8RQV+H7 Boston, Massachusetts, United States", "global_code": "87JC8RQV+H7"}, "reference": "ChIJv8kgnlp444kRXbBfIOSVYb4", "scope": "GOOGLE", "types": ["doctor", "health", "point_of_interest", "establishment"], "vicinity": "1960 Commonwealth Avenue, Brighton, MA 02135, Brighton"}, "ChIJ0doLnlp444kR4HNfRrnOBT4": {"geometry": {"location": {"lat": 42.3390375, "lng": -71.1568674}, "viewport": {"northeast": {"lat": 42.34046978029149, "lng": -71.1554624697085}, "southwest": {"lat": 42.33777181970849, "lng": -71.1581604302915}}}, "icon": "https://maps.gstatic.com/mapfiles/place_api/icons/generic_business-71.png", "id": "fbb159f95c210526c9921aff9fc383c10828cf74", "name": "Building Doctor Inc", "place_id": "ChIJ0doLnlp444kR4HNfRrnOBT4", "plus_code": {"compound_code": "8RQV+J7 Boston, Massachusetts, United States", "global_code": "87JC8RQV+J7"}, "reference": "ChIJ0doLnlp444kR4HNfRrnOBT4", "scope": "GOOGLE", "types": ["general_contractor", "point_of_interest", "establishment"], "vicinity": "1970 Commonwealth Avenue # 67, Brighton"}, "ChIJHxV94E9444kRYCoApri6UUU": {"geometry": {"location": {"lat": 42.340486, "lng": -71.155288}, "viewport": {"northeast": {"lat": 42.3418302302915, "lng": -71.15392536970849}, "southwest": {"lat": 42.3391322697085, "lng": -71.1566233302915}}}, "icon": "https://maps.gstatic.com/mapfiles/place_api/icons/bus-71.png", "id": "884c2b7cb06635bd201587a6872754e944660488", "name": "Chestnut Hill Ave @ South St", "photos": [{"height": 3024, "html_attributions": ["<a href=\"https://maps.google.com/maps/contrib/100635869753733122572/photos\">Rick Meehan</a>"], "photo_reference": "CmRaAAAAPtOkLq0VXpGv_yJtz7DA5E3gz744smv_gnm6Ige97y76DcYbN3Qb33TJxOl9OcIl0qt1L5cDDUTK8uJ2bU5glOVw_5fiBtuav2zRAdttigOnuJDGAySYzW8cL7YEoxw9EhDUQDktsoqlNj5lxxoknj7JGhR8lcm6q2thtGrEYlya67X7UpwPUA", "width": 4032}], "place_id": "ChIJHxV94E9444kRYCoApri6UUU", "plus_code": {"compound_code": "8RRV+5V Boston, Massachusetts, United States", "global_code": "87JC8RRV+5V"}, "reference": "ChIJHxV94E9444kRYCoApri6UUU", "scope": "GOOGLE", "types": ["bus_station", "transit_station", "point_of_interest", "establishment"], "vicinity": "United States"}, "ChIJu4IQp1p444kRgwAe-_5LahQ": {"geometry": {"location": {"lat": 42.3398192, "lng": -71.1568734}, "viewport": {"northeast": {"lat": 42.3412372302915, "lng": -71.15555301970849}, "southwest": {"lat": 42.3385392697085, "lng": -71.15825098029151}}}, "icon": "https://maps.gstatic.com/mapfiles/place_api/icons/generic_business-71.png", "id": "70cfcd3648dd2570a34efe56a69188abe2742afb", "name": "68 South St Parking", "place_id": "ChIJu4IQp1p444kRgwAe-_5LahQ", "plus_code": {"compound_code": "8RQV+W7 Boston, Massachusetts, United States", "global_code": "87JC8RQV+W7"}, "reference": "ChIJu4IQp1p444kRgwAe-_5LahQ", "scope": "GOOGLE", "types": ["parking", "point_of_interest", "establishment"], "vicinity": "68 South Street, Boston"}, "ChIJmxHuolp444kRzJTrieJQTbY": {"geometry": {"location": {"lat": 42.33963479999999, "lng": -71.15706}, "viewport": {"northeast": {"lat": 42.34092053029151, "lng": -71.1557481197085}, "southwest": {"lat": 42.33822256970851, "lng": -71.15844608029151}}}, "icon": "https://maps.gstatic.com/mapfiles/place_api/icons/generic_business-71.png", "id": "2edff754a92700c973411a4d0f48689e3e1cbb19", "name": "Tanbe Georges MD", "place_id": "ChIJmxHuolp444kRzJTrieJQTbY", "plus_code": {"compound_code": "8RQV+V5 Boston, Massachusetts, United States", "global_code": "87JC8RQV+V5"}, "reference": "ChIJmxHuolp444kRzJTrieJQTbY", "scope": "GOOGLE", "types": ["doctor", "health", "point_of_interest", "establishment"], "vicinity": "1959 Commonwealth Avenue # 1, Brighton"}}