{"ChIJGzE9DS1l44kRoOhiASS_fHg": {"geometry": {"location": {"lat": 42.3600825, "lng": -71.0588801}, "viewport": {"northeast": {"lat": 42.40081989999999, "lng": -70.749455}, "southwest": {"lat": 42.22788, "lng": -71.191113}}}, "icon": "https://maps.gstatic.com/mapfiles/place_api/icons/geocode-71.png", "id": "06755c25d2b34d13942a4713971756a55b870ced", "name": "Boston", "photos": [{"height": 3024, "html_attributions": ["<a href=\"https://maps.google.com/maps/contrib/104670289779338733432/photos\">Natalia Zalucean</a>"], "photo_reference": "CmRaAAAAE-pCmtMEi4rm-tr4JAgWkB_704gP4lFhWAQuUmA0fFp7UafItAXPzH_ykG_CJ29UkQD4wZy1qBEtqBvlqQchQX8hngGVC3Fw9mKXZA8Q27EJi9foWdO8X_KZvNFig5CgEhDlt9AUEPTrVm4wkNqcTrqjGhT03ZiwcfCNHTZuvHKrooGV6hP5Uw", "width": 4032}], "place_id": "ChIJGzE9DS1l44kRoOhiASS_fHg", "reference": "ChIJGzE9DS1l44kRoOhiASS_fHg", "scope": "GOOGLE", "types": ["locality", "political"], "vicinity": "Boston"}, "ChIJwzUIo69-44kROBUOmgwMYFU": {"geometry": {"location": {"lat": 42.27646499999999, "lng": -71.1066015}, "viewport": {"northeast": {"lat": 42.2777433302915, "lng": -71.1051832}, "southwest": {"lat": 42.2750453697085, "lng": -71.10840189999999}}}, "icon": "https://maps.gstatic.com/mapfiles/place_api/icons/generic_recreational-71.png", "id": "8388996a4ae56edbb10d60a7ff48a88df53ba36b", "name": "Pendergast Preventorium", "place_id": "ChIJwzUIo69-44kROBUOmgwMYFU", "reference": "ChIJwzUIo69-44kROBUOmgwMYFU", "scope": "GOOGLE", "types": ["park", "premise", "point_of_interest", "establishment"], "vicinity": "Boston"}, "ChIJJ6IAaLB-44kRQS9tgf4LnpI": {"geometry": {"location": {"lat": 42.2775848, "lng": -71.11142939999999}, "viewport": {"northeast": {"lat": 42.2796397, "lng": -71.10751359999999}, "southwest": {"lat": 42.27431079999999, "lng": -71.1153423}}}, "icon": "https://maps.gstatic.com/mapfiles/place_api/icons/cemetery_grave-71.png", "id": "9a0dc3a37660edfc16b1518ea0b45f2470b3916b", "name": "Calvary Cemetery", "place_id": "ChIJJ6IAaLB-44kRQS9tgf4LnpI", "reference": "ChIJJ6IAaLB-44kRQS9tgf4LnpI", "scope": "GOOGLE", "types": ["cemetery", "premise", "point_of_interest", "establishment"], "vicinity": "Boston"}, "ChIJZ_jeNsh-44kRDpddSEjrCd4": {"geometry": {"location": {"lat": 42.2832142, "lng": -71.1270268}, "viewport": {"northeast": {"lat": 42.301598, "lng": -71.09695909999999}, "southwest": {"lat": 42.2575859, "lng": -71.147601}}}, "icon": "https://maps.gstatic.com/mapfiles/place_api/icons/geocode-71.png", "id": "2cdf5de1734d80a609b83de9d29125ad0ec6aa4e", "name": "Roslindale", "photos": [{"height": 3120, "html_attributions": ["<a href=\"https://maps.google.com/maps/contrib/100299987382337147743/photos\">SPRING GARDEN</a>"], "photo_reference": "CmRaAAAAnKyVQ3i4hoaifgq90Qn-NcxROVD7eMSoZdyyjxVn_wIqLbjgURH6uthD6GgQEWCFyw3MewFhD3wW6dGDzTC_ywRIoxhR4Ha4f0cHrx_jmqJCWlhda0B5BMUxqmrObjaWEhBRo6eKFRIRkiRlAbl8WNnkGhRlLH67tAGzIjmGGVVTt0x-8NRb7Q", "width": 4160}], "place_id": "ChIJZ_jeNsh-44kRDpddSEjrCd4", "reference": "ChIJZ_jeNsh-44kRDpddSEjrCd4", "scope": "GOOGLE", "types": ["neighborhood", "political"], "vicinity": "Dorchester Center"}}