{"ChIJGzE9DS1l44kRoOhiASS_fHg": {"geometry": {"location": {"lat": 42.3600825, "lng": -71.0588801}, "viewport": {"northeast": {"lat": 42.40081989999999, "lng": -70.749455}, "southwest": {"lat": 42.22788, "lng": -71.191113}}}, "icon": "https://maps.gstatic.com/mapfiles/place_api/icons/geocode-71.png", "id": "06755c25d2b34d13942a4713971756a55b870ced", "name": "Boston", "photos": [{"height": 3024, "html_attributions": ["<a href=\"https://maps.google.com/maps/contrib/104670289779338733432/photos\">Natalia Zalucean</a>"], "photo_reference": "CmRaAAAAKhCGQhWRVmAXwvyDes-pDbKam9-7FziGPPQAsUFEh63Vb15gL_HtNsJtya0HMPZdtsm6YC07-lOshpa2e8FitOwx1E7K3Area3LAV-GbDQmWjClMnsg8qHSJNw3AR-JrEhCoFB6M_nfHaJUSaCGibn-5GhSprco7gmt8X1roexmpXGfdLBu83Q", "width": 4032}], "place_id": "ChIJGzE9DS1l44kRoOhiASS_fHg", "reference": "ChIJGzE9DS1l44kRoOhiASS_fHg", "scope": "GOOGLE", "types": ["locality", "political"], "vicinity": "Boston"}, "ChIJZXnWNft744kRgU5QcECtOzc": {"geometry": {"location": {"lat": 42.29087829999999, "lng": -71.0896271}, "viewport": {"northeast": {"lat": 42.29220308029149, "lng": -71.0881448197085}, "southwest": {"lat": 42.28950511970849, "lng": -71.09084278029151}}}, "icon": "https://maps.gstatic.com/mapfiles/place_api/icons/civic_building-71.png", "id": "67295266c7e8ccdb65d773ead63b79b34ee71216", "name": "Boston Fire Department Engine 52", "place_id": "ChIJZXnWNft744kRgU5QcECtOzc", "plus_code": {"compound_code": "7WR6+94 Boston, Massachusetts, United States", "global_code": "87JC7WR6+94"}, "rating": 4.5, "reference": "ChIJZXnWNft744kRgU5QcECtOzc", "scope": "GOOGLE", "types": ["fire_station", "point_of_interest", "establishment"], "user_ratings_total": 4, "vicinity": "975 Blue Hill Avenue, Boston"}, "ChIJgYKDR_t744kRTiXrCiGp-X0": {"geometry": {"location": {"lat": 42.290442, "lng": -71.089924}, "viewport": {"northeast": {"lat": 42.2918683302915, "lng": -71.08846411970849}, "southwest": {"lat": 42.2891703697085, "lng": -71.0911620802915}}}, "icon": "https://maps.gstatic.com/mapfiles/place_api/icons/shopping-71.png", "id": "35153cdbe0021747fec05d412c6c7c72abc7acfc", "name": "Family Dollar", "opening_hours": {"open_now": true}, "photos": [{"height": 1080, "html_attributions": ["<a href=\"https://maps.google.com/maps/contrib/103768591938144962413/photos\">Rafael Vallejo</a>"], "photo_reference": "CmRaAAAAqhOJoDlG3-OJmSBpIJAa_QYSWFWqd-3qy3yRgMcs08-qVpUFyMoJoySZBKkVfcS9bYpdR2VQojMMORHCk_lwyZyNpTt4KsCbo2Rl47KxYv1D2t76mZtctdeuIKQ2-8fAEhDKEqeJjyWOwkkK47N9BfHEGhSTYC78FgcneMXjg0SRChbFwp4nlQ", "width": 1920}], "place_id": "ChIJgYKDR_t744kRTiXrCiGp-X0", "plus_code": {"compound_code": "7WR6+52 Boston, Massachusetts, United States", "global_code": "87JC7WR6+52"}, "price_level": 1, "rating": 3.2, "reference": "ChIJgYKDR_t744kRTiXrCiGp-X0", "scope": "GOOGLE", "types": ["supermarket", "grocery_or_supermarket", "clothing_store", "store", "point_of_interest", "food", "establishment"], "user_ratings_total": 145, "vicinity": "995 Blue Hill Avenue, Dorchester"}, "ChIJgYKDR_t744kR2ZIZdMwOiTg": {"geometry": {"location": {"lat": 42.290442, "lng": -71.089924}, "viewport": {"northeast": {"lat": 42.2918683302915, "lng": -71.08846411970849}, "southwest": {"lat": 42.2891703697085, "lng": -71.0911620802915}}}, "icon": "https://maps.gstatic.com/mapfiles/place_api/icons/generic_business-71.png", "id": "dd0d60f96ca5474b09f2669c717a4afde7f17b42", "name": "Rockwood Early Educational", "place_id": "ChIJgYKDR_t744kR2ZIZdMwOiTg", "plus_code": {"compound_code": "7WR6+52 Boston, Massachusetts, United States", "global_code": "87JC7WR6+52"}, "rating": 4.5, "reference": "ChIJgYKDR_t744kR2ZIZdMwOiTg", "scope": "GOOGLE", "types": ["point_of_interest", "establishment"], "user_ratings_total": 19, "vicinity": "995 Blue Hill Avenue, Dorchester Center"}, "ChIJ15wILvt744kR1HmF8Qu_Z_4": {"geometry": {"location": {"lat": 42.2906863, "lng": -71.08905779999999}, "viewport": {"northeast": {"lat": 42.2920496802915, "lng": -71.08778796970849}, "southwest": {"lat": 42.2893517197085, "lng": -71.09048593029149}}}, "icon": "https://maps.gstatic.com/mapfiles/place_api/icons/shopping-71.png", "id": "c195537c8bbdff42744d4c852bb3dfd25fea9a89", "name": "Beauty Supply Supermarket Inc", "opening_hours": {"open_now": true}, "photos": [{"height": 1536, "html_attributions": ["<a href=\"https://maps.google.com/maps/contrib/111920480934758501590/photos\">Megann</a>"], "photo_reference": "CmRaAAAA9G5XwR7yF2SGvze4MRZKVliMR-d_cCRmjt_d2Esf6c6cycUrCzn20tOIJzncwt4AImGJRQjHI33BT-ZsinXASN_bXmFjtnSQCjtSKPKHLq7t0f1YfNvMqxr6KrImGoHWEhC_f4tkRpThVKB6XhZWrwU_GhQqwPnoRruLCHF1XJU6wuG_jAcOgQ", "width": 2048}], "place_id": "ChIJ15wILvt744kR1HmF8Qu_Z_4", "plus_code": {"compound_code": "7WR6+79 Boston, Massachusetts, United States", "global_code": "87JC7WR6+79"}, "rating": 4, "reference": "ChIJ15wILvt744kR1HmF8Qu_Z_4", "scope": "GOOGLE", "types": ["store", "point_of_interest", "establishment"], "user_ratings_total": 203, "vicinity": "974 Blue Hill Avenue, Dorchester Center"}, "ChIJ4a0dZ_t744kRPXesl8Z0Pa4": {"geometry": {"location": {"lat": 42.290073, "lng": -71.09091049999999}, "viewport": {"northeast": {"lat": 42.2913560302915, "lng": -71.08966336970849}, "southwest": {"lat": 42.2886580697085, "lng": -71.0923613302915}}}, "icon": "https://maps.gstatic.com/mapfiles/place_api/icons/shopping-71.png", "id": "a181ac20f141e3b88829268f7d7875eacf5342d8", "name": "ReVision Urban Farm", "photos": [{"height": 1080, "html_attributions": ["<a href=\"https://maps.google.com/maps/contrib/107866824148082082953/photos\">Kristen Simmons</a>"], "photo_reference": "CmRaAAAAamgfTs2mZ0iRgXIhqqjMBXIeCSGHjtENT8RcBpC-GZth6KEjODTxeA0AW2c1IDPJR2unIE3RCsC3exn-p3TrpHbus8PIcNqj5Z5h7R_4swwcNedm2I1MlMFRu4R0wgq0EhAN4n70kebxCpFZHUyppA5bGhTrSwomHdmgTy6_8xf76xT-9sZ3WQ", "width": 1080}], "place_id": "ChIJ4a0dZ_t744kRPXesl8Z0Pa4", "plus_code": {"compound_code": "7WR5+2J Boston, Massachusetts, United States", "global_code": "87JC7WR5+2J"}, "rating": 4.6, "reference": "ChIJ4a0dZ_t744kRPXesl8Z0Pa4", "scope": "GOOGLE", "types": ["store", "point_of_interest", "food", "establishment"], "user_ratings_total": 14, "vicinity": "38 Fabyan Street, Boston"}, "ChIJgYKDR_t744kR93OY_AMP7bc": {"geometry": {"location": {"lat": 42.290442, "lng": -71.089924}, "viewport": {"northeast": {"lat": 42.2918683302915, "lng": -71.08846411970849}, "southwest": {"lat": 42.2891703697085, "lng": -71.0911620802915}}}, "icon": "https://maps.gstatic.com/mapfiles/place_api/icons/generic_business-71.png", "id": "537c48437ddb83748c12296af029ec5285da6228", "name": "Center For Health & Development", "place_id": "ChIJgYKDR_t744kR93OY_AMP7bc", "plus_code": {"compound_code": "7WR6+52 Boston, Massachusetts, United States", "global_code": "87JC7WR6+52"}, "reference": "ChIJgYKDR_t744kR93OY_AMP7bc", "scope": "GOOGLE", "types": ["health", "point_of_interest", "establishment"], "vicinity": "995 Blue Hill Avenue, Dorchester Center"}, "ChIJVVVVVVJ644kRtx3C9GUTdKs": {"geometry": {"location": {"lat": 42.29077789999999, "lng": -71.0888859}, "viewport": {"northeast": {"lat": 42.2921534302915, "lng": -71.08768271970848}, "southwest": {"lat": 42.2894554697085, "lng": -71.09038068029149}}}, "icon": "https://maps.gstatic.com/mapfiles/place_api/icons/generic_business-71.png", "id": "2fbb80efacb8333c8c513cfd64959c5f1510d90f", "name": "Laundromat", "photos": [{"height": 525, "html_attributions": ["<a href=\"https://maps.google.com/maps/contrib/103907401085112932386/photos\">Christian Morales-Montalvo</a>"], "photo_reference": "CmRZAAAA0XyOOSupccuKA37WRPSDOzPam43b0x-kbBTSBd9tUamNt51cpppYuAI2fXSsUk5XUQJBwZ4c47iGW9FuojQm4HkIuQ3Wq3AaNOoXSoQwZN4uB9vn3TIEWxWsHE3nLYpbEhCU_8mrFiE0TlDQbUZArGfvGhR6fPp05niv5aDFWJnhpYZD2NdJtQ", "width": 726}], "place_id": "ChIJVVVVVVJ644kRtx3C9GUTdKs", "plus_code": {"compound_code": "7WR6+8C Boston, Massachusetts, United States", "global_code": "87JC7WR6+8C"}, "rating": 3.3, "reference": "ChIJVVVVVVJ644kRtx3C9GUTdKs", "scope": "GOOGLE", "types": ["laundry", "point_of_interest", "establishment"], "user_ratings_total": 15, "vicinity": "972 Blue Hill Avenue, Dorchester"}, "ChIJwSYVVPt744kRAUEyFSV2GPI": {"geometry": {"location": {"lat": 42.2910762, "lng": -71.09100049999999}, "viewport": {"northeast": {"lat": 42.2924594302915, "lng": -71.08969246970848}, "southwest": {"lat": 42.2897614697085, "lng": -71.0923904302915}}}, "icon": "https://maps.gstatic.com/mapfiles/place_api/icons/generic_business-71.png", "id": "82ff8379f85b4cdac9a6d4cfaf91cd7d998077ad", "name": "ExecWebDesign", "opening_hours": {"open_now": true}, "place_id": "ChIJwSYVVPt744kRAUEyFSV2GPI", "plus_code": {"compound_code": "7WR5+CH Boston, Massachusetts, United States", "global_code": "87JC7WR5+CH"}, "reference": "ChIJwSYVVPt744kRAUEyFSV2GPI", "scope": "GOOGLE", "types": ["point_of_interest", "establishment"], "vicinity": "Harvard Street, Boston"}, "ChIJgYKDR_t744kRzISJEPw_BR8": {"geometry": {"location": {"lat": 42.290442, "lng": -71.089924}, "viewport": {"northeast": {"lat": 42.2918683302915, "lng": -71.08846411970849}, "southwest": {"lat": 42.2891703697085, "lng": -71.0911620802915}}}, "icon": "https://maps.gstatic.com/mapfiles/place_api/icons/school-71.png", "id": "5c24dcf7cecc202e9cab191880b38f4b01cd81c7", "name": "ABaC", "place_id": "ChIJgYKDR_t744kRzISJEPw_BR8", "plus_code": {"compound_code": "7WR6+52 Boston, Massachusetts, United States", "global_code": "87JC7WR6+52"}, "reference": "ChIJgYKDR_t744kRzISJEPw_BR8", "scope": "GOOGLE", "types": ["point_of_interest", "establishment"], "vicinity": "995 Blue Hill Avenue, Dorchester Center"}, "ChIJkde2VON744kR9ZwnTH-S1tc": {"geometry": {"location": {"lat": 42.2914944, "lng": -71.0916738}, "viewport": {"northeast": {"lat": 42.2928528302915, "lng": -71.09034336970849}, "southwest": {"lat": 42.2901548697085, "lng": -71.0930413302915}}}, "icon": "https://maps.gstatic.com/mapfiles/place_api/icons/generic_business-71.png", "id": "34bd58b015a6eccda968cded4ce9974e6060f667", "name": "River of Life Medical", "place_id": "ChIJkde2VON744kR9ZwnTH-S1tc", "plus_code": {"compound_code": "7WR5+H8 Boston, Massachusetts, United States", "global_code": "87JC7WR5+H8"}, "rating": 1, "reference": "ChIJkde2VON744kR9ZwnTH-S1tc", "scope": "GOOGLE", "types": ["point_of_interest", "establishment"], "user_ratings_total": 1, "vicinity": "5 Snowden Way, Dorchester"}, "ChIJM3e2LPt744kRH1ZXYUmuYJI": {"geometry": {"location": {"lat": 42.2908819, "lng": -71.0888678}, "viewport": {"northeast": {"lat": 42.2922560302915, "lng": -71.0876568197085}, "southwest": {"lat": 42.2895580697085, "lng": -71.09035478029152}}}, "icon": "https://maps.gstatic.com/mapfiles/place_api/icons/restaurant-71.png", "id": "2093ef95f50df15bcbfdcd02b6b8f49b31eb8e3f", "name": "Breakfast & Burgers", "opening_hours": {"open_now": true}, "place_id": "ChIJM3e2LPt744kRH1ZXYUmuYJI", "plus_code": {"compound_code": "7WR6+9F Boston, Massachusetts, United States", "global_code": "87JC7WR6+9F"}, "rating": 3.6, "reference": "ChIJM3e2LPt744kRH1ZXYUmuYJI", "scope": "GOOGLE", "types": ["restaurant", "point_of_interest", "food", "establishment"], "user_ratings_total": 5, "vicinity": "962 Blue Hill Avenue, Dorchester Center"}, "ChIJaVtzFft744kRGMDN71jPe2M": {"geometry": {"location": {"lat": 42.2900723, "lng": -71.0898041}, "viewport": {"northeast": {"lat": 42.2914041802915, "lng": -71.08835906970849}, "southwest": {"lat": 42.2887062197085, "lng": -71.0910570302915}}}, "icon": "https://maps.gstatic.com/mapfiles/place_api/icons/shopping-71.png", "id": "53f184e59c891114c7914b6b928b0f5f681fca44", "name": "Tropics Food Market", "opening_hours": {"open_now": true}, "place_id": "ChIJaVtzFft744kRGMDN71jPe2M", "plus_code": {"compound_code": "7WR6+23 Boston, Massachusetts, United States", "global_code": "87JC7WR6+23"}, "rating": 4.1, "reference": "ChIJaVtzFft744kRGMDN71jPe2M", "scope": "GOOGLE", "types": ["grocery_or_supermarket", "store", "point_of_interest", "food", "establishment"], "user_ratings_total": 35, "vicinity": "1007 Blue Hill Avenue, Dorchester Center"}, "ChIJLRkmFvt744kRcYiZuOwu-QY": {"geometry": {"location": {"lat": 42.2898505, "lng": -71.0893576}, "viewport": {"northeast": {"lat": 42.2912120802915, "lng": -71.08807671970848}, "southwest": {"lat": 42.2885141197085, "lng": -71.0907746802915}}}, "icon": "https://maps.gstatic.com/mapfiles/place_api/icons/restaurant-71.png", "id": "d54f2617f397080d6225de03c04ba4db488f6ce1", "name": "Boston Fried Chicken", "photos": [{"height": 3024, "html_attributions": ["<a href=\"https://maps.google.com/maps/contrib/112454954395229061346/photos\">Wardis Vizcaino</a>"], "photo_reference": "CmRaAAAAVXClx7CUovnMH6IU4LbQGI5LdOgXfDBOsECeSEBN7aFDGRmyBPPsqSClDBnF4agB5bcChiAd-wj67142lN5TYdGpt2l8o5ggqwLOkuHpSGqTC1Z2Py8slDJ5ZWnxEarBEhAGCPgBcVdK6qnQ__dJ4QZUGhRBKC2ztc9KAjvudN9COjdqvwM4Pw", "width": 4032}], "place_id": "ChIJLRkmFvt744kRcYiZuOwu-QY", "plus_code": {"compound_code": "7WQ6+W7 Boston, Massachusetts, United States", "global_code": "87JC7WQ6+W7"}, "price_level": 1, "rating": 4, "reference": "ChIJLRkmFvt744kRcYiZuOwu-QY", "scope": "GOOGLE", "types": ["restaurant", "point_of_interest", "food", "establishment"], "user_ratings_total": 54, "vicinity": "998 Blue Hill Avenue, Dorchester Center"}, "ChIJIU7uYvt744kR8PkCkPf0dV4": {"geometry": {"location": {"lat": 42.289715, "lng": -71.09124899999999}, "viewport": {"northeast": {"lat": 42.2911377302915, "lng": -71.08978611970849}, "southwest": {"lat": 42.2884397697085, "lng": -71.0924840802915}}}, "icon": "https://maps.gstatic.com/mapfiles/place_api/icons/generic_business-71.png", "id": "e08b5c78969ba4a2e667de98112301310ef0ec0c", "name": "Re-Vision House Inc", "place_id": "ChIJIU7uYvt744kR8PkCkPf0dV4", "plus_code": {"compound_code": "7WQ5+VG Boston, Massachusetts, United States", "global_code": "87JC7WQ5+VG"}, "rating": 4.5, "reference": "ChIJIU7uYvt744kR8PkCkPf0dV4", "scope": "GOOGLE", "types": ["point_of_interest", "establishment"], "user_ratings_total": 2, "vicinity": "38 Fabyan Street, Dorchester Center"}, "ChIJ870iLft744kReda_-9-JOvM": {"geometry": {"location": {"lat": 42.2908986, "lng": -71.0889468}, "viewport": {"northeast": {"lat": 42.29226548029149, "lng": -71.0876959197085}, "southwest": {"lat": 42.2895675197085, "lng": -71.0903938802915}}}, "icon": "https://maps.gstatic.com/mapfiles/place_api/icons/shopping-71.png", "id": "63cd6b0e6410693dca72c09a99377fabf12d6283", "name": "Las Americas Market", "opening_hours": {"open_now": true}, "place_id": "ChIJ870iLft744kReda_-9-JOvM", "plus_code": {"compound_code": "7WR6+9C Boston, Massachusetts, United States", "global_code": "87JC7WR6+9C"}, "rating": 4.6, "reference": "ChIJ870iLft744kReda_-9-JOvM", "scope": "GOOGLE", "types": ["grocery_or_supermarket", "store", "point_of_interest", "food", "establishment"], "user_ratings_total": 11, "vicinity": "970 Blue Hill Avenue, Dorchester Center"}, "ChIJ15wILvt744kRU8JQXIkqsTg": {"geometry": {"location": {"lat": 42.2906254, "lng": -71.088966}, "viewport": {"northeast": {"lat": 42.29199843029149, "lng": -71.08774896970849}, "southwest": {"lat": 42.28930046970849, "lng": -71.09044693029149}}}, "icon": "https://maps.gstatic.com/mapfiles/place_api/icons/school-71.png", "id": "8b1544e22950a207f533ac907d3768a4d1ccc9ef", "name": "Kids Choice Preschool", "place_id": "ChIJ15wILvt744kRU8JQXIkqsTg", "plus_code": {"compound_code": "7WR6+7C Boston, Massachusetts, United States", "global_code": "87JC7WR6+7C"}, "reference": "ChIJ15wILvt744kRU8JQXIkqsTg", "scope": "GOOGLE", "types": ["point_of_interest", "school", "establishment"], "vicinity": "974 Blue Hill Avenue # B, Dorchester Center"}, "ChIJtT4SuWZ744kRx28koEsxIos": {"geometry": {"location": {"lat": 42.2904485, "lng": -71.0898428}, "viewport": {"northeast": {"lat": 42.29185828029149, "lng": -71.0884066197085}, "southwest": {"lat": 42.28916031970849, "lng": -71.09110458029151}}}, "icon": "https://maps.gstatic.com/mapfiles/place_api/icons/generic_business-71.png", "id": "dfda4c1a84d86ab587ddf8811613777a968d58d6", "name": "Blue Hill Adult Day Health Center", "opening_hours": {"open_now": true}, "photos": [{"height": 1038, "html_attributions": ["<a href=\"https://maps.google.com/maps/contrib/103155882661418028926/photos\">Blue Hill Adult Day Health Center</a>"], "photo_reference": "CmRaAAAAUCYGZpndUSy2sVnOwqhjrRWQ98ON_jha9ssqro8M3dewDkJn4GcLqO1Ja2fcC0JqfsPgC3ZtGrMXUZHtqfqwyixbIGTILb3xdy74xeJpfvojZtYV-aNFAqubgzhwN-h4EhBBe3qg5vfcJcuy6rZ6pPH9GhR0VsmhViH8JsiplpNKA8qaZiq9CA", "width": 1038}], "place_id": "ChIJtT4SuWZ744kRx28koEsxIos", "plus_code": {"compound_code": "7WR6+53 Boston, Massachusetts, United States", "global_code": "87JC7WR6+53"}, "rating": 5, "reference": "ChIJtT4SuWZ744kRx28koEsxIos", "scope": "GOOGLE", "types": ["point_of_interest", "establishment"], "user_ratings_total": 1, "vicinity": "995 Blue Hill Avenue, Dorchester"}, "ChIJH0NhO_t744kRxyj01B4_j8c": {"geometry": {"location": {"lat": 42.2899888, "lng": -71.0891877}, "viewport": {"northeast": {"lat": 42.2913605802915, "lng": -71.08796566970848}, "southwest": {"lat": 42.2886626197085, "lng": -71.09066363029149}}}, "icon": "https://maps.gstatic.com/mapfiles/place_api/icons/generic_business-71.png", "id": "d877bc184cb721a6f5e36697464163f3c2e92007", "name": "Island Pride Function Hall", "place_id": "ChIJH0NhO_t744kRxyj01B4_j8c", "plus_code": {"compound_code": "7WQ6+X8 Boston, Massachusetts, United States", "global_code": "87JC7WQ6+X8"}, "rating": 2.4, "reference": "ChIJH0NhO_t744kRxyj01B4_j8c", "scope": "GOOGLE", "types": ["restaurant", "point_of_interest", "food", "establishment"], "user_ratings_total": 5, "vicinity": "986 Blue Hill Avenue, Dorchester Center"}, "ChIJ1aKJnQd844kRhKw4NxUCnrc": {"geometry": {"location": {"lat": 42.2771417, "lng": -71.0913748}, "viewport": {"northeast": {"lat": 42.298298, "lng": -71.0675939}, "southwest": {"lat": 42.2628979, "lng": -71.1091958}}}, "icon": "https://maps.gstatic.com/mapfiles/place_api/icons/geocode-71.png", "id": "7c0a81020a91ce611773eac0f6b1e8dc62406dab", "name": "Mattapan", "photos": [{"height": 1932, "html_attributions": ["<a href=\"https://maps.google.com/maps/contrib/105123441827892866459/photos\">Alonzo Mcneal</a>"], "photo_reference": "CmRaAAAARoYwOrSXBGpNbwL7DqHnF061IHEmHAt55YHs6RaOeN6tLPhwyjjPI5Ip2Q1XdfCHftkedBWi-2v6CCr_FRCJGs31c5HdzbutPy2argeAOTZTOGhMlmk4kE8yeOt6vSOFEhBkISY1S-zyJW_O_UAxrfmMGhTTGfTrbJ29IGWNK8TQ9Lu-d6t-XA", "width": 2576}], "place_id": "ChIJ1aKJnQd844kRhKw4NxUCnrc", "reference": "ChIJ1aKJnQd844kRhKw4NxUCnrc", "scope": "GOOGLE", "types": ["neighborhood", "political"], "vicinity": "Dorchester Center"}, "ChIJHwmroPx744kRVhbILILRxx0": {"geometry": {"location": {"lat": 42.290518, "lng": -71.09138999999999}, "viewport": {"northeast": {"lat": 42.29196468029149, "lng": -71.09018906970849}, "southwest": {"lat": 42.2892667197085, "lng": -71.0928870302915}}}, "icon": "https://maps.gstatic.com/mapfiles/place_api/icons/worship_islam-71.png", "id": "5e57a76c7b5798f4b36ae96e12aa1b498ab77e80", "name": "Masjid Ar-Rahman (Nigeria Islamic Society of Massachusetts)", "photos": [{"height": 4032, "html_attributions": ["<a href=\"https://maps.google.com/maps/contrib/113201288451571930564/photos\">Martins Timmy</a>"], "photo_reference": "CmRaAAAA8T-el89NRDKKROtdFdw4BM2kvtO21nVV3WuABFfg6LfFYZwRgcHuo-D3LyVP8UXmXP4RJKVFmR68PpxGY6MpSEP-qu4ETlpj-gJ2xzcGKYz1W7fYU4xfnpxn7KmPBc-NEhDg3rP7wvfKUvrQoYPlaKvVGhQjdCFnkBuTd3iRlocI1qrunR6jFA", "width": 2268}], "place_id": "ChIJHwmroPx744kRVhbILILRxx0", "plus_code": {"compound_code": "7WR5+6C Boston, Massachusetts, United States", "global_code": "87JC7WR5+6C"}, "rating": 5, "reference": "ChIJHwmroPx744kRVhbILILRxx0", "scope": "GOOGLE", "types": ["mosque", "place_of_worship", "point_of_interest", "establishment"], "user_ratings_total": 10, "vicinity": "396 Harvard Street, Dorchester Center"}, "ChIJFYFh0eR744kRPOT66cPHtz4": {"geometry": {"location": {"lat": 42.291296, "lng": -71.088891}, "viewport": {"northeast": {"lat": 42.2926566302915, "lng": -71.08760706970851}, "southwest": {"lat": 42.2899586697085, "lng": -71.09030503029152}}}, "icon": "https://maps.gstatic.com/mapfiles/place_api/icons/bus-71.png", "id": "5f37d5dfea76212ab08b8acf667e3dd7038789a9", "name": "Blue Hill Ave @ Westview St", "place_id": "ChIJFYFh0eR744kRPOT66cPHtz4", "plus_code": {"compound_code": "7WR6+GC Boston, Massachusetts, United States", "global_code": "87JC7WR6+GC"}, "rating": 3, "reference": "ChIJFYFh0eR744kRPOT66cPHtz4", "scope": "GOOGLE", "types": ["bus_station", "transit_station", "point_of_interest", "establishment"], "user_ratings_total": 1, "vicinity": "United States"}, "ChIJF4JFLPt744kRoH9nM_MgYtM": {"geometry": {"location": {"lat": 42.2908007, "lng": -71.0889126}, "viewport": {"northeast": {"lat": 42.2921733302915, "lng": -71.0876932197085}, "southwest": {"lat": 42.2894753697085, "lng": -71.0903911802915}}}, "icon": "https://maps.gstatic.com/mapfiles/place_api/icons/generic_business-71.png", "id": "52561c481e4934f9ef3af14ba1647be786c9696b", "name": "Jie leader laundromat Inc", "opening_hours": {"open_now": true}, "place_id": "ChIJF4JFLPt744kRoH9nM_MgYtM", "plus_code": {"compound_code": "7WR6+8C Boston, Massachusetts, United States", "global_code": "87JC7WR6+8C"}, "rating": 3.6, "reference": "ChIJF4JFLPt744kRoH9nM_MgYtM", "scope": "GOOGLE", "types": ["laundry", "point_of_interest", "establishment"], "user_ratings_total": 14, "vicinity": "972 Blue Hill Avenue, Dorchester Center"}, "ChIJT3f6Mft744kRhSQoFWIjhfg": {"geometry": {"location": {"lat": 42.29077789999999, "lng": -71.0888859}, "viewport": {"northeast": {"lat": 42.2921534302915, "lng": -71.08768271970848}, "southwest": {"lat": 42.2894554697085, "lng": -71.09038068029149}}}, "icon": "https://maps.gstatic.com/mapfiles/place_api/icons/generic_business-71.png", "id": "f937051ebae4b3c0d8cece43400240588e5ed44a", "name": "Clean Rite Center", "place_id": "ChIJT3f6Mft744kRhSQoFWIjhfg", "plus_code": {"compound_code": "7WR6+8C Boston, Massachusetts, United States", "global_code": "87JC7WR6+8C"}, "rating": 5, "reference": "ChIJT3f6Mft744kRhSQoFWIjhfg", "scope": "GOOGLE", "types": ["laundry", "point_of_interest", "establishment"], "user_ratings_total": 1, "vicinity": "972 Blue Hill Avenue, Dorchester Center"}, "ChIJJYe9LPt744kRuKQbig2kCX0": {"geometry": {"location": {"lat": 42.2909089, "lng": -71.08883469999999}, "viewport": {"northeast": {"lat": 42.29227373029149, "lng": -71.08744356970848}, "southwest": {"lat": 42.2895757697085, "lng": -71.09014153029149}}}, "icon": "https://maps.gstatic.com/mapfiles/place_api/icons/generic_business-71.png", "id": "58a2aec664d05b19f3a40ef7838af209ee1e889a", "name": "Los Nietos", "place_id": "ChIJJYe9LPt744kRuKQbig2kCX0", "plus_code": {"compound_code": "7WR6+9F Boston, Massachusetts, United States", "global_code": "87JC7WR6+9F"}, "rating": 4.3, "reference": "ChIJJYe9LPt744kRuKQbig2kCX0", "scope": "GOOGLE", "types": ["point_of_interest", "establishment"], "user_ratings_total": 3, "vicinity": "Boston"}, "ChIJgSma5-R744kRdtV1SyGEtCY": {"geometry": {"location": {"lat": 42.292036, "lng": -71.089062}, "viewport": {"northeast": {"lat": 42.2933770302915, "lng": -71.0876690197085}, "southwest": {"lat": 42.2906790697085, "lng": -71.0903669802915}}}, "icon": "https://maps.gstatic.com/mapfiles/place_api/icons/bus-71.png", "id": "8bab7c0de6cdb0b06fbc139738c3aed82117210b", "name": "Blue Hill Ave @ Paxton St", "place_id": "ChIJgSma5-R744kRdtV1SyGEtCY", "plus_code": {"compound_code": "7WR6+R9 Boston, Massachusetts, United States", "global_code": "87JC7WR6+R9"}, "rating": 1, "reference": "ChIJgSma5-R744kRdtV1SyGEtCY", "scope": "GOOGLE", "types": ["bus_station", "transit_station", "point_of_interest", "establishment"], "user_ratings_total": 1, "vicinity": "United States"}, "ChIJuwLYK_t744kRrXxDHIzNuKc": {"geometry": {"location": {"lat": 42.2906537, "lng": -71.0886359}, "viewport": {"northeast": {"lat": 42.2920166802915, "lng": -71.0872558197085}, "southwest": {"lat": 42.2893187197085, "lng": -71.08995378029151}}}, "icon": "https://maps.gstatic.com/mapfiles/place_api/icons/generic_business-71.png", "id": "5dadf0d3cd9f794032834b8388ae33cf30055bb6", "name": "Alfa Physical Therapy", "place_id": "ChIJuwLYK_t744kRrXxDHIzNuKc", "plus_code": {"compound_code": "7WR6+7G Boston, Massachusetts, United States", "global_code": "87JC7WR6+7G"}, "reference": "ChIJuwLYK_t744kRrXxDHIzNuKc", "scope": "GOOGLE", "types": ["health", "point_of_interest", "establishment"], "vicinity": "Stratton Street, Boston"}, "ChIJa6qGPft744kRFIwe4uO0qUs": {"geometry": {"location": {"lat": 42.2898951, "lng": -71.0893396}, "viewport": {"northeast": {"lat": 42.2912565802915, "lng": -71.08806036970849}, "southwest": {"lat": 42.2885586197085, "lng": -71.0907583302915}}}, "icon": "https://maps.gstatic.com/mapfiles/place_api/icons/generic_business-71.png", "id": "18dae856c5b5c3610a1cc3ddd0230658046def27", "name": "Shear's of Boston Barber Shop", "place_id": "ChIJa6qGPft744kRFIwe4uO0qUs", "plus_code": {"compound_code": "7WQ6+X7 Boston, Massachusetts, United States", "global_code": "87JC7WQ6+X7"}, "reference": "ChIJa6qGPft744kRFIwe4uO0qUs", "scope": "GOOGLE", "types": ["hair_care", "health", "point_of_interest", "establishment"], "vicinity": "Boston"}, "ChIJSSrIPft744kRdjiCyRolNto": {"geometry": {"location": {"lat": 42.28987060000001, "lng": -71.08924449999999}, "viewport": {"northeast": {"lat": 42.29124083029151, "lng": -71.08801396970848}, "southwest": {"lat": 42.28854286970851, "lng": -71.0907119302915}}}, "icon": "https://maps.gstatic.com/mapfiles/place_api/icons/restaurant-71.png", "id": "65ef22e02ebbab8c9fe1a481390825ea94d7175f", "name": "Top Griyo Restaurant", "opening_hours": {"open_now": true}, "photos": [{"height": 3264, "html_attributions": ["<a href=\"https://maps.google.com/maps/contrib/104760770677356704982/photos\">Special K</a>"], "photo_reference": "CmRaAAAADMHd03Xjf5qpfqh0E1R-5ZV99fMsEtaXP2Lk6fQfuj3Wk8hPNh7gUApYSz-9izmj9rbF8SjrbBGtT3e_1c2DGVmq6WezetTgCk-AG6yPkGeGiHEfy54KEkm9pCyEGLUpEhB7kQJk5SUp1vXV6tlf0qUUGhS8H9cdSfQWqj4H2wE3ZXPuDfU3hQ", "width": 2448}], "place_id": "ChIJSSrIPft744kRdjiCyRolNto", "plus_code": {"compound_code": "7WQ6+W8 Boston, Massachusetts, United States", "global_code": "87JC7WQ6+W8"}, "rating": 3.9, "reference": "ChIJSSrIPft744kRdjiCyRolNto", "scope": "GOOGLE", "types": ["bar", "restaurant", "point_of_interest", "food", "establishment"], "user_ratings_total": 21, "vicinity": "994 Blue Hill Avenue, Dorchester Center"}, "ChIJq29SE_t744kR820z9Ec5GuY": {"geometry": {"location": {"lat": 42.289639, "lng": -71.089874}, "viewport": {"northeast": {"lat": 42.2909768302915, "lng": -71.0884625697085}, "southwest": {"lat": 42.2882788697085, "lng": -71.0911605302915}}}, "icon": "https://maps.gstatic.com/mapfiles/place_api/icons/bus-71.png", "id": "eb080c3837cddba811b84119ea0d54b31ccc3e32", "name": "Blue Hill Ave @ Greenock St", "place_id": "ChIJq29SE_t744kR820z9Ec5GuY", "plus_code": {"compound_code": "7WQ6+V3 Boston, Massachusetts, United States", "global_code": "87JC7WQ6+V3"}, "reference": "ChIJq29SE_t744kR820z9Ec5GuY", "scope": "GOOGLE", "types": ["bus_station", "transit_station", "point_of_interest", "establishment"], "vicinity": "United States"}, "ChIJdW6ePft744kRHjf6Rs00lwE": {"geometry": {"location": {"lat": 42.2898219, "lng": -71.0892741}, "viewport": {"northeast": {"lat": 42.29119163029149, "lng": -71.08803706970849}, "southwest": {"lat": 42.28849366970849, "lng": -71.0907350302915}}}, "icon": "https://maps.gstatic.com/mapfiles/place_api/icons/generic_business-71.png", "id": "939a6a73701f9d4d60f1de57c53d0b8f478c20b9", "name": "Jou Jou Connections LLC", "place_id": "ChIJdW6ePft744kRHjf6Rs00lwE", "plus_code": {"compound_code": "7WQ6+W7 Boston, Massachusetts, United States", "global_code": "87JC7WQ6+W7"}, "reference": "ChIJdW6ePft744kRHjf6Rs00lwE", "scope": "GOOGLE", "types": ["point_of_interest", "establishment"], "vicinity": "996 Blue Hill Avenue, Dorchester Center"}}