{"ChIJGzE9DS1l44kRoOhiASS_fHg": {"geometry": {"location": {"lat": 42.3600825, "lng": -71.0588801}, "viewport": {"northeast": {"lat": 42.40081989999999, "lng": -70.749455}, "southwest": {"lat": 42.22788, "lng": -71.191113}}}, "icon": "https://maps.gstatic.com/mapfiles/place_api/icons/geocode-71.png", "id": "06755c25d2b34d13942a4713971756a55b870ced", "name": "Boston", "photos": [{"height": 3024, "html_attributions": ["<a href=\"https://maps.google.com/maps/contrib/104670289779338733432/photos\">Natalia Zalucean</a>"], "photo_reference": "CmRaAAAABPBTzZ4ThoPInqyGJFN8bJ_gCO9j8humDXOkAwwoTZbMw8cEeRI-PlR8kYpakasMkEPeMb5JkeTSwM6IOYC4seI4E1wCvHgOiZjxoWWPYL4Wv7NlUdpFpYy3FopkaoDKEhDKSwFaxIXcFgV1Wl4XwPySGhSOt87-SqGpl_ToJ9AXhfS1CKiikQ", "width": 4032}], "place_id": "ChIJGzE9DS1l44kRoOhiASS_fHg", "reference": "ChIJGzE9DS1l44kRoOhiASS_fHg", "scope": "GOOGLE", "types": ["locality", "political"], "vicinity": "Boston"}, "ChIJCXLk_lh644kRLWWwWLIBu5E": {"geometry": {"location": {"lat": 42.3252357, "lng": -71.0526052}, "viewport": {"northeast": {"lat": 42.32658628029149, "lng": -71.0511829197085}, "southwest": {"lat": 42.32388831970849, "lng": -71.0538808802915}}}, "icon": "https://maps.gstatic.com/mapfiles/place_api/icons/generic_business-71.png", "id": "69d2c9c90578a7979f6dab46b12fbb3f938088b1", "name": "Housing Opportunities Unlimited", "place_id": "ChIJCXLk_lh644kRLWWwWLIBu5E", "plus_code": {"compound_code": "8WGW+3X Boston, Massachusetts, United States", "global_code": "87JC8WGW+3X"}, "rating": 3, "reference": "ChIJCXLk_lh644kRLWWwWLIBu5E", "scope": "GOOGLE", "types": ["point_of_interest", "establishment"], "user_ratings_total": 1, "vicinity": "425 Old Colony Avenue, South Boston"}, "ChIJOd2g21h644kRj-xyL-owaMk": {"geometry": {"location": {"lat": 42.326724, "lng": -71.05219699999999}, "viewport": {"northeast": {"lat": 42.3280723802915, "lng": -71.0508864197085}, "southwest": {"lat": 42.3253744197085, "lng": -71.05358438029151}}}, "icon": "https://maps.gstatic.com/mapfiles/place_api/icons/bus-71.png", "id": "ac37155e428a92de829087c3383af0d72b401a8d", "name": "Old Colony Ave opp Gavin Way", "place_id": "ChIJOd2g21h644kRj-xyL-owaMk", "plus_code": {"compound_code": "8WGX+M4 Boston, Massachusetts, United States", "global_code": "87JC8WGX+M4"}, "reference": "ChIJOd2g21h644kRj-xyL-owaMk", "scope": "GOOGLE", "types": ["bus_station", "transit_station", "point_of_interest", "establishment"], "vicinity": "United States"}, "ChIJic9I1lh644kRclASC6QFmW8": {"geometry": {"location": {"lat": 42.326951, "lng": -71.052634}, "viewport": {"northeast": {"lat": 42.3283008802915, "lng": -71.0512313697085}, "southwest": {"lat": 42.3256029197085, "lng": -71.05392933029151}}}, "icon": "https://maps.gstatic.com/mapfiles/place_api/icons/bus-71.png", "id": "b208646524b581ebbe39a762fa9b31520c67dd72", "name": "Old Colony Ave @ Gavin Way", "place_id": "ChIJic9I1lh644kRclASC6QFmW8", "plus_code": {"compound_code": "8WGW+QW Boston, Massachusetts, United States", "global_code": "87JC8WGW+QW"}, "reference": "ChIJic9I1lh644kRclASC6QFmW8", "scope": "GOOGLE", "types": ["bus_station", "transit_station", "point_of_interest", "establishment"], "vicinity": "United States"}, "ChIJuSgjT1h644kRAUZ2M8Z8HFU": {"geometry": {"location": {"lat": 42.32464969999999, "lng": -71.0518701}, "viewport": {"northeast": {"lat": 42.3258944802915, "lng": -71.0505611197085}, "southwest": {"lat": 42.3231965197085, "lng": -71.05325908029153}}}, "icon": "https://maps.gstatic.com/mapfiles/place_api/icons/school-71.png", "id": "5a8d97d1ac1547f03041d0b197f2a9c9387a2cb2", "name": "South Boston Sports Collaborative", "place_id": "ChIJuSgjT1h644kRAUZ2M8Z8HFU", "plus_code": {"compound_code": "8WFX+V7 Boston, Massachusetts, United States", "global_code": "87JC8WFX+V7"}, "rating": 3, "reference": "ChIJuSgjT1h644kRAUZ2M8Z8HFU", "scope": "GOOGLE", "types": ["point_of_interest", "establishment"], "user_ratings_total": 1, "vicinity": "450 Old Colony Avenue, South Boston"}, "ChIJncv1P1l644kRGF-QohozUAk": {"geometry": {"location": {"lat": 42.3267454, "lng": -71.054141}, "viewport": {"northeast": {"lat": 42.3280934302915, "lng": -71.05287411970849}, "southwest": {"lat": 42.3253954697085, "lng": -71.0555720802915}}}, "icon": "https://maps.gstatic.com/mapfiles/place_api/icons/generic_recreational-71.png", "id": "d134d23b55d12e1465a91eb0345b252ada5eb4e2", "name": "Sterling Square", "place_id": "ChIJncv1P1l644kRGF-QohozUAk", "reference": "ChIJncv1P1l644kRGF-QohozUAk", "scope": "GOOGLE", "types": ["park", "premise", "point_of_interest", "establishment"], "vicinity": "Boston"}, "ChIJySFSPZJ644kRQd1ylK2wP54": {"geometry": {"location": {"lat": 42.3381437, "lng": -71.0475773}, "viewport": {"northeast": {"lat": 42.3551665, "lng": -71.0091984}, "southwest": {"lat": 42.32115, "lng": -71.0652948}}}, "icon": "https://maps.gstatic.com/mapfiles/place_api/icons/geocode-71.png", "id": "56a2680fff3ada55ed539f65fc2e901a748193c6", "name": "South Boston", "photos": [{"height": 1836, "html_attributions": ["<a href=\"https://maps.google.com/maps/contrib/100381122114234243821/photos\">Gary Stephens</a>"], "photo_reference": "CmRaAAAAw0Qmehs5cPc7Fyu6WVWWSevFUWuniXAr7QkmgDFc4Sqw4NuisKWmotiKmWTepNmwfo8sHToNGPnjeOkM7tBH4kEpmu1k9c2bXhCI_imSREhi1715kgRziYjBqUmNzEIWEhAP1ULMMGq0lvnvr6WLiEm6GhQBwkeT4oYiAmgWa-_x132nKRzptA", "width": 3264}], "place_id": "ChIJySFSPZJ644kRQd1ylK2wP54", "reference": "ChIJySFSPZJ644kRQd1ylK2wP54", "scope": "GOOGLE", "types": ["neighborhood", "political"], "vicinity": "Boston"}}