{"ChIJGzE9DS1l44kRoOhiASS_fHg": {"geometry": {"location": {"lat": 42.3600825, "lng": -71.0588801}, "viewport": {"northeast": {"lat": 42.40081989999999, "lng": -70.749455}, "southwest": {"lat": 42.22788, "lng": -71.191113}}}, "icon": "https://maps.gstatic.com/mapfiles/place_api/icons/geocode-71.png", "id": "06755c25d2b34d13942a4713971756a55b870ced", "name": "Boston", "photos": [{"height": 3024, "html_attributions": ["<a href=\"https://maps.google.com/maps/contrib/104670289779338733432/photos\">Natalia Zalucean</a>"], "photo_reference": "CmRaAAAAkkhIqybtkmR46nyr-A1DdvftOzDLrdUjK0Af2azO78p8sG-4Yi_MFxB6hDGfzInSNM3Z-MJcIwCUqF10XD7JXaYerg9EvrBJdf_RzeHvbLpFpbPJCJlBzqZC4phJUHr3EhCX9hr09d_V7i2A6m_035CTGhRtSFjeuuualIx8z8qCm4_sK5GT7Q", "width": 4032}], "place_id": "ChIJGzE9DS1l44kRoOhiASS_fHg", "reference": "ChIJGzE9DS1l44kRoOhiASS_fHg", "scope": "GOOGLE", "types": ["locality", "political"], "vicinity": "Boston"}, "ChIJ0-lF5MN544kR9puEdeDvxAM": {"geometry": {"location": {"lat": 42.350031, "lng": -71.12614500000001}, "viewport": {"northeast": {"lat": 42.35142638029149, "lng": -71.1247052197085}, "southwest": {"lat": 42.3487284197085, "lng": -71.12740318029151}}}, "icon": "https://maps.gstatic.com/mapfiles/place_api/icons/restaurant-71.png", "id": "d9eeaeba97bdc741a601708b0cfba36e7ba8662f", "name": "Clear Flour Bakery", "opening_hours": {"open_now": true}, "photos": [{"height": 3024, "html_attributions": ["<a href=\"https://maps.google.com/maps/contrib/117530916230336693936/photos\">Chris Karl</a>"], "photo_reference": "CmRaAAAA8K2hMDXbBfT9awqn1A855YMYPRt7DpsbmVXnvq_FuNVVhqaa9RXgIwtUPSgU1z7OUOvmfa3uxhPWnTy6DhlxoS1WET_3pLDEUtdRtIbjczipu9jEMX0m_AVYs8aQYpkeEhCz54iP2Fq0FFjbzoT1mYh1GhQOOAddP_LrhjVfl2aRp8jv8AuL7w", "width": 4032}], "place_id": "ChIJ0-lF5MN544kR9puEdeDvxAM", "plus_code": {"compound_code": "9V2F+2G Brookline, Massachusetts, United States", "global_code": "87JC9V2F+2G"}, "price_level": 2, "rating": 4.9, "reference": "ChIJ0-lF5MN544kR9puEdeDvxAM", "scope": "GOOGLE", "types": ["bakery", "store", "point_of_interest", "food", "establishment"], "user_ratings_total": 178, "vicinity": "178 Thorndike Street, Brookline"}, "ChIJJwT_jsJ544kRIbXwWt9Se_U": {"geometry": {"location": {"lat": 42.35126, "lng": -71.124938}, "viewport": {"northeast": {"lat": 42.35270293029149, "lng": -71.12370551970848}, "southwest": {"lat": 42.35000496970849, "lng": -71.1264034802915}}}, "icon": "https://maps.gstatic.com/mapfiles/place_api/icons/generic_business-71.png", "id": "71cf9ca68d91118444e2b6c6c48783a357b33105", "name": "Town Property Group", "opening_hours": {"open_now": true}, "photos": [{"height": 427, "html_attributions": ["<a href=\"https://maps.google.com/maps/contrib/102225446096717920987/photos\">Town Property Group</a>"], "photo_reference": "CmRaAAAAS5uEKiJd50cB1NW7VVenJzBWAD-e3HCd9YgNQ97QgdNoGNB8XGmgj8K4zyJn04tbKgyRpzxvooy8g5pjeMR5eqYKVPHN7V2vqD4egPG3wqZvR_8IE6OFAu_cw1Nn85vnEhDzWAQxbLdsV81Gh6Wuk9ObGhTpXnXxxTQnOxZUKEdip4Db4ARgZQ", "width": 640}], "place_id": "ChIJJwT_jsJ544kRIbXwWt9Se_U", "plus_code": {"compound_code": "9V2G+G2 Boston, Massachusetts, United States", "global_code": "87JC9V2G+G2"}, "rating": 4.9, "reference": "ChIJJwT_jsJ544kRIbXwWt9Se_U", "scope": "GOOGLE", "types": ["real_estate_agency", "finance", "point_of_interest", "establishment"], "user_ratings_total": 95, "vicinity": "1114 Commonwealth Avenue #6, Allston"}, "ChIJmVSs5cN544kReEnm48btKjc": {"geometry": {"location": {"lat": 42.350088, "lng": -71.126064}, "viewport": {"northeast": {"lat": 42.3514601802915, "lng": -71.1246696697085}, "southwest": {"lat": 42.3487622197085, "lng": -71.12736763029152}}}, "icon": "https://maps.gstatic.com/mapfiles/place_api/icons/generic_business-71.png", "id": "90e566bbdd9f66782db9d71bd6689269fef06880", "name": "Thorndike Laundromat / Highlander Self Service Laundry", "opening_hours": {"open_now": true}, "photos": [{"height": 2667, "html_attributions": ["<a href=\"https://maps.google.com/maps/contrib/102213728284005111731/photos\">Thorndike Laundromat / Highlander Self Service Laundry</a>"], "photo_reference": "CmRaAAAAaaQD5-BOiZJOwZv3TEhxkTapUZqRyLUq_zltBsnWPMuUHL3Wx_N_7LhC-PdSCfLz2MJ0XNPkgTfc4jicfKfeJcacDziHX9JKd7qheeBQ3I4AnNezpL4Jc4gYpweDoWTXEhCcZ9_VCGuZ-n9_1baas6dEGhT_NSNfOy9y_BbXUX6I9i1WE68-ew", "width": 4000}], "place_id": "ChIJmVSs5cN544kReEnm48btKjc", "plus_code": {"compound_code": "9V2F+2H Brookline, Massachusetts, United States", "global_code": "87JC9V2F+2H"}, "rating": 3.4, "reference": "ChIJmVSs5cN544kReEnm48btKjc", "scope": "GOOGLE", "types": ["laundry", "point_of_interest", "establishment"], "user_ratings_total": 11, "vicinity": "180 Thorndike Street, Brookline"}, "ChIJP1tW28N544kRVzRq7Q7kghY": {"geometry": {"location": {"lat": 42.35004780000001, "lng": -71.12516099999999}, "viewport": {"northeast": {"lat": 42.3513121802915, "lng": -71.12384996970849}, "southwest": {"lat": 42.3486142197085, "lng": -71.1265479302915}}}, "icon": "https://maps.gstatic.com/mapfiles/place_api/icons/generic_business-71.png", "id": "5330e8973ac6ca1c9aecff3ac0e96a94910df00e", "name": "Lorna McKenzie-Pollock", "place_id": "ChIJP1tW28N544kRVzRq7Q7kghY", "plus_code": {"compound_code": "9V2F+2W Brookline, Massachusetts, United States", "global_code": "87JC9V2F+2W"}, "reference": "ChIJP1tW28N544kRVzRq7Q7kghY", "scope": "GOOGLE", "types": ["health", "point_of_interest", "establishment"], "vicinity": "89 Abbottsford Road, Brookline"}, "ChIJPWDKscN544kRoGdZOtWvHlo": {"geometry": {"location": {"lat": 42.3511913, "lng": -71.1243123}, "viewport": {"northeast": {"lat": 42.3525942802915, "lng": -71.12304621970848}, "southwest": {"lat": 42.3498963197085, "lng": -71.12574418029149}}}, "icon": "https://maps.gstatic.com/mapfiles/place_api/icons/generic_business-71.png", "id": "1f20a87158288c37670de49e09e5dd1cd9abaeb4", "name": "WirePike", "place_id": "ChIJPWDKscN544kRoGdZOtWvHlo", "plus_code": {"compound_code": "9V2G+F7 Brookline, Massachusetts, United States", "global_code": "87JC9V2G+F7"}, "reference": "ChIJPWDKscN544kRoGdZOtWvHlo", "scope": "GOOGLE", "types": ["point_of_interest", "establishment"], "vicinity": "229 Fuller Street, Brookline"}, "ChIJt4YfTsJ544kRt2qK817ARY0": {"geometry": {"location": {"lat": 42.3511656, "lng": -71.1234006}, "viewport": {"northeast": {"lat": 42.3525236802915, "lng": -71.1221406697085}, "southwest": {"lat": 42.34982571970851, "lng": -71.1248386302915}}}, "icon": "https://maps.gstatic.com/mapfiles/place_api/icons/generic_business-71.png", "id": "2ab9acd9554c2903ec23001e83cc654a2e4c31d3", "name": "Single Parent Family Outreach", "place_id": "ChIJt4YfTsJ544kRt2qK817ARY0", "plus_code": {"compound_code": "9V2G+FJ Brookline, Massachusetts, United States", "global_code": "87JC9V2G+FJ"}, "reference": "ChIJt4YfTsJ544kRt2qK817ARY0", "scope": "GOOGLE", "types": ["point_of_interest", "establishment"], "vicinity": "173 Naples Road, Brookline"}, "ChIJOybXjsJ544kRSGPH5uvqcD8": {"geometry": {"location": {"lat": 42.35126, "lng": -71.124938}, "viewport": {"northeast": {"lat": 42.35270293029149, "lng": -71.12370551970848}, "southwest": {"lat": 42.35000496970849, "lng": -71.1264034802915}}}, "icon": "https://maps.gstatic.com/mapfiles/place_api/icons/generic_business-71.png", "id": "2e6c8a75044d284422428b5446a72732501f3559", "name": "Town Property Management", "opening_hours": {"open_now": true}, "photos": [{"height": 979, "html_attributions": ["<a href=\"https://maps.google.com/maps/contrib/101568457810046722644/photos\">Town Property Management</a>"], "photo_reference": "CmRaAAAAkEFH2teRZ8xF24g_JCXpQ-duEoSYM79riJONC1jJNFcZZSfsXHp9FMYLJZEvZZbTHpRBTPUW5k6S47DPaTrmgLhRkaokmPpmYF0k0kyyAAuOQejRclMQqTRfrfKNB-NnEhDqztwGQrRv-SgaVq83lQvBGhTjtz9vxR4nySOSGlF8QDVA3vjsOA", "width": 1000}], "place_id": "ChIJOybXjsJ544kRSGPH5uvqcD8", "plus_code": {"compound_code": "9V2G+G2 Boston, Massachusetts, United States", "global_code": "87JC9V2G+G2"}, "rating": 5, "reference": "ChIJOybXjsJ544kRSGPH5uvqcD8", "scope": "GOOGLE", "types": ["point_of_interest", "establishment"], "user_ratings_total": 2, "vicinity": "1114 Commonwealth Avenue #6, Allston"}, "ChIJYRUGVMJ544kRSLkvKCQ39yg": {"geometry": {"location": {"lat": 42.351293, "lng": -71.1238238}, "viewport": {"northeast": {"lat": 42.3526286802915, "lng": -71.12234451970849}, "southwest": {"lat": 42.3499307197085, "lng": -71.12504248029151}}}, "icon": "https://maps.gstatic.com/mapfiles/place_api/icons/generic_business-71.png", "id": "ddc36e53fa1ec22e53c5751b2fc12a175f92e5dc", "name": "Dr. Lauren M. Lagrega, MD", "place_id": "ChIJYRUGVMJ544kRSLkvKCQ39yg", "plus_code": {"compound_code": "9V2G+GF Brookline, Massachusetts, United States", "global_code": "87JC9V2G+GF"}, "reference": "ChIJYRUGVMJ544kRSLkvKCQ39yg", "scope": "GOOGLE", "types": ["doctor", "health", "point_of_interest", "establishment"], "vicinity": "184 Naples Road, Brookline"}, "ChIJYeaHgsF544kRcS2sR2XS_EY": {"geometry": {"location": {"lat": 42.3487181, "lng": -71.1239444}, "viewport": {"northeast": {"lat": 42.3501421802915, "lng": -71.12255591970849}, "southwest": {"lat": 42.3474442197085, "lng": -71.12525388029151}}}, "icon": "https://maps.gstatic.com/mapfiles/place_api/icons/generic_business-71.png", "id": "bd9cb8cf91dbf4bdc19dee7ff4aa9b478cbbc3a6", "name": "Zeta Beta Tau (MIT)", "photos": [{"height": 3036, "html_attributions": ["<a href=\"https://maps.google.com/maps/contrib/102692302782288946654/photos\">Karin Nordlander</a>"], "photo_reference": "CmRaAAAAe2wGQuSg54LioaPtkafrNvmKqDy848z3uhxW2-NB2ih_uC8_l3pzyEpOvOdJ5Wcq_cxIOdQWsL3uqV81TEX-EW9J8AdP1YWAuSO0vowoMkLrjSJ_w6LuxQwuNvs25YV4EhDaisjjhPDZBLzuxh97IO_yGhSdfSKBqNmWqpBl1gXm1DVdNMiv0Q", "width": 4048}], "place_id": "ChIJYeaHgsF544kRcS2sR2XS_EY", "plus_code": {"compound_code": "8VXG+FC Brookline, Massachusetts, United States", "global_code": "87JC8VXG+FC"}, "rating": 5, "reference": "ChIJYeaHgsF544kRcS2sR2XS_EY", "scope": "GOOGLE", "types": ["point_of_interest", "establishment"], "user_ratings_total": 17, "vicinity": "58 Manchester Road, Brookline"}, "ChIJfbXCAcN544kRrw4U1Ix727c": {"geometry": {"location": {"lat": 42.3516316, "lng": -71.12410799999999}, "viewport": {"northeast": {"lat": 42.3531535802915, "lng": -71.12283286970849}, "southwest": {"lat": 42.35045561970851, "lng": -71.1255308302915}}}, "icon": "https://maps.gstatic.com/mapfiles/place_api/icons/generic_business-71.png", "id": "8685d58995ebb87387e5418c31f387e5741e26fa", "name": "Swedish Motors", "opening_hours": {"open_now": true}, "photos": [{"height": 2992, "html_attributions": ["<a href=\"https://maps.google.com/maps/contrib/101617976631720250303/photos\">Grigor Martirosyan</a>"], "photo_reference": "CmRaAAAA4LIgyP-SBr9vr7ZPMU37OWT5GKBtr26eGBPHLbnSaEQfM2ij0FQoPmVRmUTRgF7zX6NZ-DX86Cwq52JXCZg5E92CY4thcYGdBXluR4C8imlJnIaggu5UfoVULTqBkcFVEhAavTm4AFMIqgYTj7IOjGW-GhTNDitJN5ohBNsKtbsxHdt_JU9awA", "width": 4000}], "place_id": "ChIJfbXCAcN544kRrw4U1Ix727c", "plus_code": {"compound_code": "9V2G+M9 Boston, Massachusetts, United States", "global_code": "87JC9V2G+M9"}, "rating": 5, "reference": "ChIJfbXCAcN544kRrw4U1Ix727c", "scope": "GOOGLE", "types": ["car_repair", "point_of_interest", "establishment"], "user_ratings_total": 48, "vicinity": "1090 Commonwealth Avenue, Boston"}, "ChIJY8P4WMF544kR5qkTBuemAzg": {"geometry": {"location": {"lat": 42.3495758, "lng": -71.1260429}, "viewport": {"northeast": {"lat": 42.35091913029151, "lng": -71.1246735197085}, "southwest": {"lat": 42.34822116970851, "lng": -71.1273714802915}}}, "icon": "https://maps.gstatic.com/mapfiles/place_api/icons/generic_business-71.png", "id": "03814cfaa327945e1125e4937784db3cdd520894", "name": "Stork Adoption Agency", "place_id": "ChIJY8P4WMF544kR5qkTBuemAzg", "plus_code": {"compound_code": "8VXF+RH Brookline, Massachusetts, United States", "global_code": "87JC8VXF+RH"}, "reference": "ChIJY8P4WMF544kR5qkTBuemAzg", "scope": "GOOGLE", "types": ["point_of_interest", "establishment"], "vicinity": "167 Thorndike Street, Brookline"}, "ChIJNX6cK8J544kR7UFFoeOVnnI": {"geometry": {"location": {"lat": 42.3495052, "lng": -71.1238478}, "viewport": {"northeast": {"lat": 42.3508835302915, "lng": -71.12248336970849}, "southwest": {"lat": 42.3481855697085, "lng": -71.1251813302915}}}, "icon": "https://maps.gstatic.com/mapfiles/place_api/icons/generic_business-71.png", "id": "23717a5768b2b149ab8a17a9de703644581f6c8e", "name": "ready to show it", "place_id": "ChIJNX6cK8J544kR7UFFoeOVnnI", "plus_code": {"compound_code": "8VXG+RF Brookline, Massachusetts, United States", "global_code": "87JC8VXG+RF"}, "reference": "ChIJNX6cK8J544kR7UFFoeOVnnI", "scope": "GOOGLE", "types": ["point_of_interest", "establishment"], "vicinity": "71 Abbottsford Road, Brookline"}, "ChIJ6elKInh644kRtLMxE1KG7Ew": {"geometry": {"location": {"lat": 42.35162, "lng": -71.1247413}, "viewport": {"northeast": {"lat": 42.35300478029149, "lng": -71.1234436197085}, "southwest": {"lat": 42.35030681970849, "lng": -71.1261415802915}}}, "icon": "https://maps.gstatic.com/mapfiles/place_api/icons/school-71.png", "id": "9a6e024d0f51e05fde0ae3bd8711922d853b30bf", "name": "ASC A+ Program", "opening_hours": {"open_now": true}, "place_id": "ChIJ6elKInh644kRtLMxE1KG7Ew", "plus_code": {"compound_code": "9V2G+J4 Boston, Massachusetts, United States", "global_code": "87JC9V2G+J4"}, "reference": "ChIJ6elKInh644kRtLMxE1KG7Ew", "scope": "GOOGLE", "types": ["point_of_interest", "establishment"], "vicinity": "1106 Commonwealth Avenue #100, Boston"}, "ChIJ___PqMN544kRHmLftqdjDiM": {"geometry": {"location": {"lat": 42.3511575, "lng": -71.1251004}, "viewport": {"northeast": {"lat": 42.3524367802915, "lng": -71.1236684197085}, "southwest": {"lat": 42.3497388197085, "lng": -71.1263663802915}}}, "icon": "https://maps.gstatic.com/mapfiles/place_api/icons/generic_business-71.png", "id": "76c0fddd6fdc7f71215f5c5e64941b97756f9ff5", "name": "Mayflower Medicinals", "place_id": "ChIJ___PqMN544kRHmLftqdjDiM", "plus_code": {"compound_code": "9V2F+FX Boston, Massachusetts, United States", "global_code": "87JC9V2F+FX"}, "reference": "ChIJ___PqMN544kRHmLftqdjDiM", "scope": "GOOGLE", "types": ["health", "point_of_interest", "establishment"], "vicinity": "1110 Commonwealth Avenue, Boston"}, "ChIJndPdQ8J544kR121h_irnfzI": {"geometry": {"location": {"lat": 42.3505881, "lng": -71.1228381}, "viewport": {"northeast": {"lat": 42.3519279302915, "lng": -71.1213908197085}, "southwest": {"lat": 42.3492299697085, "lng": -71.1240887802915}}}, "icon": "https://maps.gstatic.com/mapfiles/place_api/icons/generic_business-71.png", "id": "bea6bf6faf0924ef3d00427a0e9f504d988beef4", "name": "Sonia Mirkin", "place_id": "ChIJndPdQ8J544kR121h_irnfzI", "plus_code": {"compound_code": "9V2G+6V Brookline, Massachusetts, United States", "global_code": "87JC9V2G+6V"}, "reference": "ChIJndPdQ8J544kR121h_irnfzI", "scope": "GOOGLE", "types": ["real_estate_agency", "point_of_interest", "establishment"], "vicinity": "31 Winslow Road, Brookline"}, "ChIJATKFB8N544kRbnOMPKhm1q4": {"geometry": {"location": {"lat": 42.3516781, "lng": -71.1244505}, "viewport": {"northeast": {"lat": 42.3531078802915, "lng": -71.12319551970849}, "southwest": {"lat": 42.3504099197085, "lng": -71.1258934802915}}}, "icon": "https://maps.gstatic.com/mapfiles/place_api/icons/generic_business-71.png", "id": "3cf4d0598d15541ac730859710e061b84f093b08", "name": "Crystal Hair Salon", "opening_hours": {"open_now": true}, "place_id": "ChIJATKFB8N544kRbnOMPKhm1q4", "plus_code": {"compound_code": "9V2G+M6 Boston, Massachusetts, United States", "global_code": "87JC9V2G+M6"}, "rating": 3.8, "reference": "ChIJATKFB8N544kRbnOMPKhm1q4", "scope": "GOOGLE", "types": ["hair_care", "point_of_interest", "establishment"], "user_ratings_total": 33, "vicinity": "1104 Commonwealth Avenue, Boston"}, "ChIJVVWJJ8J544kReziWo_jU_YI": {"geometry": {"location": {"lat": 42.3491626, "lng": -71.1231971}, "viewport": {"northeast": {"lat": 42.35057923029149, "lng": -71.1218125697085}, "southwest": {"lat": 42.34788126970849, "lng": -71.1245105302915}}}, "icon": "https://maps.gstatic.com/mapfiles/place_api/icons/generic_business-71.png", "id": "2b9bb6143f60880fcaba49bc93fb99bc1555d252", "name": "nancy heller for select board", "place_id": "ChIJVVWJJ8J544kReziWo_jU_YI", "plus_code": {"compound_code": "8VXG+MP Brookline, Massachusetts, United States", "global_code": "87JC8VXG+MP"}, "reference": "ChIJVVWJJ8J544kReziWo_jU_YI", "scope": "GOOGLE", "types": ["point_of_interest", "establishment"], "vicinity": "40 Abbottsford Road, Brookline"}, "ChIJuxlc8cN544kRkNmK5UHvqRo": {"geometry": {"location": {"lat": 42.35037199999999, "lng": -71.126414}, "viewport": {"northeast": {"lat": 42.35184668029149, "lng": -71.1251443697085}, "southwest": {"lat": 42.3491487197085, "lng": -71.1278423302915}}}, "icon": "https://maps.gstatic.com/mapfiles/place_api/icons/generic_business-71.png", "id": "6be0fcf0272e364d062889b7346b51d4493f340c", "name": "Uptown Realty", "opening_hours": {"open_now": true}, "place_id": "ChIJuxlc8cN544kRkNmK5UHvqRo", "plus_code": {"compound_code": "9V2F+4C Brookline, Massachusetts, United States", "global_code": "87JC9V2F+4C"}, "rating": 4, "reference": "ChIJuxlc8cN544kRkNmK5UHvqRo", "scope": "GOOGLE", "types": ["real_estate_agency", "point_of_interest", "establishment"], "user_ratings_total": 4, "vicinity": "1140 Commonwealth Avenue, Allston"}, "ChIJhZirQQB544kRB9LbXEfedZQ": {"geometry": {"location": {"lat": 42.33176419999999, "lng": -71.1211635}, "viewport": {"northeast": {"lat": 42.3518109, "lng": -71.1056969}, "southwest": {"lat": 42.29459689999999, "lng": -71.1789959}}}, "icon": "https://maps.gstatic.com/mapfiles/place_api/icons/geocode-71.png", "id": "92986b2d1f69af2f2a7e29d34ced8adfa8573beb", "name": "Brookline", "photos": [{"height": 651, "html_attributions": ["<a href=\"https://maps.google.com/maps/contrib/114772942214832951419/photos\">Michael Ahn</a>"], "photo_reference": "CmRaAAAAPTJhMvObYZn1KvKzrNJkHDha8Q1JsQr5K6qq8Csa8okTipl23phIYgKI6vIh_Fbuy7hkv990lORuHk6TeFd7eQB3DE392dUogKu8Q73XhcTvolCZe1Uaz0rLgLk1Th0wEhC-ZIuWtof_Vgs2fr61JdWoGhQHYEV4yeFEbfTG3GqYuZkK1kG-YA", "width": 1608}], "place_id": "ChIJhZirQQB544kRB9LbXEfedZQ", "reference": "ChIJhZirQQB544kRB9LbXEfedZQ", "scope": "GOOGLE", "types": ["locality", "political"], "vicinity": "Brookline"}, "ChIJQwzwBsN544kRz28gRjHaDMc": {"geometry": {"location": {"lat": 42.35175239999999, "lng": -71.1244505}, "viewport": {"northeast": {"lat": 42.3531674802915, "lng": -71.12315411970849}, "southwest": {"lat": 42.3504695197085, "lng": -71.1258520802915}}}, "icon": "https://maps.gstatic.com/mapfiles/place_api/icons/generic_business-71.png", "id": "70404110956fc11d2977e24369982ae3fdb37e7c", "name": "Boston Realty Associates", "place_id": "ChIJQwzwBsN544kRz28gRjHaDMc", "plus_code": {"compound_code": "9V2G+P6 Boston, Massachusetts, United States", "global_code": "87JC9V2G+P6"}, "rating": 2, "reference": "ChIJQwzwBsN544kRz28gRjHaDMc", "scope": "GOOGLE", "types": ["real_estate_agency", "point_of_interest", "establishment"], "user_ratings_total": 4, "vicinity": "1102 Commonwealth Avenue, Boston"}, "ChIJDTt828N544kReLilAze3gj4": {"geometry": {"location": {"lat": 42.350052, "lng": -71.125147}, "viewport": {"northeast": {"lat": 42.35131293029151, "lng": -71.1238375197085}, "southwest": {"lat": 42.34861496970851, "lng": -71.12653548029151}}}, "icon": "https://maps.gstatic.com/mapfiles/place_api/icons/generic_business-71.png", "id": "91e71763fc5414b305ced0d761a83e3d6c84a672", "name": "International Counseling and Hypnosis", "opening_hours": {"open_now": true}, "photos": [{"height": 749, "html_attributions": ["<a href=\"https://maps.google.com/maps/contrib/108364260075233468736/photos\">International Counseling and Hypnosis</a>"], "photo_reference": "CmRaAAAA1OM3_0rPb2jVP8ZjyvIK40x48i9467zqt3k_IL9UBMPzxA31tMFam9p1lAcgzEBJtE4hU54QcdsuBGlhs5vjXrsk5BK5NYZk93Gkm5tazSvQYnkIQaqUwy27AnvJ0yAsEhCzIoYtnhmlTjHyxc_a4cGPGhRjuJVNgClDoLBz2UgoezW7W1Ff8w", "width": 747}], "place_id": "ChIJDTt828N544kReLilAze3gj4", "plus_code": {"compound_code": "9V2F+2W Brookline, Massachusetts, United States", "global_code": "87JC9V2F+2W"}, "reference": "ChIJDTt828N544kReLilAze3gj4", "scope": "GOOGLE", "types": ["health", "point_of_interest", "establishment"], "vicinity": "5871, 89 Abbottsford Road, Brookline"}, "ChIJuYXWwMN544kRxraNiOBlfhY": {"geometry": {"location": {"lat": 42.3505347, "lng": -71.1251956}, "viewport": {"northeast": {"lat": 42.3518960802915, "lng": -71.12386031970848}, "southwest": {"lat": 42.3491981197085, "lng": -71.1265582802915}}}, "icon": "https://maps.gstatic.com/mapfiles/place_api/icons/generic_business-71.png", "id": "35916e959d6f18a4585ed5f7a81440eee1681a6f", "name": "16 Hamilton Rd Parking", "place_id": "ChIJuYXWwMN544kRxraNiOBlfhY", "plus_code": {"compound_code": "9V2F+6W Brookline, Massachusetts, United States", "global_code": "87JC9V2F+6W"}, "reference": "ChIJuYXWwMN544kRxraNiOBlfhY", "scope": "GOOGLE", "types": ["parking", "point_of_interest", "establishment"], "vicinity": "16 Hamilton Road, Brookline"}, "ChIJA9YGMcJ544kRMUn2hB6peCU": {"geometry": {"location": {"lat": 42.3498133, "lng": -71.1231684}, "viewport": {"northeast": {"lat": 42.3512019802915, "lng": -71.1218048697085}, "southwest": {"lat": 42.34850401970851, "lng": -71.1245028302915}}}, "icon": "https://maps.gstatic.com/mapfiles/place_api/icons/generic_business-71.png", "id": "d8b4e99962e55ffccabb7e22e8651b8102d4a913", "name": "Dr. Dennis C. Lynch, MD", "place_id": "ChIJA9YGMcJ544kRMUn2hB6peCU", "plus_code": {"compound_code": "8VXG+WP Brookline, Massachusetts, United States", "global_code": "87JC8VXG+WP"}, "reference": "ChIJA9YGMcJ544kRMUn2hB6peCU", "scope": "GOOGLE", "types": ["doctor", "health", "point_of_interest", "establishment"], "vicinity": "11 Osborne Road, Brookline"}, "ChIJQfFpQcJ544kRJ6t2psk-MKc": {"geometry": {"location": {"lat": 42.3505151, "lng": -71.12284489999999}, "viewport": {"northeast": {"lat": 42.3518700302915, "lng": -71.1213960697085}, "southwest": {"lat": 42.3491720697085, "lng": -71.12409403029152}}}, "icon": "https://maps.gstatic.com/mapfiles/place_api/icons/generic_business-71.png", "id": "ad3e0cba0f8e5ac64eb30fe168b1f72323921d94", "name": "Zipcar", "opening_hours": {"open_now": true}, "photos": [{"height": 499, "html_attributions": ["<a href=\"https://maps.google.com/maps/contrib/102141213405549797423/photos\">Zipcar</a>"], "photo_reference": "CmRaAAAAA92JKEYELfljJCReDyyot37b98moYqbgR2eyIocubN9fVqe3a8xdiP1OcrgyVWysVca8H_41Th0zSsJGb-feQgT2rWyUWzyY7BQcoWHZCL0u919PrVLf7iquHyW8mst1EhBaUKpXpL0hrC8BT5IurAlNGhRGxSLGzmoEeDMbEv6i1ahEf9_H8A", "width": 499}], "place_id": "ChIJQfFpQcJ544kRJ6t2psk-MKc", "plus_code": {"compound_code": "9V2G+6V Brookline, Massachusetts, United States", "global_code": "87JC9V2G+6V"}, "reference": "ChIJQfFpQcJ544kRJ6t2psk-MKc", "scope": "GOOGLE", "types": ["car_rental", "point_of_interest", "establishment"], "vicinity": "41 Winslow Road, Brookline"}, "ChIJGYJHWMN544kRetNmqc6uKoM": {"geometry": {"location": {"lat": 42.35125980000001, "lng": -71.12493789999999}, "viewport": {"northeast": {"lat": 42.35270278029151, "lng": -71.12370551970848}, "southwest": {"lat": 42.35000481970851, "lng": -71.1264034802915}}}, "icon": "https://maps.gstatic.com/mapfiles/place_api/icons/generic_business-71.png", "id": "788f0e63ead91bb7e0505edbb5a989d55e850b7f", "name": "Mass Cash Deals", "place_id": "ChIJGYJHWMN544kRetNmqc6uKoM", "plus_code": {"compound_code": "9V2G+G2 Boston, Massachusetts, United States", "global_code": "87JC9V2G+G2"}, "reference": "ChIJGYJHWMN544kRetNmqc6uKoM", "scope": "GOOGLE", "types": ["finance", "point_of_interest", "establishment"], "vicinity": "1114 Commonwealth Avenue #6, Allston"}, "ChIJq6raiMJ544kRssxDLnxNjEw": {"geometry": {"location": {"lat": 42.3512822, "lng": -71.1249993}, "viewport": {"northeast": {"lat": 42.3527078302915, "lng": -71.12374536970849}, "southwest": {"lat": 42.3500098697085, "lng": -71.12644333029151}}}, "icon": "https://maps.gstatic.com/mapfiles/place_api/icons/generic_business-71.png", "id": "c45f05f07b8db5256969ff6fe6cf73fa0516c2db", "name": "MCD Buys Homes", "place_id": "ChIJq6raiMJ544kRssxDLnxNjEw", "plus_code": {"compound_code": "9V2G+G2 Boston, Massachusetts, United States", "global_code": "87JC9V2G+G2"}, "reference": "ChIJq6raiMJ544kRssxDLnxNjEw", "scope": "GOOGLE", "types": ["general_contractor", "point_of_interest", "establishment"], "vicinity": "1114 Commonwealth Avenue #6, Allston"}, "ChIJAQBE68N544kRl-xBRXADKHM": {"geometry": {"location": {"lat": 42.350727, "lng": -71.1258431}, "viewport": {"northeast": {"lat": 42.35199703029149, "lng": -71.12440766970849}, "southwest": {"lat": 42.3492990697085, "lng": -71.12710563029151}}}, "icon": "https://maps.gstatic.com/mapfiles/place_api/icons/generic_business-71.png", "id": "83464b540bab793629b9c9f285430f781cee7c9e", "name": "Upright Realty Group LLC", "opening_hours": {"open_now": true}, "place_id": "ChIJAQBE68N544kRl-xBRXADKHM", "plus_code": {"compound_code": "9V2F+7M Brookline, Massachusetts, United States", "global_code": "87JC9V2F+7M"}, "rating": 3.8, "reference": "ChIJAQBE68N544kRl-xBRXADKHM", "scope": "GOOGLE", "types": ["point_of_interest", "establishment"], "user_ratings_total": 10, "vicinity": "1128 Commonwealth Avenue, Boston"}, "ChIJBWCZp8N544kRgOwKvXCou7A": {"geometry": {"location": {"lat": 42.3514942, "lng": -71.1245685}, "viewport": {"northeast": {"lat": 42.3529404802915, "lng": -71.1233589697085}, "southwest": {"lat": 42.3502425197085, "lng": -71.12605693029151}}}, "icon": "https://maps.gstatic.com/mapfiles/place_api/icons/school-71.png", "id": "6081ac861559827b93e16375a644a3dded087201", "name": "Cats Dormitory", "place_id": "ChIJBWCZp8N544kRgOwKvXCou7A", "plus_code": {"compound_code": "9V2G+H5 Boston, Massachusetts, United States", "global_code": "87JC9V2G+H5"}, "reference": "ChIJBWCZp8N544kRgOwKvXCou7A", "scope": "GOOGLE", "types": ["point_of_interest", "establishment"], "vicinity": "1110 Commonwealth Avenue, Boston"}, "ChIJR1YlqcN544kRHTSxVd4j7cA": {"geometry": {"location": {"lat": 42.35149430000001, "lng": -71.1245685}, "viewport": {"northeast": {"lat": 42.3527813802915, "lng": -71.1231316697085}, "southwest": {"lat": 42.3500834197085, "lng": -71.1258296302915}}}, "icon": "https://maps.gstatic.com/mapfiles/place_api/icons/lodging-71.png", "id": "43918d00c6f1c4617c6e7426f8e440bffc53ca36", "name": "Packard's Corner Apartments", "place_id": "ChIJR1YlqcN544kRHTSxVd4j7cA", "plus_code": {"compound_code": "9V2G+H5 Boston, Massachusetts, United States", "global_code": "87JC9V2G+H5"}, "rating": 4.5, "reference": "ChIJR1YlqcN544kRHTSxVd4j7cA", "scope": "GOOGLE", "types": ["lodging", "point_of_interest", "establishment"], "user_ratings_total": 2, "vicinity": "1110 Brookline Avenue, Boston"}, "ChIJR1YlqcN544kRgeymDbkhKnU": {"geometry": {"location": {"lat": 42.35149430000001, "lng": -71.1245685}, "viewport": {"northeast": {"lat": 42.3529405802915, "lng": -71.12335891970851}, "southwest": {"lat": 42.3502426197085, "lng": -71.12605688029151}}}, "icon": "https://maps.gstatic.com/mapfiles/place_api/icons/generic_business-71.png", "id": "6456f69fe2ef1e47f6a33c036f4b1f0e9803d3ae", "name": "Uhouzz USA Inc.", "opening_hours": {"open_now": true}, "photos": [{"height": 669, "html_attributions": ["<a href=\"https://maps.google.com/maps/contrib/116982264804336388493/photos\">Uhouzz USA Inc.</a>"], "photo_reference": "CmRaAAAADHXKDsjqg4DfZJWlGTgIBeESwNqyDFFK2Ekn7D3487JtXHTidv_4b5ATW1XuUSquj6x86f40NC3rcJP5GY62XXlJPYXBMpyMO6pqSW3tDJnxQk5yrWYVxxlpuaPZe4RbEhDqJ_pIu6is96oyRKUf6iVjGhR9aZ4-GHQQM492y83jIDGJgaU4Rw", "width": 1000}], "place_id": "ChIJR1YlqcN544kRgeymDbkhKnU", "plus_code": {"compound_code": "9V2G+H5 Boston, Massachusetts, United States", "global_code": "87JC9V2G+H5"}, "rating": 3.6, "reference": "ChIJR1YlqcN544kRgeymDbkhKnU", "scope": "GOOGLE", "types": ["real_estate_agency", "point_of_interest", "establishment"], "user_ratings_total": 19, "vicinity": "1110 Commonwealth Avenue, Boston"}, "ChIJKae67MN544kRl2pG8d3_T6A": {"geometry": {"location": {"lat": 42.3507597, "lng": -71.1259464}, "viewport": {"northeast": {"lat": 42.3521687302915, "lng": -71.1246592697085}, "southwest": {"lat": 42.3494707697085, "lng": -71.12735723029151}}}, "icon": "https://maps.gstatic.com/mapfiles/place_api/icons/generic_business-71.png", "id": "df28b5cbe4c333ade2077c1af133f666d1a658a6", "name": "Kunevich & Lau Apartment Rentals", "place_id": "ChIJKae67MN544kRl2pG8d3_T6A", "plus_code": {"compound_code": "9V2F+8J Boston, Massachusetts, United States", "global_code": "87JC9V2F+8J"}, "reference": "ChIJKae67MN544kRl2pG8d3_T6A", "scope": "GOOGLE", "types": ["real_estate_agency", "point_of_interest", "establishment"], "vicinity": "1128 Commonwealth Avenue, Allston"}, "ChIJ9_WFZ8J544kRBctszr2BgsE": {"geometry": {"location": {"lat": 42.3508242, "lng": -71.122753}, "viewport": {"northeast": {"lat": 42.3521642302915, "lng": -71.12132411970849}, "southwest": {"lat": 42.3494662697085, "lng": -71.12402208029151}}}, "icon": "https://maps.gstatic.com/mapfiles/place_api/icons/generic_business-71.png", "id": "b8942986c75065bf2fadbda1fa21e82d63966b28", "name": "Stievater Willard J", "place_id": "ChIJ9_WFZ8J544kRBctszr2BgsE", "plus_code": {"compound_code": "9V2G+8V Brookline, Massachusetts, United States", "global_code": "87JC9V2G+8V"}, "reference": "ChIJ9_WFZ8J544kRBctszr2BgsE", "scope": "GOOGLE", "types": ["lawyer", "point_of_interest", "establishment"], "vicinity": "27 Winslow Road, Brookline"}, "ChIJEUtX5cN544kR4e91bHknTQs": {"geometry": {"location": {"lat": 42.3501741, "lng": -71.1262493}, "viewport": {"northeast": {"lat": 42.35156438029149, "lng": -71.12481951970848}, "southwest": {"lat": 42.34886641970849, "lng": -71.1275174802915}}}, "icon": "https://maps.gstatic.com/mapfiles/place_api/icons/generic_business-71.png", "id": "6ce2901650d6db48bb0d53e425236c83fbf27e82", "name": "Sandy's Cleaners", "place_id": "ChIJEUtX5cN544kR4e91bHknTQs", "plus_code": {"compound_code": "9V2F+3G Brookline, Massachusetts, United States", "global_code": "87JC9V2F+3G"}, "rating": 3, "reference": "ChIJEUtX5cN544kR4e91bHknTQs", "scope": "GOOGLE", "types": ["laundry", "point_of_interest", "establishment"], "user_ratings_total": 1, "vicinity": "186 Thorndike Street, Brookline"}, "ChIJ72YeZsF544kRq2y76o_uBEM": {"geometry": {"location": {"lat": 42.34890619999999, "lng": -71.1252445}, "viewport": {"northeast": {"lat": 42.3502065802915, "lng": -71.12392051970849}, "southwest": {"lat": 42.3475086197085, "lng": -71.12661848029151}}}, "icon": "https://maps.gstatic.com/mapfiles/place_api/icons/generic_business-71.png", "id": "641acffe21cb47b293f420e7c528712f71d9d8fe", "name": "David Stern Photography", "place_id": "ChIJ72YeZsF544kRq2y76o_uBEM", "plus_code": {"compound_code": "8VXF+HW Brookline, Massachusetts, United States", "global_code": "87JC8VXF+HW"}, "reference": "ChIJ72YeZsF544kRq2y76o_uBEM", "scope": "GOOGLE", "types": ["point_of_interest", "establishment"], "vicinity": "63 Gibbs Street, Brookline"}, "ChIJF899Is5544kREm66Lq1bUGc": {"geometry": {"location": {"lat": 42.3516467, "lng": -71.1245975}, "viewport": {"northeast": {"lat": 42.3530517302915, "lng": -71.12332881970849}, "southwest": {"lat": 42.35035376970851, "lng": -71.1260267802915}}}, "icon": "https://maps.gstatic.com/mapfiles/place_api/icons/generic_business-71.png", "id": "25244a7a731b8fe2aeedf30405d2972615373b94", "name": "Hooli Homes Boston Inc.", "opening_hours": {"open_now": true}, "photos": [{"height": 3024, "html_attributions": ["<a href=\"https://maps.google.com/maps/contrib/113542613572195283327/photos\">Hooli Homes Boston Inc.</a>"], "photo_reference": "CmRaAAAAmEgrTKga791-X43kt_-LOqS9L_PyfggH7dwffqoRq3g4Lmr0xbF9_Usn3WUeXqIC9u118XmeaWuFx2S7QcpknfmdXjcHduUYDCGu65k5WqeXYpdRQ9F6w8znpc4mvh3BEhB2G_qh6-6COuHByAqlXe9tGhRhUQMLwS8Hnb53GHnf8LYMNke9og", "width": 4032}], "place_id": "ChIJF899Is5544kREm66Lq1bUGc", "plus_code": {"compound_code": "9V2G+M5 Boston, Massachusetts, United States", "global_code": "87JC9V2G+M5"}, "rating": 4.8, "reference": "ChIJF899Is5544kREm66Lq1bUGc", "scope": "GOOGLE", "types": ["real_estate_agency", "point_of_interest", "establishment"], "user_ratings_total": 20, "vicinity": "1106B Commonwealth Avenue, Boston"}, "ChIJP393GLd544kR1UgywEQnGtk": {"geometry": {"location": {"lat": 42.35162560000001, "lng": -71.1247635}, "viewport": {"northeast": {"lat": 42.3530049802915, "lng": -71.12345806970849}, "southwest": {"lat": 42.3503070197085, "lng": -71.12615603029151}}}, "icon": "https://maps.gstatic.com/mapfiles/place_api/icons/school-71.png", "id": "5b0482b20d27ea859aa54c441ac83d0986570248", "name": "ASC English", "opening_hours": {"open_now": true}, "photos": [{"height": 250, "html_attributions": ["<a href=\"https://maps.google.com/maps/contrib/112144082455793909155/photos\">ASC English</a>"], "photo_reference": "CmRaAAAAPyBGoav5_6UKC9B-J9TubO8w6PKrhcjv3_Or48VmEd_6zhaoxFyYRvsfG3rjlM-vdn_ePMkRS26W7fE44RLRa_9M4bC0pzzXrwk2eF5WXBCdkJcWQbxLDxNAZawJ8_QrEhCZvg9CV6q6zPt6fXsFZiucGhSURBuLgn5p1X2xLc6avaQ0rEm5Yg", "width": 250}], "place_id": "ChIJP393GLd544kR1UgywEQnGtk", "plus_code": {"compound_code": "9V2G+M3 Boston, Massachusetts, United States", "global_code": "87JC9V2G+M3"}, "reference": "ChIJP393GLd544kR1UgywEQnGtk", "scope": "GOOGLE", "types": ["point_of_interest", "establishment"], "vicinity": "1106 Commonwealth Avenue, Boston"}, "ChIJ_8398cN544kRKFPbK3-TnCo": {"geometry": {"location": {"lat": 42.3505415, "lng": -71.1262943}, "viewport": {"northeast": {"lat": 42.35188988029149, "lng": -71.1249467197085}, "southwest": {"lat": 42.3491919197085, "lng": -71.12764468029151}}}, "icon": "https://maps.gstatic.com/mapfiles/place_api/icons/school-71.png", "id": "1acc84db8376b323ec73bd628a10ec56a420fae7", "name": "Suffolk University", "place_id": "ChIJ_8398cN544kRKFPbK3-TnCo", "plus_code": {"compound_code": "9V2F+6F Brookline, Massachusetts, United States", "global_code": "87JC9V2F+6F"}, "reference": "ChIJ_8398cN544kRKFPbK3-TnCo", "scope": "GOOGLE", "types": ["school", "point_of_interest", "establishment"], "vicinity": "181 Thorndike Street, Brookline"}, "ChIJR1qmacJ544kR8ldCCxTTVjY": {"geometry": {"location": {"lat": 42.3505972, "lng": -71.1223998}, "viewport": {"northeast": {"lat": 42.35187218029151, "lng": -71.1210619197085}, "southwest": {"lat": 42.34917421970851, "lng": -71.1237598802915}}}, "icon": "https://maps.gstatic.com/mapfiles/place_api/icons/generic_business-71.png", "id": "6f66c7270160cfc67583309e25177094bb0c2cdf", "name": "ALice Dentremont", "photos": [{"height": 3000, "html_attributions": ["<a href=\"https://maps.google.com/maps/contrib/110791198797448202164/photos\">Serge Loverde</a>"], "photo_reference": "CmRaAAAAK05eFCWwpuswSGoZFvqwIBBsJAUWcPMCbETB4ZAUb3S3AVEsqvXTiYMChALlJ8tOYofR_fiwtrznN1aFUazQ8hEo8LoA5_-McmWUbgZQxA8m_02vPCrIoqEotdLo9H1hEhCd_SPUcTjpNdcqyr3L-Rc3GhSNI9wNdqo_bHBnL0RE5g-aEorL8g", "width": 4000}], "place_id": "ChIJR1qmacJ544kR8ldCCxTTVjY", "plus_code": {"compound_code": "9V2H+62 Brookline, Massachusetts, United States", "global_code": "87JC9V2H+62"}, "reference": "ChIJR1qmacJ544kR8ldCCxTTVjY", "scope": "GOOGLE", "types": ["point_of_interest", "establishment"], "vicinity": "44 Winslow Road, Brookline"}, "ChIJuxlc8cN544kRYPv6eMdtg5c": {"geometry": {"location": {"lat": 42.35037199999999, "lng": -71.126414}, "viewport": {"northeast": {"lat": 42.35184668029149, "lng": -71.1251443697085}, "southwest": {"lat": 42.3491487197085, "lng": -71.1278423302915}}}, "icon": "https://maps.gstatic.com/mapfiles/place_api/icons/generic_business-71.png", "id": "6eea0dcaf5415ca223b3d32975a77b7f23ba06de", "name": "Walter F Martin & Associates", "place_id": "ChIJuxlc8cN544kRYPv6eMdtg5c", "plus_code": {"compound_code": "9V2F+4C Brookline, Massachusetts, United States", "global_code": "87JC9V2F+4C"}, "reference": "ChIJuxlc8cN544kRYPv6eMdtg5c", "scope": "GOOGLE", "types": ["real_estate_agency", "point_of_interest", "establishment"], "vicinity": "1140 Commonwealth Avenue, Allston"}}