{"ChIJGzE9DS1l44kRoOhiASS_fHg": {"geometry": {"location": {"lat": 42.3600825, "lng": -71.0588801}, "viewport": {"northeast": {"lat": 42.40081989999999, "lng": -70.749455}, "southwest": {"lat": 42.22788, "lng": -71.191113}}}, "icon": "https://maps.gstatic.com/mapfiles/place_api/icons/geocode-71.png", "id": "06755c25d2b34d13942a4713971756a55b870ced", "name": "Boston", "photos": [{"height": 3024, "html_attributions": ["<a href=\"https://maps.google.com/maps/contrib/104670289779338733432/photos\">Natalia Zalucean</a>"], "photo_reference": "CmRaAAAA5LwzXJUEuO3XWQouHHMwzl5GrB3KnnXA_nkf4WYpywQapvFoNqwAPoxYIvk-iSaIlljgm98fxyAQyzBsIxEsJh7JlyChYOXyRDB0Yp1T9gNWRCDnOc2QEOviiVakokZwEhDAt4o0wMpKsjPx_uDaeVK-GhS5LvcFVtK19Ny15kAZ6hx4mv2imQ", "width": 4032}], "place_id": "ChIJGzE9DS1l44kRoOhiASS_fHg", "reference": "ChIJGzE9DS1l44kRoOhiASS_fHg", "scope": "GOOGLE", "types": ["locality", "political"], "vicinity": "Boston"}, "ChIJBZxmWz1644kRus_fZ3ZP0iE": {"geometry": {"location": {"lat": 42.337264, "lng": -71.0843606}, "viewport": {"northeast": {"lat": 42.33856258029149, "lng": -71.08295856970848}, "southwest": {"lat": 42.3358646197085, "lng": -71.0856565302915}}}, "icon": "https://maps.gstatic.com/mapfiles/place_api/icons/restaurant-71.png", "id": "04bdd219272d0e5b5b8ff78bc0b3e9a21395a38c", "name": "Subway", "opening_hours": {"open_now": true}, "place_id": "ChIJBZxmWz1644kRus_fZ3ZP0iE", "plus_code": {"compound_code": "8WP8+W7 Boston, Massachusetts, United States", "global_code": "87JC8WP8+W7"}, "price_level": 1, "rating": 3.7, "reference": "ChIJBZxmWz1644kRus_fZ3ZP0iE", "scope": "GOOGLE", "types": ["restaurant", "point_of_interest", "food", "establishment"], "user_ratings_total": 70, "vicinity": "981 Tremont Street, Boston"}, "ChIJo8q9Zj1644kR2BzUC4rxLOU": {"geometry": {"location": {"lat": 42.33731429999999, "lng": -71.08369379999999}, "viewport": {"northeast": {"lat": 42.33871793029149, "lng": -71.08240371970848}, "southwest": {"lat": 42.3360199697085, "lng": -71.0851016802915}}}, "icon": "https://maps.gstatic.com/mapfiles/place_api/icons/bar-71.png", "id": "a87628a3ff9dd18b27ea23789c1dddd0501c5cc9", "name": "Slades Bar & Grill", "opening_hours": {"open_now": true}, "photos": [{"height": 2988, "html_attributions": ["<a href=\"https://maps.google.com/maps/contrib/107322336511458865692/photos\">Everette Linton Jr</a>"], "photo_reference": "CmRaAAAA9d9fOs9uA2hNyUe4yuEm921b3DADyrzEZww7G0ivxRKQcRfXI9fgbHAotXR-L_4DPqwcuzZNth-pQtfXxNvorn2Bqw4K_ESEg6sWdj-s3FqcqQ--fASz2bU_j6knCXPbEhCA-5ZRjrj2q5x2SphvQ_IqGhRtwCBBoX5NM3Y8ujKJ0geQoH1uaw", "width": 5312}], "place_id": "ChIJo8q9Zj1644kR2BzUC4rxLOU", "plus_code": {"compound_code": "8WP8+WG Boston, Massachusetts, United States", "global_code": "87JC8WP8+WG"}, "rating": 4.2, "reference": "ChIJo8q9Zj1644kR2BzUC4rxLOU", "scope": "GOOGLE", "types": ["bar", "point_of_interest", "establishment"], "user_ratings_total": 589, "vicinity": "958 Tremont Street, Boston"}, "ChIJYSC0XD1644kRbHFKjVQQBrU": {"geometry": {"location": {"lat": 42.33682489999999, "lng": -71.08459789999999}, "viewport": {"northeast": {"lat": 42.33823928029149, "lng": -71.08325091970849}, "southwest": {"lat": 42.33554131970849, "lng": -71.0859488802915}}}, "icon": "https://maps.gstatic.com/mapfiles/place_api/icons/restaurant-71.png", "id": "087511d387ef8909f1cc274cf5454a8eb9e53cc7", "name": "Good Eats Pizza & Subs", "opening_hours": {"open_now": true}, "photos": [{"height": 4032, "html_attributions": ["<a href=\"https://maps.google.com/maps/contrib/116074270452127341538/photos\">Jessica T</a>"], "photo_reference": "CmRaAAAA1XcD1X8QVC9Te-vD1vCx391kXOlCeI8pXQTwnNwqCZS6QIquDW8rzQsqcYK_1GF8YxKShjDJASm3Wc9ixxtBHSueIcjJ6oj4NK_nkpBGBXl3DWDUIKjip2lEnn6l02uTEhBj_BvftSW-nD1vy6lLWHc6GhTBVx5wrNMnhV2_YKI1fWPIbGuDJA", "width": 3024}], "place_id": "ChIJYSC0XD1644kRbHFKjVQQBrU", "plus_code": {"compound_code": "8WP8+P5 Boston, Massachusetts, United States", "global_code": "87JC8WP8+P5"}, "price_level": 1, "rating": 3.8, "reference": "ChIJYSC0XD1644kRbHFKjVQQBrU", "scope": "GOOGLE", "types": ["meal_delivery", "meal_takeaway", "restaurant", "point_of_interest", "food", "establishment"], "user_ratings_total": 114, "vicinity": "1002 Tremont Street, Boston"}, "ChIJlZbcthZ644kRamB5bj6tUXU": {"geometry": {"location": {"lat": 42.337468, "lng": -71.0842833}, "viewport": {"northeast": {"lat": 42.33871853029149, "lng": -71.0828276697085}, "southwest": {"lat": 42.3360205697085, "lng": -71.08552563029151}}}, "icon": "https://maps.gstatic.com/mapfiles/place_api/icons/shopping-71.png", "id": "de7da24e0d7eb2aab4898bdeb6df3c9b8ec1cab6", "name": "Lotus Designs", "opening_hours": {"open_now": true}, "photos": [{"height": 1365, "html_attributions": ["<a href=\"https://maps.google.com/maps/contrib/114446844706077597854/photos\">Wenqing Liu</a>"], "photo_reference": "CmRaAAAAbaTz_S218jlcTSZC0RfYrcYGzEfG8FM3HIQyz6F9C-IFtPNOfV7EatoDDqqHUNGb03b42ptMEGtJyka6DUnWRWkjW_PWdfe5z4OYHXzBp3y5ZG4sURGrW4lRDwVBF_gfEhA2wiTyYPN6CStS82celuUMGhT17p4IyCIN_rIikipu5jdec91zPw", "width": 2048}], "place_id": "ChIJlZbcthZ644kRamB5bj6tUXU", "plus_code": {"compound_code": "8WP8+X7 Boston, Massachusetts, United States", "global_code": "87JC8WP8+X7"}, "rating": 4.8, "reference": "ChIJlZbcthZ644kRamB5bj6tUXU", "scope": "GOOGLE", "types": ["florist", "store", "point_of_interest", "establishment"], "user_ratings_total": 22, "vicinity": "977 Tremont Street, Boston"}, "ChIJNXxEiD1644kRD2iBW0pmaw4": {"geometry": {"location": {"lat": 42.3371955, "lng": -71.0815886}, "viewport": {"northeast": {"lat": 42.3384837802915, "lng": -71.0803153697085}, "southwest": {"lat": 42.3357858197085, "lng": -71.08301333029151}}}, "icon": "https://maps.gstatic.com/mapfiles/place_api/icons/generic_business-71.png", "id": "613583dae9eb451cf14e93348530e968760c8cb2", "name": "Camfield Garden Estates", "photos": [{"height": 1440, "html_attributions": ["<a href=\"https://maps.google.com/maps/contrib/111547401734935180656/photos\">marina martinez</a>"], "photo_reference": "CmRaAAAAUG-u1wj0K5qw4_cV64BEzIg3ktvnKG2cBXpJ6TxmMXczNLge8lst5ENiLESbw-MYahJNahSEyEkb6T4233tOhkELxpKfvFeFizAsVh50K3AsBLuJqinvQd0M0iGaBzkoEhBskDs_z3tHPzlgqTiVpEeFGhScC7y3dUeh-m6poa1SVoV0vY06QA", "width": 2560}], "place_id": "ChIJNXxEiD1644kRD2iBW0pmaw4", "plus_code": {"compound_code": "8WP9+V9 Boston, Massachusetts, United States", "global_code": "87JC8WP9+V9"}, "rating": 3, "reference": "ChIJNXxEiD1644kRD2iBW0pmaw4", "scope": "GOOGLE", "types": ["point_of_interest", "establishment"], "user_ratings_total": 3, "vicinity": "85 East Lenox Street, Boston"}, "ChIJNXxEiD1644kRqu8wl11B-sw": {"geometry": {"location": {"lat": 42.3371955, "lng": -71.0815886}, "viewport": {"northeast": {"lat": 42.3384837802915, "lng": -71.0803153697085}, "southwest": {"lat": 42.3357858197085, "lng": -71.08301333029151}}}, "icon": "https://maps.gstatic.com/mapfiles/place_api/icons/generic_business-71.png", "id": "2d3ca3f8f2f19c2e54781bcc3da4dfdb3d3eee87", "name": "Camfield Tenants Association", "place_id": "ChIJNXxEiD1644kRqu8wl11B-sw", "plus_code": {"compound_code": "8WP9+V9 Boston, Massachusetts, United States", "global_code": "87JC8WP9+V9"}, "rating": 3, "reference": "ChIJNXxEiD1644kRqu8wl11B-sw", "scope": "GOOGLE", "types": ["point_of_interest", "establishment"], "user_ratings_total": 1, "vicinity": "85 Lenox Street, Boston"}, "ChIJGxVagoNw44kRdPUbn-mCDeM": {"geometry": {"location": {"lat": 42.3367403, "lng": -71.084295}, "viewport": {"northeast": {"lat": 42.3381176802915, "lng": -71.0829988697085}, "southwest": {"lat": 42.3354197197085, "lng": -71.08569683029152}}}, "icon": "https://maps.gstatic.com/mapfiles/place_api/icons/generic_business-71.png", "id": "20014457a083c557b951308a34d6251ac913c833", "name": "Matahari Women Workers' Center", "place_id": "ChIJGxVagoNw44kRdPUbn-mCDeM", "plus_code": {"compound_code": "8WP8+M7 Boston, Massachusetts, United States", "global_code": "87JC8WP8+M7"}, "rating": 5, "reference": "ChIJGxVagoNw44kRdPUbn-mCDeM", "scope": "GOOGLE", "types": ["point_of_interest", "establishment"], "user_ratings_total": 1, "vicinity": "996 Tremont Street, Boston"}, "ChIJzy7OYD1644kR46HjteA0HyY": {"geometry": {"location": {"lat": 42.3379337, "lng": -71.0833351}, "viewport": {"northeast": {"lat": 42.33920313029149, "lng": -71.08190696970848}, "southwest": {"lat": 42.3365051697085, "lng": -71.0846049302915}}}, "icon": "https://maps.gstatic.com/mapfiles/place_api/icons/generic_business-71.png", "id": "5b7d3b8c100b5529bd3ce26c5047a8cdcea9cd25", "name": "Tremont Family Dentistry Pc", "place_id": "ChIJzy7OYD1644kR46HjteA0HyY", "plus_code": {"compound_code": "8WQ8+5M Boston, Massachusetts, United States", "global_code": "87JC8WQ8+5M"}, "rating": 3.2, "reference": "ChIJzy7OYD1644kR46HjteA0HyY", "scope": "GOOGLE", "types": ["dentist", "health", "point_of_interest", "establishment"], "user_ratings_total": 18, "vicinity": "951 Tremont Street, Boston"}, "ChIJH7MwXD1644kRfMyrY1Qu6uA": {"geometry": {"location": {"lat": 42.3373886, "lng": -71.0841753}, "viewport": {"northeast": {"lat": 42.3386827802915, "lng": -71.08276696970849}, "southwest": {"lat": 42.33598481970851, "lng": -71.08546493029151}}}, "icon": "https://maps.gstatic.com/mapfiles/place_api/icons/generic_business-71.png", "id": "bb3ff20944aab4b456ccfd2b10a904736a02561f", "name": "Artisan Properties", "opening_hours": {"open_now": true}, "place_id": "ChIJH7MwXD1644kRfMyrY1Qu6uA", "plus_code": {"compound_code": "8WP8+X8 Boston, Massachusetts, United States", "global_code": "87JC8WP8+X8"}, "rating": 1, "reference": "ChIJH7MwXD1644kRfMyrY1Qu6uA", "scope": "GOOGLE", "types": ["real_estate_agency", "point_of_interest", "establishment"], "user_ratings_total": 1, "vicinity": "975 Tremont Street, Boston"}, "ChIJm4fb0Rd644kR3LbTE8WV3TU": {"geometry": {"location": {"lat": 42.3381, "lng": -71.082949}, "viewport": {"northeast": {"lat": 42.3393830802915, "lng": -71.08153511970849}, "southwest": {"lat": 42.33668511970851, "lng": -71.0842330802915}}}, "icon": "https://maps.gstatic.com/mapfiles/place_api/icons/shopping-71.png", "id": "ff3ca4d6cd4847ccf6f9d06af648a128a1263657", "name": "Flutistry Boston", "opening_hours": {"open_now": true}, "photos": [{"height": 3455, "html_attributions": ["<a href=\"https://maps.google.com/maps/contrib/105788692476051329587/photos\">Mediashock Photos</a>"], "photo_reference": "CmRaAAAAr3Ms6uQmp5fWwG-rby7uAWAsH_1tQvNoVOwaCxfCEkU-v6GEKhyF07Oxb-gPAhVZ0rQpHp8IxKDVwt34e6S67KlIjJODX64I37lSlrOy3Ri-AboXg4XxPLCo98PpcnvVEhC5c6i9Jj0CcqAYfsxU2-XqGhTT1LWQYdlftGzNwsi76uf-kd9djQ", "width": 5330}], "place_id": "ChIJm4fb0Rd644kR3LbTE8WV3TU", "plus_code": {"compound_code": "8WQ8+6R Boston, Massachusetts, United States", "global_code": "87JC8WQ8+6R"}, "rating": 5, "reference": "ChIJm4fb0Rd644kR3LbTE8WV3TU", "scope": "GOOGLE", "types": ["electronics_store", "home_goods_store", "store", "point_of_interest", "school", "establishment"], "user_ratings_total": 3, "vicinity": "801 Tremont Street, Boston"}, "ChIJ0eEeNBZ644kR7SyzFAJU2kE": {"geometry": {"location": {"lat": 42.3381931, "lng": -71.0820786}, "viewport": {"northeast": {"lat": 42.3395982302915, "lng": -71.08078496970849}, "southwest": {"lat": 42.3369002697085, "lng": -71.08348293029151}}}, "icon": "https://maps.gstatic.com/mapfiles/place_api/icons/worship_general-71.png", "id": "02ceb12cfbff778eb54d81e58b989ba86ba93d56", "name": "Peoples Baptist Church", "photos": [{"height": 3120, "html_attributions": ["<a href=\"https://maps.google.com/maps/contrib/113658569914151112043/photos\">tomy NY</a>"], "photo_reference": "CmRaAAAAdQlLlI1dSzpqfr_Pcjz1vSTgGmuv153pLtvxXIx0HBg6yVDWqAxgF7DzrclVWdsJzf21xhgRzX4vb5QMj606LAUIdBBpo3ReJ1GEXdvhRTPCdQbh_sPLJyDN3hWMiD3BEhC9uz8Ytz75Dm_4QSRGeEVZGhSmsgYlLJFgstg53geZswi4B-IL0Q", "width": 4160}], "place_id": "ChIJ0eEeNBZ644kR7SyzFAJU2kE", "plus_code": {"compound_code": "8WQ9+75 Boston, Massachusetts, United States", "global_code": "87JC8WQ9+75"}, "rating": 4.7, "reference": "ChIJ0eEeNBZ644kR7SyzFAJU2kE", "scope": "GOOGLE", "types": ["church", "place_of_worship", "point_of_interest", "establishment"], "user_ratings_total": 18, "vicinity": "830 Tremont Street, Boston"}, "ChIJI47SCzt644kRXmIfG-yz5KY": {"geometry": {"location": {"lat": 42.3382893, "lng": -71.0826179}, "viewport": {"northeast": {"lat": 42.3397871302915, "lng": -71.0810799197085}, "southwest": {"lat": 42.3370891697085, "lng": -71.0837778802915}}}, "icon": "https://maps.gstatic.com/mapfiles/place_api/icons/generic_business-71.png", "id": "7369114ad9f65856f7d247bc64c24cd95f63cf9d", "name": "Quantum Physical Therapy", "opening_hours": {"open_now": true}, "photos": [{"height": 3264, "html_attributions": ["<a href=\"https://maps.google.com/maps/contrib/116178540194323653778/photos\">Quantum Physical Therapy</a>"], "photo_reference": "CmRaAAAAej-fOs9Q520RZlG8FJE1lG2x6FndPqNufQe7e1Xh2dDLQLPYaMjpOiznj-f9JXYMbklXhKDkripWW9S3S2naNVtYaUZY0-orjlX9zGjFViPnq4hGAYuG6dzy7G4noq7SEhBDyzEREQTqKlqxEoKz_WyCGhRo6C6CSoBen-IpUa_-OyggEZxKtA", "width": 4928}], "place_id": "ChIJI47SCzt644kRXmIfG-yz5KY", "plus_code": {"compound_code": "8WQ8+8X Boston, Massachusetts, United States", "global_code": "87JC8WQ8+8X"}, "rating": 5, "reference": "ChIJI47SCzt644kRXmIfG-yz5KY", "scope": "GOOGLE", "types": ["health", "point_of_interest", "establishment"], "user_ratings_total": 2, "vicinity": "801 B Tremont St Boston, MA 02118, Boston"}, "ChIJr29fGBZ644kRND_0EUEJr9Q": {"geometry": {"location": {"lat": 42.3373583, "lng": -71.0809525}, "viewport": {"northeast": {"lat": 42.33879848029149, "lng": -71.07948821970848}, "southwest": {"lat": 42.33610051970849, "lng": -71.0821861802915}}}, "icon": "https://maps.gstatic.com/mapfiles/place_api/icons/generic_business-71.png", "id": "4f7d762e404745c0799715dc55f5a77542aea99d", "name": "KP sound rental", "place_id": "ChIJr29fGBZ644kRND_0EUEJr9Q", "plus_code": {"compound_code": "8WP9+WJ Boston, Massachusetts, United States", "global_code": "87JC8WP9+WJ"}, "reference": "ChIJr29fGBZ644kRND_0EUEJr9Q", "scope": "GOOGLE", "types": ["point_of_interest", "establishment"], "vicinity": "92 Camden Street, Boston"}, "ChIJhyxeGBZ644kRCSQ9QKkuUjA": {"geometry": {"location": {"lat": 42.337359, "lng": -71.0809529}, "viewport": {"northeast": {"lat": 42.33879908029149, "lng": -71.0794887697085}, "southwest": {"lat": 42.33610111970849, "lng": -71.08218673029151}}}, "icon": "https://maps.gstatic.com/mapfiles/place_api/icons/generic_business-71.png", "id": "ad2a7c7033070fed182748f527551b693fa78729", "name": "King Ilabash", "place_id": "ChIJhyxeGBZ644kRCSQ9QKkuUjA", "plus_code": {"compound_code": "8WP9+WJ Boston, Massachusetts, United States", "global_code": "87JC8WP9+WJ"}, "rating": 5, "reference": "ChIJhyxeGBZ644kRCSQ9QKkuUjA", "scope": "GOOGLE", "types": ["point_of_interest", "establishment"], "user_ratings_total": 1, "vicinity": "92 Camden Street #3, Boston"}, "ChIJh1O_rz1644kROXAZGt81cts": {"geometry": {"location": {"lat": 42.3354636, "lng": -71.0818122}, "viewport": {"northeast": {"lat": 42.3368052802915, "lng": -71.0804849197085}, "southwest": {"lat": 42.3341073197085, "lng": -71.0831828802915}}}, "icon": "https://maps.gstatic.com/mapfiles/place_api/icons/generic_business-71.png", "id": "e5b5991415e4b424b34118028de03d24bc4fc1b7", "name": "Roxse Homes", "place_id": "ChIJh1O_rz1644kROXAZGt81cts", "plus_code": {"compound_code": "8WP9+57 Boston, Massachusetts, United States", "global_code": "87JC8WP9+57"}, "reference": "ChIJh1O_rz1644kROXAZGt81cts", "scope": "GOOGLE", "types": ["general_contractor", "point_of_interest", "establishment"], "vicinity": "20 Kendall Street, Roxbury"}, "ChIJcyTJYD1644kRuq76YxOTtEI": {"geometry": {"location": {"lat": 42.33736409999999, "lng": -71.08361909999999}, "viewport": {"northeast": {"lat": 42.33876643029149, "lng": -71.08232411970847}, "southwest": {"lat": 42.33606846970849, "lng": -71.0850220802915}}}, "icon": "https://maps.gstatic.com/mapfiles/place_api/icons/shopping-71.png", "id": "d3d1b0f8d0646d0e0db16d004099829406ed0d76", "name": "Hollywood Liquors", "opening_hours": {"open_now": true}, "photos": [{"height": 3264, "html_attributions": ["<a href=\"https://maps.google.com/maps/contrib/107551092676073780415/photos\">T S</a>"], "photo_reference": "CmRaAAAAQBPkpRZr-XEprLENvh0IlyIFqbyTEEDbH93_lkPni8Kuog9EKeaEYWiTY8EUuXIx22uBse6iC1fZNGJIznEzaxUd8Dgy-RdIXmMqQEz2OSrKIdmF9Z_qOTo09B8DMgStEhAazGCvwOdagTwk3HEHDYrZGhS6rn3z63qkZj_dLiIlE-vCJmp4uw", "width": 1836}], "place_id": "ChIJcyTJYD1644kRuq76YxOTtEI", "plus_code": {"compound_code": "8WP8+WH Boston, Massachusetts, United States", "global_code": "87JC8WP8+WH"}, "rating": 4.3, "reference": "ChIJcyTJYD1644kRuq76YxOTtEI", "scope": "GOOGLE", "types": ["liquor_store", "store", "point_of_interest", "establishment"], "user_ratings_total": 49, "vicinity": "950 Tremont Street, Roxbury Crossing"}, "ChIJ52zXaz1644kRRS6-32So5pA": {"geometry": {"location": {"lat": 42.3367834, "lng": -71.0837392}, "viewport": {"northeast": {"lat": 42.3381560802915, "lng": -71.08232496970848}, "southwest": {"lat": 42.3354581197085, "lng": -71.0850229302915}}}, "icon": "https://maps.gstatic.com/mapfiles/place_api/icons/shopping-71.png", "id": "0a92306fe9951eda6a8a30568f28987399d40c55", "name": "Izzy's Corner Variety", "opening_hours": {"open_now": true}, "place_id": "ChIJ52zXaz1644kRRS6-32So5pA", "plus_code": {"compound_code": "8WP8+PG Boston, Massachusetts, United States", "global_code": "87JC8WP8+PG"}, "rating": 4.3, "reference": "ChIJ52zXaz1644kRRS6-32So5pA", "scope": "GOOGLE", "types": ["store", "point_of_interest", "establishment"], "user_ratings_total": 20, "vicinity": "11 Hammond Street, Roxbury Crossing"}, "ChIJHdIxbT1644kRVdBJBV9E6jg": {"geometry": {"location": {"lat": 42.3364371, "lng": -71.0833407}, "viewport": {"northeast": {"lat": 42.3377719302915, "lng": -71.0820295197085}, "southwest": {"lat": 42.3350739697085, "lng": -71.0847274802915}}}, "icon": "https://maps.gstatic.com/mapfiles/place_api/icons/generic_business-71.png", "id": "000b820c5c8840790f41e07e0eede5d966f4ae08", "name": "Santuario gnosis", "place_id": "ChIJHdIxbT1644kRVdBJBV9E6jg", "plus_code": {"compound_code": "8WP8+HM Boston, Massachusetts, United States", "global_code": "87JC8WP8+HM"}, "reference": "ChIJHdIxbT1644kRVdBJBV9E6jg", "scope": "GOOGLE", "types": ["place_of_worship", "point_of_interest", "establishment"], "vicinity": "85 Hammond Street, Boston"}, "ChIJ28p2uBR644kRGOnQAcK4Txc": {"geometry": {"location": {"lat": 42.3388111, "lng": -71.0765188}, "viewport": {"northeast": {"lat": 42.347756, "lng": -71.0607948}, "southwest": {"lat": 42.331455, "lng": -71.09079799999999}}}, "icon": "https://maps.gstatic.com/mapfiles/place_api/icons/geocode-71.png", "id": "bf793a5ca0b5e36b87cfa6836ddba9f86f2af360", "name": "South End", "photos": [{"height": 2736, "html_attributions": ["<a href=\"https://maps.google.com/maps/contrib/110185226650349094791/photos\">Alex Harm</a>"], "photo_reference": "CmRaAAAA9Sw9pTeq27MbK4MDd1MhPdu22L5QOS7SmNjrcNBt2HK9Mj-PfuCRcwGFzqlBvF76uj8Q0iBaQgfN7Jjn91PMJN52QmAshRU9nEKQBtYootfMAQJGZy0wEs_08TopYIE1EhC9FbeW38aimFwwYPJJNbIeGhSCu0psNf6aJtU_Uz4oOovgCtVSbQ", "width": 3648}], "place_id": "ChIJ28p2uBR644kRGOnQAcK4Txc", "reference": "ChIJ28p2uBR644kRGOnQAcK4Txc", "scope": "GOOGLE", "types": ["neighborhood", "political"], "vicinity": "Boston"}, "ChIJpYLKKjF744kRKgLoOxE-sXA": {"geometry": {"location": {"lat": 42.3361632, "lng": -71.0832492}, "viewport": {"northeast": {"lat": 42.33752593029151, "lng": -71.08186286970849}, "southwest": {"lat": 42.33482796970851, "lng": -71.08456083029151}}}, "icon": "https://maps.gstatic.com/mapfiles/place_api/icons/generic_business-71.png", "id": "1857252adf413dd181b344a8d75873da001d57e3", "name": "Rossy Beauty Salon", "photos": [{"height": 1080, "html_attributions": ["<a href=\"https://maps.google.com/maps/contrib/102404047019838095440/photos\">John Jacoby</a>"], "photo_reference": "CmRaAAAADS47YU4FW61460r1Ht8YJptYqmHypvibLQU4E68csMQM4E0h3rbXf_qXO14W623PBDYUCD8TCGVapLX-FOpnEM7QBsYaWXvW1fLy9l3zWoggUTuc4h6AtRGl_5BABax-EhAj0RhSDpxAfkKUWenTvbnWGhR4hRpt6-tAYO-ozQOOhk44VNZ--A", "width": 1920}], "place_id": "ChIJpYLKKjF744kRKgLoOxE-sXA", "plus_code": {"compound_code": "8WP8+FP Boston, Massachusetts, United States", "global_code": "87JC8WP8+FP"}, "rating": 5, "reference": "ChIJpYLKKjF744kRKgLoOxE-sXA", "scope": "GOOGLE", "types": ["hair_care", "point_of_interest", "establishment"], "user_ratings_total": 1, "vicinity": "80 Hammond Street, Boston"}, "ChIJNXxEiD1644kRHORBTby-zJ0": {"geometry": {"location": {"lat": 42.3371955, "lng": -71.0815886}, "viewport": {"northeast": {"lat": 42.3384837802915, "lng": -71.0803153697085}, "southwest": {"lat": 42.3357858197085, "lng": -71.08301333029151}}}, "icon": "https://maps.gstatic.com/mapfiles/place_api/icons/generic_business-71.png", "id": "cdd207e2cf1d1da5d4409a77aa28de6884d939f5", "name": "Camfield Neighborhood Tech", "place_id": "ChIJNXxEiD1644kRHORBTby-zJ0", "plus_code": {"compound_code": "8WP9+V9 Boston, Massachusetts, United States", "global_code": "87JC8WP9+V9"}, "reference": "ChIJNXxEiD1644kRHORBTby-zJ0", "scope": "GOOGLE", "types": ["point_of_interest", "establishment"], "vicinity": "85 Lenox Street, Boston"}, "ChIJwUBDiD1644kRvbUCSj72UwM": {"geometry": {"location": {"lat": 42.3371954, "lng": -71.0816078}, "viewport": {"northeast": {"lat": 42.3384872302915, "lng": -71.08033011970849}, "southwest": {"lat": 42.3357892697085, "lng": -71.08302808029151}}}, "icon": "https://maps.gstatic.com/mapfiles/place_api/icons/generic_business-71.png", "id": "7ef9fb1ce1f8049ce5e41715176b3b1a64bda3c6", "name": "Paulette Ford Community Center", "place_id": "ChIJwUBDiD1644kRvbUCSj72UwM", "plus_code": {"compound_code": "8WP9+V9 Boston, Massachusetts, United States", "global_code": "87JC8WP9+V9"}, "reference": "ChIJwUBDiD1644kRvbUCSj72UwM", "scope": "GOOGLE", "types": ["point_of_interest", "establishment"], "vicinity": "85 Lenox Street Paulette, Ford Way, Boston"}, "ChIJqVd9F11744kRRa1mokIKrxc": {"geometry": {"location": {"lat": 42.33605290000001, "lng": -71.0834194}, "viewport": {"northeast": {"lat": 42.33742563029151, "lng": -71.0821222197085}, "southwest": {"lat": 42.33472766970851, "lng": -71.0848201802915}}}, "icon": "https://maps.gstatic.com/mapfiles/place_api/icons/generic_business-71.png", "id": "d5737a7fd27104ff7955bf77e8a575892851effe", "name": "Dr. Volk Real Estate Management", "opening_hours": {"open_now": true}, "place_id": "ChIJqVd9F11744kRRa1mokIKrxc", "plus_code": {"compound_code": "8WP8+CJ Boston, Massachusetts, United States", "global_code": "87JC8WP8+CJ"}, "reference": "ChIJqVd9F11744kRRa1mokIKrxc", "scope": "GOOGLE", "types": ["real_estate_agency", "point_of_interest", "establishment"], "vicinity": "8 Sussex Street, Boston"}, "ChIJi0Ih1xd644kRmu1a9w-G3Jo": {"geometry": {"location": {"lat": 42.337782, "lng": -71.083038}, "viewport": {"northeast": {"lat": 42.3391500802915, "lng": -71.0817088197085}, "southwest": {"lat": 42.3364521197085, "lng": -71.0844067802915}}}, "icon": "https://maps.gstatic.com/mapfiles/place_api/icons/bus-71.png", "id": "1334cb442e08034ea696f5bd7d0562feb73c1892", "name": "Tremont St @ Lenox St", "place_id": "ChIJi0Ih1xd644kRmu1a9w-G3Jo", "plus_code": {"compound_code": "8WQ8+4Q Boston, Massachusetts, United States", "global_code": "87JC8WQ8+4Q"}, "reference": "ChIJi0Ih1xd644kRmu1a9w-G3Jo", "scope": "GOOGLE", "types": ["bus_station", "transit_station", "point_of_interest", "establishment"], "vicinity": "United States"}, "ChIJA79tXT1644kREmA6Bdy5tCU": {"geometry": {"location": {"lat": 42.337226, "lng": -71.08402199999999}, "viewport": {"northeast": {"lat": 42.3385951802915, "lng": -71.08269486970849}, "southwest": {"lat": 42.33589721970851, "lng": -71.0853928302915}}}, "icon": "https://maps.gstatic.com/mapfiles/place_api/icons/bus-71.png", "id": "b0461faa0d12c0361137f5dece3b5fa4dd0e18d6", "name": "Tremont St @ Hammond St", "photos": [{"height": 2304, "html_attributions": ["<a href=\"https://maps.google.com/maps/contrib/108516682905099225352/photos\">Braddock braddoquinho</a>"], "photo_reference": "CmRaAAAA59GXx4aJEewQA3YT644HKjoAC-pWDtXWykVZOeY5Pv0JrBXdTyni-qjmI93PmbtVIOT2BXpyFq-6IjM2PMtCzFmhr7MQL9-YVXbN7WNcbhPCLQhmEkG1K9ylyR_A3hfHEhCJlRX5w6cw4sL0d3qKGUHsGhTxkeJ1kNNcLOaea7CFlQEECKNOag", "width": 4096}], "place_id": "ChIJA79tXT1644kREmA6Bdy5tCU", "plus_code": {"compound_code": "8WP8+V9 Boston, Massachusetts, United States", "global_code": "87JC8WP8+V9"}, "reference": "ChIJA79tXT1644kREmA6Bdy5tCU", "scope": "GOOGLE", "types": ["bus_station", "transit_station", "point_of_interest", "establishment"], "vicinity": "United States"}, "ChIJUyVa1xd644kR-hPxxlCm0Jg": {"geometry": {"location": {"lat": 42.337824, "lng": -71.083178}, "viewport": {"northeast": {"lat": 42.3391658302915, "lng": -71.08182196970851}, "southwest": {"lat": 42.33646786970851, "lng": -71.08451993029152}}}, "icon": "https://maps.gstatic.com/mapfiles/place_api/icons/bus-71.png", "id": "084c21fe122a4d22119398c986dd0ee9975b097c", "name": "Tremont St @ Douglas Pk", "place_id": "ChIJUyVa1xd644kR-hPxxlCm0Jg", "plus_code": {"compound_code": "8WQ8+4P Boston, Massachusetts, United States", "global_code": "87JC8WQ8+4P"}, "reference": "ChIJUyVa1xd644kR-hPxxlCm0Jg", "scope": "GOOGLE", "types": ["bus_station", "transit_station", "point_of_interest", "establishment"], "vicinity": "United States"}, "ChIJowbL0Rd644kRaVDiD5mXbKo": {"geometry": {"location": {"lat": 42.3380997, "lng": -71.0829485}, "viewport": {"northeast": {"lat": 42.33938293029149, "lng": -71.0815348197085}, "southwest": {"lat": 42.33668496970849, "lng": -71.0842327802915}}}, "icon": "https://maps.gstatic.com/mapfiles/place_api/icons/generic_business-71.png", "id": "79c83ceba300400ef11c5c313135bac614b8c768", "name": "William J. Keefe", "place_id": "ChIJowbL0Rd644kRaVDiD5mXbKo", "plus_code": {"compound_code": "8WQ8+6R Boston, Massachusetts, United States", "global_code": "87JC8WQ8+6R"}, "rating": 5, "reference": "ChIJowbL0Rd644kRaVDiD5mXbKo", "scope": "GOOGLE", "types": ["lawyer", "point_of_interest", "establishment"], "user_ratings_total": 2, "vicinity": "801 Tremont Street, Boston"}, "ChIJs8tQRD1644kRprr60M9rH_A": {"geometry": {"location": {"lat": 42.33683509999999, "lng": -71.0842919}, "viewport": {"northeast": {"lat": 42.33819123029149, "lng": -71.0829569197085}, "southwest": {"lat": 42.33549326970849, "lng": -71.0856548802915}}}, "icon": "https://maps.gstatic.com/mapfiles/place_api/icons/generic_business-71.png", "id": "4bac3d40c81d9929faf6b31b37c63b9771f07d39", "name": "MLB_Barbers", "opening_hours": {"open_now": true}, "photos": [{"height": 1920, "html_attributions": ["<a href=\"https://maps.google.com/maps/contrib/112025434226063967648/photos\">MLB_Barbers</a>"], "photo_reference": "CmRaAAAAjQv5mkqIlzYpTZ-Mm-YDZCPmiSiHSM7WAZSqUm22SIadRT9vVEqxB7nXgSYN_CDwoHQ9Ve88R0VGzaXciYdS8R-Rz21mndrJZhED2o1U5j18iSFj8ZEdzO9mhHMIbk_rEhDYllqJbUFX4JjA8XQ2NNgYGhQ_9ntgOLG2-1HVQsYV156S8Yz1DQ", "width": 1920}], "place_id": "ChIJs8tQRD1644kRprr60M9rH_A", "plus_code": {"compound_code": "8WP8+P7 Boston, Massachusetts, United States", "global_code": "87JC8WP8+P7"}, "rating": 4.8, "reference": "ChIJs8tQRD1644kRprr60M9rH_A", "scope": "GOOGLE", "types": ["hair_care", "health", "point_of_interest", "establishment"], "user_ratings_total": 31, "vicinity": "990 Tremont Street, Boston"}, "ChIJUYtWRD1644kR2hjwtBesn6k": {"geometry": {"location": {"lat": 42.3368292, "lng": -71.0842931}, "viewport": {"northeast": {"lat": 42.3381868302915, "lng": -71.08296101970849}, "southwest": {"lat": 42.3354888697085, "lng": -71.08565898029151}}}, "icon": "https://maps.gstatic.com/mapfiles/place_api/icons/generic_business-71.png", "id": "392ceefa53b84d0a234b9675f8f1eacd87198399", "name": "MonicaTodd Salon", "photos": [{"height": 5312, "html_attributions": ["<a href=\"https://maps.google.com/maps/contrib/104512735155357875359/photos\">jarabacoe\u00f1o cien por cien</a>"], "photo_reference": "CmRaAAAAkFX6qTUY3InGfueMBmryJk5UgmpJgCqU0cehGzXu1hhqcF6q8opZu_BHTmhmNG2zB2H56cFfxG9uwyYG3J6MhSVnM5zYMcDjWxvw0JHvutsEOVq-sarfMdjIdKTSW5RdEhBZzHZxSQVtX7h4l2DiBfv6GhSXoJ4vq1i7Rtz3ytritPRfBmhMJg", "width": 2988}], "place_id": "ChIJUYtWRD1644kR2hjwtBesn6k", "plus_code": {"compound_code": "8WP8+P7 Boston, Massachusetts, United States", "global_code": "87JC8WP8+P7"}, "reference": "ChIJUYtWRD1644kR2hjwtBesn6k", "scope": "GOOGLE", "types": ["beauty_salon", "hair_care", "point_of_interest", "establishment"], "vicinity": "990 Tremont St, ROXBURY CROSSING, Boston"}, "ChIJwcAMXj1644kR-Agy1bFO7ZE": {"geometry": {"location": {"lat": 42.3374254, "lng": -71.0840695}, "viewport": {"northeast": {"lat": 42.3387274802915, "lng": -71.0826696697085}, "southwest": {"lat": 42.3360295197085, "lng": -71.0853676302915}}}, "icon": "https://maps.gstatic.com/mapfiles/place_api/icons/shopping-71.png", "id": "4da56c042c5e31238b2a801a6eb057c25201335d", "name": "Quick Pick Convenience", "opening_hours": {"open_now": true}, "place_id": "ChIJwcAMXj1644kR-Agy1bFO7ZE", "plus_code": {"compound_code": "8WP8+X9 Boston, Massachusetts, United States", "global_code": "87JC8WP8+X9"}, "rating": 5, "reference": "ChIJwcAMXj1644kR-Agy1bFO7ZE", "scope": "GOOGLE", "types": ["convenience_store", "store", "point_of_interest", "food", "establishment"], "user_ratings_total": 10, "vicinity": "973 Tremont Street, Roxbury Crossing"}, "ChIJA8sxL8h744kRKhfR1nkMuDk": {"geometry": {"location": {"lat": 42.3365451, "lng": -71.0843573}, "viewport": {"northeast": {"lat": 42.3379453302915, "lng": -71.08310361970848}, "southwest": {"lat": 42.3352473697085, "lng": -71.08580158029149}}}, "icon": "https://maps.gstatic.com/mapfiles/place_api/icons/generic_recreational-71.png", "id": "d080facf5d98283da16130c2da5e01edb9df6318", "name": "Frederick Douglass Peace Garden", "place_id": "ChIJA8sxL8h744kRKhfR1nkMuDk", "plus_code": {"compound_code": "8WP8+J7 Boston, Massachusetts, United States", "global_code": "87JC8WP8+J7"}, "reference": "ChIJA8sxL8h744kRKhfR1nkMuDk", "scope": "GOOGLE", "types": ["park", "point_of_interest", "establishment"], "vicinity": "Boston"}, "ChIJS6GOmS5744kRY7a6iU18lrY": {"geometry": {"location": {"lat": 42.3360089, "lng": -71.0840797}, "viewport": {"northeast": {"lat": 42.3373955302915, "lng": -71.08280236970849}, "southwest": {"lat": 42.3346975697085, "lng": -71.08550033029151}}}, "icon": "https://maps.gstatic.com/mapfiles/place_api/icons/generic_recreational-71.png", "id": "c0fb8dac7c95cc184efb117dc0267bf76fcd82a6", "name": "Bessie Barnes Park", "place_id": "ChIJS6GOmS5744kRY7a6iU18lrY", "plus_code": {"compound_code": "8WP8+C9 Boston, Massachusetts, United States", "global_code": "87JC8WP8+C9"}, "reference": "ChIJS6GOmS5744kRY7a6iU18lrY", "scope": "GOOGLE", "types": ["park", "point_of_interest", "establishment"], "vicinity": "Boston"}, "ChIJt5XGSD1644kRPDa1rBImzOE": {"geometry": {"location": {"lat": 42.3371517, "lng": -71.0844565}, "viewport": {"northeast": {"lat": 42.33851738029149, "lng": -71.08307681970848}, "southwest": {"lat": 42.3358194197085, "lng": -71.0857747802915}}}, "icon": "https://maps.gstatic.com/mapfiles/place_api/icons/bus-71.png", "id": "e03fb851dfd740a481fee75b66866dd404cf4a97", "name": "Tremont St @ Burke St", "place_id": "ChIJt5XGSD1644kRPDa1rBImzOE", "plus_code": {"compound_code": "8WP8+V6 Boston, Massachusetts, United States", "global_code": "87JC8WP8+V6"}, "reference": "ChIJt5XGSD1644kRPDa1rBImzOE", "scope": "GOOGLE", "types": ["bus_station", "transit_station", "point_of_interest", "establishment"], "vicinity": "United States"}, "ChIJxYXm8pl744kRAJXXcKAgaag": {"geometry": {"location": {"lat": 42.3362527, "lng": -71.0844145}, "viewport": {"northeast": {"lat": 42.3376016802915, "lng": -71.08306551970848}, "southwest": {"lat": 42.3349037197085, "lng": -71.0857634802915}}}, "icon": "https://maps.gstatic.com/mapfiles/place_api/icons/generic_recreational-71.png", "id": "3ca42ab42004ec528e092828123f2c1667e91b21", "name": "Bessie Barnes Garden", "place_id": "ChIJxYXm8pl744kRAJXXcKAgaag", "plus_code": {"compound_code": "8WP8+G6 Boston, Massachusetts, United States", "global_code": "87JC8WP8+G6"}, "reference": "ChIJxYXm8pl744kRAJXXcKAgaag", "scope": "GOOGLE", "types": ["park", "point_of_interest", "establishment"], "vicinity": "Boston"}, "ChIJYZwpzBd644kRpqlNf-JHif4": {"geometry": {"location": {"lat": 42.3382566, "lng": -71.0828489}, "viewport": {"northeast": {"lat": 42.3395054302915, "lng": -71.0814029197085}, "southwest": {"lat": 42.3368074697085, "lng": -71.0841008802915}}}, "icon": "https://maps.gstatic.com/mapfiles/place_api/icons/generic_business-71.png", "id": "a015a9355f2a80661a0eb426f30368b38a6f1515", "name": "Law Offices of John Lee Diaz", "opening_hours": {"open_now": true}, "place_id": "ChIJYZwpzBd644kRpqlNf-JHif4", "plus_code": {"compound_code": "8WQ8+8V Boston, Massachusetts, United States", "global_code": "87JC8WQ8+8V"}, "rating": 5, "reference": "ChIJYZwpzBd644kRpqlNf-JHif4", "scope": "GOOGLE", "types": ["point_of_interest", "establishment"], "user_ratings_total": 4, "vicinity": "801 Tremont Street, Boston"}, "ChIJSwVnIj1644kR6_HB6hxCO1g": {"geometry": {"location": {"lat": 42.3356688, "lng": -71.0841093}, "viewport": {"northeast": {"lat": 42.3370773802915, "lng": -71.0827008197085}, "southwest": {"lat": 42.3343794197085, "lng": -71.08539878029151}}}, "icon": "https://maps.gstatic.com/mapfiles/place_api/icons/generic_business-71.png", "id": "e14d3ed93c1c3181112821fcd0ab23c5310a3606", "name": "Dr. Joan Y. Reede, MD", "place_id": "ChIJSwVnIj1644kR6_HB6hxCO1g", "plus_code": {"compound_code": "8WP8+79 Boston, Massachusetts, United States", "global_code": "87JC8WP8+79"}, "reference": "ChIJSwVnIj1644kR6_HB6hxCO1g", "scope": "GOOGLE", "types": ["doctor", "health", "point_of_interest", "establishment"], "vicinity": "45 Greenwich Street, Boston"}, "ChIJG5lAHz1644kR_ERn8j3dzT8": {"geometry": {"location": {"lat": 42.3354935, "lng": -71.0838425}, "viewport": {"northeast": {"lat": 42.3369155802915, "lng": -71.0824269197085}, "southwest": {"lat": 42.3342176197085, "lng": -71.0851248802915}}}, "icon": "https://maps.gstatic.com/mapfiles/place_api/icons/generic_business-71.png", "id": "83977e17a9343b96a691b82b3ab64ad5ad631143", "name": "Storage Squad - Moving Company and Student Storage Experts", "opening_hours": {"open_now": true}, "photos": [{"height": 509, "html_attributions": ["<a href=\"https://maps.google.com/maps/contrib/112426005140307911400/photos\">Storage Squad - Moving Company and Student Storage Experts</a>"], "photo_reference": "CmRaAAAAPGg9Yll-drRViAfW-Rlg5RhGyp5-9TQWeoKyecIKgiaZRbWfU2z_rbU5aSyOcibSfRZhyQRMOAhIUomLjnxQBY1P42xo0f2yUVgQLyEgeK0B2EvjNKK1I14rI1PvLy_qEhCAB84WvPOk1GBYixDlq1AUGhS-nqD5QlWzopxIi6afieqyQz_rIw", "width": 911}], "place_id": "ChIJG5lAHz1644kR_ERn8j3dzT8", "plus_code": {"compound_code": "8WP8+5F Boston, Massachusetts, United States", "global_code": "87JC8WP8+5F"}, "rating": 5, "reference": "ChIJG5lAHz1644kR_ERn8j3dzT8", "scope": "GOOGLE", "types": ["moving_company", "storage", "point_of_interest", "establishment"], "user_ratings_total": 1, "vicinity": "21 Greenwich Street, Roxbury"}, "ChIJHxRRfT1644kREzogWHep57s": {"geometry": {"location": {"lat": 42.3374853, "lng": -71.08311119999999}, "viewport": {"northeast": {"lat": 42.3388950302915, "lng": -71.08182461970848}, "southwest": {"lat": 42.3361970697085, "lng": -71.0845225802915}}}, "icon": "https://maps.gstatic.com/mapfiles/place_api/icons/generic_recreational-71.png", "id": "3253923f34142db418ed66438ceca9338c93316e", "name": "Lenox and Kendall Community Garden", "place_id": "ChIJHxRRfT1644kREzogWHep57s", "reference": "ChIJHxRRfT1644kREzogWHep57s", "scope": "GOOGLE", "types": ["park", "premise", "point_of_interest", "establishment"], "vicinity": "Boston"}, "ChIJXYIePT1644kRZgMq1mX2m90": {"geometry": {"location": {"lat": 42.33605480000001, "lng": -71.0840861}, "viewport": {"northeast": {"lat": 42.3373904802915, "lng": -71.0827699697085}, "southwest": {"lat": 42.3346925197085, "lng": -71.0854679302915}}}, "icon": "https://maps.gstatic.com/mapfiles/place_api/icons/generic_recreational-71.png", "id": "16f34d72a1c6af0d25bfd52abb6648f5011d56fa", "name": "Bessie Barnes Park", "place_id": "ChIJXYIePT1644kRZgMq1mX2m90", "reference": "ChIJXYIePT1644kRZgMq1mX2m90", "scope": "GOOGLE", "types": ["park", "premise", "point_of_interest", "establishment"], "vicinity": "Boston"}, "ChIJnWS9OD1644kRDbtsIVgXfK0": {"geometry": {"location": {"lat": 42.33654790000001, "lng": -71.0843647}, "viewport": {"northeast": {"lat": 42.3378980302915, "lng": -71.08306071970848}, "southwest": {"lat": 42.3352000697085, "lng": -71.0857586802915}}}, "icon": "https://maps.gstatic.com/mapfiles/place_api/icons/generic_recreational-71.png", "id": "f209a6cb993b0653eb6ce7394803c1ca777a49f6", "name": "Frederick Douglass Peace Garden", "place_id": "ChIJnWS9OD1644kRDbtsIVgXfK0", "reference": "ChIJnWS9OD1644kRDbtsIVgXfK0", "scope": "GOOGLE", "types": ["park", "premise", "point_of_interest", "establishment"], "vicinity": "Boston"}, "ChIJ9cPGOz1644kR7Dxj_nOMV50": {"geometry": {"location": {"lat": 42.3362667, "lng": -71.0844575}, "viewport": {"northeast": {"lat": 42.3375878302915, "lng": -71.0830897197085}, "southwest": {"lat": 42.3348898697085, "lng": -71.08578768029152}}}, "icon": "https://maps.gstatic.com/mapfiles/place_api/icons/generic_recreational-71.png", "id": "a3b392d6e1d04c78525fa962a5dc1d63b4e5a8bd", "name": "Bessie Barnes Garden", "place_id": "ChIJ9cPGOz1644kR7Dxj_nOMV50", "reference": "ChIJ9cPGOz1644kR7Dxj_nOMV50", "scope": "GOOGLE", "types": ["park", "premise", "point_of_interest", "establishment"], "vicinity": "Boston"}, "ChIJh1bQyRd644kR2bwat5NB-go": {"geometry": {"location": {"lat": 42.33864189999999, "lng": -71.08292550000002}, "viewport": {"northeast": {"lat": 42.34002918029149, "lng": -71.08162676970849}, "southwest": {"lat": 42.3373312197085, "lng": -71.0843247302915}}}, "icon": "https://maps.gstatic.com/mapfiles/place_api/icons/generic_recreational-71.png", "id": "70b05b00c017af03970992be520c4caefb69d5ac", "name": "Frederick Douglass Green", "place_id": "ChIJh1bQyRd644kR2bwat5NB-go", "reference": "ChIJh1bQyRd644kR2bwat5NB-go", "scope": "GOOGLE", "types": ["park", "premise", "point_of_interest", "establishment"], "vicinity": "Boston"}}