{"ChIJGzE9DS1l44kRoOhiASS_fHg": {"geometry": {"location": {"lat": 42.3600825, "lng": -71.0588801}, "viewport": {"northeast": {"lat": 42.40081989999999, "lng": -70.749455}, "southwest": {"lat": 42.22788, "lng": -71.191113}}}, "icon": "https://maps.gstatic.com/mapfiles/place_api/icons/geocode-71.png", "id": "06755c25d2b34d13942a4713971756a55b870ced", "name": "Boston", "photos": [{"height": 3024, "html_attributions": ["<a href=\"https://maps.google.com/maps/contrib/104670289779338733432/photos\">Natalia Zalucean</a>"], "photo_reference": "CmRaAAAAEareoaht2hyeBHQIhHbAOM6QbBXul9RR_bRwU8Eg-jvfKXyMjlIjqs1ujLD1f7UZyNY_6_hqaRF22ryQ5GsEJwswkkWBBz_ACBMGA2EGT22bORWxlrbj-kPyDvXs9XsTEhAT3z8ACktz26nHF4s2dHNPGhRx8Tc-d15NEZtEMy2waXQHhntUsw", "width": 4032}], "place_id": "ChIJGzE9DS1l44kRoOhiASS_fHg", "reference": "ChIJGzE9DS1l44kRoOhiASS_fHg", "scope": "GOOGLE", "types": ["locality", "political"], "vicinity": "Boston"}, "ChIJ6Qf1AD9_44kREokJ_-zRCDY": {"geometry": {"location": {"lat": 42.2776416, "lng": -71.1660234}, "viewport": {"northeast": {"lat": 42.27909768029149, "lng": -71.1645781197085}, "southwest": {"lat": 42.2763997197085, "lng": -71.1672760802915}}}, "icon": "https://maps.gstatic.com/mapfiles/place_api/icons/school-71.png", "id": "b3728713c0844114c8828ac2831a005039f2cb68", "name": "Catholic Memorial School", "photos": [{"height": 600, "html_attributions": ["<a href=\"https://maps.google.com/maps/contrib/113256890297298292693/photos\">Catholic Memorial School</a>"], "photo_reference": "CmRaAAAAYrjwOZRm7XaSgE_sg0p4bQ3vR3IfEKHP_TL6J0L2be5rVcsMUATrIJkmjPmjo_NphA1ZeDMyxC_AU9DijIeH1GSZ4_5eRpxEW-qJBCKfKC8n0hyM3EsZ5fEIx8AGOkx_EhBx_yCuyzlhwRVku1ORaLfWGhSiqONGW-z341pKExjzTs_xJlml1Q", "width": 800}], "place_id": "ChIJ6Qf1AD9_44kREokJ_-zRCDY", "plus_code": {"compound_code": "7RHM+3H Boston, Massachusetts, United States", "global_code": "87JC7RHM+3H"}, "rating": 3.9, "reference": "ChIJ6Qf1AD9_44kREokJ_-zRCDY", "scope": "GOOGLE", "types": ["point_of_interest", "school", "establishment"], "user_ratings_total": 17, "vicinity": "235 Baker Street, West Roxbury"}, "ChIJTQWbxD9_44kRKB5BLZcN9q8": {"geometry": {"location": {"lat": 42.2764678, "lng": -71.1668044}, "viewport": {"northeast": {"lat": 42.2776916302915, "lng": -71.1653097697085}, "southwest": {"lat": 42.2749936697085, "lng": -71.1680077302915}}}, "icon": "https://maps.gstatic.com/mapfiles/place_api/icons/cafe-71.png", "id": "8c081ec4d844df96da05034d9cdaf2ced12768af", "name": "Dunkin' Donuts", "opening_hours": {"open_now": true}, "photos": [{"height": 768, "html_attributions": ["<a href=\"https://maps.google.com/maps/contrib/104027277087490311918/photos\">Dunkin&#39; Donuts</a>"], "photo_reference": "CmRaAAAAytIIS7snZEsUsPKDASdbwZhhnxnm8xb8Wc-b4acGgKkM6mSrwZPZnKp_oPY3KzKnMfMxlqJMXIbL_U5vonvUCgc3AHHGK_xSGyq957_gnNWXZyZJFC1-DMq_50ouEQIWEhCPeaK9_jxANCOp4FFWT6X1GhQITu3Jb9ns34Fu6xNsnhamB9DUMA", "width": 1024}], "place_id": "ChIJTQWbxD9_44kRKB5BLZcN9q8", "plus_code": {"compound_code": "7RGM+H7 Boston, Massachusetts, United States", "global_code": "87JC7RGM+H7"}, "price_level": 1, "rating": 3.8, "reference": "ChIJTQWbxD9_44kRKB5BLZcN9q8", "scope": "GOOGLE", "types": ["cafe", "bakery", "store", "restaurant", "point_of_interest", "food", "establishment"], "user_ratings_total": 125, "vicinity": "155 Spring Street, West Roxbury"}, "ChIJL7xf3j9_44kRn1Ch2BnGk4I": {"geometry": {"location": {"lat": 42.27645519999999, "lng": -71.1667834}, "viewport": {"northeast": {"lat": 42.27768538029149, "lng": -71.16529921970849}, "southwest": {"lat": 42.27498741970849, "lng": -71.16799718029151}}}, "icon": "https://maps.gstatic.com/mapfiles/place_api/icons/atm-71.png", "id": "8a2dab36621243de9701eab42f17a76b8106af7e", "name": "Access to Money", "place_id": "ChIJL7xf3j9_44kRn1Ch2BnGk4I", "plus_code": {"compound_code": "7RGM+H7 Boston, Massachusetts, United States", "global_code": "87JC7RGM+H7"}, "reference": "ChIJL7xf3j9_44kRn1Ch2BnGk4I", "scope": "GOOGLE", "types": ["atm", "finance", "point_of_interest", "establishment"], "vicinity": "155 Spring Street, Boston"}, "ChIJEx3aIDt_44kRFjyNzV16WPs": {"geometry": {"location": {"lat": 42.2790309, "lng": -71.1679924}, "viewport": {"northeast": {"lat": 42.28030203029149, "lng": -71.1667748197085}, "southwest": {"lat": 42.2776040697085, "lng": -71.16947278029151}}}, "icon": "https://maps.gstatic.com/mapfiles/place_api/icons/shopping-71.png", "id": "42a24dffc81cacf5dbde211f1c9b709ede5f9f4f", "name": "Mario Hearing & Tinnitus Clinics", "place_id": "ChIJEx3aIDt_44kRFjyNzV16WPs", "plus_code": {"compound_code": "7RHJ+JR Boston, Massachusetts, United States", "global_code": "87JC7RHJ+JR"}, "rating": 4, "reference": "ChIJEx3aIDt_44kRFjyNzV16WPs", "scope": "GOOGLE", "types": ["doctor", "store", "health", "point_of_interest", "establishment"], "user_ratings_total": 4, "vicinity": "1208 VFW Parkway #103, Boston"}, "ChIJT1Wwj0B_44kRgcRm7fwQftY": {"geometry": {"location": {"lat": 42.278795, "lng": -71.167525}, "viewport": {"northeast": {"lat": 42.2801439802915, "lng": -71.16617601970849}, "southwest": {"lat": 42.2774460197085, "lng": -71.16887398029151}}}, "icon": "https://maps.gstatic.com/mapfiles/place_api/icons/generic_business-71.png", "id": "1e28ae04d801eafe4f65e7d0db52d5d73d80b51b", "name": "new boston strategies", "place_id": "ChIJT1Wwj0B_44kRgcRm7fwQftY", "plus_code": {"compound_code": "7RHJ+GX Boston, Massachusetts, United States", "global_code": "87JC7RHJ+GX"}, "reference": "ChIJT1Wwj0B_44kRgcRm7fwQftY", "scope": "GOOGLE", "types": ["point_of_interest", "establishment"], "vicinity": "1208 VFW Parkway, West Roxbury"}, "ChIJEZKtZUB_44kRQpcQazaf7Sk": {"geometry": {"location": {"lat": 42.27805689999999, "lng": -71.1695056}, "viewport": {"northeast": {"lat": 42.27942343029149, "lng": -71.16842006970849}, "southwest": {"lat": 42.2767254697085, "lng": -71.1711180302915}}}, "icon": "https://maps.gstatic.com/mapfiles/place_api/icons/generic_business-71.png", "id": "fcff65000a622875bb6e0287581e9134a8e761d5", "name": "CrossFit Boston Iron & Grit", "opening_hours": {"open_now": true}, "photos": [{"height": 3024, "html_attributions": ["<a href=\"https://maps.google.com/maps/contrib/106320844992964610159/photos\">Kenn Soendergaard</a>"], "photo_reference": "CmRaAAAAqb1Cbt7_vHqt6SPpD68zXHUcnONChrCyEHGPKJYuUmLUkEzV4JhIBT7psiAp7cQCy5BuqzhRWMzkZL04NOZr8gfxqH1ul0jDedJC3ODpIn98tTJsH0UNDFkkaDuaha2kEhBWHIalny-WFxO2cLwvBWvsGhSBmximpJBQqk5ZK_6OC7K0Q3UIbQ", "width": 4032}], "place_id": "ChIJEZKtZUB_44kRQpcQazaf7Sk", "plus_code": {"compound_code": "7RHJ+65 Boston, Massachusetts, United States", "global_code": "87JC7RHJ+65"}, "rating": 5, "reference": "ChIJEZKtZUB_44kRQpcQazaf7Sk", "scope": "GOOGLE", "types": ["health", "point_of_interest", "establishment"], "user_ratings_total": 11, "vicinity": "1230 VFW Parkway, West Roxbury"}, "ChIJG-7dZD9_44kR8JcwHEpBdDA": {"geometry": {"location": {"lat": 42.2789611, "lng": -71.1680871}, "viewport": {"northeast": {"lat": 42.2802671302915, "lng": -71.16682216970848}, "southwest": {"lat": 42.27756916970851, "lng": -71.1695201302915}}}, "icon": "https://maps.gstatic.com/mapfiles/place_api/icons/generic_business-71.png", "id": "091caebcabac2b6430de24ff3305417582c4ce12", "name": "Massachusetts Resiliency Center", "opening_hours": {"open_now": false}, "place_id": "ChIJG-7dZD9_44kR8JcwHEpBdDA", "plus_code": {"compound_code": "7RHJ+HQ Boston, Massachusetts, United States", "global_code": "87JC7RHJ+HQ"}, "reference": "ChIJG-7dZD9_44kR8JcwHEpBdDA", "scope": "GOOGLE", "types": ["doctor", "health", "point_of_interest", "establishment"], "vicinity": "1208 VFW Parkway #201, Boston"}, "ChIJEZKtZUB_44kRm27uGeszxi8": {"geometry": {"location": {"lat": 42.2780898, "lng": -71.1695884}, "viewport": {"northeast": {"lat": 42.27945293029149, "lng": -71.1684599197085}, "southwest": {"lat": 42.2767549697085, "lng": -71.1711578802915}}}, "icon": "https://maps.gstatic.com/mapfiles/place_api/icons/shopping-71.png", "id": "7f328d083c5ba24cd096a3e3bfe275b8d3194c45", "name": "Dollar Tree", "opening_hours": {"open_now": true}, "photos": [{"height": 2448, "html_attributions": ["<a href=\"https://maps.google.com/maps/contrib/104161268918006105235/photos\">magen Primo</a>"], "photo_reference": "CmRaAAAA0f1g17UMmHzliU-dJuF0y6w3xjarlMnPzvyCsT3_I0Rqp3DOsDKQ4S0ty39EUcj0kYOD1-50pz4PLWcO5QXDI0UnKFs3LGaOn55WlMIoiVD-oin5ZR2BuWNiZULk_ky1EhBKo0q-BC-e8aP6Pe2Vxq6WGhSYe4Uk5lSrJbEPxfleQ-z_hrf0KQ", "width": 3264}], "place_id": "ChIJEZKtZUB_44kRm27uGeszxi8", "plus_code": {"compound_code": "7RHJ+65 Boston, Massachusetts, United States", "global_code": "87JC7RHJ+65"}, "price_level": 1, "rating": 4.4, "reference": "ChIJEZKtZUB_44kRm27uGeszxi8", "scope": "GOOGLE", "types": ["furniture_store", "grocery_or_supermarket", "home_goods_store", "store", "point_of_interest", "food", "establishment"], "user_ratings_total": 69, "vicinity": "1230 VFW Parkway, West Roxbury"}, "ChIJufXLyz9_44kRC3nNkeBmh90": {"geometry": {"location": {"lat": 42.2768093, "lng": -71.16612479999999}, "viewport": {"northeast": {"lat": 42.27803753029149, "lng": -71.16465876970848}, "southwest": {"lat": 42.27533956970849, "lng": -71.16735673029149}}}, "icon": "https://maps.gstatic.com/mapfiles/place_api/icons/atm-71.png", "id": "bc0c55d760b7d2f7218d415f033d3375956e30e5", "name": "Cardtronics ATM", "place_id": "ChIJufXLyz9_44kRC3nNkeBmh90", "plus_code": {"compound_code": "7RGM+PH Boston, Massachusetts, United States", "global_code": "87JC7RGM+PH"}, "reference": "ChIJufXLyz9_44kRC3nNkeBmh90", "scope": "GOOGLE", "types": ["atm", "finance", "point_of_interest", "establishment"], "vicinity": "145 Spring Street, West Roxbury"}, "ChIJufXLyz9_44kRFr8N45_oozc": {"geometry": {"location": {"lat": 42.27678580000001, "lng": -71.16608889999999}, "viewport": {"northeast": {"lat": 42.27802808029151, "lng": -71.1646364697085}, "southwest": {"lat": 42.27533011970851, "lng": -71.1673344302915}}}, "icon": "https://maps.gstatic.com/mapfiles/place_api/icons/generic_business-71.png", "id": "ec221289f394ca267a5740627193003b55a00cfc", "name": "McCracken Auto Express", "opening_hours": {"open_now": false}, "photos": [{"height": 400, "html_attributions": ["<a href=\"https://maps.google.com/maps/contrib/104244006508377167420/photos\">McCracken Auto Express</a>"], "photo_reference": "CmRaAAAATblqjAEtMOEaGmm4FG_z0zi2S_yT9lkjacnMCdpTAqaqGns8zZaM2S_1EMN5tE9SjFsZcgjYqyySAbVKxQ3wOiP_0kOLGtrfM4OAF2U_l8mlVV8xfkp8sx4x8vT7NB3eEhDNdyrZOGZlgLqJ6W5JeQ4mGhSzc5sWyMQZZU49UNNLMZVezZiw-Q", "width": 533}], "place_id": "ChIJufXLyz9_44kRFr8N45_oozc", "plus_code": {"compound_code": "7RGM+PH Boston, Massachusetts, United States", "global_code": "87JC7RGM+PH"}, "rating": 5, "reference": "ChIJufXLyz9_44kRFr8N45_oozc", "scope": "GOOGLE", "types": ["car_repair", "store", "point_of_interest", "establishment"], "user_ratings_total": 2, "vicinity": "145 Spring Street, West Roxbury"}, "ChIJ65W3QkB_44kR-YISELrX4CQ": {"geometry": {"location": {"lat": 42.2780898, "lng": -71.1695884}, "viewport": {"northeast": {"lat": 42.27945293029149, "lng": -71.1684599197085}, "southwest": {"lat": 42.2767549697085, "lng": -71.1711578802915}}}, "icon": "https://maps.gstatic.com/mapfiles/place_api/icons/generic_business-71.png", "id": "2c404df504e39044754c18dddf7cd59fb77d7c15", "name": "Bubbles Coin Laundry", "opening_hours": {"open_now": true}, "photos": [{"height": 3492, "html_attributions": ["<a href=\"https://maps.google.com/maps/contrib/103877553781689238760/photos\">Jules Nohra</a>"], "photo_reference": "CmRaAAAAUzk4Lff6aWU3F4BRz65-vyYEZJ3qc5on8qlxioa6kI3jms8EPeM9Vo3-FdQsOuER8_ptVwCjex4IWg7AeBvazyTZLTEvaidi1VAO-8XtoC_2rJjjfL4G1_OGDYWySnB1EhD_lDE_ZkQM5IUq_ipLccc5GhRGRP9DDN4ajNV7KKwKwjdhZC-Rkg", "width": 4656}], "place_id": "ChIJ65W3QkB_44kR-YISELrX4CQ", "plus_code": {"compound_code": "7RHJ+65 Boston, Massachusetts, United States", "global_code": "87JC7RHJ+65"}, "rating": 4.2, "reference": "ChIJ65W3QkB_44kR-YISELrX4CQ", "scope": "GOOGLE", "types": ["laundry", "point_of_interest", "establishment"], "user_ratings_total": 21, "vicinity": "1230 VFW Parkway, West Roxbury"}, "ChIJD57Soj9_44kRENeZdsmH0O4": {"geometry": {"location": {"lat": 42.27751800000001, "lng": -71.16699299999999}, "viewport": {"northeast": {"lat": 42.27886658029149, "lng": -71.1656300697085}, "southwest": {"lat": 42.27616861970849, "lng": -71.1683280302915}}}, "icon": "https://maps.gstatic.com/mapfiles/place_api/icons/bus-71.png", "id": "e9c47066e7d6e61f9a6b9c60a18c6ad8e1f26836", "name": "Baker St @ Dunwell St", "place_id": "ChIJD57Soj9_44kRENeZdsmH0O4", "plus_code": {"compound_code": "7RHM+26 Boston, Massachusetts, United States", "global_code": "87JC7RHM+26"}, "reference": "ChIJD57Soj9_44kRENeZdsmH0O4", "scope": "GOOGLE", "types": ["bus_station", "transit_station", "point_of_interest", "establishment"], "vicinity": "United States"}, "ChIJ0QcVoz9_44kRQv9K683r1JA": {"geometry": {"location": {"lat": 42.277573, "lng": -71.16686399999999}, "viewport": {"northeast": {"lat": 42.2789227802915, "lng": -71.1655419697085}, "southwest": {"lat": 42.2762248197085, "lng": -71.1682399302915}}}, "icon": "https://maps.gstatic.com/mapfiles/place_api/icons/bus-71.png", "id": "53a53de60d27103a955a74babf7762ba8972e784", "name": "Baker St opp Dunwell St", "place_id": "ChIJ0QcVoz9_44kRQv9K683r1JA", "plus_code": {"compound_code": "7RHM+27 Boston, Massachusetts, United States", "global_code": "87JC7RHM+27"}, "reference": "ChIJ0QcVoz9_44kRQv9K683r1JA", "scope": "GOOGLE", "types": ["bus_station", "transit_station", "point_of_interest", "establishment"], "vicinity": "United States"}, "ChIJzbPmAEB_44kRYbNjCPoQChk": {"geometry": {"location": {"lat": 42.276316, "lng": -71.168792}, "viewport": {"northeast": {"lat": 42.2777421802915, "lng": -71.16743396970848}, "southwest": {"lat": 42.27504421970851, "lng": -71.17013193029149}}}, "icon": "https://maps.gstatic.com/mapfiles/place_api/icons/generic_business-71.png", "id": "2754681fdd7b970ccf95c335f93216be27ba470d", "name": "Boston Peak Real Estate Inc", "place_id": "ChIJzbPmAEB_44kRYbNjCPoQChk", "plus_code": {"compound_code": "7RGJ+GF Boston, Massachusetts, United States", "global_code": "87JC7RGJ+GF"}, "reference": "ChIJzbPmAEB_44kRYbNjCPoQChk", "scope": "GOOGLE", "types": ["real_estate_agency", "point_of_interest", "establishment"], "vicinity": "36 Wycliff Avenue, West Roxbury"}, "ChIJ29sX3T9_44kRExWKLiamBwA": {"geometry": {"location": {"lat": 42.27625099999999, "lng": -71.167}, "viewport": {"northeast": {"lat": 42.27760053029149, "lng": -71.16566166970848}, "southwest": {"lat": 42.27490256970849, "lng": -71.1683596302915}}}, "icon": "https://maps.gstatic.com/mapfiles/place_api/icons/bus-71.png", "id": "75eb93e8fba6fb5176e0041dce1b5d2f29515821", "name": "Baker St opp Wycliff Ave", "place_id": "ChIJ29sX3T9_44kRExWKLiamBwA", "plus_code": {"compound_code": "7RGM+G5 Boston, Massachusetts, United States", "global_code": "87JC7RGM+G5"}, "reference": "ChIJ29sX3T9_44kRExWKLiamBwA", "scope": "GOOGLE", "types": ["bus_station", "transit_station", "point_of_interest", "establishment"], "vicinity": "United States"}, "ChIJTQ-A5z9_44kRb4Nacgkg7eI": {"geometry": {"location": {"lat": 42.27620099999999, "lng": -71.167133}, "viewport": {"northeast": {"lat": 42.27754833029149, "lng": -71.16575206970849}, "southwest": {"lat": 42.2748503697085, "lng": -71.16845003029151}}}, "icon": "https://maps.gstatic.com/mapfiles/place_api/icons/bus-71.png", "id": "eaf6d8254fb6bb8612b5324fce3f22195f5d672a", "name": "Baker St @ Wycliff Ave", "place_id": "ChIJTQ-A5z9_44kRb4Nacgkg7eI", "plus_code": {"compound_code": "7RGM+F4 Boston, Massachusetts, United States", "global_code": "87JC7RGM+F4"}, "reference": "ChIJTQ-A5z9_44kRb4Nacgkg7eI", "scope": "GOOGLE", "types": ["bus_station", "transit_station", "point_of_interest", "establishment"], "vicinity": "United States"}, "ChIJzxYuijx_44kRRILba9QQn0k": {"geometry": {"location": {"lat": 42.27975539999999, "lng": -71.1626756}, "viewport": {"northeast": {"lat": 42.303697, "lng": -71.12789599999999}, "southwest": {"lat": 42.25289799999999, "lng": -71.191198}}}, "icon": "https://maps.gstatic.com/mapfiles/place_api/icons/geocode-71.png", "id": "20de47f271a3ccaf647bdac7b9ee10bd6e83a6c4", "name": "West Roxbury", "photos": [{"height": 603, "html_attributions": ["<a href=\"https://maps.google.com/maps/contrib/117808102006877461743/photos\">Andri Kyrychok</a>"], "photo_reference": "CmRaAAAAfHx-95T6ffJAMTxUQmpPKKeAKlEutNIFO9wg0qvTL_a9hmRy7f8-DyGvONOpo5hJR4EMQu5WGxOUhqXK-bIrZtUGgD_GFo30jFALxM9yomNe4pGRcO1gnWlg8P69p8wnEhAWk6GjUryrzkHpAQ4HpOJOGhQnRcmnSvG7JuNEF2g0fpef3EdXHA", "width": 546}], "place_id": "ChIJzxYuijx_44kRRILba9QQn0k", "reference": "ChIJzxYuijx_44kRRILba9QQn0k", "scope": "GOOGLE", "types": ["neighborhood", "political"], "vicinity": "Boston"}}