{"ChIJGzE9DS1l44kRoOhiASS_fHg": {"geometry": {"location": {"lat": 42.3600825, "lng": -71.0588801}, "viewport": {"northeast": {"lat": 42.40081989999999, "lng": -70.749455}, "southwest": {"lat": 42.22788, "lng": -71.191113}}}, "icon": "https://maps.gstatic.com/mapfiles/place_api/icons/geocode-71.png", "id": "06755c25d2b34d13942a4713971756a55b870ced", "name": "Boston", "photos": [{"height": 3024, "html_attributions": ["<a href=\"https://maps.google.com/maps/contrib/104670289779338733432/photos\">Natalia Zalucean</a>"], "photo_reference": "CmRaAAAAa9QmYczqGGPrppjD3KQbr9a9hcr1Xji_vscdh4sZH668ql5NMAvVeI7jKClRV0WqxIpbqjc9OVMcHKQGClMXXjjqHH16RqBMj5S6FqbQ95O5WcT33AkK8BxbMhfVgjVVEhDKBPT9oVr0OaPDSaowmvc7GhRQna5UKEmXMlZwmFcVnIUGFE9v9A", "width": 4032}], "place_id": "ChIJGzE9DS1l44kRoOhiASS_fHg", "reference": "ChIJGzE9DS1l44kRoOhiASS_fHg", "scope": "GOOGLE", "types": ["locality", "political"], "vicinity": "Boston"}, "ChIJQcoE0_dw44kR5ruAah9rrnY": {"geometry": {"location": {"lat": 42.377204, "lng": -71.050305}, "viewport": {"northeast": {"lat": 42.3786362802915, "lng": -71.04905251970848}, "southwest": {"lat": 42.3759383197085, "lng": -71.0517504802915}}}, "icon": "https://maps.gstatic.com/mapfiles/place_api/icons/generic_business-71.png", "id": "307bef7eb043c4ba83972396dd3ee78d89ee2bed", "name": "PAR Associate Inc", "opening_hours": {"open_now": true}, "photos": [{"height": 1952, "html_attributions": ["<a href=\"https://maps.google.com/maps/contrib/103432753700335744519/photos\">PAR Associate Inc</a>"], "photo_reference": "CmRaAAAAvXhY4jj2EVMBVVbS6X4LZQgQZOWcr7hql_It5FRjXOYdXPz6xH-A4P9XqnwRyJ9Zk34m20pK_2bXCK9wqKQHpweLTqCb8p6BOnbpafF6aSfXJJvBlEd_05QSlCIr91PGEhDGmEa8l-FwBZ3mCnngSCYDGhSM22FNt5eQ_dHgRifHQ8CYzGPbAw", "width": 3264}], "place_id": "ChIJQcoE0_dw44kR5ruAah9rrnY", "plus_code": {"compound_code": "9WGX+VV Boston, Massachusetts, United States", "global_code": "87JC9WGX+VV"}, "reference": "ChIJQcoE0_dw44kR5ruAah9rrnY", "scope": "GOOGLE", "types": ["point_of_interest", "establishment"], "vicinity": "250 1st Avenue #236, Charlestown"}, "ChIJw61YYpFw44kRkO7TlzA1ADs": {"geometry": {"location": {"lat": 42.37859760000001, "lng": -71.0491268}, "viewport": {"northeast": {"lat": 42.3798360802915, "lng": -71.04768626970848}, "southwest": {"lat": 42.3771381197085, "lng": -71.0503842302915}}}, "icon": "https://maps.gstatic.com/mapfiles/place_api/icons/generic_business-71.png", "id": "3b6ed5a381421ae897f3e67d9008d576b18f2a78", "name": "Nimec Donna L MD", "place_id": "ChIJw61YYpFw44kRkO7TlzA1ADs", "plus_code": {"compound_code": "9XH2+C8 Boston, Massachusetts, United States", "global_code": "87JC9XH2+C8"}, "reference": "ChIJw61YYpFw44kRkO7TlzA1ADs", "scope": "GOOGLE", "types": ["doctor", "health", "point_of_interest", "establishment"], "vicinity": "300 1st Avenue, Charlestown"}, "ChIJV_RD0vdw44kRSjtpN5h1tBA": {"geometry": {"location": {"lat": 42.377313, "lng": -71.049905}, "viewport": {"northeast": {"lat": 42.3787868302915, "lng": -71.0487006197085}, "southwest": {"lat": 42.3760888697085, "lng": -71.0513985802915}}}, "icon": "https://maps.gstatic.com/mapfiles/place_api/icons/generic_business-71.png", "id": "45e2a98d3cebaa1708aad2257d76b00a0ede6447", "name": "HarborView at the Navy Yard", "opening_hours": {"open_now": true}, "photos": [{"height": 480, "html_attributions": ["<a href=\"https://maps.google.com/maps/contrib/110651567189231756895/photos\">HarborView at the Navy Yard</a>"], "photo_reference": "CmRaAAAAFLhQEbfh0NJyCveQ-ofXI4LXK7O_NueoWbzFcYIx5vxb8Zl-2u7NuquAv9qLpOOXXacEyPWRh7UHMd-9Pq9BxVrkN-x1aw44bOCPtK9koa9n-Sl2dOwxvTITModQukC_EhB3AmXDIX2YrNe3IuZVPA2yGhR8ipWIHWhrOkJSmC6H27ym-wE_gg", "width": 640}], "place_id": "ChIJV_RD0vdw44kRSjtpN5h1tBA", "plus_code": {"compound_code": "9XG2+W2 Boston, Massachusetts, United States", "global_code": "87JC9XG2+W2"}, "rating": 4.4, "reference": "ChIJV_RD0vdw44kRSjtpN5h1tBA", "scope": "GOOGLE", "types": ["point_of_interest", "establishment"], "user_ratings_total": 10, "vicinity": "250 1st Avenue, Charlestown"}, "ChIJl6TM1ZNw44kRWbO2BCWwdS8": {"geometry": {"location": {"lat": 42.378586, "lng": -71.04908259999999}, "viewport": {"northeast": {"lat": 42.3798324802915, "lng": -71.04765926970848}, "southwest": {"lat": 42.3771345197085, "lng": -71.0503572302915}}}, "icon": "https://maps.gstatic.com/mapfiles/place_api/icons/generic_business-71.png", "id": "0feb2e979411db61792d568264ad1bbac3123852", "name": "Dr. Nevena Zubcevik, DO", "place_id": "ChIJl6TM1ZNw44kRWbO2BCWwdS8", "plus_code": {"compound_code": "9XH2+C9 Boston, Massachusetts, United States", "global_code": "87JC9XH2+C9"}, "rating": 5, "reference": "ChIJl6TM1ZNw44kRWbO2BCWwdS8", "scope": "GOOGLE", "types": ["doctor", "health", "point_of_interest", "establishment"], "user_ratings_total": 2, "vicinity": "300 1st Avenue, Charlestown"}, "ChIJXzPlUj5w44kRxCykQ8xfcOo": {"geometry": {"location": {"lat": 42.37859760000001, "lng": -71.0491268}, "viewport": {"northeast": {"lat": 42.3798360802915, "lng": -71.04768626970848}, "southwest": {"lat": 42.3771381197085, "lng": -71.0503842302915}}}, "icon": "https://maps.gstatic.com/mapfiles/place_api/icons/atm-71.png", "id": "f55ed1691f06680de7b5c3c2dddcc719827a34a3", "name": "Bank of America ATM", "place_id": "ChIJXzPlUj5w44kRxCykQ8xfcOo", "plus_code": {"compound_code": "9XH2+C8 Boston, Massachusetts, United States", "global_code": "87JC9XH2+C8"}, "rating": 5, "reference": "ChIJXzPlUj5w44kRxCykQ8xfcOo", "scope": "GOOGLE", "types": ["atm", "finance", "point_of_interest", "establishment"], "user_ratings_total": 1, "vicinity": "300 1st Avenue, Boston"}, "ChIJw61YYpFw44kRuhXQja-7md8": {"geometry": {"location": {"lat": 42.3774387, "lng": -71.049888}, "viewport": {"northeast": {"lat": 42.3788793302915, "lng": -71.04864521970849}, "southwest": {"lat": 42.3761813697085, "lng": -71.0513431802915}}}, "icon": "https://maps.gstatic.com/mapfiles/place_api/icons/generic_business-71.png", "id": "2bde854b90ffbe15ec3eb6cfda7dd8cbd7dd7fef", "name": "Dr. Jeffrey C. Schneider, MD", "place_id": "ChIJw61YYpFw44kRuhXQja-7md8", "plus_code": {"compound_code": "9XG2+X2 Boston, Massachusetts, United States", "global_code": "87JC9XG2+X2"}, "reference": "ChIJw61YYpFw44kRuhXQja-7md8", "scope": "GOOGLE", "types": ["doctor", "health", "point_of_interest", "establishment"], "vicinity": "300 1st Avenue, Charlestown"}, "ChIJIVbY1fdw44kRaRh_rx-PjwU": {"geometry": {"location": {"lat": 42.3773129, "lng": -71.0499045}, "viewport": {"northeast": {"lat": 42.3787868302915, "lng": -71.04870026970849}, "southwest": {"lat": 42.3760888697085, "lng": -71.0513982302915}}}, "icon": "https://maps.gstatic.com/mapfiles/place_api/icons/generic_business-71.png", "id": "c39f96dfb7663f2bd3a7ad9fb229f9ece405b9e8", "name": "CREO Strategic Solutions", "place_id": "ChIJIVbY1fdw44kRaRh_rx-PjwU", "plus_code": {"compound_code": "9XG2+W2 Boston, Massachusetts, United States", "global_code": "87JC9XG2+W2"}, "reference": "ChIJIVbY1fdw44kRaRh_rx-PjwU", "scope": "GOOGLE", "types": ["health", "point_of_interest", "establishment"], "vicinity": "250 1st Avenue #616, Boston"}, "ChIJQcoE0_dw44kREtWXjUiAWpc": {"geometry": {"location": {"lat": 42.3773306, "lng": -71.0499133}, "viewport": {"northeast": {"lat": 42.3787978302915, "lng": -71.04870131970848}, "southwest": {"lat": 42.3760998697085, "lng": -71.0513992802915}}}, "icon": "https://maps.gstatic.com/mapfiles/place_api/icons/generic_business-71.png", "id": "3a4870e2ae589fe5d532531e0440a81bd872a004", "name": "Compass at HarborView at Navy Yard", "opening_hours": {"open_now": true}, "place_id": "ChIJQcoE0_dw44kREtWXjUiAWpc", "plus_code": {"compound_code": "9XG2+W2 Boston, Massachusetts, United States", "global_code": "87JC9XG2+W2"}, "reference": "ChIJQcoE0_dw44kREtWXjUiAWpc", "scope": "GOOGLE", "types": ["point_of_interest", "establishment"], "vicinity": "250 1st Avenue, Boston"}, "ChIJQcoE0_dw44kRhizCaZr0Sr4": {"geometry": {"location": {"lat": 42.3770574, "lng": -71.0501333}, "viewport": {"northeast": {"lat": 42.3785633302915, "lng": -71.04896616970848}, "southwest": {"lat": 42.3758653697085, "lng": -71.0516641302915}}}, "icon": "https://maps.gstatic.com/mapfiles/place_api/icons/generic_business-71.png", "id": "40194aefefa75c01399d81ccda0b9b7b6f3bfe08", "name": "Ronald McDonald House at Boston Harbor (formerly Home Away Boston)", "opening_hours": {"open_now": true}, "photos": [{"height": 2158, "html_attributions": ["<a href=\"https://maps.google.com/maps/contrib/117651227163024291737/photos\">Scott Walters</a>"], "photo_reference": "CmRaAAAATF1BAbHoxPSK_zNv9d5YRPZsClqqFAvs2xYRQtzuzO1LJ-f-gls6SF9RUTnZXVs2ogpncfcEMd_iwL1DCLPba8MBZmM4USRaB2__Du7vKZKuxZR2td-t_I9W1cU_4h2XEhC6E8dlH9tFZKXwd2zBEOjVGhTKQr7lK8qgzd4_EMAPcqZ5TjijLw", "width": 3957}], "place_id": "ChIJQcoE0_dw44kRhizCaZr0Sr4", "plus_code": {"compound_code": "9WGX+RW Boston, Massachusetts, United States", "global_code": "87JC9WGX+RW"}, "rating": 4.3, "reference": "ChIJQcoE0_dw44kRhizCaZr0Sr4", "scope": "GOOGLE", "types": ["point_of_interest", "establishment"], "user_ratings_total": 6, "vicinity": "250 1st Avenue, Charlestown"}, "ChIJQcoE0_dw44kR64VHEJhWUDg": {"geometry": {"location": {"lat": 42.377204, "lng": -71.050304}, "viewport": {"northeast": {"lat": 42.3786364802915, "lng": -71.04905176970848}, "southwest": {"lat": 42.3759385197085, "lng": -71.0517497302915}}}, "icon": "https://maps.gstatic.com/mapfiles/place_api/icons/generic_business-71.png", "id": "0a4c82f57fca0e5aa618549395127902efd957ba", "name": "Philip Porcella Photography", "opening_hours": {"open_now": true}, "place_id": "ChIJQcoE0_dw44kR64VHEJhWUDg", "plus_code": {"compound_code": "9WGX+VV Boston, Massachusetts, United States", "global_code": "87JC9WGX+VV"}, "reference": "ChIJQcoE0_dw44kR64VHEJhWUDg", "scope": "GOOGLE", "types": ["point_of_interest", "establishment"], "vicinity": "250 1st Avenue, Charlestown"}, "ChIJQcoE0_dw44kRD3DPEWHfumw": {"geometry": {"location": {"lat": 42.3772044, "lng": -71.05030450000001}, "viewport": {"northeast": {"lat": 42.3786366802915, "lng": -71.0490520197085}, "southwest": {"lat": 42.3759387197085, "lng": -71.0517499802915}}}, "icon": "https://maps.gstatic.com/mapfiles/place_api/icons/school-71.png", "id": "45506362c8de3e100eea1a4d869e161f20d5b5cb", "name": "Menemsha Group", "place_id": "ChIJQcoE0_dw44kRD3DPEWHfumw", "plus_code": {"compound_code": "9WGX+VV Boston, Massachusetts, United States", "global_code": "87JC9WGX+VV"}, "reference": "ChIJQcoE0_dw44kRD3DPEWHfumw", "scope": "GOOGLE", "types": ["point_of_interest", "establishment"], "vicinity": "250 1st Avenue #329, Charlestown"}, "ChIJV_RD0vdw44kRGfmmIcxNbKc": {"geometry": {"location": {"lat": 42.3773085, "lng": -71.05042379999999}, "viewport": {"northeast": {"lat": 42.3786889802915, "lng": -71.04911126970849}, "southwest": {"lat": 42.3759910197085, "lng": -71.05180923029151}}}, "icon": "https://maps.gstatic.com/mapfiles/place_api/icons/generic_business-71.png", "id": "05f141d1639aaa17202c1c641f832d98e3967b86", "name": "The Barque Group", "photos": [{"height": 440, "html_attributions": ["<a href=\"https://maps.google.com/maps/contrib/113676463216595282268/photos\">The Barque Group</a>"], "photo_reference": "CmRaAAAATnx7jQBMwGQZcRQ1RUjdtoTGDTvPX3xt6ZwfWqcd-bnQbK1_5wfvVXRj6z4WpnN9UEVAyYiXD6zqij6NLUEXuJhzcSQDLCUD_ywdxTGZ1NkteX3r3FSP2ODBjQTFhli7EhAfCXTLKw8fy-xcYogQ8AoqGhQHopDTMg2I7MUt2eXoHWksd8_PeA", "width": 800}], "place_id": "ChIJV_RD0vdw44kRGfmmIcxNbKc", "plus_code": {"compound_code": "9WGX+WR Boston, Massachusetts, United States", "global_code": "87JC9WGX+WR"}, "reference": "ChIJV_RD0vdw44kRGfmmIcxNbKc", "scope": "GOOGLE", "types": ["point_of_interest", "establishment"], "vicinity": "250 1st Avenue #329, Charlestown"}, "ChIJF-OAM_Zw44kRFKKzT6TCtig": {"geometry": {"location": {"lat": 42.3767872, "lng": -71.0504732}, "viewport": {"northeast": {"lat": 42.3783101302915, "lng": -71.0493241197085}, "southwest": {"lat": 42.3756121697085, "lng": -71.05202208029151}}}, "icon": "https://maps.gstatic.com/mapfiles/place_api/icons/generic_business-71.png", "id": "92528d0661b126c4a9b5eb880c40dbacb5c7c64e", "name": "Learning House Publishing Inc", "place_id": "ChIJF-OAM_Zw44kRFKKzT6TCtig", "plus_code": {"compound_code": "9WGX+PR Boston, Massachusetts, United States", "global_code": "87JC9WGX+PR"}, "reference": "ChIJF-OAM_Zw44kRFKKzT6TCtig", "scope": "GOOGLE", "types": ["point_of_interest", "establishment"], "vicinity": "110 1st Avenue, Charlestown"}, "ChIJAbfCD1hw44kRfDIj37pgyO4": {"geometry": {"location": {"lat": 42.378586, "lng": -71.04908259999999}, "viewport": {"northeast": {"lat": 42.3798324802915, "lng": -71.04765926970848}, "southwest": {"lat": 42.3771345197085, "lng": -71.0503572302915}}}, "icon": "https://maps.gstatic.com/mapfiles/place_api/icons/school-71.png", "id": "13cc933f95248077ee70b7685580775a67c0d659", "name": "The Institute of Lifestyle Medicine", "place_id": "ChIJAbfCD1hw44kRfDIj37pgyO4", "plus_code": {"compound_code": "9XH2+C9 Boston, Massachusetts, United States", "global_code": "87JC9XH2+C9"}, "reference": "ChIJAbfCD1hw44kRfDIj37pgyO4", "scope": "GOOGLE", "types": ["university", "health", "point_of_interest", "establishment"], "vicinity": "300 1st Avenue, Charlestown"}, "ChIJ42N3C1hw44kRIisVopoTVnU": {"geometry": {"location": {"lat": 42.378586, "lng": -71.04908259999999}, "viewport": {"northeast": {"lat": 42.3799808802915, "lng": -71.04840701970849}, "southwest": {"lat": 42.3772829197085, "lng": -71.0511049802915}}}, "icon": "https://maps.gstatic.com/mapfiles/place_api/icons/generic_business-71.png", "id": "2bd201b030fe5e38459cabfec03ab8f7c96521bc", "name": "Spaulding Rehabilitation Hospital Boston", "opening_hours": {"open_now": true}, "photos": [{"height": 1536, "html_attributions": ["<a href=\"https://maps.google.com/maps/contrib/100691869505764266709/photos\">Floyydd Mumford</a>"], "photo_reference": "CmRaAAAAYGJeZiy2pKbGDd9TsPwNTb6cm8fhOIaNEmzRsESD2KFx5ODW6VJMDI9OCOCp5F7vGqS5mN0JQjSC7vo-CvOijzNIpkpol5w_X2G0DhQUFRZ9np6seoLAKlMDWCl-idVxEhARkPfc5f3l3hvvQCkFQVaUGhQHFwjCNIaCBsGHjse7OPUokv-Xyg", "width": 2048}], "place_id": "ChIJ42N3C1hw44kRIisVopoTVnU", "plus_code": {"compound_code": "9XH2+C9 Boston, Massachusetts, United States", "global_code": "87JC9XH2+C9"}, "rating": 4.3, "reference": "ChIJ42N3C1hw44kRIisVopoTVnU", "scope": "GOOGLE", "types": ["health", "point_of_interest", "establishment"], "user_ratings_total": 61, "vicinity": "300 1st Avenue, Charlestown"}, "ChIJVVWVD1hw44kR3ncwQwobCyQ": {"geometry": {"location": {"lat": 42.3784807, "lng": -71.0490919}, "viewport": {"northeast": {"lat": 42.3797739302915, "lng": -71.04767696970848}, "southwest": {"lat": 42.3770759697085, "lng": -71.0503749302915}}}, "icon": "https://maps.gstatic.com/mapfiles/place_api/icons/doctor-71.png", "id": "f9ab17e343e7a742ba539f125e6d49ca944b3d21", "name": "Spaulding Rehabilitation Hospital Boston", "place_id": "ChIJVVWVD1hw44kR3ncwQwobCyQ", "plus_code": {"compound_code": "9XH2+99 Boston, Massachusetts, United States", "global_code": "87JC9XH2+99"}, "reference": "ChIJVVWVD1hw44kR3ncwQwobCyQ", "scope": "GOOGLE", "types": ["hospital", "point_of_interest", "establishment"], "vicinity": "300 1st Avenue, Charlestown"}, "ChIJVVWVD1hw44kRGT2MqcDZfsk": {"geometry": {"location": {"lat": 42.378513, "lng": -71.049126}, "viewport": {"northeast": {"lat": 42.37979008029149, "lng": -71.0476940197085}, "southwest": {"lat": 42.37709211970849, "lng": -71.05039198029151}}}, "icon": "https://maps.gstatic.com/mapfiles/place_api/icons/generic_business-71.png", "id": "3d211309ab1172c4aad4635c409e16237a25c4db", "name": "Boston Acquired Brain Injury Support Group", "place_id": "ChIJVVWVD1hw44kRGT2MqcDZfsk", "plus_code": {"compound_code": "9XH2+C8 Boston, Massachusetts, United States", "global_code": "87JC9XH2+C8"}, "reference": "ChIJVVWVD1hw44kRGT2MqcDZfsk", "scope": "GOOGLE", "types": ["point_of_interest", "establishment"], "vicinity": "300 1st Avenue, Charlestown"}, "ChIJyS4B66Fx44kRNpTu1K8Uai4": {"geometry": {"location": {"lat": 42.37734469999999, "lng": -71.0491267}, "viewport": {"northeast": {"lat": 42.3786936802915, "lng": -71.04777771970849}, "southwest": {"lat": 42.3759957197085, "lng": -71.0504756802915}}}, "icon": "https://maps.gstatic.com/mapfiles/place_api/icons/generic_business-71.png", "id": "c34042490fba14a99387f2da6c1ead064ad60b1d", "name": "Water Taxi Stop 48", "photos": [{"height": 3888, "html_attributions": ["<a href=\"https://maps.google.com/maps/contrib/101934712986442987065/photos\">HyannisFerryMan</a>"], "photo_reference": "CmRaAAAAlsSXRWhNhXWJnKBXqHuCWYDFYb60ar2w-shtoM-3i9H0RTfsRpvKVkDD-bUAjDk5zyGG9XcOSsZVsLISMcW6bmkSkAScSbh7KUoky4dmSAANePS2Gje3i5IYF3fDO3AVEhAZI7hrBsQoTIUmXyNhySBHGhSFN2okqa8PYhJOiyjFRHgg4MUJjw", "width": 5184}], "place_id": "ChIJyS4B66Fx44kRNpTu1K8Uai4", "plus_code": {"compound_code": "9XG2+W8 Boston, Massachusetts, United States", "global_code": "87JC9XG2+W8"}, "rating": 5, "reference": "ChIJyS4B66Fx44kRNpTu1K8Uai4", "scope": "GOOGLE", "types": ["point_of_interest", "establishment"], "user_ratings_total": 1, "vicinity": "Unnamed Road, Charlestown"}, "ChIJGwVKWe5w44kRcr4b9E25-Go": {"geometry": {"location": {"lat": 42.3782065, "lng": -71.0602131}, "viewport": {"northeast": {"lat": 42.3897705, "lng": -71.04429809999999}, "southwest": {"lat": 42.3688756, "lng": -71.0734062}}}, "icon": "https://maps.gstatic.com/mapfiles/place_api/icons/geocode-71.png", "id": "aee8a281af2c986490fb56a44a229b45f48ac164", "name": "Charlestown", "photos": [{"height": 2000, "html_attributions": ["<a href=\"https://maps.google.com/maps/contrib/115519834423791060860/photos\">Luca Raggi</a>"], "photo_reference": "CmRaAAAA0bqp4Vh8JryOpSJSjK5yxMiYWkGLJno0oQ9OyrRqbr5Waf5qnh27hWrMIwxp5R6mquP4NgTeEViE2OCKefXBLBbWWPAqZh31KvWFZN4pOD0IJH8IyQ5DcFDL9iUrthlFEhCJwqRrhNQ74ws7_8cXU5V_GhQV1JfEsZ7EqfmecZYZgcSawo7OIA", "width": 3008}], "place_id": "ChIJGwVKWe5w44kRcr4b9E25-Go", "reference": "ChIJGwVKWe5w44kRcr4b9E25-Go", "scope": "GOOGLE", "types": ["neighborhood", "political"], "vicinity": "Boston"}, "ChIJm9QHQFhw44kR3PrtDfWMVjA": {"geometry": {"location": {"lat": 42.3779187, "lng": -71.0482459}, "viewport": {"northeast": {"lat": 42.37943388029149, "lng": -71.04718336970849}, "southwest": {"lat": 42.37673591970849, "lng": -71.0498813302915}}}, "icon": "https://maps.gstatic.com/mapfiles/place_api/icons/generic_recreational-71.png", "id": "693b98cba608c212fd423e2addebf5d8184dd534", "name": "Thomas M. Menino Park", "photos": [{"height": 2304, "html_attributions": ["<a href=\"https://maps.google.com/maps/contrib/102020125676324565176/photos\">Michael E</a>"], "photo_reference": "CmRaAAAA2j5FhfxhGk5IS8aWLTyHAEPdmiLwIapj-8WFLY0Pnz8qixqkCl2j98lx_eE7YgXo5w7g2OAMk0bilzyBYzlO4ZTD5BgoyrdQMCDrjhV5C8Ukr-SgfaJ8XuDNL5q7heZ3EhBaJT4spgG4otg3VdFkbnkgGhQXmySPsFNc9N3Gt2xS7b3rmYWnbQ", "width": 3456}], "place_id": "ChIJm9QHQFhw44kR3PrtDfWMVjA", "plus_code": {"compound_code": "9XH2+5P Boston, Massachusetts, United States", "global_code": "87JC9XH2+5P"}, "rating": 4.7, "reference": "ChIJm9QHQFhw44kR3PrtDfWMVjA", "scope": "GOOGLE", "types": ["park", "point_of_interest", "establishment"], "user_ratings_total": 61, "vicinity": "98 16th Street, Boston"}, "ChIJVVWVD1hw44kRkdyFTeRApzY": {"geometry": {"location": {"lat": 42.37859760000001, "lng": -71.0491268}, "viewport": {"northeast": {"lat": 42.3798360802915, "lng": -71.04768626970848}, "southwest": {"lat": 42.3771381197085, "lng": -71.0503842302915}}}, "icon": "https://maps.gstatic.com/mapfiles/place_api/icons/generic_business-71.png", "id": "f53a4115618fb5eba34ca9e26a5c4dc7050de403", "name": "Boston-Harvard Burn Injury Model System", "place_id": "ChIJVVWVD1hw44kRkdyFTeRApzY", "reference": "ChIJVVWVD1hw44kRkdyFTeRApzY", "scope": "GOOGLE", "types": ["point_of_interest", "establishment"], "vicinity": "300 1st Avenue, Boston"}, "ChIJVVWVD1hw44kR--2Wqn_gbwE": {"geometry": {"location": {"lat": 42.37859760000001, "lng": -71.0491268}, "viewport": {"northeast": {"lat": 42.3798360802915, "lng": -71.04768626970848}, "southwest": {"lat": 42.3771381197085, "lng": -71.0503842302915}}}, "icon": "https://maps.gstatic.com/mapfiles/place_api/icons/generic_business-71.png", "id": "3177ac5c61e5791f9d978a690b1de981a8a904b9", "name": "one care members ma above age of 65", "place_id": "ChIJVVWVD1hw44kR--2Wqn_gbwE", "reference": "ChIJVVWVD1hw44kR--2Wqn_gbwE", "scope": "GOOGLE", "types": ["point_of_interest", "establishment"], "vicinity": "300 1st Avenue, Boston"}, "ChIJVVWVD1hw44kRMH_TtPl6AQw": {"geometry": {"location": {"lat": 42.37859760000001, "lng": -71.0491268}, "viewport": {"northeast": {"lat": 42.3798360802915, "lng": -71.04768626970848}, "southwest": {"lat": 42.3771381197085, "lng": -71.0503842302915}}}, "icon": "https://maps.gstatic.com/mapfiles/place_api/icons/generic_business-71.png", "id": "7395df6f679769bcea385f73b47a620da3918276", "name": "Spaulding Professionals Council", "place_id": "ChIJVVWVD1hw44kRMH_TtPl6AQw", "reference": "ChIJVVWVD1hw44kRMH_TtPl6AQw", "scope": "GOOGLE", "types": ["point_of_interest", "establishment"], "vicinity": "300 1st Avenue, Boston"}, "ChIJ__8P1Pdw44kRWuBP4AdB-Ac": {"geometry": {"location": {"lat": 42.3773173, "lng": -71.0501018}, "viewport": {"northeast": {"lat": 42.3787539802915, "lng": -71.04885441970849}, "southwest": {"lat": 42.3760560197085, "lng": -71.05155238029151}}}, "icon": "https://maps.gstatic.com/mapfiles/place_api/icons/generic_business-71.png", "id": "59349ed1ebcc220f2e29582f1ad69d7c2aae7e86", "name": "Harborview Health Club", "opening_hours": {"open_now": true}, "photos": [{"height": 2160, "html_attributions": ["<a href=\"https://maps.google.com/maps/contrib/104506235646082929728/photos\">Harborview Health Club</a>"], "photo_reference": "CmRaAAAA3_YstdrJtobv7IQ4mNYTZwT305rfCOG-oLIHwfAV1r9sxA6Uhv3bHOMwd3aDFJ9XtH8x9iRmUe5W8K38tUYJlWIB5IWl-jQCErOfphodiXCwGx6ReSmprO35j_2nepTNEhBQpHCgXdlCku0uHUwiDswKGhTU2kBUs4G19_7s7uPLZXmu6VSKXw", "width": 3840}], "place_id": "ChIJ__8P1Pdw44kRWuBP4AdB-Ac", "plus_code": {"compound_code": "9WGX+WX Boston, Massachusetts, United States", "global_code": "87JC9WGX+WX"}, "reference": "ChIJ__8P1Pdw44kRWuBP4AdB-Ac", "scope": "GOOGLE", "types": ["gym", "health", "point_of_interest", "establishment"], "vicinity": "250 1st Avenue, Charlestown"}, "ChIJnV_fXPZw44kRy9wHS8KkfwU": {"geometry": {"location": {"lat": 42.3772044, "lng": -71.05030450000001}, "viewport": {"northeast": {"lat": 42.3786366802915, "lng": -71.0490520197085}, "southwest": {"lat": 42.3759387197085, "lng": -71.0517499802915}}}, "icon": "https://maps.gstatic.com/mapfiles/place_api/icons/generic_business-71.png", "id": "549bf1336948f36c5829677c0bc7026ac73a9a2d", "name": "Navy Yard Four Associates", "place_id": "ChIJnV_fXPZw44kRy9wHS8KkfwU", "plus_code": {"compound_code": "9WGX+VV Boston, Massachusetts, United States", "global_code": "87JC9WGX+VV"}, "reference": "ChIJnV_fXPZw44kRy9wHS8KkfwU", "scope": "GOOGLE", "types": ["point_of_interest", "establishment"], "vicinity": "250 1st Avenue, Charlestown"}, "ChIJTQ-4aaNw44kRv8nqL4fC8lg": {"geometry": {"location": {"lat": 42.377574, "lng": -71.0501738}, "viewport": {"northeast": {"lat": 42.37889998029149, "lng": -71.04879816970849}, "southwest": {"lat": 42.37620201970849, "lng": -71.05149613029151}}}, "icon": "https://maps.gstatic.com/mapfiles/place_api/icons/generic_business-71.png", "id": "887081460fb3460578652e463f051d7b9905e307", "name": "Inline Mechanical Heating Contractor LLC", "opening_hours": {"open_now": true}, "photos": [{"height": 447, "html_attributions": ["<a href=\"https://maps.google.com/maps/contrib/103153291887184102103/photos\">Inline Mechanical Heating Contractor LLC</a>"], "photo_reference": "CmRaAAAA-9PPUH64cW5q8n-ZdGsy2lW5a9AhiSmp5DqE9HfIf5hEysT5wMyjOuVhemo7auTorEEH5t_aDl4qLz9BL8U4GnF_JXwpfNeZSV6kC9dxwlmoLzLcWjh2Pm019U23zAUNEhAZD8s2ItOw93Dhc92SfNlLGhQFyzWHZctG1bm0nvfS7lC73qWtvw", "width": 507}], "place_id": "ChIJTQ-4aaNw44kRv8nqL4fC8lg", "plus_code": {"compound_code": "9WHX+2W Boston, Massachusetts, United States", "global_code": "87JC9WHX+2W"}, "reference": "ChIJTQ-4aaNw44kRv8nqL4fC8lg", "scope": "GOOGLE", "types": ["general_contractor", "point_of_interest", "establishment"], "vicinity": "210 1st Avenue, Cambridge"}, "ChIJAQAAAJNw44kRiqzeVQXOes0": {"geometry": {"location": {"lat": 42.3785112, "lng": -71.0490794}, "viewport": {"northeast": {"lat": 42.3797891802915, "lng": -71.04767071970849}, "southwest": {"lat": 42.3770912197085, "lng": -71.0503686802915}}}, "icon": "https://maps.gstatic.com/mapfiles/place_api/icons/generic_business-71.png", "id": "fe1f8115af5a653d78dfb367f0ecab3840461cbd", "name": "Dr. Yong-Tae Lee, MD", "place_id": "ChIJAQAAAJNw44kRiqzeVQXOes0", "plus_code": {"compound_code": "9XH2+C9 Boston, Massachusetts, United States", "global_code": "87JC9XH2+C9"}, "reference": "ChIJAQAAAJNw44kRiqzeVQXOes0", "scope": "GOOGLE", "types": ["doctor", "health", "point_of_interest", "establishment"], "vicinity": "300 1st Avenue 2nd Floor, Charlestown"}, "ChIJ4Uhczfdw44kRh8w1b1fKsGk": {"geometry": {"location": {"lat": 42.3771974, "lng": -71.05054969999999}, "viewport": {"northeast": {"lat": 42.3785871802915, "lng": -71.0492476197085}, "southwest": {"lat": 42.3758892197085, "lng": -71.0519455802915}}}, "icon": "https://maps.gstatic.com/mapfiles/place_api/icons/generic_business-71.png", "id": "3e04c8f387757d6e5224c8ab363bef9c843b23dc", "name": "Harborwalk", "place_id": "ChIJ4Uhczfdw44kRh8w1b1fKsGk", "plus_code": {"compound_code": "9WGX+VQ Boston, Massachusetts, United States", "global_code": "87JC9WGX+VQ"}, "reference": "ChIJ4Uhczfdw44kRh8w1b1fKsGk", "scope": "GOOGLE", "types": ["point_of_interest", "establishment"], "vicinity": "1st Avenue, Boston"}, "ChIJ87b_Clhw44kREBri0xyNXH8": {"geometry": {"location": {"lat": 42.3785651, "lng": -71.0485109}, "viewport": {"northeast": {"lat": 42.3798122802915, "lng": -71.0473215197085}, "southwest": {"lat": 42.3771143197085, "lng": -71.05001948029151}}}, "icon": "https://maps.gstatic.com/mapfiles/place_api/icons/shopping-71.png", "id": "37f5d4fccafe23c55b8c3bfc2a14431e8ac8bd56", "name": "Hubway Station - Spaulding Rehabilitation Hospital - Charlestown Navy Yard", "photos": [{"height": 3120, "html_attributions": ["<a href=\"https://maps.google.com/maps/contrib/108203074479076493235/photos\">Thomas Gallegos</a>"], "photo_reference": "CmRaAAAAF5JSnS4JXGGYHAJbHq2Jt6SgYT6lFKS8VOz_B5bqXDmLoHnEt5rg4OawVhJFxd-Ys_F5ho82TKdtTmh-xSGPEuoFIKjRAOqN-tyNzw5eh2Eko_8GwvFxl2ctusuaeXqpEhDfuiZlGJ6pdxVj4Df5vy3sGhQfXD3bYWzoPrCUvO9y4AdzogSHng", "width": 4160}], "place_id": "ChIJ87b_Clhw44kREBri0xyNXH8", "plus_code": {"compound_code": "9XH2+CH Boston, Massachusetts, United States", "global_code": "87JC9XH2+CH"}, "reference": "ChIJ87b_Clhw44kREBri0xyNXH8", "scope": "GOOGLE", "types": ["electronics_store", "store", "point_of_interest", "establishment"], "vicinity": "32-, 62 16th Street, Boston"}, "ChIJ6e5jJfZw44kRKulvZNKFmNU": {"geometry": {"location": {"lat": 42.3765273, "lng": -71.0504014}, "viewport": {"northeast": {"lat": 42.37787668029149, "lng": -71.04905171970849}, "southwest": {"lat": 42.3751787197085, "lng": -71.05174968029151}}}, "icon": "https://maps.gstatic.com/mapfiles/place_api/icons/generic_business-71.png", "id": "205b6e1519cf0caddd28045cfa9f6f0fb5413877", "name": "Diacrin Inc", "place_id": "ChIJ6e5jJfZw44kRKulvZNKFmNU", "plus_code": {"compound_code": "9WGX+JR Boston, Massachusetts, United States", "global_code": "87JC9WGX+JR"}, "reference": "ChIJ6e5jJfZw44kRKulvZNKFmNU", "scope": "GOOGLE", "types": ["general_contractor", "point_of_interest", "establishment"], "vicinity": "266 13th Street, Charlestown"}, "ChIJAbfCD1hw44kR21_HFCzbSFQ": {"geometry": {"location": {"lat": 42.378586, "lng": -71.04908259999999}, "viewport": {"northeast": {"lat": 42.3798324802915, "lng": -71.04765926970848}, "southwest": {"lat": 42.3771345197085, "lng": -71.0503572302915}}}, "icon": "https://maps.gstatic.com/mapfiles/place_api/icons/doctor-71.png", "id": "c396a9d3e975bb75b46892c2b2eb44473ead09c4", "name": "Pediatric Physical Medicine & Rehabilitation | MassGeneral Hospital for Children", "place_id": "ChIJAbfCD1hw44kR21_HFCzbSFQ", "plus_code": {"compound_code": "9XH2+C9 Boston, Massachusetts, United States", "global_code": "87JC9XH2+C9"}, "reference": "ChIJAbfCD1hw44kR21_HFCzbSFQ", "scope": "GOOGLE", "types": ["hospital", "point_of_interest", "establishment"], "vicinity": "Spaulding Rehabilitation Hospital, 2nd Floor, 300 1st Avenue, Charlestown"}, "ChIJVVWVD1hw44kRhnLTJjQC4FA": {"geometry": {"location": {"lat": 42.378586, "lng": -71.049083}, "viewport": {"northeast": {"lat": 42.3798324802915, "lng": -71.04765946970849}, "southwest": {"lat": 42.3771345197085, "lng": -71.0503574302915}}}, "icon": "https://maps.gstatic.com/mapfiles/place_api/icons/generic_business-71.png", "id": "8615c00c937ec39e85aaf58197aff95059e8b40c", "name": "Tong Ren Station", "place_id": "ChIJVVWVD1hw44kRhnLTJjQC4FA", "plus_code": {"compound_code": "9XH2+C9 Boston, Massachusetts, United States", "global_code": "87JC9XH2+C9"}, "reference": "ChIJVVWVD1hw44kRhnLTJjQC4FA", "scope": "GOOGLE", "types": ["health", "point_of_interest", "establishment"], "vicinity": "300 1st Avenue, Charlestown"}, "ChIJVVWVD1hw44kR_u3nyViWVA4": {"geometry": {"location": {"lat": 42.37859760000001, "lng": -71.0491268}, "viewport": {"northeast": {"lat": 42.3798360802915, "lng": -71.04768626970848}, "southwest": {"lat": 42.3771381197085, "lng": -71.0503842302915}}}, "icon": "https://maps.gstatic.com/mapfiles/place_api/icons/generic_business-71.png", "id": "fab129d9e45d4378e9eabbe7454125d9eb1441ea", "name": "Warrior Care Network", "opening_hours": {"open_now": true}, "place_id": "ChIJVVWVD1hw44kR_u3nyViWVA4", "plus_code": {"compound_code": "9XH2+C8 Boston, Massachusetts, United States", "global_code": "87JC9XH2+C8"}, "reference": "ChIJVVWVD1hw44kR_u3nyViWVA4", "scope": "GOOGLE", "types": ["health", "point_of_interest", "establishment"], "vicinity": "300 1st Avenue, Charlestown"}, "ChIJU1WVD1hw44kRNPKkyCOIuVQ": {"geometry": {"location": {"lat": 42.3785977, "lng": -71.0491268}, "viewport": {"northeast": {"lat": 42.37983613029149, "lng": -71.04768621970848}, "southwest": {"lat": 42.3771381697085, "lng": -71.0503841802915}}}, "icon": "https://maps.gstatic.com/mapfiles/place_api/icons/generic_business-71.png", "id": "c499be846c81350a898bce65687c15480ed84390", "name": "Boston-Harvard Burn Injury Model System", "place_id": "ChIJU1WVD1hw44kRNPKkyCOIuVQ", "plus_code": {"compound_code": "9XH2+C8 Boston, Massachusetts, United States", "global_code": "87JC9XH2+C8"}, "reference": "ChIJU1WVD1hw44kRNPKkyCOIuVQ", "scope": "GOOGLE", "types": ["point_of_interest", "establishment"], "vicinity": "300 1st Avenue #3122, Charlestown"}, "ChIJEy1XJPZw44kRS1JI_DtT16E": {"geometry": {"location": {"lat": 42.3763102, "lng": -71.0502875}, "viewport": {"northeast": {"lat": 42.3776704802915, "lng": -71.04896226970848}, "southwest": {"lat": 42.3749725197085, "lng": -71.05166023029149}}}, "icon": "https://maps.gstatic.com/mapfiles/place_api/icons/generic_recreational-71.png", "id": "f56a27d1dd43f92957d9021bb1401d47bf042bae", "name": "13th Street Circle Garden", "place_id": "ChIJEy1XJPZw44kRS1JI_DtT16E", "reference": "ChIJEy1XJPZw44kRS1JI_DtT16E", "scope": "GOOGLE", "types": ["park", "premise", "point_of_interest", "establishment"], "vicinity": "Boston"}}