{"ChIJGzE9DS1l44kRoOhiASS_fHg": {"geometry": {"location": {"lat": 42.3600825, "lng": -71.0588801}, "viewport": {"northeast": {"lat": 42.40081989999999, "lng": -70.749455}, "southwest": {"lat": 42.22788, "lng": -71.191113}}}, "icon": "https://maps.gstatic.com/mapfiles/place_api/icons/geocode-71.png", "id": "06755c25d2b34d13942a4713971756a55b870ced", "name": "Boston", "photos": [{"height": 3024, "html_attributions": ["<a href=\"https://maps.google.com/maps/contrib/104670289779338733432/photos\">Natalia Zalucean</a>"], "photo_reference": "CmRaAAAATujiXzJo2VaEAORG4B1Cd5p-F11pcOQMQkei1Mp3GrlR1TDnREvdlYAinOgLMRlPNyW6bxGRx448xZkwBL0IWFPiMqnV7KjH55xYemDeiVoLhGfRKG9L_cKYWrNH6bBMEhCSevtLJXuBfaFldWe0lhYqGhSEHfqXQ8rporriUOnwVBmiNVo82Q", "width": 4032}], "place_id": "ChIJGzE9DS1l44kRoOhiASS_fHg", "reference": "ChIJGzE9DS1l44kRoOhiASS_fHg", "scope": "GOOGLE", "types": ["locality", "political"], "vicinity": "Boston"}, "ChIJnbuJFMh744kRbKGpmEYP2s4": {"geometry": {"location": {"lat": 42.3091746, "lng": -71.0755999}, "viewport": {"northeast": {"lat": 42.31022558029149, "lng": -71.07387011970849}, "southwest": {"lat": 42.3075276197085, "lng": -71.0765680802915}}}, "icon": "https://maps.gstatic.com/mapfiles/place_api/icons/school-71.png", "id": "cb73dfe0ca2f88e6614f5ea942a981b41251787b", "name": "City of Boston School", "place_id": "ChIJnbuJFMh744kRbKGpmEYP2s4", "plus_code": {"compound_code": "8W5F+MQ Boston, Massachusetts, United States", "global_code": "87JC8W5F+MQ"}, "reference": "ChIJnbuJFMh744kRbKGpmEYP2s4", "scope": "GOOGLE", "types": ["school", "point_of_interest", "establishment"], "vicinity": "270 Columbia Road, Dorchester"}, "ChIJ754o0cl744kRxNI8vOe_a6g": {"geometry": {"location": {"lat": 42.31025959999999, "lng": -71.07394959999999}, "viewport": {"northeast": {"lat": 42.31149068029149, "lng": -71.0722061197085}, "southwest": {"lat": 42.30879271970849, "lng": -71.0749040802915}}}, "icon": "https://maps.gstatic.com/mapfiles/place_api/icons/generic_recreational-71.png", "id": "37be89e5a8ac51527ad31f2691afdbf17b4aaac9", "name": "Ceylon Park", "photos": [{"height": 1920, "html_attributions": ["<a href=\"https://maps.google.com/maps/contrib/104301689218803000060/photos\">CSL Pitts</a>"], "photo_reference": "CmRaAAAAtb6CfguNcHtDB4ze6hrwDqDFKw-AA2XRoOG8UQiy1BMGyTEIx0_ofwiT1EdDVHBCyPBH1sSBUi-sZQtbB6omRTgamNc0X4ESJ9ksQoAqziOB3CXQOXpeFAgx1aIibuXuEhA_7UHLYUFByB1P9fda6XSWGhSa8ooTp9ALFHjLfAuL5cA3grD7pA", "width": 2560}], "place_id": "ChIJ754o0cl744kRxNI8vOe_a6g", "plus_code": {"compound_code": "8W6G+4C Boston, Massachusetts, United States", "global_code": "87JC8W6G+4C"}, "rating": 3.7, "reference": "ChIJ754o0cl744kRxNI8vOe_a6g", "scope": "GOOGLE", "types": ["park", "point_of_interest", "establishment"], "user_ratings_total": 65, "vicinity": "105 Ceylon Street, Boston"}, "ChIJoZtaIsh744kRvAAKp_vR1Ag": {"geometry": {"location": {"lat": 42.3087636, "lng": -71.074021}, "viewport": {"northeast": {"lat": 42.3101665302915, "lng": -71.07273691970849}, "southwest": {"lat": 42.3074685697085, "lng": -71.0754348802915}}}, "icon": "https://maps.gstatic.com/mapfiles/place_api/icons/generic_business-71.png", "id": "b1c0e1a0cf0b8c40524bc5fdea6d60c0967f6516", "name": "United Prosthetics, INC.", "opening_hours": {"open_now": true}, "photos": [{"height": 720, "html_attributions": ["<a href=\"https://maps.google.com/maps/contrib/102606273607013556611/photos\">United Prosthetics, INC.</a>"], "photo_reference": "CmRaAAAAaj8KK7Y63idOSWIhq6btpmbulzzNR9VftfDRrpip_nQDOYIn0RK79-UXoZPXQxwY-TdXFtCT-f6BnvAD7Z_eIHHKeVublSPKOYJr8SGZOuGwhZxGcdjcjQj2u55PaQl_EhCRCpB9n6IPS_vNZgHQLoXdGhQbNMJ0aJlcAZaXobzISXZAwdKdLQ", "width": 960}], "place_id": "ChIJoZtaIsh744kRvAAKp_vR1Ag", "plus_code": {"compound_code": "8W5G+G9 Boston, Massachusetts, United States", "global_code": "87JC8W5G+G9"}, "rating": 4.3, "reference": "ChIJoZtaIsh744kRvAAKp_vR1Ag", "scope": "GOOGLE", "types": ["health", "point_of_interest", "establishment"], "user_ratings_total": 3, "vicinity": "295 Columbia Road, Dorchester"}, "ChIJVcCNJ8h744kRhrGT-516iOA": {"geometry": {"location": {"lat": 42.30911759999999, "lng": -71.07352730000001}, "viewport": {"northeast": {"lat": 42.31051128029149, "lng": -71.0722320197085}, "southwest": {"lat": 42.30781331970849, "lng": -71.07492998029151}}}, "icon": "https://maps.gstatic.com/mapfiles/place_api/icons/worship_general-71.png", "id": "e45fac586b2a22bba34f0910741bb7bbac3997ff", "name": "Victory Chapel Church", "place_id": "ChIJVcCNJ8h744kRhrGT-516iOA", "plus_code": {"compound_code": "8W5G+JH Boston, Massachusetts, United States", "global_code": "87JC8W5G+JH"}, "reference": "ChIJVcCNJ8h744kRhrGT-516iOA", "scope": "GOOGLE", "types": ["church", "place_of_worship", "point_of_interest", "establishment"], "vicinity": "301 Columbia Road, Dorchester"}, "ChIJc9MqKch744kRNLndCxuj50w": {"geometry": {"location": {"lat": 42.309404, "lng": -71.0739184}, "viewport": {"northeast": {"lat": 42.3106899802915, "lng": -71.0724985197085}, "southwest": {"lat": 42.3079920197085, "lng": -71.07519648029151}}}, "icon": "https://maps.gstatic.com/mapfiles/place_api/icons/generic_business-71.png", "id": "9f9f6dae5975e5acb7ab4a2870908ed463fcad70", "name": "Ceylon Field Apartments", "place_id": "ChIJc9MqKch744kRNLndCxuj50w", "plus_code": {"compound_code": "8W5G+QC Boston, Massachusetts, United States", "global_code": "87JC8W5G+QC"}, "reference": "ChIJc9MqKch744kRNLndCxuj50w", "scope": "GOOGLE", "types": ["point_of_interest", "establishment"], "vicinity": "288 Columbia Road, Dorchester"}, "ChIJycy5a8h744kR3woNR87chI8": {"geometry": {"location": {"lat": 42.3091746, "lng": -71.0755999}, "viewport": {"northeast": {"lat": 42.31022558029149, "lng": -71.07387011970849}, "southwest": {"lat": 42.3075276197085, "lng": -71.0765680802915}}}, "icon": "https://maps.gstatic.com/mapfiles/place_api/icons/school-71.png", "id": "1340b1869bb8d3ee2d82b92ccbb8db5bb4cb1dc2", "name": "Lilla G. Frederick Pilot Middle School", "place_id": "ChIJycy5a8h744kR3woNR87chI8", "plus_code": {"compound_code": "8W5F+MQ Boston, Massachusetts, United States", "global_code": "87JC8W5F+MQ"}, "rating": 4.2, "reference": "ChIJycy5a8h744kR3woNR87chI8", "scope": "GOOGLE", "types": ["point_of_interest", "school", "establishment"], "user_ratings_total": 19, "vicinity": "270 Columbia Road, Boston"}, "ChIJWwELArZ744kRZVTEMJ03fpY": {"geometry": {"location": {"lat": 42.3113159, "lng": -71.0735349}, "viewport": {"northeast": {"lat": 42.31272623029149, "lng": -71.07232596970849}, "southwest": {"lat": 42.31002826970849, "lng": -71.07502393029151}}}, "icon": "https://maps.gstatic.com/mapfiles/place_api/icons/school-71.png", "id": "f7090bb69057d36f2355b81724d2aa0c2c5ec350", "name": "Roxbury Prep Dorchester Campus", "place_id": "ChIJWwELArZ744kRZVTEMJ03fpY", "plus_code": {"compound_code": "8W6G+GH Boston, Massachusetts, United States", "global_code": "87JC8W6G+GH"}, "rating": 3, "reference": "ChIJWwELArZ744kRZVTEMJ03fpY", "scope": "GOOGLE", "types": ["school", "point_of_interest", "establishment"], "user_ratings_total": 15, "vicinity": "206 Magnolia Street, Boston"}, "ChIJYWYBJsh744kR1nsAblHLvrY": {"geometry": {"location": {"lat": 42.309061, "lng": -71.07373299999999}, "viewport": {"northeast": {"lat": 42.31043233029149, "lng": -71.07241036970848}, "southwest": {"lat": 42.3077343697085, "lng": -71.0751083302915}}}, "icon": "https://maps.gstatic.com/mapfiles/place_api/icons/bus-71.png", "id": "eaef2e7c4470308d647937cefd5e14d8a1b10f3b", "name": "Columbia Rd @ Intervale St", "place_id": "ChIJYWYBJsh744kR1nsAblHLvrY", "plus_code": {"compound_code": "8W5G+JG Boston, Massachusetts, United States", "global_code": "87JC8W5G+JG"}, "reference": "ChIJYWYBJsh744kR1nsAblHLvrY", "scope": "GOOGLE", "types": ["bus_station", "transit_station", "point_of_interest", "establishment"], "vicinity": "United States"}, "ChIJA71CLLZ744kRW48HZAPIS7o": {"geometry": {"location": {"lat": 42.30988869999999, "lng": -71.0730799}, "viewport": {"northeast": {"lat": 42.3112571802915, "lng": -71.0717972197085}, "southwest": {"lat": 42.3085592197085, "lng": -71.0744951802915}}}, "icon": "https://maps.gstatic.com/mapfiles/place_api/icons/generic_business-71.png", "id": "c150cefd0c3553a1981a02dfc71dc5b0bc4cec5f", "name": "Maria Beauty Salon", "place_id": "ChIJA71CLLZ744kRW48HZAPIS7o", "plus_code": {"compound_code": "8W5G+XQ Boston, Massachusetts, United States", "global_code": "87JC8W5G+XQ"}, "reference": "ChIJA71CLLZ744kRW48HZAPIS7o", "scope": "GOOGLE", "types": ["beauty_salon", "point_of_interest", "establishment"], "vicinity": "Ceylon Street, Boston"}, "ChIJdz1CLLZ744kR9_Cw8ntp5eM": {"geometry": {"location": {"lat": 42.3098998, "lng": -71.0730773}, "viewport": {"northeast": {"lat": 42.3112678302915, "lng": -71.07179316970849}, "southwest": {"lat": 42.3085698697085, "lng": -71.0744911302915}}}, "icon": "https://maps.gstatic.com/mapfiles/place_api/icons/generic_business-71.png", "id": "20ba6d87f402a22ce9270a32b8f384a4d9946e8a", "name": "Brothers Barber Shop", "opening_hours": {"open_now": true}, "photos": [{"height": 494, "html_attributions": ["<a href=\"https://maps.google.com/maps/contrib/113021927517763654977/photos\">el yerno</a>"], "photo_reference": "CmRaAAAAYb00MR-GIJWfNM2QSG7oolAxGfZ74DQ4R8eG0DBBMkxsrOLqEPqtwOLWb8TBiW6NEUX6_ByHyq6O-lKmP57-YpyUUH_CD1rBHL9P5g3Q71P3Xb6XpqOPigWL2r3YxqWKEhAOjCFeHN8GO56lpmdpQppPGhTRD0OTGsy_OL5_4Crd91ySvzE4mA", "width": 750}], "place_id": "ChIJdz1CLLZ744kR9_Cw8ntp5eM", "plus_code": {"compound_code": "8W5G+XQ Boston, Massachusetts, United States", "global_code": "87JC8W5G+XQ"}, "rating": 4.8, "reference": "ChIJdz1CLLZ744kR9_Cw8ntp5eM", "scope": "GOOGLE", "types": ["hair_care", "health", "point_of_interest", "establishment"], "user_ratings_total": 17, "vicinity": "Boston"}, "ChIJ05oL2Ld744kRxPf3od6X96k": {"geometry": {"location": {"lat": 42.30911759999999, "lng": -71.07352730000001}, "viewport": {"northeast": {"lat": 42.31051128029149, "lng": -71.0722320197085}, "southwest": {"lat": 42.30781331970849, "lng": -71.07492998029151}}}, "icon": "https://maps.gstatic.com/mapfiles/place_api/icons/worship_general-71.png", "id": "7fa87c48d2c8b424f9ef25d1a42e2d0fcb02ec5c", "name": "Iglesia De Dios Pentecostal M.I.", "opening_hours": {"open_now": false}, "photos": [{"height": 2340, "html_attributions": ["<a href=\"https://maps.google.com/maps/contrib/113239921803411447390/photos\">Israel Espinal Lara</a>"], "photo_reference": "CmRaAAAA-gCCitwSS5JixPSjfQfw-7Y0QpRlxZIF9oO6s8ZrdFV6gBY0ljQCtDI22ZYvLoFl5Af9tlfn92XW35FRtzkeSyKBVmYDgc6s6C5GtJVmdSeCQqFZtt5OWs3mO2STpfLdEhCb34Fc_30B2OJeiXrSgMJIGhRrjhJXpoa5pMBW8yXVMotQxJo3bA", "width": 4160}], "place_id": "ChIJ05oL2Ld744kRxPf3od6X96k", "plus_code": {"compound_code": "8W5G+JH Boston, Massachusetts, United States", "global_code": "87JC8W5G+JH"}, "rating": 5, "reference": "ChIJ05oL2Ld744kRxPf3od6X96k", "scope": "GOOGLE", "types": ["church", "place_of_worship", "point_of_interest", "establishment"], "user_ratings_total": 6, "vicinity": "301 Columbia Road, Dorchester"}, "ChIJVcCNJ8h744kRxMdY07Nii24": {"geometry": {"location": {"lat": 42.30911759999999, "lng": -71.07352730000001}, "viewport": {"northeast": {"lat": 42.31051128029149, "lng": -71.0722320197085}, "southwest": {"lat": 42.30781331970849, "lng": -71.07492998029151}}}, "icon": "https://maps.gstatic.com/mapfiles/place_api/icons/generic_business-71.png", "id": "cb5e3c8518036eb7c572f0dd8b06f0aa77d86aef", "name": "Born Again House of Prayer", "place_id": "ChIJVcCNJ8h744kRxMdY07Nii24", "plus_code": {"compound_code": "8W5G+JH Boston, Massachusetts, United States", "global_code": "87JC8W5G+JH"}, "reference": "ChIJVcCNJ8h744kRxMdY07Nii24", "scope": "GOOGLE", "types": ["point_of_interest", "establishment"], "vicinity": "301 Columbia Road, Dorchester"}, "ChIJad3OL7Z744kRe61Do4WkvJQ": {"geometry": {"location": {"lat": 42.3101345, "lng": -71.0728688}, "viewport": {"northeast": {"lat": 42.3114108802915, "lng": -71.0714339197085}, "southwest": {"lat": 42.3087129197085, "lng": -71.0741318802915}}}, "icon": "https://maps.gstatic.com/mapfiles/place_api/icons/generic_business-71.png", "id": "4bfba7b62d161d295fb32587eecb13d6b50716bf", "name": "Krueger Auto Repair", "opening_hours": {"open_now": true}, "photos": [{"height": 2988, "html_attributions": ["<a href=\"https://maps.google.com/maps/contrib/101934939673695455012/photos\">Krueger Auto Repair</a>"], "photo_reference": "CmRaAAAA3OTbpIPnj3cmNiZaI6CJFTTV4nMNTwD_5MRYOacO44HwFHKVrE7C4VlJqVn0e-4Pim7mS4pZN3mMKXSfF1Cb5r-i55pgv54lc8S-FNjT9fFkPkbMSgb2qAWMDNX79mYvEhB6F3Rm-Go-cfB_CmrrFFkVGhToneyRsGkNNTmvDadeZke7tqOHUw", "width": 5312}], "place_id": "ChIJad3OL7Z744kRe61Do4WkvJQ", "plus_code": {"compound_code": "8W6G+3V Boston, Massachusetts, United States", "global_code": "87JC8W6G+3V"}, "rating": 4.1, "reference": "ChIJad3OL7Z744kRe61Do4WkvJQ", "scope": "GOOGLE", "types": ["car_repair", "point_of_interest", "establishment"], "user_ratings_total": 11, "vicinity": "310 Columbia Road, Dorchester"}, "ChIJm8LSexd744kRytUFeCommHI": {"geometry": {"location": {"lat": 42.3101345, "lng": -71.0728688}, "viewport": {"northeast": {"lat": 42.3114108802915, "lng": -71.0714339197085}, "southwest": {"lat": 42.3087129197085, "lng": -71.0741318802915}}}, "icon": "https://maps.gstatic.com/mapfiles/place_api/icons/generic_business-71.png", "id": "fbef3c0193218d24b8225925fcd1ce6f7c4de860", "name": "Anyel auto service", "opening_hours": {"open_now": true}, "photos": [{"height": 1024, "html_attributions": ["<a href=\"https://maps.google.com/maps/contrib/106751459700393941998/photos\">Sureidy Fernandes</a>"], "photo_reference": "CmRaAAAA1vkptrsFv12FvgQXMxoPG5TDYBbVGuegNl8fxfkQwdPepd9Zt7s8ejXKwWs0K5NbZDkcu9Gq4DHztIcKbZoP9BLYJbnFlPKIIaJvGhVh4zsfUKADT7JT21mcFzaYZ821EhDkT249nU0Wlfmh8PxipdgzGhRh5WE11Y8a0v5VwAgZ0yvM1sNT_g", "width": 768}], "place_id": "ChIJm8LSexd744kRytUFeCommHI", "plus_code": {"compound_code": "8W6G+3V Boston, Massachusetts, United States", "global_code": "87JC8W6G+3V"}, "reference": "ChIJm8LSexd744kRytUFeCommHI", "scope": "GOOGLE", "types": ["car_repair", "point_of_interest", "establishment"], "vicinity": "310 Columbia Road, Dorchester"}, "ChIJdUZz0rd744kRD2Xw_ADR428": {"geometry": {"location": {"lat": 42.309516, "lng": -71.0727893}, "viewport": {"northeast": {"lat": 42.3108174802915, "lng": -71.07146466970849}, "southwest": {"lat": 42.3081195197085, "lng": -71.0741626302915}}}, "icon": "https://maps.gstatic.com/mapfiles/place_api/icons/atm-71.png", "id": "2ee5c3f7c9672a82b1e857d0e05d0a329f9adc72", "name": "Instant Money Service", "place_id": "ChIJdUZz0rd744kRD2Xw_ADR428", "plus_code": {"compound_code": "8W5G+RV Boston, Massachusetts, United States", "global_code": "87JC8W5G+RV"}, "reference": "ChIJdUZz0rd744kRD2Xw_ADR428", "scope": "GOOGLE", "types": ["atm", "finance", "point_of_interest", "establishment"], "vicinity": "Columbia Terrace, Dorchester"}, "ChIJdUZz0rd744kRMbOb0_zVolM": {"geometry": {"location": {"lat": 42.309516, "lng": -71.0727893}, "viewport": {"northeast": {"lat": 42.3108174802915, "lng": -71.07146466970849}, "southwest": {"lat": 42.3081195197085, "lng": -71.0741626302915}}}, "icon": "https://maps.gstatic.com/mapfiles/place_api/icons/atm-71.png", "id": "235ef9e6535af67fab4b21a778e6927dd73c6f93", "name": "Atlantic ATM", "place_id": "ChIJdUZz0rd744kRMbOb0_zVolM", "plus_code": {"compound_code": "8W5G+RV Boston, Massachusetts, United States", "global_code": "87JC8W5G+RV"}, "reference": "ChIJdUZz0rd744kRMbOb0_zVolM", "scope": "GOOGLE", "types": ["atm", "finance", "point_of_interest", "establishment"], "vicinity": "Columbia Terrace, Dorchester"}, "ChIJJx-hFsh744kR3HY7juc-CXA": {"geometry": {"location": {"lat": 42.3086072, "lng": -71.0742162}, "viewport": {"northeast": {"lat": 42.31001803029149, "lng": -71.0729415197085}, "southwest": {"lat": 42.3073200697085, "lng": -71.0756394802915}}}, "icon": "https://maps.gstatic.com/mapfiles/place_api/icons/shopping-71.png", "id": "701b9875282c8bddbf21fdc72405d1ac766d30c6", "name": "Family Dollar", "opening_hours": {"open_now": true}, "photos": [{"height": 900, "html_attributions": ["<a href=\"https://maps.google.com/maps/contrib/111454575524140318975/photos\">Family Dollar</a>"], "photo_reference": "CmRaAAAAkuWwjxzvfUr2tiFhtcoAtKHAjX5P7fNqqO_V6NDBCZgH696fhov-mlyIYnnMAQwhw6LZr9sM0-o3lVg-hnFdNnJNakPcWhXde3QhSSvj6IT_hDrAZ7bZUoc_MkoDUIaJEhAsloqlkGO4s0G05ahRptSwGhRnUB3TGU4GRnzXwunUsfCSTusJBQ", "width": 1353}], "place_id": "ChIJJx-hFsh744kR3HY7juc-CXA", "plus_code": {"compound_code": "8W5G+C8 Boston, Massachusetts, United States", "global_code": "87JC8W5G+C8"}, "price_level": 1, "rating": 3.9, "reference": "ChIJJx-hFsh744kR3HY7juc-CXA", "scope": "GOOGLE", "types": ["supermarket", "grocery_or_supermarket", "clothing_store", "store", "point_of_interest", "food", "establishment"], "user_ratings_total": 45, "vicinity": "273 Columbia Road, Dorchester"}, "ChIJrc_FbMh744kRAYHJXRpbmmA": {"geometry": {"location": {"lat": 42.308461, "lng": -71.075087}, "viewport": {"northeast": {"lat": 42.3098019302915, "lng": -71.07372671970849}, "southwest": {"lat": 42.3071039697085, "lng": -71.0764246802915}}}, "icon": "https://maps.gstatic.com/mapfiles/place_api/icons/bus-71.png", "id": "131d332643e6041e1a63a6497458f9fe0b365969", "name": "Columbia Rd opp Wyola Pl", "photos": [{"height": 3024, "html_attributions": ["<a href=\"https://maps.google.com/maps/contrib/111555170240291436349/photos\">Anthony Craig Evans</a>"], "photo_reference": "CmRaAAAAP2ABmxTi261e5Ds7r4IYsZOIIvgyqR7vccJQ7XJEPLnPLiGtBWTMPRTQrzpAbmnpagJYm3oNQWIcui1P1TiIbJ7gj4AkiyuIkGqEC8NZ6TYacagXBwi7dKmcpdSV4WdDEhCorgbma1Ch7TBT7AvPBcRuGhTmjES0LoakALo_zYrsMQ8OmFglAw", "width": 3024}], "place_id": "ChIJrc_FbMh744kRAYHJXRpbmmA", "plus_code": {"compound_code": "8W5F+9X Boston, Massachusetts, United States", "global_code": "87JC8W5F+9X"}, "rating": 5, "reference": "ChIJrc_FbMh744kRAYHJXRpbmmA", "scope": "GOOGLE", "types": ["bus_station", "transit_station", "point_of_interest", "establishment"], "user_ratings_total": 1, "vicinity": "United States"}, "ChIJs4veGkl644kROEK8ix2v_oY": {"geometry": {"location": {"lat": 42.30163049999999, "lng": -71.067605}, "viewport": {"northeast": {"lat": 42.3358969, "lng": -71.0325551}, "southwest": {"lat": 42.267598, "lng": -71.0800369}}}, "icon": "https://maps.gstatic.com/mapfiles/place_api/icons/geocode-71.png", "id": "9e12301fdeebf54c1266b9986602466425a9c326", "name": "Dorchester", "photos": [{"height": 1944, "html_attributions": ["<a href=\"https://maps.google.com/maps/contrib/118366960396286562471/photos\">Michael Laferriere</a>"], "photo_reference": "CmRaAAAA8cOWNv0UEWluIopPehomRMZ3FryXvY2EBk3Q-tx5uz64KLN-Qeozblf51RpaHhqpAUkqTRbBvuGuJd3vXMwMuLxt8-Ws0rzdrcZZiq5LRXtXSs1nFV0msmLxM0qOF0xaEhA2fY8hGJSzh2vLVUSfSZTkGhSYmYgqqpLFa-_n9BGB_Gk5ej_wLQ", "width": 2592}], "place_id": "ChIJs4veGkl644kROEK8ix2v_oY", "reference": "ChIJs4veGkl644kROEK8ix2v_oY", "scope": "GOOGLE", "types": ["neighborhood", "political"], "vicinity": "Dorchester Center"}, "ChIJZ8pq6Mh744kRuYAO_7onN8w": {"geometry": {"location": {"lat": 42.3097646, "lng": -71.07781870000001}, "viewport": {"northeast": {"lat": 42.31120843029149, "lng": -71.0765407}, "southwest": {"lat": 42.30851046970849, "lng": -71.0792809}}}, "icon": "https://maps.gstatic.com/mapfiles/place_api/icons/generic_recreational-71.png", "id": "0050d51fbf63d3068670a02a0b50d164c495e244", "name": "Brunswick-King Play Area", "place_id": "ChIJZ8pq6Mh744kRuYAO_7onN8w", "reference": "ChIJZ8pq6Mh744kRuYAO_7onN8w", "scope": "GOOGLE", "types": ["park", "premise", "point_of_interest", "establishment"], "vicinity": "Boston"}}