{"ChIJGzE9DS1l44kRoOhiASS_fHg": {"geometry": {"location": {"lat": 42.3600825, "lng": -71.0588801}, "viewport": {"northeast": {"lat": 42.40081989999999, "lng": -70.749455}, "southwest": {"lat": 42.22788, "lng": -71.191113}}}, "icon": "https://maps.gstatic.com/mapfiles/place_api/icons/geocode-71.png", "id": "06755c25d2b34d13942a4713971756a55b870ced", "name": "Boston", "photos": [{"height": 3024, "html_attributions": ["<a href=\"https://maps.google.com/maps/contrib/104670289779338733432/photos\">Natalia Zalucean</a>"], "photo_reference": "CmRaAAAAkl0Xs66O59I574bR58yLAkKTUIYv09lD9MCQsKjvMvFA0YBuLOoEsE_o67uV4O4bVstQO3YJKyusbdN_klSay4VgP70z41nI0BaBHbFTJHybkNzgqgEgWhkKCY3P5EisEhArrvehwC73zzdglGfxVJWaGhScyRUDv5m7NtnkRLnvNNr377UzkQ", "width": 4032}], "place_id": "ChIJGzE9DS1l44kRoOhiASS_fHg", "reference": "ChIJGzE9DS1l44kRoOhiASS_fHg", "scope": "GOOGLE", "types": ["locality", "political"], "vicinity": "Boston"}, "ChIJV11_EU5444kRav_6dp9QGt4": {"geometry": {"location": {"lat": 42.340672, "lng": -71.1517676}, "viewport": {"northeast": {"lat": 42.3419635302915, "lng": -71.1504359197085}, "southwest": {"lat": 42.33926556970851, "lng": -71.1531338802915}}}, "icon": "https://maps.gstatic.com/mapfiles/place_api/icons/restaurant-71.png", "id": "50779af82c1b5a8aa21520ff7b92071ae7c8f51a", "name": "Yamato", "opening_hours": {"open_now": true}, "photos": [{"height": 1080, "html_attributions": ["<a href=\"https://maps.google.com/maps/contrib/117319939001726765737/photos\">Behnam Sadeghi</a>"], "photo_reference": "CmRaAAAAWluxrNV1Pg_NQA-jwSiIGS-fWwpDQJAtUmWxi7eryPoib_jTpEOWaA9QCY1YWciTltseI6lmkQ2_Od18ApyoRY1mAQqt6RrE0o5NqZ8-F2rGzgITM8PYDkQscL-9jS3fEhASOtF3kIvP8HsY6CDWGr-AGhRkLoogZ55LEgRussdtHIDBZ_ylzA", "width": 1920}], "place_id": "ChIJV11_EU5444kRav_6dp9QGt4", "plus_code": {"compound_code": "8RRX+77 Boston, Massachusetts, United States", "global_code": "87JC8RRX+77"}, "price_level": 2, "rating": 4.1, "reference": "ChIJV11_EU5444kRav_6dp9QGt4", "scope": "GOOGLE", "types": ["restaurant", "point_of_interest", "food", "establishment"], "user_ratings_total": 406, "vicinity": "117 Chiswick Road, Brighton"}, "ChIJ1flWAU5444kRwQy1o5rTMH8": {"geometry": {"location": {"lat": 42.3398622, "lng": -71.1510128}, "viewport": {"northeast": {"lat": 42.3413246802915, "lng": -71.1498409197085}, "southwest": {"lat": 42.3386267197085, "lng": -71.1525388802915}}}, "icon": "https://maps.gstatic.com/mapfiles/place_api/icons/generic_business-71.png", "id": "4f5d8967ac46c7a30337cad41fe7f62db6e2f71b", "name": "Fineberg Management Inc", "photos": [{"height": 4032, "html_attributions": ["<a href=\"https://maps.google.com/maps/contrib/101359284466937411158/photos\">Stephen Johansen</a>"], "photo_reference": "CmRaAAAAFjmru9ZvVha_XQsu8vY8lKAJX9Hu0HsEh3vGwLFkyoZrn5CNzbzDW6-Gd5GEK3XIXF0q6jdtP4aw6kkN85ZGjKK6NrNCfQvb5mDUJ7b8qBFitJecTdgdqten6UQWRLK-EhCbeQ7rTviuNv6TgkscO3HIGhR7Y08j1nweVtdP-0afycmuPr_A4Q", "width": 3024}], "place_id": "ChIJ1flWAU5444kRwQy1o5rTMH8", "plus_code": {"compound_code": "8RQX+WH Boston, Massachusetts, United States", "global_code": "87JC8RQX+WH"}, "rating": 1, "reference": "ChIJ1flWAU5444kRwQy1o5rTMH8", "scope": "GOOGLE", "types": ["point_of_interest", "establishment"], "user_ratings_total": 4, "vicinity": "1800 Commonwealth Avenue, Brighton"}, "ChIJgaxzI1J444kRLU5cuHvgXsU": {"geometry": {"location": {"lat": 42.33809839999999, "lng": -71.1500131}, "viewport": {"northeast": {"lat": 42.3393911302915, "lng": -71.1484867197085}, "southwest": {"lat": 42.3366931697085, "lng": -71.15118468029151}}}, "icon": "https://maps.gstatic.com/mapfiles/place_api/icons/generic_business-71.png", "id": "30aa4068791eef54db563cc2a3defae09c5c001a", "name": "Chestnut Park at Cleveland Circle", "opening_hours": {"open_now": true}, "photos": [{"height": 594, "html_attributions": ["<a href=\"https://maps.google.com/maps/contrib/109183539857826029940/photos\">Chestnut Park at Cleveland Circle</a>"], "photo_reference": "CmRaAAAAlo9cJ3jHDFL9EreKrU2gazzU08Fz1jve4lzAlq4Jx5tClkYjHsjbBiXJQPFOAL4VLiVH5FbCPpAIaumU2bFEFNFEkJn6XbqGfKhf6dWkY33FreqTmEQZaZIQmsT7XsohEhCaSVAg94iyjCyK1AmDyawiGhShqz0BrXYFE-E8eJsBpZb4xzgcWQ", "width": 1000}], "place_id": "ChIJgaxzI1J444kRLU5cuHvgXsU", "plus_code": {"compound_code": "8RQX+6X Boston, Massachusetts, United States", "global_code": "87JC8RQX+6X"}, "rating": 4.8, "reference": "ChIJgaxzI1J444kRLU5cuHvgXsU", "scope": "GOOGLE", "types": ["health", "point_of_interest", "establishment"], "user_ratings_total": 8, "vicinity": "50 Sutherland Road, Brighton"}, "ChIJVSKb3VF444kRtWHlZ_x_TO4": {"geometry": {"location": {"lat": 42.33986600000001, "lng": -71.152597}, "viewport": {"northeast": {"lat": 42.3412122302915, "lng": -71.15111571970849}, "southwest": {"lat": 42.3385142697085, "lng": -71.1538136802915}}}, "icon": "https://maps.gstatic.com/mapfiles/place_api/icons/worship_jewish-71.png", "id": "173f01968ccafcf8335c58385a10affa011021d1", "name": "Temple Bnai Moshe", "photos": [{"height": 1150, "html_attributions": ["<a href=\"https://maps.google.com/maps/contrib/103316693844128297722/photos\">Temple Bnai Moshe</a>"], "photo_reference": "CmRaAAAAEUanrFu5Ap3o63PAvDl6fIDYjts6Hqk6pq_Zjo4fkvNvHVIHqd4FBRyMijHg_YX07mgnT5woNuIUOxhATKbHH4oc5UUc1IPL0dTw6h5MZ83FvxmbcRS4itPsWWVMzUmoEhBWz7reql2BA4ElDB1XqPWgGhQZnfJYeyLCJz9NEMww9yuyqVTWFQ", "width": 1149}], "place_id": "ChIJVSKb3VF444kRtWHlZ_x_TO4", "plus_code": {"compound_code": "8RQW+WX Boston, Massachusetts, United States", "global_code": "87JC8RQW+WX"}, "reference": "ChIJVSKb3VF444kRtWHlZ_x_TO4", "scope": "GOOGLE", "types": ["synagogue", "place_of_worship", "point_of_interest", "establishment"], "vicinity": "1845 Commonwealth Avenue, Brighton"}, "ChIJJU0A5VF444kRnrF0VbcyH0o": {"geometry": {"location": {"lat": 42.3393105, "lng": -71.1517358}, "viewport": {"northeast": {"lat": 42.34070748029149, "lng": -71.1505113697085}, "southwest": {"lat": 42.33800951970849, "lng": -71.15320933029152}}}, "icon": "https://maps.gstatic.com/mapfiles/place_api/icons/generic_business-71.png", "id": "d475c18e413ccf134b0dae69c6647dec3135e224", "name": "Missing-Sock Laundromat", "opening_hours": {"open_now": true}, "photos": [{"height": 2988, "html_attributions": ["<a href=\"https://maps.google.com/maps/contrib/107296593355875628311/photos\">Sam Glannon</a>"], "photo_reference": "CmRaAAAAB9uDpscO_9xx4rNSaNS2XZ6FsW9HEIYd95YMmPT05U92Usv8BJBJZPgUxy-SgzQT4mPQKX4xAyshqsrtbza22ov3mfmuyUDqxZbCpeFrdsrC4lt6tUxbfbG0acHgT_EeEhDGlfklMDnEHrb5PdrxCMnQGhSdW-yLKZ_3Xlp1X7o_4GWXloI0fQ", "width": 5312}], "place_id": "ChIJJU0A5VF444kRnrF0VbcyH0o", "plus_code": {"compound_code": "8RQX+P8 Boston, Massachusetts, United States", "global_code": "87JC8RQX+P8"}, "rating": 3.6, "reference": "ChIJJU0A5VF444kRnrF0VbcyH0o", "scope": "GOOGLE", "types": ["laundry", "point_of_interest", "establishment"], "user_ratings_total": 28, "vicinity": "1846 Commonwealth Avenue, Brighton"}, "ChIJj8Ko-01444kRPiRygMEBLdM": {"geometry": {"location": {"lat": 42.3400843, "lng": -71.1501665}, "viewport": {"northeast": {"lat": 42.34134403029149, "lng": -71.1488717197085}, "southwest": {"lat": 42.3386460697085, "lng": -71.15156968029152}}}, "icon": "https://maps.gstatic.com/mapfiles/place_api/icons/generic_business-71.png", "id": "3d0453b63618451918eb5fac04de4ca39f12b0d7", "name": "Boston Brighton Movers", "opening_hours": {"open_now": true}, "photos": [{"height": 300, "html_attributions": ["<a href=\"https://maps.google.com/maps/contrib/110708733296542990295/photos\">Boston Brighton Movers</a>"], "photo_reference": "CmRaAAAAg7yu-OQS25opJgL5y3tI3qjFxMmtVzAryBoXf-Jleoge9Nvy_CffmTT25padUr5F-Zb615eY7TM275UpHUWshn9IWIT61tkENnUC7n9Ki7jGZbgKkH45HMtUlanyEz5iEhBTaKGvJYWHI0aWZCv2snRmGhSED470UKM-WuWfSaGIPB44IjmxEA", "width": 500}], "place_id": "ChIJj8Ko-01444kRPiRygMEBLdM", "plus_code": {"compound_code": "8RRX+2W Boston, Massachusetts, United States", "global_code": "87JC8RRX+2W"}, "rating": 5, "reference": "ChIJj8Ko-01444kRPiRygMEBLdM", "scope": "GOOGLE", "types": ["moving_company", "storage", "point_of_interest", "establishment"], "user_ratings_total": 2, "vicinity": "77 Chiswick Road, Brighton"}, "ChIJ45zp301444kRIa2jr5weuSM": {"geometry": {"location": {"lat": 42.3404736, "lng": -71.1512463}, "viewport": {"northeast": {"lat": 42.3417831302915, "lng": -71.14986446970849}, "southwest": {"lat": 42.3390851697085, "lng": -71.1525624302915}}}, "icon": "https://maps.gstatic.com/mapfiles/place_api/icons/generic_business-71.png", "id": "a294c6754f69634683352699050e8edaaac8a25b", "name": "Chiswick Road", "place_id": "ChIJ45zp301444kRIa2jr5weuSM", "plus_code": {"compound_code": "8RRX+5G Boston, Massachusetts, United States", "global_code": "87JC8RRX+5G"}, "rating": 4, "reference": "ChIJ45zp301444kRIa2jr5weuSM", "scope": "GOOGLE", "types": ["light_rail_station", "transit_station", "point_of_interest", "establishment"], "user_ratings_total": 2, "vicinity": "Commonwealth Ave &, Chiswick Road, Boston"}, "ChIJ-R073VF444kRnxU1iIidiEM": {"geometry": {"location": {"lat": 42.33936509999999, "lng": -71.15258299999999}, "viewport": {"northeast": {"lat": 42.3406834302915, "lng": -71.1511335197085}, "southwest": {"lat": 42.3379854697085, "lng": -71.1538314802915}}}, "icon": "https://maps.gstatic.com/mapfiles/place_api/icons/generic_business-71.png", "id": "8e3bd20d30e3f54444314cd76268b2afbd5edb42", "name": "Computer Repair", "place_id": "ChIJ-R073VF444kRnxU1iIidiEM", "plus_code": {"compound_code": "8RQW+PX Boston, Massachusetts, United States", "global_code": "87JC8RQW+PX"}, "rating": 4, "reference": "ChIJ-R073VF444kRnxU1iIidiEM", "scope": "GOOGLE", "types": ["point_of_interest", "establishment"], "user_ratings_total": 1, "vicinity": "1851 Commonwealth Avenue, Boston"}, "ChIJXxWUwVF444kR77SxDv22xYY": {"geometry": {"location": {"lat": 42.339339, "lng": -71.152793}, "viewport": {"northeast": {"lat": 42.3406318802915, "lng": -71.15126001970849}, "southwest": {"lat": 42.3379339197085, "lng": -71.15395798029151}}}, "icon": "https://maps.gstatic.com/mapfiles/place_api/icons/generic_business-71.png", "id": "70bb5f8a432b009b99a52fa50006364873c7dbc9", "name": "Brodsky Gregory MD", "place_id": "ChIJXxWUwVF444kR77SxDv22xYY", "plus_code": {"compound_code": "8RQW+PV Boston, Massachusetts, United States", "global_code": "87JC8RQW+PV"}, "rating": 5, "reference": "ChIJXxWUwVF444kR77SxDv22xYY", "scope": "GOOGLE", "types": ["doctor", "health", "point_of_interest", "establishment"], "user_ratings_total": 1, "vicinity": "1853 Commonwealth Avenue # 2, Brighton"}, "ChIJQe8t21F444kRQIOOAtRmksM": {"geometry": {"location": {"lat": 42.3393215, "lng": -71.1527155}, "viewport": {"northeast": {"lat": 42.3406257802915, "lng": -71.15121981970849}, "southwest": {"lat": 42.3379278197085, "lng": -71.15391778029151}}}, "icon": "https://maps.gstatic.com/mapfiles/place_api/icons/generic_business-71.png", "id": "a287b3fb1b929be2985bbb3dc0fce5a27a8307c1", "name": "Averbuch Realty", "place_id": "ChIJQe8t21F444kRQIOOAtRmksM", "plus_code": {"compound_code": "8RQW+PW Boston, Massachusetts, United States", "global_code": "87JC8RQW+PW"}, "reference": "ChIJQe8t21F444kRQIOOAtRmksM", "scope": "GOOGLE", "types": ["real_estate_agency", "point_of_interest", "establishment"], "vicinity": "1853 Commonwealth Avenue # 1, Brighton"}, "ChIJ8VFrEk5444kR1msGNH-fQS0": {"geometry": {"location": {"lat": 42.34059899999999, "lng": -71.151538}, "viewport": {"northeast": {"lat": 42.34187608029149, "lng": -71.15008566970849}, "southwest": {"lat": 42.33917811970849, "lng": -71.1527836302915}}}, "icon": "https://maps.gstatic.com/mapfiles/place_api/icons/restaurant-71.png", "id": "99063decfc085a1baa4061e5a3116e7e4b9deeb6", "name": "Chilli Thai Bistro", "opening_hours": {"open_now": false}, "photos": [{"height": 3024, "html_attributions": ["<a href=\"https://maps.google.com/maps/contrib/117024707744357690207/photos\">Albert K</a>"], "photo_reference": "CmRaAAAAiiqK5p88ofqpkqoFbMEmT202uUlYvJTccMMYGsYQoPcSFT9Bt5w1-KJnObq_sIEHrlpy5Igh257Ux-6fydKUl8PZcyi0--rImc5sgxjgd5PTwFte9ygkpAzN_2zLGZoqEhCpeoI_O3XaQmt_Lf0j4vRJGhRmPvT8rk2UQMh6rZE3c9gzrYhDSg", "width": 4032}], "place_id": "ChIJ8VFrEk5444kR1msGNH-fQS0", "plus_code": {"compound_code": "8RRX+69 Boston, Massachusetts, United States", "global_code": "87JC8RRX+69"}, "rating": 4.1, "reference": "ChIJ8VFrEk5444kR1msGNH-fQS0", "scope": "GOOGLE", "types": ["restaurant", "point_of_interest", "food", "establishment"], "user_ratings_total": 60, "vicinity": "1799 Commonwealth Avenue, Boston"}, "ChIJcRO12FF444kRgYOu7zyJi_c": {"geometry": {"location": {"lat": 42.339825, "lng": -71.1526572}, "viewport": {"northeast": {"lat": 42.3411705802915, "lng": -71.15114661970848}, "southwest": {"lat": 42.3384726197085, "lng": -71.1538445802915}}}, "icon": "https://maps.gstatic.com/mapfiles/place_api/icons/generic_business-71.png", "id": "ffc611ed7bb4af72ee0ec654e7acc3dd8d9796d0", "name": "Lucky Ten", "place_id": "ChIJcRO12FF444kRgYOu7zyJi_c", "plus_code": {"compound_code": "8RQW+WW Boston, Massachusetts, United States", "global_code": "87JC8RQW+WW"}, "reference": "ChIJcRO12FF444kRgYOu7zyJi_c", "scope": "GOOGLE", "types": ["point_of_interest", "establishment"], "vicinity": "1845 Commonwealth Avenue, Brighton"}, "ChIJXxWUwVF444kRuXko6mvyhv4": {"geometry": {"location": {"lat": 42.339339, "lng": -71.152793}, "viewport": {"northeast": {"lat": 42.3406318802915, "lng": -71.15126001970849}, "southwest": {"lat": 42.3379339197085, "lng": -71.15395798029151}}}, "icon": "https://maps.gstatic.com/mapfiles/place_api/icons/school-71.png", "id": "201b0a9e0b8a3562ca40ca68c28ac61159a0284f", "name": "Ma'ayan Torah Studies Prog", "place_id": "ChIJXxWUwVF444kRuXko6mvyhv4", "plus_code": {"compound_code": "8RQW+PV Boston, Massachusetts, United States", "global_code": "87JC8RQW+PV"}, "reference": "ChIJXxWUwVF444kRuXko6mvyhv4", "scope": "GOOGLE", "types": ["point_of_interest", "establishment"], "vicinity": "1853 Commonwealth Avenue, Brighton"}, "ChIJd7pZDk5444kRg3s2HlVTvv0": {"geometry": {"location": {"lat": 42.34065349999999, "lng": -71.15148239999999}, "viewport": {"northeast": {"lat": 42.34192428029149, "lng": -71.15003046970848}, "southwest": {"lat": 42.33922631970849, "lng": -71.15272843029149}}}, "icon": "https://maps.gstatic.com/mapfiles/place_api/icons/atm-71.png", "id": "db6d30fb76a91560bcba685a7d9a7d6c6b4209e2", "name": "Cardtronics ATM", "place_id": "ChIJd7pZDk5444kRg3s2HlVTvv0", "plus_code": {"compound_code": "8RRX+7C Boston, Massachusetts, United States", "global_code": "87JC8RRX+7C"}, "reference": "ChIJd7pZDk5444kRg3s2HlVTvv0", "scope": "GOOGLE", "types": ["atm", "finance", "point_of_interest", "establishment"], "vicinity": "1795 Commonwealth Avenue, Brighton"}, "ChIJXxWUwVF444kRQ1emYi4nfOU": {"geometry": {"location": {"lat": 42.339339, "lng": -71.152793}, "viewport": {"northeast": {"lat": 42.3406318802915, "lng": -71.15126001970849}, "southwest": {"lat": 42.3379339197085, "lng": -71.15395798029151}}}, "icon": "https://maps.gstatic.com/mapfiles/place_api/icons/generic_business-71.png", "id": "f56c24e49c0dbdf45916914f62fdf9de793617e1", "name": "Gatt Paramedical Association Inc", "opening_hours": {"open_now": true}, "place_id": "ChIJXxWUwVF444kRQ1emYi4nfOU", "plus_code": {"compound_code": "8RQW+PV Boston, Massachusetts, United States", "global_code": "87JC8RQW+PV"}, "rating": 5, "reference": "ChIJXxWUwVF444kRQ1emYi4nfOU", "scope": "GOOGLE", "types": ["point_of_interest", "establishment"], "user_ratings_total": 2, "vicinity": "1853 Commonwealth Avenue #1, Brighton"}, "ChIJ1el03VF444kRlSKf8JNrx-w": {"geometry": {"location": {"lat": 42.3399019, "lng": -71.1526875}, "viewport": {"northeast": {"lat": 42.3412471302915, "lng": -71.1511603197085}, "southwest": {"lat": 42.3385491697085, "lng": -71.15385828029152}}}, "icon": "https://maps.gstatic.com/mapfiles/place_api/icons/school-71.png", "id": "6147ad51cc0f5003219369db6f246a79b806e97a", "name": "Gentle Knowledge", "place_id": "ChIJ1el03VF444kRlSKf8JNrx-w", "plus_code": {"compound_code": "8RQW+XW Boston, Massachusetts, United States", "global_code": "87JC8RQW+XW"}, "reference": "ChIJ1el03VF444kRlSKf8JNrx-w", "scope": "GOOGLE", "types": ["point_of_interest", "establishment"], "vicinity": "1845 Commonwealth Avenue, Brighton"}, "ChIJXxWUwVF444kRZhiDQ8AJVyI": {"geometry": {"location": {"lat": 42.33933690000001, "lng": -71.1527658}, "viewport": {"northeast": {"lat": 42.3406334802915, "lng": -71.15124491970849}, "southwest": {"lat": 42.3379355197085, "lng": -71.1539428802915}}}, "icon": "https://maps.gstatic.com/mapfiles/place_api/icons/generic_business-71.png", "id": "1433f3328c085161face9404e50f3755f6d7956d", "name": "Joseph Liftik, PHD", "place_id": "ChIJXxWUwVF444kRZhiDQ8AJVyI", "plus_code": {"compound_code": "8RQW+PV Boston, Massachusetts, United States", "global_code": "87JC8RQW+PV"}, "reference": "ChIJXxWUwVF444kRZhiDQ8AJVyI", "scope": "GOOGLE", "types": ["doctor", "health", "point_of_interest", "establishment"], "vicinity": "1853 Commonwealth Avenue, Brighton"}, "ChIJXxWUwVF444kRAqYsAfHjofM": {"geometry": {"location": {"lat": 42.33933690000001, "lng": -71.1527658}, "viewport": {"northeast": {"lat": 42.3406334802915, "lng": -71.15124491970849}, "southwest": {"lat": 42.3379355197085, "lng": -71.1539428802915}}}, "icon": "https://maps.gstatic.com/mapfiles/place_api/icons/generic_business-71.png", "id": "cb25babef4c7a7b652ae89d81c13825220ffab32", "name": "Eileen Chafel, MSW", "place_id": "ChIJXxWUwVF444kRAqYsAfHjofM", "plus_code": {"compound_code": "8RQW+PV Boston, Massachusetts, United States", "global_code": "87JC8RQW+PV"}, "reference": "ChIJXxWUwVF444kRAqYsAfHjofM", "scope": "GOOGLE", "types": ["doctor", "health", "point_of_interest", "establishment"], "vicinity": "1853 Commonwealth Avenue, Brighton"}, "ChIJxTFcO0h444kRGCt654rYf_0": {"geometry": {"location": {"lat": 42.3463503, "lng": -71.1626756}, "viewport": {"northeast": {"lat": 42.3601961, "lng": -71.1225359}, "southwest": {"lat": 42.33009699999999, "lng": -71.1747978}}}, "icon": "https://maps.gstatic.com/mapfiles/place_api/icons/geocode-71.png", "id": "cee0d4f1baeb40007d9b85efae58477902c37b34", "name": "Brighton", "photos": [{"height": 480, "html_attributions": ["<a href=\"https://maps.google.com/maps/contrib/102865163631671690431/photos\">Boston poet</a>"], "photo_reference": "CmRaAAAAOh07kWUKVSnDwopnymA5SurcHlgyd-snqO94z0KuMaetCilVNuF6HOKqmWqGlcwFNhZbnRYjzn0kmkiWxuP47hgf3MqzMXCeOGPCgnjk4YKMTOxkf5jY7wtYrcygXtqhEhC19HQkimHbLPo2ovvJ7lkxGhR0ZqbyfWsA8lTeT3rJ3Js2xbYy_Q", "width": 480}], "place_id": "ChIJxTFcO0h444kRGCt654rYf_0", "reference": "ChIJxTFcO0h444kRGCt654rYf_0", "scope": "GOOGLE", "types": ["neighborhood", "locality", "political"], "vicinity": "Boston"}, "ChIJN2Uf9k1444kR3w1iKYsp-Jc": {"geometry": {"location": {"lat": 42.3394151, "lng": -71.1497694}, "viewport": {"northeast": {"lat": 42.3408057802915, "lng": -71.1483702697085}, "southwest": {"lat": 42.3381078197085, "lng": -71.1510682302915}}}, "icon": "https://maps.gstatic.com/mapfiles/place_api/icons/generic_business-71.png", "id": "d7d4b615cc8c730219311de0e6ba70716ccc1b67", "name": "Dr. Wendy S. Vargas, MD", "place_id": "ChIJN2Uf9k1444kR3w1iKYsp-Jc", "plus_code": {"compound_code": "8VQ2+Q3 Boston, Massachusetts, United States", "global_code": "87JC8VQ2+Q3"}, "reference": "ChIJN2Uf9k1444kR3w1iKYsp-Jc", "scope": "GOOGLE", "types": ["doctor", "health", "point_of_interest", "establishment"], "vicinity": "58 Selkirk Road, Boston"}, "ChIJXxWUwVF444kRtlplH9kiiqU": {"geometry": {"location": {"lat": 42.33933690000001, "lng": -71.1527658}, "viewport": {"northeast": {"lat": 42.3406334802915, "lng": -71.15124491970849}, "southwest": {"lat": 42.3379355197085, "lng": -71.1539428802915}}}, "icon": "https://maps.gstatic.com/mapfiles/place_api/icons/generic_business-71.png", "id": "c0c5e846c58ff725f7da741dd6c8786f6de035a8", "name": "Apolinaria S. Francisco, LICSW", "place_id": "ChIJXxWUwVF444kRtlplH9kiiqU", "plus_code": {"compound_code": "8RQW+PV Boston, Massachusetts, United States", "global_code": "87JC8RQW+PV"}, "reference": "ChIJXxWUwVF444kRtlplH9kiiqU", "scope": "GOOGLE", "types": ["doctor", "health", "point_of_interest", "establishment"], "vicinity": "1853 Commonwealth Avenue, Brighton, MA 02135, Brighton"}, "ChIJXxWUwVF444kRc5rcB7WtU6Y": {"geometry": {"location": {"lat": 42.339339, "lng": -71.152793}, "viewport": {"northeast": {"lat": 42.3406318802915, "lng": -71.15126001970849}, "southwest": {"lat": 42.3379339197085, "lng": -71.15395798029151}}}, "icon": "https://maps.gstatic.com/mapfiles/place_api/icons/generic_business-71.png", "id": "3f7ad6da824961207827842cc83349a1ce6d410f", "name": "Robbins Peter", "place_id": "ChIJXxWUwVF444kRc5rcB7WtU6Y", "plus_code": {"compound_code": "8RQW+PV Boston, Massachusetts, United States", "global_code": "87JC8RQW+PV"}, "reference": "ChIJXxWUwVF444kRc5rcB7WtU6Y", "scope": "GOOGLE", "types": ["health", "point_of_interest", "establishment"], "vicinity": "1853 Commonwealth Avenue # 4, Brighton"}, "ChIJXxWUwVF444kRVSRE3ESbwRo": {"geometry": {"location": {"lat": 42.33933690000001, "lng": -71.1527658}, "viewport": {"northeast": {"lat": 42.3406334802915, "lng": -71.15124491970849}, "southwest": {"lat": 42.3379355197085, "lng": -71.1539428802915}}}, "icon": "https://maps.gstatic.com/mapfiles/place_api/icons/generic_business-71.png", "id": "c4ed537cbf73ff1cd21e609e45f48ee0af14a2ca", "name": "Dr. Irving M. Allen, MD", "place_id": "ChIJXxWUwVF444kRVSRE3ESbwRo", "plus_code": {"compound_code": "8RQW+PV Boston, Massachusetts, United States", "global_code": "87JC8RQW+PV"}, "reference": "ChIJXxWUwVF444kRVSRE3ESbwRo", "scope": "GOOGLE", "types": ["doctor", "health", "point_of_interest", "establishment"], "vicinity": "1853 Commonwealth Avenue, Brighton"}, "ChIJVSKb3VF444kRfdfHc-8vJZc": {"geometry": {"location": {"lat": 42.3399019, "lng": -71.1526875}, "viewport": {"northeast": {"lat": 42.3412471302915, "lng": -71.1511603197085}, "southwest": {"lat": 42.3385491697085, "lng": -71.15385828029152}}}, "icon": "https://maps.gstatic.com/mapfiles/place_api/icons/generic_business-71.png", "id": "f2ebd31e13978fc3958a2fdacd8b23bb28f88168", "name": "Russian Community Associates-Mass", "place_id": "ChIJVSKb3VF444kRfdfHc-8vJZc", "plus_code": {"compound_code": "8RQW+XW Boston, Massachusetts, United States", "global_code": "87JC8RQW+XW"}, "reference": "ChIJVSKb3VF444kRfdfHc-8vJZc", "scope": "GOOGLE", "types": ["point_of_interest", "establishment"], "vicinity": "1845 Commonwealth Avenue, Brighton"}, "ChIJfbloLV5544kRxagev5UJvIA": {"geometry": {"location": {"lat": 42.33968099999999, "lng": -71.150517}, "viewport": {"northeast": {"lat": 42.3411569302915, "lng": -71.1490909197085}, "southwest": {"lat": 42.3384589697085, "lng": -71.1517888802915}}}, "icon": "https://maps.gstatic.com/mapfiles/place_api/icons/generic_business-71.png", "id": "3714ff4cd6e7eb4a8d3f544d94b90e392a351774", "name": "Mivideo", "opening_hours": {"open_now": true}, "photos": [{"height": 4556, "html_attributions": ["<a href=\"https://maps.google.com/maps/contrib/117810650574808892424/photos\">Mivideo</a>"], "photo_reference": "CmRaAAAAyDdZdxZJc27ocndCa1EopHG4efbDBLkdaVjOuDHXyLlsLvNJo4KjqDdseockriD3rM-zxTxPGXne04B5EnCNmFBVJPoe5lPLdOOONjZ2WpukIyKmro8-To3mDseNyR19EhAjpFLEGCQjCPPAP9g5jePXGhRBx7bjb87DqIG0BSQw6nkZnp0wQQ", "width": 4556}], "place_id": "ChIJfbloLV5544kRxagev5UJvIA", "plus_code": {"compound_code": "8RQX+VQ Boston, Massachusetts, United States", "global_code": "87JC8RQX+VQ"}, "reference": "ChIJfbloLV5544kRxagev5UJvIA", "scope": "GOOGLE", "types": ["point_of_interest", "establishment"], "vicinity": "70 Chiswick Road, Boston"}, "ChIJcY295VF444kRgIkVQc3wHiQ": {"geometry": {"location": {"lat": 42.339228, "lng": -71.1517846}, "viewport": {"northeast": {"lat": 42.3406163802915, "lng": -71.15056891970849}, "southwest": {"lat": 42.3379184197085, "lng": -71.1532668802915}}}, "icon": "https://maps.gstatic.com/mapfiles/place_api/icons/generic_business-71.png", "id": "527e633f953ffe602c14ca3c070372d68b3af31e", "name": "Coin-Op Laundry", "place_id": "ChIJcY295VF444kRgIkVQc3wHiQ", "plus_code": {"compound_code": "8RQX+M7 Boston, Massachusetts, United States", "global_code": "87JC8RQX+M7"}, "reference": "ChIJcY295VF444kRgIkVQc3wHiQ", "scope": "GOOGLE", "types": ["laundry", "point_of_interest", "establishment"], "vicinity": "Commonwealth Avenue, Brighton"}, "ChIJCx7q5VF444kRC8gDwKG0KMY": {"geometry": {"location": {"lat": 42.3392393, "lng": -71.15183689999999}, "viewport": {"northeast": {"lat": 42.3405442302915, "lng": -71.1504728197085}, "southwest": {"lat": 42.3378462697085, "lng": -71.1531707802915}}}, "icon": "https://maps.gstatic.com/mapfiles/place_api/icons/generic_business-71.png", "id": "31150894a29dec00aeeaa3e4b53f55577d7789e9", "name": "The Missing Kcos", "place_id": "ChIJCx7q5VF444kRC8gDwKG0KMY", "plus_code": {"compound_code": "8RQX+M7 Boston, Massachusetts, United States", "global_code": "87JC8RQX+M7"}, "reference": "ChIJCx7q5VF444kRC8gDwKG0KMY", "scope": "GOOGLE", "types": ["point_of_interest", "establishment"], "vicinity": "Brighton"}, "ChIJE5UI7FF444kRXciST9BMSmY": {"geometry": {"location": {"lat": 42.338831, "lng": -71.15189}, "viewport": {"northeast": {"lat": 42.3402318802915, "lng": -71.15071716970849}, "southwest": {"lat": 42.3375339197085, "lng": -71.15341513029149}}}, "icon": "https://maps.gstatic.com/mapfiles/place_api/icons/generic_business-71.png", "id": "d61bda1f20a8c0032cb88fd8d290b297a1ab57c4", "name": "cancer group institute", "place_id": "ChIJE5UI7FF444kRXciST9BMSmY", "plus_code": {"compound_code": "8RQX+G6 Boston, Massachusetts, United States", "global_code": "87JC8RQX+G6"}, "reference": "ChIJE5UI7FF444kRXciST9BMSmY", "scope": "GOOGLE", "types": ["doctor", "health", "point_of_interest", "establishment"], "vicinity": "1848 Commonwealth Avenue #7, Brighton"}, "ChIJoW2MEU5444kRZkC9wccYmC4": {"geometry": {"location": {"lat": 42.34060489999999, "lng": -71.15167509999999}, "viewport": {"northeast": {"lat": 42.3419223802915, "lng": -71.1503414697085}, "southwest": {"lat": 42.3392244197085, "lng": -71.1530394302915}}}, "icon": "https://maps.gstatic.com/mapfiles/place_api/icons/generic_business-71.png", "id": "16d31b1de0ffc84794a22f47d29e96bb2351df48", "name": "Henshaw Laundry", "photos": [{"height": 3456, "html_attributions": ["<a href=\"https://maps.google.com/maps/contrib/107405256146420221335/photos\">Anna Superson</a>"], "photo_reference": "CmRaAAAA6E6b1_7FGtYx7ppiVBguZ8DRsCnbAWqSV1IcRUyY303HxZqu0GroycYJq5_S4vfiuZrGsX3P04LQZLMeGDJCBuEKCu9w4TCu8KBrw0uCLlvQdp69JF79Umgew-lAPYCJEhDWiJ2NefoaieQTaMvGDL9lGhTmL495-VTL6WQy8-hJKuvbsX6d2w", "width": 4608}], "place_id": "ChIJoW2MEU5444kRZkC9wccYmC4", "plus_code": {"compound_code": "8RRX+68 Boston, Massachusetts, United States", "global_code": "87JC8RRX+68"}, "rating": 3, "reference": "ChIJoW2MEU5444kRZkC9wccYmC4", "scope": "GOOGLE", "types": ["laundry", "point_of_interest", "establishment"], "user_ratings_total": 2, "vicinity": "109 Chiswick Road, Brighton"}, "ChIJ6f4221F444kRNN685It1Lyo": {"geometry": {"location": {"lat": 42.3393436, "lng": -71.1527551}, "viewport": {"northeast": {"lat": 42.3406410802915, "lng": -71.15123721970849}, "southwest": {"lat": 42.33794311970851, "lng": -71.1539351802915}}}, "icon": "https://maps.gstatic.com/mapfiles/place_api/icons/generic_business-71.png", "id": "a9d27b62518c934f1bc2f73394c01669e8282efc", "name": "Ron Hod Massage", "place_id": "ChIJ6f4221F444kRNN685It1Lyo", "plus_code": {"compound_code": "8RQW+PV Boston, Massachusetts, United States", "global_code": "87JC8RQW+PV"}, "rating": 5, "reference": "ChIJ6f4221F444kRNN685It1Lyo", "scope": "GOOGLE", "types": ["point_of_interest", "establishment"], "user_ratings_total": 1, "vicinity": "1853 Commonwealth Avenue, Brighton"}, "ChIJU9rrDU5444kRF365RNH7MTg": {"geometry": {"location": {"lat": 42.3406392, "lng": -71.1514581}, "viewport": {"northeast": {"lat": 42.3419181802915, "lng": -71.15001691970849}, "southwest": {"lat": 42.3392202197085, "lng": -71.1527148802915}}}, "icon": "https://maps.gstatic.com/mapfiles/place_api/icons/shopping-71.png", "id": "c7310b9e2cbb167697a42eb9c4960dbdc8364f89", "name": "Huntington Markets", "opening_hours": {"open_now": true}, "photos": [{"height": 4032, "html_attributions": ["<a href=\"https://maps.google.com/maps/contrib/118219431594711031058/photos\">Patrick Evanson</a>"], "photo_reference": "CmRaAAAAzjUM60b7YVxN-sl3iW9lE0UWelpV_h5Mc_jGJYc1sJj5dOOcC6Sn54aaYU5rNOpAchqipdISnnY3V63BVX9oLmOHLP9cAdyGZlBngqV1kkr3oJLrNPelnfKBGnlZApUCEhC9j5hbqdiVmq6ye7mOXjPRGhRBpdJ4_1nJmg5lx0z33566D1h56A", "width": 3024}], "place_id": "ChIJU9rrDU5444kRF365RNH7MTg", "plus_code": {"compound_code": "8RRX+7C Boston, Massachusetts, United States", "global_code": "87JC8RRX+7C"}, "rating": 4.7, "reference": "ChIJU9rrDU5444kRF365RNH7MTg", "scope": "GOOGLE", "types": ["convenience_store", "store", "point_of_interest", "food", "establishment"], "user_ratings_total": 15, "vicinity": "1795 Commonwealth Avenue, Brighton"}, "ChIJQe8t21F444kRPkfcDuSClsA": {"geometry": {"location": {"lat": 42.339339, "lng": -71.152793}, "viewport": {"northeast": {"lat": 42.3406318802915, "lng": -71.15126001970849}, "southwest": {"lat": 42.3379339197085, "lng": -71.15395798029151}}}, "icon": "https://maps.gstatic.com/mapfiles/place_api/icons/generic_business-71.png", "id": "d4cd27873c0fd232866483858db8554300601f5e", "name": "Line Hviid, PsyD", "place_id": "ChIJQe8t21F444kRPkfcDuSClsA", "plus_code": {"compound_code": "8RQW+PV Boston, Massachusetts, United States", "global_code": "87JC8RQW+PV"}, "reference": "ChIJQe8t21F444kRPkfcDuSClsA", "scope": "GOOGLE", "types": ["health", "point_of_interest", "establishment"], "vicinity": "1853 Commonwealth Avenue #6, Brighton"}, "ChIJXxWUwVF444kRCE1LVzlddJg": {"geometry": {"location": {"lat": 42.339339, "lng": -71.152793}, "viewport": {"northeast": {"lat": 42.3406318802915, "lng": -71.15126001970849}, "southwest": {"lat": 42.3379339197085, "lng": -71.15395798029151}}}, "icon": "https://maps.gstatic.com/mapfiles/place_api/icons/generic_business-71.png", "id": "cb0aa692f806960f5e7d1edb0641308b5b97f184", "name": "Naaman Mahlowitz Law Office", "place_id": "ChIJXxWUwVF444kRCE1LVzlddJg", "plus_code": {"compound_code": "8RQW+PV Boston, Massachusetts, United States", "global_code": "87JC8RQW+PV"}, "reference": "ChIJXxWUwVF444kRCE1LVzlddJg", "scope": "GOOGLE", "types": ["lawyer", "point_of_interest", "establishment"], "vicinity": "1853 Commonwealth Avenue # 6, Brighton"}, "ChIJB_zeIFJ444kRrw4dElcutBc": {"geometry": {"location": {"lat": 42.3381261, "lng": -71.1506204}, "viewport": {"northeast": {"lat": 42.33948068029149, "lng": -71.14931691970848}, "southwest": {"lat": 42.33678271970849, "lng": -71.1520148802915}}}, "icon": "https://maps.gstatic.com/mapfiles/place_api/icons/school-71.png", "id": "348025790978803476c9f854b523649c3a7ec97d", "name": "\u05d4\u05d2\u05df \u05e9\u05dc \u05e8\u05d5\u05e0\u05d9 \u05d7\u05e0\u05d9\u05d4", "place_id": "ChIJB_zeIFJ444kRrw4dElcutBc", "plus_code": {"compound_code": "8RQX+7Q Boston, Massachusetts, United States", "global_code": "87JC8RQX+7Q"}, "reference": "ChIJB_zeIFJ444kRrw4dElcutBc", "scope": "GOOGLE", "types": ["point_of_interest", "school", "establishment"], "vicinity": "20-2 Chiswick Road, Boston"}, "ChIJ0XvKdFJ444kRZ2i22LfDchE": {"geometry": {"location": {"lat": 42.339101, "lng": -71.149294}, "viewport": {"northeast": {"lat": 42.3404092302915, "lng": -71.14782216970849}, "southwest": {"lat": 42.3377112697085, "lng": -71.1505201302915}}}, "icon": "https://maps.gstatic.com/mapfiles/place_api/icons/generic_business-71.png", "id": "a5d33a16525e7e7115c15911d491db58c77b3cf8", "name": "Sidebar Software Inc", "place_id": "ChIJ0XvKdFJ444kRZ2i22LfDchE", "plus_code": {"compound_code": "8VQ2+J7 Boston, Massachusetts, United States", "global_code": "87JC8VQ2+J7"}, "reference": "ChIJ0XvKdFJ444kRZ2i22LfDchE", "scope": "GOOGLE", "types": ["point_of_interest", "establishment"], "vicinity": "80 Sutherland Road, Brighton"}, "ChIJQ2zClVF444kRA13kmF0LUHE": {"geometry": {"location": {"lat": 42.3383422, "lng": -71.1521852}, "viewport": {"northeast": {"lat": 42.3397431802915, "lng": -71.15081836970849}, "southwest": {"lat": 42.3370452197085, "lng": -71.15351633029151}}}, "icon": "https://maps.gstatic.com/mapfiles/place_api/icons/shopping-71.png", "id": "78c1e4b8de116ef41abe4c596395be2e9cd7c6ac", "name": "Boston Pet Nanny", "place_id": "ChIJQ2zClVF444kRA13kmF0LUHE", "plus_code": {"compound_code": "8RQX+84 Boston, Massachusetts, United States", "global_code": "87JC8RQX+84"}, "reference": "ChIJQ2zClVF444kRA13kmF0LUHE", "scope": "GOOGLE", "types": ["pet_store", "store", "point_of_interest", "establishment"], "vicinity": "5 Braemore Road, Brighton"}, "ChIJlQqgxVF444kR2eVyPiCeRGw": {"geometry": {"location": {"lat": 42.3391962, "lng": -71.1529228}, "viewport": {"northeast": {"lat": 42.3404898302915, "lng": -71.1513617197085}, "southwest": {"lat": 42.3377918697085, "lng": -71.15405968029151}}}, "icon": "https://maps.gstatic.com/mapfiles/place_api/icons/generic_business-71.png", "id": "0fadfb8043055f94a96b0310fd8f54327f673df9", "name": "Zipcar", "opening_hours": {"open_now": true}, "photos": [{"height": 499, "html_attributions": ["<a href=\"https://maps.google.com/maps/contrib/101389265676882659360/photos\">Zipcar</a>"], "photo_reference": "CmRaAAAA_G9DFYz4lcR2QzhXa8OPosupZ9D4D3qRYeeBpvcFsTDA46jHodPx0HBTFj2jVzJFGpbbAwacBBzpmI4aGpOqm6dQ8xzmhl4FMeFWe-DR6sTWDStfyupJ90EvoHeEGQQAEhCorf22yGwsaM_UkVh4K6HjGhR-PsE21KxPaGNO01y7B2AjdQmuOw", "width": 499}], "place_id": "ChIJlQqgxVF444kR2eVyPiCeRGw", "plus_code": {"compound_code": "8RQW+MR Boston, Massachusetts, United States", "global_code": "87JC8RQW+MR"}, "reference": "ChIJlQqgxVF444kR2eVyPiCeRGw", "scope": "GOOGLE", "types": ["car_rental", "point_of_interest", "establishment"], "vicinity": "1857 Commonwealth Avenue, Brighton"}, "ChIJh2YkFFJ444kRe-ZL3jySjKE": {"geometry": {"location": {"lat": 42.3383946, "lng": -71.14964630000001}, "viewport": {"northeast": {"lat": 42.3397134302915, "lng": -71.1482022697085}, "southwest": {"lat": 42.3370154697085, "lng": -71.15090023029153}}}, "icon": "https://maps.gstatic.com/mapfiles/place_api/icons/generic_business-71.png", "id": "6c923f93e6afebd6d694bc1ace23037cc1b2d24a", "name": "Big Joe", "place_id": "ChIJh2YkFFJ444kRe-ZL3jySjKE", "plus_code": {"compound_code": "8VQ2+94 Boston, Massachusetts, United States", "global_code": "87JC8VQ2+94"}, "reference": "ChIJh2YkFFJ444kRe-ZL3jySjKE", "scope": "GOOGLE", "types": ["point_of_interest", "establishment"], "vicinity": "60 Sutherland Road, Boston"}, "ChIJzdPJHk5444kRHvshsKuXc_A": {"geometry": {"location": {"lat": 42.340244, "lng": -71.1520927}, "viewport": {"northeast": {"lat": 42.3414021302915, "lng": -71.1506530697085}, "southwest": {"lat": 42.3387041697085, "lng": -71.1533510302915}}}, "icon": "https://maps.gstatic.com/mapfiles/place_api/icons/generic_recreational-71.png", "id": "9651e3b398fc98cc3376344f1ad4804d3b31e914", "name": "Rabbi Joseph Shalom Shubow Park", "photos": [{"height": 2192, "html_attributions": ["<a href=\"https://maps.google.com/maps/contrib/118219431594711031058/photos\">Patrick Evanson</a>"], "photo_reference": "CmRaAAAA9ABPyoH-4VVN9vouDBeeN_1XvkuepFaI7dwqEEfp2bgxVNaFoJ0jWeOD1BiMpkqIqaR7A4m9e2YAR4_xdHA4PRWWFhvTGqIkAK28ofZ6qpXIg9F8rv73HfdZRl_YOhdeEhC_kv8JzKeW755vfWMFEd4yGhSx60vBLc-oCyVwiL3qvP53YnYlRQ", "width": 2192}], "place_id": "ChIJzdPJHk5444kRHvshsKuXc_A", "reference": "ChIJzdPJHk5444kRHvshsKuXc_A", "scope": "GOOGLE", "types": ["park", "premise", "point_of_interest", "establishment"], "vicinity": "Boston"}}