{"ChIJGzE9DS1l44kRoOhiASS_fHg": {"geometry": {"location": {"lat": 42.3600825, "lng": -71.0588801}, "viewport": {"northeast": {"lat": 42.40081989999999, "lng": -70.749455}, "southwest": {"lat": 42.22788, "lng": -71.191113}}}, "icon": "https://maps.gstatic.com/mapfiles/place_api/icons/geocode-71.png", "id": "06755c25d2b34d13942a4713971756a55b870ced", "name": "Boston", "photos": [{"height": 3024, "html_attributions": ["<a href=\"https://maps.google.com/maps/contrib/104670289779338733432/photos\">Natalia Zalucean</a>"], "photo_reference": "CmRaAAAAj8C8sm2-JydfoTJZFE2Gezub2irkYQUqtnK4lYzoARlGKaZEDNebsGDPR5EQqNplQWupoCLaJkret1Up78iCklAimFU_NCwhSdRrnEDK4ETXYHmRewPyAjcWu5yVie_DEhAgPXFMR6U5fLWKT7jXN7DqGhRXc4d1RQfpOfNXA3of6FamGUXf5w", "width": 4032}], "place_id": "ChIJGzE9DS1l44kRoOhiASS_fHg", "reference": "ChIJGzE9DS1l44kRoOhiASS_fHg", "scope": "GOOGLE", "types": ["locality", "political"], "vicinity": "Boston"}, "ChIJ6e8vWNF544kRoVLEBl3Lkus": {"geometry": {"location": {"lat": 42.3596246, "lng": -71.1378618}, "viewport": {"northeast": {"lat": 42.3613526302915, "lng": -71.13634111970848}, "southwest": {"lat": 42.3586546697085, "lng": -71.1390390802915}}}, "icon": "https://maps.gstatic.com/mapfiles/place_api/icons/school-71.png", "id": "b6aa909f82d710d4de81b6fedaebe13385687b9c", "name": "Boston Boxing & Fitness", "opening_hours": {"open_now": true}, "place_id": "ChIJ6e8vWNF544kRoVLEBl3Lkus", "plus_code": {"compound_code": "9V56+RV Boston, Massachusetts, United States", "global_code": "87JC9V56+RV"}, "rating": 4.9, "reference": "ChIJ6e8vWNF544kRoVLEBl3Lkus", "scope": "GOOGLE", "types": ["gym", "health", "point_of_interest", "establishment"], "user_ratings_total": 15, "vicinity": "100 Holton Street, Brighton"}, "ChIJH0_kN8x544kRBbJqhH9YVSk": {"geometry": {"location": {"lat": 42.3598604, "lng": -71.13782309999999}, "viewport": {"northeast": {"lat": 42.36142473029149, "lng": -71.1366792697085}, "southwest": {"lat": 42.3587267697085, "lng": -71.1393772302915}}}, "icon": "https://maps.gstatic.com/mapfiles/place_api/icons/school-71.png", "id": "71cb3447a446f19b3336560c00c4a3fd0b75e5ae", "name": "Mass Motion Dance", "photos": [{"height": 1520, "html_attributions": ["<a href=\"https://maps.google.com/maps/contrib/115089470286019993551/photos\">Luise Petzold</a>"], "photo_reference": "CmRaAAAA8rGIIkyJZH4tkkvpxnu1JygFlhwbffNm2COqUEoU0xoh1PM_oBlV1PSjcHVNq9sQYw7DaMIkggFNvnU-E7UPNrdjn-nLl-zy1hRt_8ky9Uwz4hQrSn7C_qTPvWsKrQgMEhAGf_mRzRQutQHB0FFRhtMHGhSkUE8l25W-Y7jL8xLqVwRRzsqCAg", "width": 2688}], "place_id": "ChIJH0_kN8x544kRBbJqhH9YVSk", "plus_code": {"compound_code": "9V56+WV Boston, Massachusetts, United States", "global_code": "87JC9V56+WV"}, "rating": 4.2, "reference": "ChIJH0_kN8x544kRBbJqhH9YVSk", "scope": "GOOGLE", "types": ["point_of_interest", "establishment"], "user_ratings_total": 5, "vicinity": "100 Holton Street, Boston"}, "ChIJH4woWNF544kRWVuUNYXu65g": {"geometry": {"location": {"lat": 42.3596756, "lng": -71.1383869}, "viewport": {"northeast": {"lat": 42.3610924802915, "lng": -71.13721221970849}, "southwest": {"lat": 42.3583945197085, "lng": -71.1399101802915}}}, "icon": "https://maps.gstatic.com/mapfiles/place_api/icons/generic_business-71.png", "id": "675e1e0854e0e141f639b0b5fe6fbbcda97509b4", "name": "Jump On In", "opening_hours": {"open_now": false}, "photos": [{"height": 3342, "html_attributions": ["<a href=\"https://maps.google.com/maps/contrib/110946941033573187450/photos\">Radney Cabrera</a>"], "photo_reference": "CmRaAAAAzG8gztAYsxPUkQpIND5SKGfDD0zF9ns4wwBGarg1GZkGX1oor-2iYUKXgiImevU38ScbHg0O0tmKrpys8WdWQuXkjd7XI4CINmwgTElzr6Hf_G7QHj7jfCthT6vKdI6aEhDKRKCF-_fJcn_EETGBW4XbGhRdMOiHbalTZe8PAMoCL7goz-pdaw", "width": 4788}], "place_id": "ChIJH4woWNF544kRWVuUNYXu65g", "plus_code": {"compound_code": "9V56+VJ Boston, Massachusetts, United States", "global_code": "87JC9V56+VJ"}, "rating": 4.2, "reference": "ChIJH4woWNF544kRWVuUNYXu65g", "scope": "GOOGLE", "types": ["point_of_interest", "establishment"], "user_ratings_total": 123, "vicinity": "100 Holton Street, Boston"}, "ChIJB0edJtF544kRbL_nEg45rKA": {"geometry": {"location": {"lat": 42.3603818, "lng": -71.1360804}, "viewport": {"northeast": {"lat": 42.3615777802915, "lng": -71.13479801970848}, "southwest": {"lat": 42.3588798197085, "lng": -71.1374959802915}}}, "icon": "https://maps.gstatic.com/mapfiles/place_api/icons/school-71.png", "id": "d6a748e68768c94779d3bee648687afa4759889a", "name": "German International School Boston", "photos": [{"height": 2952, "html_attributions": ["<a href=\"https://maps.google.com/maps/contrib/108683780494437719466/photos\">Anne S</a>"], "photo_reference": "CmRaAAAA-eXXe8Wnn9H9gdC5pPHk9QrpsoQe-A_wjRXXSZ3dZ4GEgItWlf8SQ4d0eARFxAg-lo6SkXiCVFR_PWME5HdoixvKWU5fqhiB6EO3I5GlR5rvHxgPey-ZswD-fMGo8SP5EhCu50sqhoCZ9c3yMcH27pcHGhQL2XgaPHnnb7R7lbRMLdJogPV6wg", "width": 5248}], "place_id": "ChIJB0edJtF544kRbL_nEg45rKA", "plus_code": {"compound_code": "9V67+5H Boston, Massachusetts, United States", "global_code": "87JC9V67+5H"}, "rating": 4.3, "reference": "ChIJB0edJtF544kRbL_nEg45rKA", "scope": "GOOGLE", "types": ["school", "point_of_interest", "establishment"], "user_ratings_total": 7, "vicinity": "57 Holton Street, Allston"}, "ChIJTYotWNF544kRkrkQasrXep8": {"geometry": {"location": {"lat": 42.3598945, "lng": -71.13772709999999}, "viewport": {"northeast": {"lat": 42.3614873302915, "lng": -71.1362727197085}, "southwest": {"lat": 42.3587893697085, "lng": -71.13897068029151}}}, "icon": "https://maps.gstatic.com/mapfiles/place_api/icons/generic_business-71.png", "id": "ddd5679f6da8fc745be770431462a76ee1d12c2d", "name": "AVFX, Inc.", "opening_hours": {"open_now": false}, "photos": [{"height": 1537, "html_attributions": ["<a href=\"https://maps.google.com/maps/contrib/101651331484702416817/photos\">AVFX, Inc.</a>"], "photo_reference": "CmRaAAAAl-qVu88AMvqXQCEyD_w9DrRwjj7dAXEbWaQXHLuGoa8_uN_WxuR8h2WG-OJPJPVZygJ7V-WNl-Mv78uL55GHKShn7jSCgrh2qGhTnZdNCJvMGSsoZf30Pf5s2gnA8SeIEhDDQscRVIGJy0EmijCy7WKzGhSlPhR_ZzPL7hvmWG3i24OqNdnWOA", "width": 2049}], "place_id": "ChIJTYotWNF544kRkrkQasrXep8", "plus_code": {"compound_code": "9V56+XW Boston, Massachusetts, United States", "global_code": "87JC9V56+XW"}, "rating": 4.3, "reference": "ChIJTYotWNF544kRkrkQasrXep8", "scope": "GOOGLE", "types": ["electronics_store", "home_goods_store", "store", "point_of_interest", "establishment"], "user_ratings_total": 4, "vicinity": "96 Holton Street, Boston"}, "ChIJPezYJNF544kRzN2PluWAWno": {"geometry": {"location": {"lat": 42.360202, "lng": -71.13660569999999}, "viewport": {"northeast": {"lat": 42.3615563302915, "lng": -71.13527931970849}, "southwest": {"lat": 42.3588583697085, "lng": -71.1379772802915}}}, "icon": "https://maps.gstatic.com/mapfiles/place_api/icons/generic_business-71.png", "id": "4bc110db0f46af80ac031ff610d877f464570397", "name": "Mc Namara House", "place_id": "ChIJPezYJNF544kRzN2PluWAWno", "plus_code": {"compound_code": "9V67+39 Boston, Massachusetts, United States", "global_code": "87JC9V67+39"}, "rating": 5, "reference": "ChIJPezYJNF544kRzN2PluWAWno", "scope": "GOOGLE", "types": ["health", "point_of_interest", "establishment"], "user_ratings_total": 1, "vicinity": "210 Everett Street, Allston"}, "ChIJi9lGmtZ544kRGcBi2CoFCtI": {"geometry": {"location": {"lat": 42.360859, "lng": -71.1372465}, "viewport": {"northeast": {"lat": 42.3624075802915, "lng": -71.1358194197085}, "southwest": {"lat": 42.3597096197085, "lng": -71.1385173802915}}}, "icon": "https://maps.gstatic.com/mapfiles/place_api/icons/generic_business-71.png", "id": "cfc0553c51cc34545bce2257cb1d010289c9d07a", "name": "Redbox", "photos": [{"height": 3120, "html_attributions": ["<a href=\"https://maps.google.com/maps/contrib/112376701893411377865/photos\">Henry SooHoo</a>"], "photo_reference": "CmRaAAAArAm5CMv2TWpqHbbPMqqWXEVuGUKu2c-Hf-E-KQ006QgTOst1wcaqrAzo4rmd3iAHgXb5blOn6gZgDACLTjES5HM-kMf5LaOqkpXvTbpXwO6aK70Oieqreuymmevza5slEhDpwQIkNFz3lT5XeG8EC2VZGhRbS0Gb19f4gWv0ren6JT1w_Situg", "width": 4160}], "place_id": "ChIJi9lGmtZ544kRGcBi2CoFCtI", "plus_code": {"compound_code": "9V67+84 Boston, Massachusetts, United States", "global_code": "87JC9V67+84"}, "price_level": 1, "reference": "ChIJi9lGmtZ544kRGcBi2CoFCtI", "scope": "GOOGLE", "types": ["movie_rental", "store", "point_of_interest", "establishment"], "vicinity": "370 Western Avenue, Brighton"}, "ChIJDzq5vdZ544kRrDL2jkLEvSU": {"geometry": {"location": {"lat": 42.360928, "lng": -71.1375412}, "viewport": {"northeast": {"lat": 42.36247348029151, "lng": -71.1361010697085}, "southwest": {"lat": 42.35977551970851, "lng": -71.13879903029151}}}, "icon": "https://maps.gstatic.com/mapfiles/place_api/icons/shopping-71.png", "id": "e351594ec9a9c173d9b930953d3b02184aa38e88", "name": "Star Market", "opening_hours": {"open_now": true}, "photos": [{"height": 3456, "html_attributions": ["<a href=\"https://maps.google.com/maps/contrib/116093913070532007043/photos\">Joseph Michela</a>"], "photo_reference": "CmRaAAAA0epMGrpULf8MawihpzGhG4xnCV8PO8FtqUqTW2kGtuRQAArqRnNmWDgzLB1yG4_4uadY6rAvyDqaBj9dloPzDfduSiFKxnUSQxIeXpnoRZoqUqGomQ2iI6fV3j3hUWQgEhCLH_5y2WGTDdyXVJnnxQz9GhTgM_a5jGBbACV21Ls98mfhXmOxBA", "width": 4608}], "place_id": "ChIJDzq5vdZ544kRrDL2jkLEvSU", "plus_code": {"compound_code": "9V66+9X Boston, Massachusetts, United States", "global_code": "87JC9V66+9X"}, "rating": 4, "reference": "ChIJDzq5vdZ544kRrDL2jkLEvSU", "scope": "GOOGLE", "types": ["grocery_or_supermarket", "store", "point_of_interest", "food", "establishment"], "user_ratings_total": 390, "vicinity": "370 Western Avenue, Brighton"}, "ChIJU4WJkNZ544kRWoO4sIBymRs": {"geometry": {"location": {"lat": 42.3608254, "lng": -71.1374895}, "viewport": {"northeast": {"lat": 42.3619721302915, "lng": -71.13623211970848}, "southwest": {"lat": 42.3592741697085, "lng": -71.1389300802915}}}, "icon": "https://maps.gstatic.com/mapfiles/place_api/icons/generic_business-71.png", "id": "91b6a5391dcc15f2d41ff80fcbc2ca5845f76653", "name": "MoneyGram", "opening_hours": {"open_now": true}, "photos": [{"height": 300, "html_attributions": ["<a href=\"https://maps.google.com/maps/contrib/115785712143993632796/photos\">MoneyGram</a>"], "photo_reference": "CmRaAAAA6dxcFd0qT3XIDdWjWm5_n-NHsR0Q-nlUiGJ4qb2j_gUqvmj-5NzUoWKaYTxx8nCk1EOdyz2py2D4E3xa27KRnPrjl_deDurQJg7FdX4ilZQDSCZJRo39Wywv9InF-jBcEhC3I5c83qTWXhqFGcFY2geAGhRPoDDJkIXAQ-ky4krNpSIUC-WCrQ", "width": 300}], "place_id": "ChIJU4WJkNZ544kRWoO4sIBymRs", "plus_code": {"compound_code": "9V67+82 Boston, Massachusetts, United States", "global_code": "87JC9V67+82"}, "rating": 4, "reference": "ChIJU4WJkNZ544kRWoO4sIBymRs", "scope": "GOOGLE", "types": ["finance", "point_of_interest", "establishment"], "user_ratings_total": 2, "vicinity": "370 Western Avenue, Brighton"}, "ChIJg8dQsNZ544kRrQzKEKeMbBk": {"geometry": {"location": {"lat": 42.3611263, "lng": -71.1374634}, "viewport": {"northeast": {"lat": 42.3625742302915, "lng": -71.13606851970849}, "southwest": {"lat": 42.3598762697085, "lng": -71.1387664802915}}}, "icon": "https://maps.gstatic.com/mapfiles/place_api/icons/generic_business-71.png", "id": "d6efffdc19ed0b03e305a74a03a99baa524c0030", "name": "Hubway Station @ 370 Western Ave", "photos": [{"height": 2992, "html_attributions": ["<a href=\"https://maps.google.com/maps/contrib/109952777049697836064/photos\">Alethea Rose</a>"], "photo_reference": "CmRaAAAA9l02xBo8mVrjeDR1avtkiazXoOEZW-KZ5WbF3JNoWsF7k0ts1MWCAgNQGtnbsi8485JSIg_BA9Jqw2TG5ZByU-K2w3ktAc6rCQjwM2i5UO0eVuKicDiA5Vf4T0A2tOu3EhAHv6-NXClt5lZX1jBFNgACGhQ2tHViLMN_PudqZsHlhF-oPjhP2w", "width": 4000}], "place_id": "ChIJg8dQsNZ544kRrQzKEKeMbBk", "plus_code": {"compound_code": "9V67+F2 Boston, Massachusetts, United States", "global_code": "87JC9V67+F2"}, "rating": 4, "reference": "ChIJg8dQsNZ544kRrQzKEKeMbBk", "scope": "GOOGLE", "types": ["point_of_interest", "establishment"], "user_ratings_total": 2, "vicinity": "370 Western Avenue, Boston"}, "ChIJQZy2kNZ544kRZjcfQRMnbUc": {"geometry": {"location": {"lat": 42.3610821, "lng": -71.1377804}, "viewport": {"northeast": {"lat": 42.3624662302915, "lng": -71.1365774697085}, "southwest": {"lat": 42.3597682697085, "lng": -71.1392754302915}}}, "icon": "https://maps.gstatic.com/mapfiles/place_api/icons/cafe-71.png", "id": "ff8a48b6a8aa129b558f83525c2f8ded8c7bf532", "name": "Starbucks", "opening_hours": {"open_now": true}, "photos": [{"height": 4128, "html_attributions": ["<a href=\"https://maps.google.com/maps/contrib/105967154963733597768/photos\">frank borghette</a>"], "photo_reference": "CmRaAAAAdB4q3KJSuMBQ9lTluA5w_Ux3zgTwbIKPx02uDKJQNIIEju3YnrVv_4Ogyr7_NEtxgqCMAq1DcmDuA_jCsT5KS69mCMn40MY09MBko7wc6EGFPjjb7shvP9uqzesC3ocIEhAocJWlMvnXmMGP7G2rtC3sGhRJ8hWlWfmbYipAyYxYoKQTDPBafw", "width": 3096}], "place_id": "ChIJQZy2kNZ544kRZjcfQRMnbUc", "plus_code": {"compound_code": "9V66+CV Boston, Massachusetts, United States", "global_code": "87JC9V66+CV"}, "price_level": 2, "rating": 3.5, "reference": "ChIJQZy2kNZ544kRZjcfQRMnbUc", "scope": "GOOGLE", "types": ["cafe", "store", "point_of_interest", "food", "establishment"], "user_ratings_total": 35, "vicinity": "370 Western Avenue, Boston"}, "ChIJp9C6kdZ544kRLyiY0SLvA04": {"geometry": {"location": {"lat": 42.360921, "lng": -71.1378974}, "viewport": {"northeast": {"lat": 42.3622993302915, "lng": -71.1366731697085}, "southwest": {"lat": 42.3596013697085, "lng": -71.13937113029151}}}, "icon": "https://maps.gstatic.com/mapfiles/place_api/icons/shopping-71.png", "id": "3e85fd321b745cbdcc5e9a1e0a2a3406a5ddf956", "name": "Star Market Pharmacy", "opening_hours": {"open_now": true}, "photos": [{"height": 3120, "html_attributions": ["<a href=\"https://maps.google.com/maps/contrib/112376701893411377865/photos\">Henry SooHoo</a>"], "photo_reference": "CmRaAAAA_7Nde8igerwaNGw1cSWNkm45d84pN8BI5x5HkQ0kRGheoLZsRNxg4JGPh6iv2qSkbyVHbYBz-gt8rqIMTjedsePJLZXGKYl8-UjAKdMXmxdb-IEpxEG3fR0SLK4AZjlJEhD26Jvio3x-RAP47PPZRiAUGhRI2s0iuDgIca5dAuWMi4EIFbPlhw", "width": 4160}], "place_id": "ChIJp9C6kdZ544kRLyiY0SLvA04", "plus_code": {"compound_code": "9V66+9R Boston, Massachusetts, United States", "global_code": "87JC9V66+9R"}, "rating": 4.5, "reference": "ChIJp9C6kdZ544kRLyiY0SLvA04", "scope": "GOOGLE", "types": ["pharmacy", "grocery_or_supermarket", "store", "health", "point_of_interest", "food", "establishment"], "user_ratings_total": 2, "vicinity": "370 Western Avenue, Brighton"}, "ChIJmenR29Z544kR8Zn9y_WE-Y8": {"geometry": {"location": {"lat": 42.3619095, "lng": -71.1361301}, "viewport": {"northeast": {"lat": 42.36322863029149, "lng": -71.13465371970848}, "southwest": {"lat": 42.3605306697085, "lng": -71.1373516802915}}}, "icon": "https://maps.gstatic.com/mapfiles/place_api/icons/generic_business-71.png", "id": "89894f7ac81822615c16cd260315ee9c1917d677", "name": "Aigner Associates", "place_id": "ChIJmenR29Z544kR8Zn9y_WE-Y8", "plus_code": {"compound_code": "9V67+QG Boston, Massachusetts, United States", "global_code": "87JC9V67+QG"}, "reference": "ChIJmenR29Z544kR8Zn9y_WE-Y8", "scope": "GOOGLE", "types": ["point_of_interest", "establishment"], "vicinity": "250 Everett Street # 2, Allston"}, "ChIJmenR29Z544kREzrKXGM_eiA": {"geometry": {"location": {"lat": 42.3619095, "lng": -71.1361301}, "viewport": {"northeast": {"lat": 42.36322863029149, "lng": -71.13465371970848}, "southwest": {"lat": 42.3605306697085, "lng": -71.1373516802915}}}, "icon": "https://maps.gstatic.com/mapfiles/place_api/icons/generic_business-71.png", "id": "13c0bc47c82fe90b3e107f9df09f64d5b586850b", "name": "Roofers Local Union", "place_id": "ChIJmenR29Z544kREzrKXGM_eiA", "plus_code": {"compound_code": "9V67+QG Boston, Massachusetts, United States", "global_code": "87JC9V67+QG"}, "reference": "ChIJmenR29Z544kREzrKXGM_eiA", "scope": "GOOGLE", "types": ["point_of_interest", "establishment"], "vicinity": "250 Everett Street, Allston"}, "ChIJLbuwbtF544kR34idlDnyCRQ": {"geometry": {"location": {"lat": 42.3596246, "lng": -71.13786189999999}, "viewport": {"northeast": {"lat": 42.3613526802915, "lng": -71.13634121970848}, "southwest": {"lat": 42.3586547197085, "lng": -71.13903918029149}}}, "icon": "https://maps.gstatic.com/mapfiles/place_api/icons/school-71.png", "id": "7a23cfb2c647d35f1c49e239198b9dfffc74eba8", "name": "Boston Fencing Club", "opening_hours": {"open_now": true}, "photos": [{"height": 3456, "html_attributions": ["<a href=\"https://maps.google.com/maps/contrib/103864776393667607950/photos\">Boston Fencing Club</a>"], "photo_reference": "CmRaAAAAU-FmxKkV4YmjfMlDZf_3oj315wlrgD1xmDL5Tj_XfF7YpspFjavEwxuqtUFJ-P-3vSMw5oliuXzwBR7lfYyu5Tl9SFQBN4lvQhZbpp8BEjcw8KpErOSTQe0a61-xfVbWEhDrEXH1VokYeVKu-RPz5skWGhSuyzkk_2gCHQ0jWsseRJS92vqTZQ", "width": 5184}], "place_id": "ChIJLbuwbtF544kR34idlDnyCRQ", "plus_code": {"compound_code": "9V56+RV Boston, Massachusetts, United States", "global_code": "87JC9V56+RV"}, "rating": 4.3, "reference": "ChIJLbuwbtF544kR34idlDnyCRQ", "scope": "GOOGLE", "types": ["health", "point_of_interest", "establishment"], "user_ratings_total": 6, "vicinity": "100 Holton Street, Brighton"}, "ChIJLbuwbtF544kR5WirzHbcbDM": {"geometry": {"location": {"lat": 42.3596246, "lng": -71.13786189999999}, "viewport": {"northeast": {"lat": 42.3613526802915, "lng": -71.13634121970848}, "southwest": {"lat": 42.3586547197085, "lng": -71.13903918029149}}}, "icon": "https://maps.gstatic.com/mapfiles/place_api/icons/school-71.png", "id": "8e3524bdf3016fd532ccaf80eef7e705e2d74d7e", "name": "Velocity Martial Arts & Fitness", "photos": [{"height": 2250, "html_attributions": ["<a href=\"https://maps.google.com/maps/contrib/108001666454103339505/photos\">Velocity Martial Arts &amp; Fitness</a>"], "photo_reference": "CmRaAAAAf3RRHLN-N9KfFs1Qbvfg_n_dYaSzgcUD9ChRDp_bx_YBpZ38RA4bMxcC6K39mKEOYJ5SbGb_XTKZNkQXA2XDHKija-g-ssbcrSuz4sj8AhRX1lP-vDv3Lhs38oJn83fMEhDYUOXH92ZDax9EekYGvK_7GhSrfB7JrC-qTSBRlY8Q7TbSAAZZmQ", "width": 3000}], "place_id": "ChIJLbuwbtF544kR5WirzHbcbDM", "plus_code": {"compound_code": "9V56+RV Boston, Massachusetts, United States", "global_code": "87JC9V56+RV"}, "reference": "ChIJLbuwbtF544kR5WirzHbcbDM", "scope": "GOOGLE", "types": ["health", "point_of_interest", "establishment"], "vicinity": "100 Holton Street, Boston"}, "ChIJBTojn9F544kRxL53OygglYc": {"geometry": {"location": {"lat": 42.3595103, "lng": -71.1372499}, "viewport": {"northeast": {"lat": 42.3608193302915, "lng": -71.13573106970848}, "southwest": {"lat": 42.3581213697085, "lng": -71.1384290302915}}}, "icon": "https://maps.gstatic.com/mapfiles/place_api/icons/generic_business-71.png", "id": "7e7cea2e0b0afc544ae6d93438645fe96979214d", "name": "Revolution Motion Picture Services", "place_id": "ChIJBTojn9F544kRxL53OygglYc", "plus_code": {"compound_code": "9V57+R4 Boston, Massachusetts, United States", "global_code": "87JC9V57+R4"}, "reference": "ChIJBTojn9F544kRxL53OygglYc", "scope": "GOOGLE", "types": ["point_of_interest", "establishment"], "vicinity": "184 Everett Street, Allston"}, "ChIJoal3E9F544kRygDj1VXC6Ms": {"geometry": {"location": {"lat": 42.3595103, "lng": -71.1372499}, "viewport": {"northeast": {"lat": 42.3608193302915, "lng": -71.13573106970848}, "southwest": {"lat": 42.3581213697085, "lng": -71.1384290302915}}}, "icon": "https://maps.gstatic.com/mapfiles/place_api/icons/generic_business-71.png", "id": "7c20e91e3ec34a92bd71bdc734c72d426070ec3c", "name": "V A G R A N T S", "opening_hours": {"open_now": true}, "photos": [{"height": 3648, "html_attributions": ["<a href=\"https://maps.google.com/maps/contrib/104258740251151236681/photos\">V A G R A N T S</a>"], "photo_reference": "CmRaAAAA9kC96324a8RuU8erZFVPsmtycTHvoVX5a81nBz2z1XrrEQDwJsRVFdw2QmH2HRpIZuDuivqL_eKOxVVX4zdAvICLPnjXgO2K6CfZq-gInQhqSj8OK78yPjiansHvO3kGEhBl5pEsoODrxl-ddmE0bgffGhQgVfgO4ONfEVSZvpBrVu3RUFXSZw", "width": 5472}], "place_id": "ChIJoal3E9F544kRygDj1VXC6Ms", "plus_code": {"compound_code": "9V57+R4 Boston, Massachusetts, United States", "global_code": "87JC9V57+R4"}, "reference": "ChIJoal3E9F544kRygDj1VXC6Ms", "scope": "GOOGLE", "types": ["point_of_interest", "establishment"], "vicinity": "184 Everett Street, Boston"}, "ChIJIcPgus9544kRjk7LevvW_Os": {"geometry": {"location": {"lat": 42.3539038, "lng": -71.1337112}, "viewport": {"northeast": {"lat": 42.37437389999999, "lng": -71.110533}, "southwest": {"lat": 42.3460228, "lng": -71.143925}}}, "icon": "https://maps.gstatic.com/mapfiles/place_api/icons/geocode-71.png", "id": "e7453d23034c3414f98e19df650f49a83b645952", "name": "Allston", "photos": [{"height": 1536, "html_attributions": ["<a href=\"https://maps.google.com/maps/contrib/104422420120565835220/photos\">Welmyr De Baguio</a>"], "photo_reference": "CmRaAAAAWHb-nemwtNrw0Goyjs8lrxJeyG0vxxwCITIp1sSoV-alhriHCQlFk_GgpNxCwWMNJmnblgt0zXCMlTqj_TWbMEI_PXQWqbSU3uHu7IyQLfVEG4p4vYwpiAwN8NOVRzGCEhCSwtErnAPiQAFD1TAuTKvJGhRshL_iT23OiohNJsW6bMsV39KGww", "width": 1536}], "place_id": "ChIJIcPgus9544kRjk7LevvW_Os", "reference": "ChIJIcPgus9544kRjk7LevvW_Os", "scope": "GOOGLE", "types": ["neighborhood", "political"], "vicinity": "Boston"}, "ChIJ1dsvA9R544kRRxUT-aPWprQ": {"geometry": {"location": {"lat": 42.3620425, "lng": -71.13874969999999}, "viewport": {"northeast": {"lat": 42.3634859302915, "lng": -71.1378167697085}, "southwest": {"lat": 42.3607879697085, "lng": -71.14051473029151}}}, "icon": "https://maps.gstatic.com/mapfiles/place_api/icons/generic_business-71.png", "id": "d5441ded139d12c495e84633d414d9bb10c6ff46", "name": "Charlesview Apartments", "place_id": "ChIJ1dsvA9R544kRRxUT-aPWprQ", "plus_code": {"compound_code": "9V66+RG Boston, Massachusetts, United States", "global_code": "87JC9V66+RG"}, "rating": 5, "reference": "ChIJ1dsvA9R544kRRxUT-aPWprQ", "scope": "GOOGLE", "types": ["point_of_interest", "establishment"], "user_ratings_total": 2, "vicinity": "Litchfield Street, Boston"}, "ChIJUR2AmNZ544kRhyki8pbDls0": {"geometry": {"location": {"lat": 42.3623074, "lng": -71.13832719999999}, "viewport": {"northeast": {"lat": 42.3637137802915, "lng": -71.13710471970849}, "southwest": {"lat": 42.3610158197085, "lng": -71.1398026802915}}}, "icon": "https://maps.gstatic.com/mapfiles/place_api/icons/generic_business-71.png", "id": "3c8bba37e96a2bac1332e761a3d55dee09ce4fe5", "name": "Josephine A. Fiorentino Community Center", "photos": [{"height": 3024, "html_attributions": ["<a href=\"https://maps.google.com/maps/contrib/104650780432641818172/photos\">Timothy Johnson</a>"], "photo_reference": "CmRaAAAALhjXx-znJ5goYp6o33Oy3ZlmfMZWi28r-QVE5DG_0rrucDPlmYXMiAd7oGm1Ud-BhqNaSp2aT-BvxaXJdj0crsAH_WciskD0WS5-5pOk6ZFfnAu1DT5rRyul709VOrpMEhCIQxM8-fpht8QGdlTftoHCGhSYH3WFc88nx9cGc1rA7V0kDQcxlg", "width": 4032}], "place_id": "ChIJUR2AmNZ544kRhyki8pbDls0", "plus_code": {"compound_code": "9V66+WM Boston, Massachusetts, United States", "global_code": "87JC9V66+WM"}, "rating": 5, "reference": "ChIJUR2AmNZ544kRhyki8pbDls0", "scope": "GOOGLE", "types": ["point_of_interest", "establishment"], "user_ratings_total": 16, "vicinity": "123 Antwerp Street, Allston"}, "ChIJdYOJkNZ544kRDKbIKzBj1zs": {"geometry": {"location": {"lat": 42.3610115, "lng": -71.1375175}, "viewport": {"northeast": {"lat": 42.3625169302915, "lng": -71.1360959197085}, "southwest": {"lat": 42.3598189697085, "lng": -71.13879388029152}}}, "icon": "https://maps.gstatic.com/mapfiles/place_api/icons/generic_business-71.png", "id": "24536dc6aef80a791d25bfbe64a3c02224404048", "name": "higi", "opening_hours": {"open_now": true}, "place_id": "ChIJdYOJkNZ544kRDKbIKzBj1zs", "plus_code": {"compound_code": "9V66+CX Boston, Massachusetts, United States", "global_code": "87JC9V66+CX"}, "reference": "ChIJdYOJkNZ544kRDKbIKzBj1zs", "scope": "GOOGLE", "types": ["health", "point_of_interest", "establishment"], "vicinity": "370 Western Avenue, Brighton"}, "ChIJS1Rg6dZ544kRxqSAbTwnNe8": {"geometry": {"location": {"lat": 42.3610115, "lng": -71.1375175}, "viewport": {"northeast": {"lat": 42.3625169302915, "lng": -71.1360959197085}, "southwest": {"lat": 42.3598189697085, "lng": -71.13879388029152}}}, "icon": "https://maps.gstatic.com/mapfiles/place_api/icons/generic_business-71.png", "id": "451031fddbaca959dd7be3c7fdbeac09675f310f", "name": "Zipcar", "opening_hours": {"open_now": true}, "photos": [{"height": 499, "html_attributions": ["<a href=\"https://maps.google.com/maps/contrib/107220010364163542647/photos\">Zipcar</a>"], "photo_reference": "CmRaAAAAkGDxaQsudKzxpwYn-ckJ_xjSoOSlUftOEEq45X2df-d53XQ4v6s72lZhMUx9SUslV8XNPwu35bhpcMJB6jOJvQx2tuzC141C1jgP0oPOXJfhD88nqyXPbtsll0CfzGqJEhBMeqmmYpehX-uDKTTDcMRkGhQPc5Qqlme88E1--Eo9jGVeJVcl9Q", "width": 499}], "place_id": "ChIJS1Rg6dZ544kRxqSAbTwnNe8", "plus_code": {"compound_code": "9V66+CX Boston, Massachusetts, United States", "global_code": "87JC9V66+CX"}, "reference": "ChIJS1Rg6dZ544kRxqSAbTwnNe8", "scope": "GOOGLE", "types": ["car_rental", "point_of_interest", "establishment"], "vicinity": "370 Western Avenue, Boston"}, "ChIJCydOStF544kRZoZKCcqGJVs": {"geometry": {"location": {"lat": 42.3608537, "lng": -71.1377006}, "viewport": {"northeast": {"lat": 42.36225613029149, "lng": -71.13657886970849}, "southwest": {"lat": 42.35955816970849, "lng": -71.1392768302915}}}, "icon": "https://maps.gstatic.com/mapfiles/place_api/icons/shopping-71.png", "id": "bd4f7499fc89f2fa304c81a914be831c3744a2c9", "name": "The Wine Shop", "place_id": "ChIJCydOStF544kRZoZKCcqGJVs", "plus_code": {"compound_code": "9V66+8W Boston, Massachusetts, United States", "global_code": "87JC9V66+8W"}, "reference": "ChIJCydOStF544kRZoZKCcqGJVs", "scope": "GOOGLE", "types": ["store", "point_of_interest", "establishment"], "vicinity": "370 Western Avenue, Allston"}, "ChIJETLct9Z544kRMlSjuwKSswI": {"geometry": {"location": {"lat": 42.361584, "lng": -71.137451}, "viewport": {"northeast": {"lat": 42.3629465302915, "lng": -71.13615946970849}, "southwest": {"lat": 42.3602485697085, "lng": -71.13885743029151}}}, "icon": "https://maps.gstatic.com/mapfiles/place_api/icons/generic_business-71.png", "id": "611f8dcb09f1bd8b52dbf772da88dbd253502098", "name": "Coinstar", "place_id": "ChIJETLct9Z544kRMlSjuwKSswI", "plus_code": {"compound_code": "9V67+J2 Boston, Massachusetts, United States", "global_code": "87JC9V67+J2"}, "reference": "ChIJETLct9Z544kRMlSjuwKSswI", "scope": "GOOGLE", "types": ["finance", "point_of_interest", "establishment"], "vicinity": "NAI, 370 Western Avenue, Brighton"}, "ChIJwUvJsNZ544kR8-ZRU4HypRw": {"geometry": {"location": {"lat": 42.36164, "lng": -71.137824}, "viewport": {"northeast": {"lat": 42.3629796302915, "lng": -71.1364440697085}, "southwest": {"lat": 42.3602816697085, "lng": -71.13914203029151}}}, "icon": "https://maps.gstatic.com/mapfiles/place_api/icons/generic_business-71.png", "id": "f3243f78496ecd1fb87d9d33252c9bc5bebf825e", "name": "5G_Services", "opening_hours": {"open_now": true}, "photos": [{"height": 2048, "html_attributions": ["<a href=\"https://maps.google.com/maps/contrib/112978843117970450519/photos\">5G_Services</a>"], "photo_reference": "CmRaAAAARc2FIEVmZDmqbzvEr2BSCUOqHKZMiHtBLHcA55vxN9hnCUafXYNNdxnzIrfkXcELSGE-dRWXdnGhhRCQ_VOmFZlY-ph0jeF8ymnFuYRrXqr0l7tVkhZvQTK0k2vtOAMIEhAT5LnmPTmMdsRtty1EhdpBGhRvR4vbw92C65eplciieIHmwsxlqA", "width": 1536}], "place_id": "ChIJwUvJsNZ544kR8-ZRU4HypRw", "plus_code": {"compound_code": "9V66+MV Boston, Massachusetts, United States", "global_code": "87JC9V66+MV"}, "reference": "ChIJwUvJsNZ544kR8-ZRU4HypRw", "scope": "GOOGLE", "types": ["point_of_interest", "establishment"], "vicinity": "Telford Street Extension, Brighton"}, "ChIJ3R9PKNd544kRill9ZNE8rkA": {"geometry": {"location": {"lat": 42.36130670000001, "lng": -71.1358697}, "viewport": {"northeast": {"lat": 42.3626810802915, "lng": -71.13462911970848}, "southwest": {"lat": 42.3599831197085, "lng": -71.1373270802915}}}, "icon": "https://maps.gstatic.com/mapfiles/place_api/icons/generic_business-71.png", "id": "31f45e0906914f6fafca3f1a66234c90a7ac27ff", "name": "Tanning & Nails", "place_id": "ChIJ3R9PKNd544kRill9ZNE8rkA", "plus_code": {"compound_code": "9V67+GM Boston, Massachusetts, United States", "global_code": "87JC9V67+GM"}, "reference": "ChIJ3R9PKNd544kRill9ZNE8rkA", "scope": "GOOGLE", "types": ["point_of_interest", "establishment"], "vicinity": "245 Everett Street, Allston"}, "ChIJLbuwbtF544kRFnUGvlv2lfs": {"geometry": {"location": {"lat": 42.3596246, "lng": -71.13786189999999}, "viewport": {"northeast": {"lat": 42.3613526802915, "lng": -71.13634121970848}, "southwest": {"lat": 42.3586547197085, "lng": -71.13903918029149}}}, "icon": "https://maps.gstatic.com/mapfiles/place_api/icons/generic_business-71.png", "id": "92302bfdcd54bb69eae002c70262a6f9679af3f9", "name": "CrossFit ONE Nation - Boston", "opening_hours": {"open_now": true}, "photos": [{"height": 4608, "html_attributions": ["<a href=\"https://maps.google.com/maps/contrib/103874395504870041008/photos\">Laura Savino</a>"], "photo_reference": "CmRaAAAAgeZgOLUkL6iQAzY0JtutbNCoHBAaAwfyo04GCJ92YUMp40-MAEG7BjfvE9fCw-1VBa8O2EsjBsdhkZd2Ia32QBCndOZWAfgOpSVIy2Zjgvgl5L1FUMS595BaozII-wXUEhA4LXv3xFtoq0PFArIUFjj2GhSNi3dYUTl2RqQKqbjjItWsU-xm8Q", "width": 3456}], "place_id": "ChIJLbuwbtF544kRFnUGvlv2lfs", "plus_code": {"compound_code": "9V56+RV Boston, Massachusetts, United States", "global_code": "87JC9V56+RV"}, "rating": 5, "reference": "ChIJLbuwbtF544kRFnUGvlv2lfs", "scope": "GOOGLE", "types": ["health", "point_of_interest", "establishment"], "user_ratings_total": 19, "vicinity": "100 Holton Street, Brighton"}, "ChIJs4dFoNF544kR8jlQftaNUpQ": {"geometry": {"location": {"lat": 42.3595103, "lng": -71.1372499}, "viewport": {"northeast": {"lat": 42.3608193302915, "lng": -71.13573106970848}, "southwest": {"lat": 42.3581213697085, "lng": -71.1384290302915}}}, "icon": "https://maps.gstatic.com/mapfiles/place_api/icons/generic_business-71.png", "id": "2e958845fdf31c335e4a91360040a00be59c9ebf", "name": "Red Sky Studios", "photos": [{"height": 3264, "html_attributions": ["<a href=\"https://maps.google.com/maps/contrib/108722347869500159738/photos\">\u041f\u0430\u0432\u0435\u043b \u0421\u0430\u0432\u0438\u0449\u0435\u043d\u043a\u043e</a>"], "photo_reference": "CmRaAAAASV6pqb9OiDedle2GQ4F4qjq4ZaA3BNhYoeiUDK2h0KZJb-Sv1egG1jQm5V-O8lxR_BTkXmJEeRvlLczitKn6GH2dV78W2O1uqB1fhcNE9kDClG9owwNl23Rtfjh3W2_2EhA_qVZoYYbOqU7fEFqa_86tGhTheJcyQ8PAKcK_HIVwXP-IdPY8MQ", "width": 1836}], "place_id": "ChIJs4dFoNF544kR8jlQftaNUpQ", "plus_code": {"compound_code": "9V57+R4 Boston, Massachusetts, United States", "global_code": "87JC9V57+R4"}, "rating": 4.9, "reference": "ChIJs4dFoNF544kR8jlQftaNUpQ", "scope": "GOOGLE", "types": ["point_of_interest", "establishment"], "user_ratings_total": 13, "vicinity": "184 Everett Street, Allston"}}