{"ChIJGzE9DS1l44kRoOhiASS_fHg": {"geometry": {"location": {"lat": 42.3600825, "lng": -71.0588801}, "viewport": {"northeast": {"lat": 42.40081989999999, "lng": -70.749455}, "southwest": {"lat": 42.22788, "lng": -71.191113}}}, "icon": "https://maps.gstatic.com/mapfiles/place_api/icons/geocode-71.png", "id": "06755c25d2b34d13942a4713971756a55b870ced", "name": "Boston", "photos": [{"height": 3024, "html_attributions": ["<a href=\"https://maps.google.com/maps/contrib/104670289779338733432/photos\">Natalia Zalucean</a>"], "photo_reference": "CmRaAAAA9V7KeFoQ4XdmXWaHKuYY-wfrlAOunH-3PzIUe8N8G83Uv9eo5nFWM9OfLa2JTDDVvyI5Nn1O0oPbIAC3_JCLGww3tCDudzcHW8LL6N34ognZ75oR9bOO-TozyaKoWhgCEhBtxIgdks1QhujJYGZjcY6xGhQG04wPQUKrUc4q-Z9BHPBVUTeq-w", "width": 4032}], "place_id": "ChIJGzE9DS1l44kRoOhiASS_fHg", "reference": "ChIJGzE9DS1l44kRoOhiASS_fHg", "scope": "GOOGLE", "types": ["locality", "political"], "vicinity": "Boston"}, "ChIJham4E0d_44kRlPiJwYY34YU": {"geometry": {"location": {"lat": 42.282632, "lng": -71.17031089999999}, "viewport": {"northeast": {"lat": 42.2839121802915, "lng": -71.16891951970848}, "southwest": {"lat": 42.2812142197085, "lng": -71.1716174802915}}}, "icon": "https://maps.gstatic.com/mapfiles/place_api/icons/generic_business-71.png", "id": "975a1cc8f6f2b6dc7c8504e002196fd0f5bd0cec", "name": "Mary Connolly, PA", "place_id": "ChIJham4E0d_44kRlPiJwYY34YU", "plus_code": {"compound_code": "7RMH+3V Boston, Massachusetts, United States", "global_code": "87JC7RMH+3V"}, "rating": 5, "reference": "ChIJham4E0d_44kRlPiJwYY34YU", "scope": "GOOGLE", "types": ["doctor", "health", "point_of_interest", "establishment"], "user_ratings_total": 1, "vicinity": "15 Berwick Street, West Roxbury, MA 02132, West Roxbury"}, "ChIJzxYuijx_44kRRILba9QQn0k": {"geometry": {"location": {"lat": 42.27975539999999, "lng": -71.1626756}, "viewport": {"northeast": {"lat": 42.303697, "lng": -71.12789599999999}, "southwest": {"lat": 42.25289799999999, "lng": -71.191198}}}, "icon": "https://maps.gstatic.com/mapfiles/place_api/icons/geocode-71.png", "id": "20de47f271a3ccaf647bdac7b9ee10bd6e83a6c4", "name": "West Roxbury", "photos": [{"height": 603, "html_attributions": ["<a href=\"https://maps.google.com/maps/contrib/117808102006877461743/photos\">Andri Kyrychok</a>"], "photo_reference": "CmRaAAAAPNJhoRJ5DAR8aQ_OiN8yg-Ys5ZbG7h9QkOtciHVd7o7YZm6zAxE_yuoZGzcm1zxuxIInCj4FGbgVM_uTSLqKduzmvoPkvm8-BvTCIZf8tV1GLDUuuZisc8XBf8qlsyHdEhB1v2_UH3lg5JrjWAO4Yl7wGhQ6MTKN5gQn482BcK7ffgg8CvljgQ", "width": 546}], "place_id": "ChIJzxYuijx_44kRRILba9QQn0k", "reference": "ChIJzxYuijx_44kRRILba9QQn0k", "scope": "GOOGLE", "types": ["neighborhood", "political"], "vicinity": "Boston"}}