{"ChIJGzE9DS1l44kRoOhiASS_fHg": {"geometry": {"location": {"lat": 42.3600825, "lng": -71.0588801}, "viewport": {"northeast": {"lat": 42.40081989999999, "lng": -70.749455}, "southwest": {"lat": 42.22788, "lng": -71.191113}}}, "icon": "https://maps.gstatic.com/mapfiles/place_api/icons/geocode-71.png", "id": "06755c25d2b34d13942a4713971756a55b870ced", "name": "Boston", "photos": [{"height": 3024, "html_attributions": ["<a href=\"https://maps.google.com/maps/contrib/104670289779338733432/photos\">Natalia Zalucean</a>"], "photo_reference": "CmRaAAAAZqjq44qLnmqcLY8h9EJJ90ouIox-YH3vZGJtPvG_azIYYtYDyCpGeSIM8Oz_xXUegTANej0BJW4wr5W2sxsajSPAOoU0ZkHVzLp2U2XsQiodZ37gYizR4p1iUI0QzYFEEhDPohF6KAV24XdzZQQj1yseGhSeTReTBPlu-JbvK7J5Bkgm4TijKg", "width": 4032}], "place_id": "ChIJGzE9DS1l44kRoOhiASS_fHg", "reference": "ChIJGzE9DS1l44kRoOhiASS_fHg", "scope": "GOOGLE", "types": ["locality", "political"], "vicinity": "Boston"}, "ChIJ5fo6Krp744kRZ5UxPZ06S-A": {"geometry": {"location": {"lat": 42.30425099999999, "lng": -71.06748879999999}, "viewport": {"northeast": {"lat": 42.3055287302915, "lng": -71.0661050197085}, "southwest": {"lat": 42.3028307697085, "lng": -71.06880298029151}}}, "icon": "https://maps.gstatic.com/mapfiles/place_api/icons/generic_business-71.png", "id": "bf722f9b264df3857cb7e5b7fab293b178c82675", "name": "Bay Cove Human Services", "photos": [{"height": 4160, "html_attributions": ["<a href=\"https://maps.google.com/maps/contrib/112489285429216610045/photos\">Mike Griffin</a>"], "photo_reference": "CmRaAAAAOYXTZzVBMD1BvzNad_L8OAJv6UPVU8deekgcU4qJZc3vVHNW5CyLj1gC4sh6OuCmFEJManQQUpkUvQZldgQalOiOfGzyp_AlrVbSdcIOnt7KPYBLqF91hmfRc_rhHs8iEhBCQs9t3qZTbfT-jhwHKWL2GhRclA85LqflZ8aK64Yerubmpn7UUg", "width": 2340}], "place_id": "ChIJ5fo6Krp744kRZ5UxPZ06S-A", "plus_code": {"compound_code": "8W3M+P2 Boston, Massachusetts, United States", "global_code": "87JC8W3M+P2"}, "rating": 4, "reference": "ChIJ5fo6Krp744kRZ5UxPZ06S-A", "scope": "GOOGLE", "types": ["point_of_interest", "establishment"], "user_ratings_total": 3, "vicinity": "22 Speedwell Street, Dorchester"}, "ChIJacFa9rl744kRu2MXphZuPvQ": {"geometry": {"location": {"lat": 42.3055081, "lng": -71.0674657}, "viewport": {"northeast": {"lat": 42.3069427302915, "lng": -71.06623546970849}, "southwest": {"lat": 42.3042447697085, "lng": -71.06893343029151}}}, "icon": "https://maps.gstatic.com/mapfiles/place_api/icons/generic_business-71.png", "id": "cb663be0fa064c37b4e07f1e5f712ae165243811", "name": "Western Union", "opening_hours": {"open_now": true}, "photos": [{"height": 1000, "html_attributions": ["<a href=\"https://maps.google.com/maps/contrib/118150455197388940050/photos\">Western Union</a>"], "photo_reference": "CmRaAAAAObztQ2QyqEN-85oBUgl-i3xmSzN9D-XFAWW8THxJTw63Ey5cMAcFiKlpCNSZ5N9_MdPPIcYhd1w5UiiIw0gL1OIF70Tvu4NMp_OAk5TXAVIlV83oN7pXypbNN9uApssUEhBv2AX7pOMo3CuUtToqRSa1GhRtARHJ8eMJeOET6NYo5TwYGx-Xhg", "width": 1000}], "place_id": "ChIJacFa9rl744kRu2MXphZuPvQ", "plus_code": {"compound_code": "8W4M+62 Boston, Massachusetts, United States", "global_code": "87JC8W4M+62"}, "rating": 5, "reference": "ChIJacFa9rl744kRu2MXphZuPvQ", "scope": "GOOGLE", "types": ["finance", "point_of_interest", "establishment"], "user_ratings_total": 1, "vicinity": "217 Bowdoin Street, Dorchester"}, "ChIJlU-IHLp744kRHfWaitSDNzM": {"geometry": {"location": {"lat": 42.3056235, "lng": -71.06733849999999}, "viewport": {"northeast": {"lat": 42.3070534802915, "lng": -71.06610191970849}, "southwest": {"lat": 42.3043555197085, "lng": -71.0687998802915}}}, "icon": "https://maps.gstatic.com/mapfiles/place_api/icons/generic_business-71.png", "id": "1b38df1918e20ca4ff4739f0422c1d8b3c419afa", "name": "Building Blocks Property Management", "opening_hours": {"open_now": false}, "photos": [{"height": 250, "html_attributions": ["<a href=\"https://maps.google.com/maps/contrib/109772362585585023375/photos\">Building Blocks Property Management</a>"], "photo_reference": "CmRaAAAAQHEIyGrq97iUlyRV6tzv6Xsqw6VjKZeM6X5nbQ7fTiYF2Qk07J5tDWY_dhT2Qgl9KX02vqSv5IsaYBG2hDkuubpZvKJxCWhrnZ5HR3TIinvW6z2pArNm2Vfl9WTDc13uEhAQjUSWhawnCsnnXuoaQl36GhQMFkRCRwg3pJy9UomkGD7kcWTi1Q", "width": 250}], "place_id": "ChIJlU-IHLp744kRHfWaitSDNzM", "plus_code": {"compound_code": "8W4M+63 Boston, Massachusetts, United States", "global_code": "87JC8W4M+63"}, "reference": "ChIJlU-IHLp744kRHfWaitSDNzM", "scope": "GOOGLE", "types": ["point_of_interest", "establishment"], "vicinity": "223-227A Bowdoin Street, Boston"}, "ChIJTftwVrp744kRdFp_VqVjLdU": {"geometry": {"location": {"lat": 42.30384600000001, "lng": -71.06476289999999}, "viewport": {"northeast": {"lat": 42.3052252302915, "lng": -71.06330636970849}, "southwest": {"lat": 42.3025272697085, "lng": -71.0660043302915}}}, "icon": "https://maps.gstatic.com/mapfiles/place_api/icons/school-71.png", "id": "d5496ad5da97599c7ab306a36da178b9a516cdff", "name": "LaCriss Family Childcare", "place_id": "ChIJTftwVrp744kRdFp_VqVjLdU", "plus_code": {"compound_code": "8W3P+G3 Boston, Massachusetts, United States", "global_code": "87JC8W3P+G3"}, "reference": "ChIJTftwVrp744kRdFp_VqVjLdU", "scope": "GOOGLE", "types": ["point_of_interest", "establishment"], "vicinity": "72 Draper Street, Boston"}, "ChIJ__8rebp744kRcgjTFvJSAcM": {"geometry": {"location": {"lat": 42.3057792, "lng": -71.0650283}, "viewport": {"northeast": {"lat": 42.3071586802915, "lng": -71.06359006970848}, "southwest": {"lat": 42.3044607197085, "lng": -71.0662880302915}}}, "icon": "https://maps.gstatic.com/mapfiles/place_api/icons/generic_business-71.png", "id": "4ef78f97ede09cc83c6b61691f5fe5ef9030b215", "name": "quasinix", "place_id": "ChIJ__8rebp744kRcgjTFvJSAcM", "plus_code": {"compound_code": "8W4M+8X Boston, Massachusetts, United States", "global_code": "87JC8W4M+8X"}, "rating": 5, "reference": "ChIJ__8rebp744kRcgjTFvJSAcM", "scope": "GOOGLE", "types": ["point_of_interest", "establishment"], "user_ratings_total": 3, "vicinity": "37 Mount Ida Road, Dorchester"}, "ChIJT7Uph7p744kRPVOyDs7Y6qk": {"geometry": {"location": {"lat": 42.3055233, "lng": -71.064454}, "viewport": {"northeast": {"lat": 42.3068444302915, "lng": -71.0631865197085}, "southwest": {"lat": 42.3041464697085, "lng": -71.0658844802915}}}, "icon": "https://maps.gstatic.com/mapfiles/place_api/icons/shopping-71.png", "id": "33b853a277e32bff21fbd788ecd88762b4e57a63", "name": "cozza", "place_id": "ChIJT7Uph7p744kRPVOyDs7Y6qk", "plus_code": {"compound_code": "8W4P+66 Boston, Massachusetts, United States", "global_code": "87JC8W4P+66"}, "rating": 5, "reference": "ChIJT7Uph7p744kRPVOyDs7Y6qk", "scope": "GOOGLE", "types": ["car_dealer", "store", "point_of_interest", "establishment"], "user_ratings_total": 1, "vicinity": "48 Mount Ida Road, Dorchester"}, "ChIJT7Uph7p744kReaIoSxXAj54": {"geometry": {"location": {"lat": 42.3055233, "lng": -71.064454}, "viewport": {"northeast": {"lat": 42.3068444302915, "lng": -71.0631865197085}, "southwest": {"lat": 42.3041464697085, "lng": -71.0658844802915}}}, "icon": "https://maps.gstatic.com/mapfiles/place_api/icons/generic_business-71.png", "id": "e7f63cad2305b495fef5786c7bfa2252919b2bf0", "name": "malise", "place_id": "ChIJT7Uph7p744kReaIoSxXAj54", "plus_code": {"compound_code": "8W4P+66 Boston, Massachusetts, United States", "global_code": "87JC8W4P+66"}, "reference": "ChIJT7Uph7p744kReaIoSxXAj54", "scope": "GOOGLE", "types": ["point_of_interest", "establishment"], "vicinity": "48 Mount Ida Road, Dorchester"}, "ChIJRU2Axbt744kRSAJwNKVhjqQ": {"geometry": {"location": {"lat": 42.3032859, "lng": -71.0666992}, "viewport": {"northeast": {"lat": 42.3047068802915, "lng": -71.06538606970851}, "southwest": {"lat": 42.3020089197085, "lng": -71.06808403029152}}}, "icon": "https://maps.gstatic.com/mapfiles/place_api/icons/shopping-71.png", "id": "1e1f16678b1fe7550927a43c523b6cd6098bafc3", "name": "eshop fragrance", "opening_hours": {"open_now": true}, "place_id": "ChIJRU2Axbt744kRSAJwNKVhjqQ", "plus_code": {"compound_code": "8W3M+88 Boston, Massachusetts, United States", "global_code": "87JC8W3M+88"}, "reference": "ChIJRU2Axbt744kRSAJwNKVhjqQ", "scope": "GOOGLE", "types": ["clothing_store", "store", "point_of_interest", "establishment"], "vicinity": "103 Homes Avenue, Dorchester"}, "ChIJY51P9rl744kRergmzOzhemw": {"geometry": {"location": {"lat": 42.3055081, "lng": -71.0674657}, "viewport": {"northeast": {"lat": 42.3069427302915, "lng": -71.06623546970849}, "southwest": {"lat": 42.3042447697085, "lng": -71.06893343029151}}}, "icon": "https://maps.gstatic.com/mapfiles/place_api/icons/shopping-71.png", "id": "21dee37195d059423ac7e0791655fc97d6ca1ddd", "name": "Bowdoin Food Corporation", "photos": [{"height": 4032, "html_attributions": ["<a href=\"https://maps.google.com/maps/contrib/111830776845515872078/photos\">walfri Rodriguez</a>"], "photo_reference": "CmRaAAAAfJZkR-E_RiSYyD3awhKeAkt8qFhx1F5uSCsQ_eO6_n34H1Je6HDJDQTjRL9F37eg8HjSHlyvaSA33Dr9rYHf3H2ffvEZPl1qAKLhe2P_8075vE1l-09yS6CNmwDyhNxeEhBtzWJKGT4hfMNSe3xDk1dVGhROq4O9DnLaxOHJUiCNYlkQvczNdQ", "width": 3024}], "place_id": "ChIJY51P9rl744kRergmzOzhemw", "plus_code": {"compound_code": "8W4M+62 Boston, Massachusetts, United States", "global_code": "87JC8W4M+62"}, "rating": 5, "reference": "ChIJY51P9rl744kRergmzOzhemw", "scope": "GOOGLE", "types": ["convenience_store", "store", "point_of_interest", "food", "establishment"], "user_ratings_total": 1, "vicinity": "217 Bowdoin Street, Dorchester"}, "ChIJC0QQIrp744kR49jwEgrrdNw": {"geometry": {"location": {"lat": 42.3050889, "lng": -71.06718719999999}, "viewport": {"northeast": {"lat": 42.3064305802915, "lng": -71.06583086970849}, "southwest": {"lat": 42.3037326197085, "lng": -71.06852883029151}}}, "icon": "https://maps.gstatic.com/mapfiles/place_api/icons/generic_recreational-71.png", "id": "169e583a426d54664def95ec5a13d199cfcaf14c", "name": "Norton and Stonehurst Streets Garden", "place_id": "ChIJC0QQIrp744kR49jwEgrrdNw", "reference": "ChIJC0QQIrp744kR49jwEgrrdNw", "scope": "GOOGLE", "types": ["park", "premise", "point_of_interest", "establishment"], "vicinity": "Boston"}, "ChIJs4veGkl644kROEK8ix2v_oY": {"geometry": {"location": {"lat": 42.30163049999999, "lng": -71.067605}, "viewport": {"northeast": {"lat": 42.3358969, "lng": -71.0325551}, "southwest": {"lat": 42.267598, "lng": -71.0800369}}}, "icon": "https://maps.gstatic.com/mapfiles/place_api/icons/geocode-71.png", "id": "9e12301fdeebf54c1266b9986602466425a9c326", "name": "Dorchester", "photos": [{"height": 1944, "html_attributions": ["<a href=\"https://maps.google.com/maps/contrib/118366960396286562471/photos\">Michael Laferriere</a>"], "photo_reference": "CmRaAAAAGzZ4-KAOPcGaHA6NQytTTNwAr5xrX-u4QOIpojuVEsS_UEGDin2pLpyGII8REz9aXrXJv_PqXAWt1oAXhPx6aPybzo_WB6lrq3IGB1W7AKGT43Egi5Y7hn8tlHN3sElgEhDlxx3utiByF4ujDV9Gfwo2GhRJaJYQ9B1oS7L08YngGc7hUJhXhw", "width": 2592}], "place_id": "ChIJs4veGkl644kROEK8ix2v_oY", "reference": "ChIJs4veGkl644kROEK8ix2v_oY", "scope": "GOOGLE", "types": ["neighborhood", "political"], "vicinity": "Dorchester Center"}}