{"ChIJGzE9DS1l44kRoOhiASS_fHg": {"geometry": {"location": {"lat": 42.3600825, "lng": -71.0588801}, "viewport": {"northeast": {"lat": 42.40081989999999, "lng": -70.749455}, "southwest": {"lat": 42.22788, "lng": -71.191113}}}, "icon": "https://maps.gstatic.com/mapfiles/place_api/icons/geocode-71.png", "id": "06755c25d2b34d13942a4713971756a55b870ced", "name": "Boston", "photos": [{"height": 3024, "html_attributions": ["<a href=\"https://maps.google.com/maps/contrib/104670289779338733432/photos\">Natalia Zalucean</a>"], "photo_reference": "CmRaAAAAcCtiZEWKowm-Y5jBCOlb0x22BUJXsEg_VWkbx_uJbcXTJBsOmGZFDTKl9Xi4snlDwvjv9R6AVLYLSkf8AXlgHlRDoc0SWQ2GPHQs9tYC-FcUtl-hBtB5iDneUD8fWbkFEhCYI1Ke24hZIofI4p-bJf1SGhSSUSKNEqDHStwpM5eDzhfxOaN5Gg", "width": 4032}], "place_id": "ChIJGzE9DS1l44kRoOhiASS_fHg", "reference": "ChIJGzE9DS1l44kRoOhiASS_fHg", "scope": "GOOGLE", "types": ["locality", "political"], "vicinity": "Boston"}, "ChIJR9WV60qD44kRP-MS7Nxhl7s": {"geometry": {"location": {"lat": 42.35798999999999, "lng": -71.137081}, "viewport": {"northeast": {"lat": 42.35909163029149, "lng": -71.1357897197085}, "southwest": {"lat": 42.3563936697085, "lng": -71.13848768029152}}}, "icon": "https://maps.gstatic.com/mapfiles/place_api/icons/generic_business-71.png", "id": "7d165edd732c6c50a6ce5df4f64ee70461d8495c", "name": "Legacy Marketing of Boston", "opening_hours": {"open_now": false}, "photos": [{"height": 1370, "html_attributions": ["<a href=\"https://maps.google.com/maps/contrib/117894523432806452331/photos\">Legacy Marketing of Boston</a>"], "photo_reference": "CmRaAAAAb4wha3EJrbhjVYksjvHFYDNQNn2HoywhZ-7g60VRh2JDjOjOjnMDF11_G1HH0m6D5Vd1NJnXwgb916pG2UVIdvQpPN1Mac_CVtS5rPLB8Lav_6l5j5IxrQtTd5vA11BtEhBAL8UMVvWBLhVuPhSekignGhRQNHXrBeVL1kGkzql6bN1pww-Z6g", "width": 1785}], "place_id": "ChIJR9WV60qD44kRP-MS7Nxhl7s", "plus_code": {"compound_code": "9V57+55 Boston, Massachusetts, United States", "global_code": "87JC9V57+55"}, "rating": 5, "reference": "ChIJR9WV60qD44kRP-MS7Nxhl7s", "scope": "GOOGLE", "types": ["point_of_interest", "establishment"], "user_ratings_total": 1, "vicinity": "214 Lincoln Street, Allston"}, "ChIJ2xWkvNF544kRUIctV25d5og": {"geometry": {"location": {"lat": 42.357911, "lng": -71.1371107}, "viewport": {"northeast": {"lat": 42.3590528302915, "lng": -71.1358100197085}, "southwest": {"lat": 42.3563548697085, "lng": -71.13850798029151}}}, "icon": "https://maps.gstatic.com/mapfiles/place_api/icons/school-71.png", "id": "ea704ff8a80497d63ec2a0d3512449bb2e3c1455", "name": "Pine Village Spanish Immersion", "photos": [{"height": 275, "html_attributions": ["<a href=\"https://maps.google.com/maps/contrib/116004817049785475293/photos\">Pine Village Spanish Immersion</a>"], "photo_reference": "CmRaAAAACGcKQLTSwf0_4c5oIvCqV99x-lo1N1299aTuCc6qY-G8nXp_HMwNdvDOkqE0y2Xq56u6CIq_NSvTU-7090CPIHwvGD1v4Q0q_McVsuriznZUcvOxLesmY9ZIZohZvgFTEhA91dLRtQH-kmRLBuXvNSZ4GhRxYz2BnHUnb2q-eIyne5-yFhBmhg", "width": 268}], "place_id": "ChIJ2xWkvNF544kRUIctV25d5og", "plus_code": {"compound_code": "9V57+55 Boston, Massachusetts, United States", "global_code": "87JC9V57+55"}, "reference": "ChIJ2xWkvNF544kRUIctV25d5og", "scope": "GOOGLE", "types": ["point_of_interest", "school", "establishment"], "vicinity": "214 Lincoln Street, Allston"}, "ChIJlWlzldF544kRg3tzDGPGepQ": {"geometry": {"location": {"lat": 42.3579467, "lng": -71.1369605}, "viewport": {"northeast": {"lat": 42.3590618802915, "lng": -71.13566601970848}, "southwest": {"lat": 42.3563639197085, "lng": -71.1383639802915}}}, "icon": "https://maps.gstatic.com/mapfiles/place_api/icons/generic_business-71.png", "id": "d427246690cf66963f118dd0f6b0c5d901c8cb58", "name": "ARM", "opening_hours": {"open_now": true}, "photos": [{"height": 741, "html_attributions": ["<a href=\"https://maps.google.com/maps/contrib/111647166514693467965/photos\">ARM</a>"], "photo_reference": "CmRaAAAAcTmcNNsMvDLLTEYucKZytnrwZQyGgsAUfg72NQjwLdqvzSXKiixUg9NMDorOfpGco8WMur5NtGJuopjpwPIyDgcmX8NMyZWQApOHNILIPdjpUlIqzlxpmehHYv0CMEF1EhCX7kTUzQflfpoLOhyd5A1OGhRatKirKSG7XadcrkGyXIBfFuZyDQ", "width": 704}], "place_id": "ChIJlWlzldF544kRg3tzDGPGepQ", "plus_code": {"compound_code": "9V57+56 Boston, Massachusetts, United States", "global_code": "87JC9V57+56"}, "reference": "ChIJlWlzldF544kRg3tzDGPGepQ", "scope": "GOOGLE", "types": ["insurance_agency", "point_of_interest", "establishment"], "vicinity": "214 Lincoln Street #110, Allston"}, "ChIJYUvhtNF544kR2HeJS1RcfeE": {"geometry": {"location": {"lat": 42.3576535, "lng": -71.1360515}, "viewport": {"northeast": {"lat": 42.3588537802915, "lng": -71.1347370697085}, "southwest": {"lat": 42.3561558197085, "lng": -71.13743503029151}}}, "icon": "https://maps.gstatic.com/mapfiles/place_api/icons/generic_business-71.png", "id": "47b1501a52d1a7a34f7be122a2a8e78ce0e114a1", "name": "G Greene Construction Co Inc", "opening_hours": {"open_now": false}, "photos": [{"height": 1944, "html_attributions": ["<a href=\"https://maps.google.com/maps/contrib/101908487294024855823/photos\">G Greene Construction Co Inc</a>"], "photo_reference": "CmRaAAAAp4plxUWVQvxpndBLmx-okA7ZqD7wiqEFK5QI1JTxjzOZM7Lfjp2Pu9u4NcRJjawRLbZhwJwkbnJT6UOWH4NFKv1HvM9JkTAJvWumPDpYzD7L14YEwESMVuc0mCeuOU7nEhBBrDK_NxO_SdHxrjU1xks1GhSh5-O46KBOBmg0fOIM_dhkSE_xvg", "width": 2592}], "place_id": "ChIJYUvhtNF544kR2HeJS1RcfeE", "plus_code": {"compound_code": "9V57+3H Boston, Massachusetts, United States", "global_code": "87JC9V57+3H"}, "rating": 3.7, "reference": "ChIJYUvhtNF544kR2HeJS1RcfeE", "scope": "GOOGLE", "types": ["general_contractor", "point_of_interest", "establishment"], "user_ratings_total": 3, "vicinity": "240 Lincoln Street, Allston"}, "ChIJnbxlqtF544kRnuIiRCQWoI8": {"geometry": {"location": {"lat": 42.3584304, "lng": -71.1361642}, "viewport": {"northeast": {"lat": 42.3598095302915, "lng": -71.1348073697085}, "southwest": {"lat": 42.3571115697085, "lng": -71.1375053302915}}}, "icon": "https://maps.gstatic.com/mapfiles/place_api/icons/school-71.png", "id": "064045f3bdc8532b9b298869c7cb089a09ad9aa2", "name": "Saint Anthonys School", "place_id": "ChIJnbxlqtF544kRnuIiRCQWoI8", "plus_code": {"compound_code": "9V57+9G Boston, Massachusetts, United States", "global_code": "87JC9V57+9G"}, "reference": "ChIJnbxlqtF544kRnuIiRCQWoI8", "scope": "GOOGLE", "types": ["school", "point_of_interest", "establishment"], "vicinity": "Boston"}, "ChIJaY4t-9B544kRwusNdIXgHts": {"geometry": {"location": {"lat": 42.3589571, "lng": -71.1354288}, "viewport": {"northeast": {"lat": 42.3603363802915, "lng": -71.1340686697085}, "southwest": {"lat": 42.3576384197085, "lng": -71.1367666302915}}}, "icon": "https://maps.gstatic.com/mapfiles/place_api/icons/generic_business-71.png", "id": "4243d9279eb3401383c91c5f419bfecd3101d67a", "name": "Schubert and Co", "place_id": "ChIJaY4t-9B544kRwusNdIXgHts", "plus_code": {"compound_code": "9V57+HR Boston, Massachusetts, United States", "global_code": "87JC9V57+HR"}, "reference": "ChIJaY4t-9B544kRwusNdIXgHts", "scope": "GOOGLE", "types": ["point_of_interest", "establishment"], "vicinity": "35 Aldie Street, Allston"}, "ChIJp6N_qNt544kRLa2Zj9ozF0w": {"geometry": {"location": {"lat": 42.3573378, "lng": -71.1340361}, "viewport": {"northeast": {"lat": 42.35856778029149, "lng": -71.1327148197085}, "southwest": {"lat": 42.3558698197085, "lng": -71.13541278029152}}}, "icon": "https://maps.gstatic.com/mapfiles/place_api/icons/generic_business-71.png", "id": "b6fa8d67f2b3dee3c849ddbf750f860629b7fadc", "name": "RCM Services", "opening_hours": {"open_now": false}, "place_id": "ChIJp6N_qNt544kRLa2Zj9ozF0w", "plus_code": {"compound_code": "9V48+W9 Boston, Massachusetts, United States", "global_code": "87JC9V48+W9"}, "reference": "ChIJp6N_qNt544kRLa2Zj9ozF0w", "scope": "GOOGLE", "types": ["point_of_interest", "establishment"], "vicinity": "280 Lincoln Street, Boston"}, "ChIJlWlzldF544kRnsgjM-2w-z0": {"geometry": {"location": {"lat": 42.357911, "lng": -71.1371107}, "viewport": {"northeast": {"lat": 42.3590528302915, "lng": -71.1358100197085}, "southwest": {"lat": 42.3563548697085, "lng": -71.13850798029151}}}, "icon": "https://maps.gstatic.com/mapfiles/place_api/icons/generic_business-71.png", "id": "e1ad59c2ba33bbd5ea302ed4522ad8cd4623542c", "name": "Floor Sanders", "photos": [{"height": 600, "html_attributions": ["<a href=\"https://maps.google.com/maps/contrib/104824022411917984715/photos\">Floor Sanders</a>"], "photo_reference": "CmRZAAAA3lFV9Ptb7bwbLcb0hAA_Sk_XuJL026r9GbIf2kNQSry70d3CH6Dq0WzxYmwRFc6THMKgYCzCr1oYQvHlbUcfCsySZSSbg48LEgJBP8len90fBRZOkQObR9szRV2CiLzGEhACLugX7RQ_Uor2vB30eW8VGhQ5ifgtUf1-NznxDaaf4809V4P9-Q", "width": 400}], "place_id": "ChIJlWlzldF544kRnsgjM-2w-z0", "plus_code": {"compound_code": "9V57+55 Boston, Massachusetts, United States", "global_code": "87JC9V57+55"}, "rating": 5, "reference": "ChIJlWlzldF544kRnsgjM-2w-z0", "scope": "GOOGLE", "types": ["general_contractor", "home_goods_store", "store", "point_of_interest", "establishment"], "user_ratings_total": 1, "vicinity": "214 Lincoln Street # 111, Allston"}, "ChIJlWlzldF544kRmh3syQY8V20": {"geometry": {"location": {"lat": 42.35782340000001, "lng": -71.1371351}, "viewport": {"northeast": {"lat": 42.3590092302915, "lng": -71.1358241697085}, "southwest": {"lat": 42.35631126970851, "lng": -71.1385221302915}}}, "icon": "https://maps.gstatic.com/mapfiles/place_api/icons/generic_business-71.png", "id": "2b91bd67fb540997770b6a37d2077e3f03a61af3", "name": "Charlesview Suites", "place_id": "ChIJlWlzldF544kRmh3syQY8V20", "plus_code": {"compound_code": "9V57+44 Boston, Massachusetts, United States", "global_code": "87JC9V57+44"}, "reference": "ChIJlWlzldF544kRmh3syQY8V20", "scope": "GOOGLE", "types": ["point_of_interest", "establishment"], "vicinity": "214 Lincoln Street, Allston"}, "ChIJlWlzldF544kR1F_dm-IvkeA": {"geometry": {"location": {"lat": 42.357911, "lng": -71.1371107}, "viewport": {"northeast": {"lat": 42.3590528302915, "lng": -71.1358100197085}, "southwest": {"lat": 42.3563548697085, "lng": -71.13850798029151}}}, "icon": "https://maps.gstatic.com/mapfiles/place_api/icons/generic_business-71.png", "id": "9579d05fd8b68d37b86d2ff6b99b8016bece0549", "name": "C & C Consulting Engineers", "place_id": "ChIJlWlzldF544kR1F_dm-IvkeA", "plus_code": {"compound_code": "9V57+55 Boston, Massachusetts, United States", "global_code": "87JC9V57+55"}, "rating": 5, "reference": "ChIJlWlzldF544kR1F_dm-IvkeA", "scope": "GOOGLE", "types": ["point_of_interest", "establishment"], "user_ratings_total": 1, "vicinity": "214 Lincoln Street # 400, Allston"}, "ChIJlWlzldF544kRUetkN62RIPM": {"geometry": {"location": {"lat": 42.357911, "lng": -71.1371107}, "viewport": {"northeast": {"lat": 42.3590528302915, "lng": -71.1358100197085}, "southwest": {"lat": 42.3563548697085, "lng": -71.13850798029151}}}, "icon": "https://maps.gstatic.com/mapfiles/place_api/icons/generic_business-71.png", "id": "a1a6c41f9a5631d227dadedccc7fd9218738c290", "name": "T Soja & Associates Inc", "place_id": "ChIJlWlzldF544kRUetkN62RIPM", "plus_code": {"compound_code": "9V57+55 Boston, Massachusetts, United States", "global_code": "87JC9V57+55"}, "reference": "ChIJlWlzldF544kRUetkN62RIPM", "scope": "GOOGLE", "types": ["point_of_interest", "establishment"], "vicinity": "214 Lincoln Street # 304, Allston"}, "ChIJ_-XMY9B544kRGNzHWl3kseE": {"geometry": {"location": {"lat": 42.3580874, "lng": -71.1339556}, "viewport": {"northeast": {"lat": 42.3593672302915, "lng": -71.13264091970849}, "southwest": {"lat": 42.3566692697085, "lng": -71.1353388802915}}}, "icon": "https://maps.gstatic.com/mapfiles/place_api/icons/generic_business-71.png", "id": "7e3553a9da0a59efee1d5328adc331ed7c48d581", "name": "Granada House Inc", "place_id": "ChIJ_-XMY9B544kRGNzHWl3kseE", "plus_code": {"compound_code": "9V58+6C Boston, Massachusetts, United States", "global_code": "87JC9V58+6C"}, "rating": 3.6, "reference": "ChIJ_-XMY9B544kRGNzHWl3kseE", "scope": "GOOGLE", "types": ["point_of_interest", "establishment"], "user_ratings_total": 8, "vicinity": "70 Adamson Street, Allston"}, "ChIJq6qqqkZ444kR9__7zfu-8DM": {"geometry": {"location": {"lat": 42.3584748, "lng": -71.1355912}, "viewport": {"northeast": {"lat": 42.3597603802915, "lng": -71.13425986970849}, "southwest": {"lat": 42.3570624197085, "lng": -71.13695783029151}}}, "icon": "https://maps.gstatic.com/mapfiles/place_api/icons/generic_business-71.png", "id": "3cd1209ae6f588008ae076aac43405ba773b6839", "name": "Kenneth Holman Electric", "place_id": "ChIJq6qqqkZ444kR9__7zfu-8DM", "plus_code": {"compound_code": "9V57+9Q Boston, Massachusetts, United States", "global_code": "87JC9V57+9Q"}, "rating": 5, "reference": "ChIJq6qqqkZ444kR9__7zfu-8DM", "scope": "GOOGLE", "types": ["electrician", "point_of_interest", "establishment"], "user_ratings_total": 4, "vicinity": "26 Adamson Street, Allston"}, "ChIJo43s_NB544kRUv0IsSM-2cI": {"geometry": {"location": {"lat": 42.3588927, "lng": -71.1356699}, "viewport": {"northeast": {"lat": 42.3603245302915, "lng": -71.13429046970849}, "southwest": {"lat": 42.3576265697085, "lng": -71.13698843029151}}}, "icon": "https://maps.gstatic.com/mapfiles/place_api/icons/shopping-71.png", "id": "d64bb6e427512851b3f0b8ce4f6a7a7fbb61ec68", "name": "Allston Exterminator", "opening_hours": {"open_now": true}, "place_id": "ChIJo43s_NB544kRUv0IsSM-2cI", "plus_code": {"compound_code": "9V57+HP Boston, Massachusetts, United States", "global_code": "87JC9V57+HP"}, "reference": "ChIJo43s_NB544kRUv0IsSM-2cI", "scope": "GOOGLE", "types": ["home_goods_store", "store", "point_of_interest", "establishment"], "vicinity": "33 Aldie Street, Boston"}, "ChIJdVVYsNF544kRLhMYaN2jJmE": {"geometry": {"location": {"lat": 42.3575473, "lng": -71.1366049}, "viewport": {"northeast": {"lat": 42.3588339302915, "lng": -71.1352699697085}, "southwest": {"lat": 42.3561359697085, "lng": -71.13796793029151}}}, "icon": "https://maps.gstatic.com/mapfiles/place_api/icons/shopping-71.png", "id": "dccc4f510affa277d1e6808c8c0d4e6b49497858", "name": "HDM Systems Inc", "opening_hours": {"open_now": false}, "place_id": "ChIJdVVYsNF544kRLhMYaN2jJmE", "plus_code": {"compound_code": "9V57+29 Boston, Massachusetts, United States", "global_code": "87JC9V57+29"}, "reference": "ChIJdVVYsNF544kRLhMYaN2jJmE", "scope": "GOOGLE", "types": ["store", "health", "point_of_interest", "establishment"], "vicinity": "226 Lincoln Street, Allston"}, "ChIJ2xWkvNF544kRt7YvQU90ay0": {"geometry": {"location": {"lat": 42.357911, "lng": -71.1371107}, "viewport": {"northeast": {"lat": 42.3590528302915, "lng": -71.1358100197085}, "southwest": {"lat": 42.3563548697085, "lng": -71.13850798029151}}}, "icon": "https://maps.gstatic.com/mapfiles/place_api/icons/generic_business-71.png", "id": "8daf850f945835cf02ae2b16b3e76bb33550cddb", "name": "Boston the Breakers", "place_id": "ChIJ2xWkvNF544kRt7YvQU90ay0", "plus_code": {"compound_code": "9V57+55 Boston, Massachusetts, United States", "global_code": "87JC9V57+55"}, "reference": "ChIJ2xWkvNF544kRt7YvQU90ay0", "scope": "GOOGLE", "types": ["point_of_interest", "establishment"], "vicinity": "214 Lincoln Street, Brighton"}, "ChIJg_UyhdB544kRnfpJYijLSfQ": {"geometry": {"location": {"lat": 42.3586391, "lng": -71.133571}, "viewport": {"northeast": {"lat": 42.3599708802915, "lng": -71.1322283197085}, "southwest": {"lat": 42.3572729197085, "lng": -71.13492628029151}}}, "icon": "https://maps.gstatic.com/mapfiles/place_api/icons/generic_business-71.png", "id": "6166b966d5b37919face9d4a9a4f35de1faa31a0", "name": "DFC Dennis Riley", "place_id": "ChIJg_UyhdB544kRnfpJYijLSfQ", "plus_code": {"compound_code": "9V58+FH Boston, Massachusetts, United States", "global_code": "87JC9V58+FH"}, "reference": "ChIJg_UyhdB544kRnfpJYijLSfQ", "scope": "GOOGLE", "types": ["general_contractor", "point_of_interest", "establishment"], "vicinity": "75 Aldie Street # B, Allston"}, "ChIJIU7kpQ9644kRb4YqFGhPrd8": {"geometry": {"location": {"lat": 42.357911, "lng": -71.1371107}, "viewport": {"northeast": {"lat": 42.3590528302915, "lng": -71.1358100197085}, "southwest": {"lat": 42.3563548697085, "lng": -71.13850798029151}}}, "icon": "https://maps.gstatic.com/mapfiles/place_api/icons/generic_business-71.png", "id": "6b4ae1645386f211930199a11f0a424ea0dd7273", "name": "Stephen B O'Brien Jr Fine Arts", "photos": [{"height": 1267, "html_attributions": ["<a href=\"https://maps.google.com/maps/contrib/112527714060032053861/photos\">Stephen B O&#39;Brien Jr Fine Arts</a>"], "photo_reference": "CmRaAAAACWLLb1jsm9JRJWrGCupzMe8vh80OJ0DmnTIu0-VougAlKkAB0ipQ53VGs8U4i5GFamnTTSOWPDWmkzEgi57QBxcOXk9tlPLwc07Ime08FRdrasqFB19Olg9HnX01yCUvEhC-_jJd6YyuClB6sOX9OGqRGhTTYSNv06B0DWEOVt9Q-iAV0ejKTA", "width": 1368}], "place_id": "ChIJIU7kpQ9644kRb4YqFGhPrd8", "plus_code": {"compound_code": "9V57+55 Boston, Massachusetts, United States", "global_code": "87JC9V57+55"}, "reference": "ChIJIU7kpQ9644kRb4YqFGhPrd8", "scope": "GOOGLE", "types": ["art_gallery", "point_of_interest", "establishment"], "vicinity": "214 Lincoln Street #104, Allston"}, "ChIJIcPgus9544kRjk7LevvW_Os": {"geometry": {"location": {"lat": 42.3539038, "lng": -71.1337112}, "viewport": {"northeast": {"lat": 42.37437389999999, "lng": -71.110533}, "southwest": {"lat": 42.3460228, "lng": -71.143925}}}, "icon": "https://maps.gstatic.com/mapfiles/place_api/icons/geocode-71.png", "id": "e7453d23034c3414f98e19df650f49a83b645952", "name": "Allston", "photos": [{"height": 1536, "html_attributions": ["<a href=\"https://maps.google.com/maps/contrib/104422420120565835220/photos\">Welmyr De Baguio</a>"], "photo_reference": "CmRaAAAAQYqRcc4wD9to1GikwfDo4p4zTdbqxupbT8AFqKrmhUPZSN2XgLUfsm1pxNkWobxTtwnbA_2lzcM-seGLDn8CRWqi0aGBodxPGKKvjFb07iRi6HWX9yBrEnz5LfYiFnLjEhC010fRZsfOonyIgY3GaQkLGhT90A9xNcx3DjK58xGfbwIsm-mspg", "width": 1536}], "place_id": "ChIJIcPgus9544kRjk7LevvW_Os", "reference": "ChIJIcPgus9544kRjk7LevvW_Os", "scope": "GOOGLE", "types": ["neighborhood", "political"], "vicinity": "Boston"}, "ChIJlWlzldF544kRTfwsmYmx4I4": {"geometry": {"location": {"lat": 42.357911, "lng": -71.1371107}, "viewport": {"northeast": {"lat": 42.3590528302915, "lng": -71.1358100197085}, "southwest": {"lat": 42.3563548697085, "lng": -71.13850798029151}}}, "icon": "https://maps.gstatic.com/mapfiles/place_api/icons/shopping-71.png", "id": "56f750c3878a48e0170f5e3839965ca64b31154d", "name": "Bits & Pieces", "place_id": "ChIJlWlzldF544kRTfwsmYmx4I4", "plus_code": {"compound_code": "9V57+55 Boston, Massachusetts, United States", "global_code": "87JC9V57+55"}, "rating": 1, "reference": "ChIJlWlzldF544kRTfwsmYmx4I4", "scope": "GOOGLE", "types": ["store", "point_of_interest", "establishment"], "user_ratings_total": 1, "vicinity": "214 Lincoln Street # 402, Allston"}, "ChIJyZtaudF544kRbGlXFt4ll8E": {"geometry": {"location": {"lat": 42.35770039999999, "lng": -71.1370049}, "viewport": {"northeast": {"lat": 42.35893793029149, "lng": -71.13568191970849}, "southwest": {"lat": 42.35623996970849, "lng": -71.1383798802915}}}, "icon": "https://maps.gstatic.com/mapfiles/place_api/icons/generic_business-71.png", "id": "ae0329884ae74aea493666fd61e6b2c711a44661", "name": "Neo Crew Technology", "place_id": "ChIJyZtaudF544kRbGlXFt4ll8E", "plus_code": {"compound_code": "9V57+35 Boston, Massachusetts, United States", "global_code": "87JC9V57+35"}, "rating": 5, "reference": "ChIJyZtaudF544kRbGlXFt4ll8E", "scope": "GOOGLE", "types": ["point_of_interest", "establishment"], "user_ratings_total": 1, "vicinity": "218 Lincoln Street, Allston"}, "ChIJ2xWkvNF544kRycB7_IDaYRk": {"geometry": {"location": {"lat": 42.357911, "lng": -71.1371107}, "viewport": {"northeast": {"lat": 42.3590528302915, "lng": -71.1358100197085}, "southwest": {"lat": 42.3563548697085, "lng": -71.13850798029151}}}, "icon": "https://maps.gstatic.com/mapfiles/place_api/icons/generic_business-71.png", "id": "0a309d5197932d716ea02574d255ab243d6dc013", "name": "Aigner Prensky Marketing", "place_id": "ChIJ2xWkvNF544kRycB7_IDaYRk", "plus_code": {"compound_code": "9V57+55 Boston, Massachusetts, United States", "global_code": "87JC9V57+55"}, "reference": "ChIJ2xWkvNF544kRycB7_IDaYRk", "scope": "GOOGLE", "types": ["point_of_interest", "establishment"], "vicinity": "214 Lincoln Street, Allston"}, "ChIJIT8fuFOI44kRgFps28rVdRc": {"geometry": {"location": {"lat": 42.35791100000001, "lng": -71.1371106}, "viewport": {"northeast": {"lat": 42.3590527802915, "lng": -71.13580991970849}, "southwest": {"lat": 42.3563548197085, "lng": -71.13850788029151}}}, "icon": "https://maps.gstatic.com/mapfiles/place_api/icons/generic_business-71.png", "id": "495e4b6daf645eb77e74dd402f24905f0a874371", "name": "Food Truck Festivals of New England", "place_id": "ChIJIT8fuFOI44kRgFps28rVdRc", "plus_code": {"compound_code": "9V57+55 Boston, Massachusetts, United States", "global_code": "87JC9V57+55"}, "reference": "ChIJIT8fuFOI44kRgFps28rVdRc", "scope": "GOOGLE", "types": ["point_of_interest", "establishment"], "vicinity": "214 Lincoln Street, Allston"}, "ChIJsWMUs9F544kRZKBMuFlu_o8": {"geometry": {"location": {"lat": 42.3576535, "lng": -71.1360515}, "viewport": {"northeast": {"lat": 42.3588537802915, "lng": -71.1347370697085}, "southwest": {"lat": 42.3561558197085, "lng": -71.13743503029151}}}, "icon": "https://maps.gstatic.com/mapfiles/place_api/icons/generic_business-71.png", "id": "2286f3bd7b040ba0fe65c51b17a8601df7598203", "name": "Thru-Wall Construction", "place_id": "ChIJsWMUs9F544kRZKBMuFlu_o8", "plus_code": {"compound_code": "9V57+3H Boston, Massachusetts, United States", "global_code": "87JC9V57+3H"}, "reference": "ChIJsWMUs9F544kRZKBMuFlu_o8", "scope": "GOOGLE", "types": ["point_of_interest", "establishment"], "vicinity": "240 Lincoln Street, Boston"}, "ChIJOyAVvNF544kRQUFaQaPOScs": {"geometry": {"location": {"lat": 42.35782340000001, "lng": -71.1371351}, "viewport": {"northeast": {"lat": 42.3590092302915, "lng": -71.1358241697085}, "southwest": {"lat": 42.35631126970851, "lng": -71.1385221302915}}}, "icon": "https://maps.gstatic.com/mapfiles/place_api/icons/generic_business-71.png", "id": "2ff0f01075b3bfacd988ac9c7d8f55c74a67bd04", "name": "Food Truck Festivals of America", "place_id": "ChIJOyAVvNF544kRQUFaQaPOScs", "plus_code": {"compound_code": "9V57+44 Boston, Massachusetts, United States", "global_code": "87JC9V57+44"}, "reference": "ChIJOyAVvNF544kRQUFaQaPOScs", "scope": "GOOGLE", "types": ["point_of_interest", "establishment"], "vicinity": "214 Lincoln Street #300, Allston"}, "ChIJOyAVvNF544kR6LoYMznb3xw": {"geometry": {"location": {"lat": 42.35782340000001, "lng": -71.1371351}, "viewport": {"northeast": {"lat": 42.3590092302915, "lng": -71.1358241697085}, "southwest": {"lat": 42.35631126970851, "lng": -71.1385221302915}}}, "icon": "https://maps.gstatic.com/mapfiles/place_api/icons/generic_business-71.png", "id": "2901d0dad01d277e391ffc000371fc1869e55de4", "name": "Long Term Care Insurance of Boston", "opening_hours": {"open_now": false}, "photos": [{"height": 608, "html_attributions": ["<a href=\"https://maps.google.com/maps/contrib/114325624384624791781/photos\">Long Term Care Insurance of Boston</a>"], "photo_reference": "CmRaAAAAHhsYg7VNnhhdrihHPaZ1WlbAQIkVZXEIp1cyHaaGkl1gdOM0_LtU3Lyk54F09kYhG1F2PZcV0K_aZU8mnvUbrddcmlkxSrqIKpFR1Rbi1xzs4E9LcFnuzkNVE2U6fB_GEhDAnQfV5cNYyqy2_f7FpJ89GhR-zpzkAHD-XFATFCL8ui7F1AEU0w", "width": 1080}], "place_id": "ChIJOyAVvNF544kR6LoYMznb3xw", "plus_code": {"compound_code": "9V57+44 Boston, Massachusetts, United States", "global_code": "87JC9V57+44"}, "reference": "ChIJOyAVvNF544kR6LoYMznb3xw", "scope": "GOOGLE", "types": ["insurance_agency", "point_of_interest", "establishment"], "vicinity": "214 Lincoln Street #110, Boston"}, "ChIJX-W-lDJ444kRN-QFpQz8Gp8": {"geometry": {"location": {"lat": 42.357823, "lng": -71.137135}, "viewport": {"northeast": {"lat": 42.3590090302915, "lng": -71.1358240197085}, "southwest": {"lat": 42.3563110697085, "lng": -71.1385219802915}}}, "icon": "https://maps.gstatic.com/mapfiles/place_api/icons/generic_business-71.png", "id": "2fe6c7725ff8bf4ac8266008c4fe2b8c9d679d33", "name": "Boston Landmarks Orchestra", "place_id": "ChIJX-W-lDJ444kRN-QFpQz8Gp8", "plus_code": {"compound_code": "9V57+44 Boston, Massachusetts, United States", "global_code": "87JC9V57+44"}, "rating": 5, "reference": "ChIJX-W-lDJ444kRN-QFpQz8Gp8", "scope": "GOOGLE", "types": ["point_of_interest", "establishment"], "user_ratings_total": 1, "vicinity": "214 Lincoln Street #331, Boston"}, "ChIJq6puwNB544kRJe4jQHfenz4": {"geometry": {"location": {"lat": 42.359439, "lng": -71.134512}, "viewport": {"northeast": {"lat": 42.36089828029149, "lng": -71.1331163197085}, "southwest": {"lat": 42.35820031970849, "lng": -71.13581428029151}}}, "icon": "https://maps.gstatic.com/mapfiles/place_api/icons/generic_business-71.png", "id": "be05ddfbb4f15bb32d89253fbb9e51de8bafb52f", "name": "caryrandart", "place_id": "ChIJq6puwNB544kRJe4jQHfenz4", "plus_code": {"compound_code": "9V58+Q5 Boston, Massachusetts, United States", "global_code": "87JC9V58+Q5"}, "reference": "ChIJq6puwNB544kRJe4jQHfenz4", "scope": "GOOGLE", "types": ["art_gallery", "point_of_interest", "establishment"], "vicinity": "24 Holton Street, Allston"}, "ChIJ1fSnotB544kRIqP_j58_Yd0": {"geometry": {"location": {"lat": 42.35924199999999, "lng": -71.133659}, "viewport": {"northeast": {"lat": 42.3607012302915, "lng": -71.13226336970848}, "southwest": {"lat": 42.3580032697085, "lng": -71.13496133029149}}}, "icon": "https://maps.gstatic.com/mapfiles/place_api/icons/generic_business-71.png", "id": "463c90b451afc927bbee8330842a419690175709", "name": "Automated Media Systems", "place_id": "ChIJ1fSnotB544kRIqP_j58_Yd0", "plus_code": {"compound_code": "9V58+MG Boston, Massachusetts, United States", "global_code": "87JC9V58+MG"}, "reference": "ChIJ1fSnotB544kRIqP_j58_Yd0", "scope": "GOOGLE", "types": ["point_of_interest", "establishment"], "vicinity": "8 Holton Street, Allston"}, "ChIJ__8_u9F544kRd6oM7m0CcXU": {"geometry": {"location": {"lat": 42.3579467, "lng": -71.1369605}, "viewport": {"northeast": {"lat": 42.3590618802915, "lng": -71.13566601970848}, "southwest": {"lat": 42.3563639197085, "lng": -71.1383639802915}}}, "icon": "https://maps.gstatic.com/mapfiles/place_api/icons/generic_business-71.png", "id": "385880a8faf9629084f78ac32863fe1edbd5379e", "name": "A2B Contractors", "place_id": "ChIJ__8_u9F544kRd6oM7m0CcXU", "reference": "ChIJ__8_u9F544kRd6oM7m0CcXU", "scope": "GOOGLE", "types": ["point_of_interest", "establishment"], "vicinity": "214 Lincoln Street, Boston"}, "ChIJxSVGqdF544kRIlZ2R4SeYkQ": {"geometry": {"location": {"lat": 42.35825910000001, "lng": -71.1363885}, "viewport": {"northeast": {"lat": 42.35955343029151, "lng": -71.13509981970849}, "southwest": {"lat": 42.35685546970851, "lng": -71.1377977802915}}}, "icon": "https://maps.gstatic.com/mapfiles/place_api/icons/generic_business-71.png", "id": "a37daf6185e2b418de4c111c1b6597d6db92d8b6", "name": "2-98 Colerain St Parking", "place_id": "ChIJxSVGqdF544kRIlZ2R4SeYkQ", "plus_code": {"compound_code": "9V57+8C Boston, Massachusetts, United States", "global_code": "87JC9V57+8C"}, "reference": "ChIJxSVGqdF544kRIlZ2R4SeYkQ", "scope": "GOOGLE", "types": ["parking", "point_of_interest", "establishment"], "vicinity": "2-98 Colerain St, Boston"}, "ChIJ4VNt7tB544kRIyam3kOJKGU": {"geometry": {"location": {"lat": 42.3591089, "lng": -71.1348809}, "viewport": {"northeast": {"lat": 42.36036843029149, "lng": -71.13356486970851}, "southwest": {"lat": 42.35767046970849, "lng": -71.13626283029151}}}, "icon": "https://maps.gstatic.com/mapfiles/place_api/icons/generic_business-71.png", "id": "05afcf169c465857e9af831529c44d2493cc98a5", "name": "Allston Civic Associates Inc", "place_id": "ChIJ4VNt7tB544kRIyam3kOJKGU", "plus_code": {"compound_code": "9V58+J2 Boston, Massachusetts, United States", "global_code": "87JC9V58+J2"}, "reference": "ChIJ4VNt7tB544kRIyam3kOJKGU", "scope": "GOOGLE", "types": ["point_of_interest", "establishment"], "vicinity": "44 Aldie Street, Allston"}, "ChIJlWlzldF544kRmIhdMRX_lN8": {"geometry": {"location": {"lat": 42.357911, "lng": -71.1371107}, "viewport": {"northeast": {"lat": 42.3590528302915, "lng": -71.1358100197085}, "southwest": {"lat": 42.3563548697085, "lng": -71.13850798029151}}}, "icon": "https://maps.gstatic.com/mapfiles/place_api/icons/generic_business-71.png", "id": "0795113ef90c82d80b9c5c91dfc790ce8a1f60b4", "name": "First Alternative Associates Inc", "place_id": "ChIJlWlzldF544kRmIhdMRX_lN8", "plus_code": {"compound_code": "9V57+55 Boston, Massachusetts, United States", "global_code": "87JC9V57+55"}, "reference": "ChIJlWlzldF544kRmIhdMRX_lN8", "scope": "GOOGLE", "types": ["point_of_interest", "establishment"], "vicinity": "214 Lincoln Street # 106, Allston"}, "ChIJOY_EQdB544kRUPr5Mzavoyw": {"geometry": {"location": {"lat": 42.3575184, "lng": -71.1343448}, "viewport": {"northeast": {"lat": 42.3588751302915, "lng": -71.13305901970848}, "southwest": {"lat": 42.3561771697085, "lng": -71.13575698029149}}}, "icon": "https://maps.gstatic.com/mapfiles/place_api/icons/generic_business-71.png", "id": "31b23dc0f9c5e8a9d54adf103b14be4af31bf94a", "name": "Crystal Facility Services", "place_id": "ChIJOY_EQdB544kRUPr5Mzavoyw", "plus_code": {"compound_code": "9V58+27 Boston, Massachusetts, United States", "global_code": "87JC9V58+27"}, "reference": "ChIJOY_EQdB544kRUPr5Mzavoyw", "scope": "GOOGLE", "types": ["point_of_interest", "establishment"], "vicinity": "7 Eric Road, Allston"}, "ChIJAWgfxJx544kRiJhcYpsn0X4": {"geometry": {"location": {"lat": 42.3577608, "lng": -71.1340129}, "viewport": {"northeast": {"lat": 42.3591914302915, "lng": -71.1326234197085}, "southwest": {"lat": 42.3564934697085, "lng": -71.1353213802915}}}, "icon": "https://maps.gstatic.com/mapfiles/place_api/icons/generic_business-71.png", "id": "7e2c5b911324e608592f712ad70dfc2797062cb6", "name": "Clementine Cuisine", "place_id": "ChIJAWgfxJx544kRiJhcYpsn0X4", "plus_code": {"compound_code": "9V58+49 Boston, Massachusetts, United States", "global_code": "87JC9V58+49"}, "reference": "ChIJAWgfxJx544kRiJhcYpsn0X4", "scope": "GOOGLE", "types": ["point_of_interest", "food", "establishment"], "vicinity": "73 Adamson Street, Allston"}, "ChIJlWlzldF544kRhBppPP_ebF4": {"geometry": {"location": {"lat": 42.357911, "lng": -71.1371107}, "viewport": {"northeast": {"lat": 42.3590528302915, "lng": -71.1358100197085}, "southwest": {"lat": 42.3563548697085, "lng": -71.13850798029151}}}, "icon": "https://maps.gstatic.com/mapfiles/place_api/icons/generic_business-71.png", "id": "fd1c6a6b03cd9cc1c2bf64365766a6c4d36b7410", "name": "Accucare", "place_id": "ChIJlWlzldF544kRhBppPP_ebF4", "plus_code": {"compound_code": "9V57+55 Boston, Massachusetts, United States", "global_code": "87JC9V57+55"}, "reference": "ChIJlWlzldF544kRhBppPP_ebF4", "scope": "GOOGLE", "types": ["health", "point_of_interest", "establishment"], "vicinity": "214 Lincoln Street # 202, Allston"}, "ChIJx5m8B9F544kRdAx-2JwruMQ": {"geometry": {"location": {"lat": 42.35863579999999, "lng": -71.1365495}, "viewport": {"northeast": {"lat": 42.3599116802915, "lng": -71.13521951970849}, "southwest": {"lat": 42.3572137197085, "lng": -71.1379174802915}}}, "icon": "https://maps.gstatic.com/mapfiles/place_api/icons/generic_business-71.png", "id": "ca398dad986215ae7b43019b4aae622e0dc5baec", "name": "Rapidocc", "place_id": "ChIJx5m8B9F544kRdAx-2JwruMQ", "plus_code": {"compound_code": "9V57+F9 Boston, Massachusetts, United States", "global_code": "87JC9V57+F9"}, "reference": "ChIJx5m8B9F544kRdAx-2JwruMQ", "scope": "GOOGLE", "types": ["point_of_interest", "establishment"], "vicinity": "4 Adamson Street, Boston"}, "ChIJlWlzldF544kR14pn57BAT-M": {"geometry": {"location": {"lat": 42.357911, "lng": -71.1371107}, "viewport": {"northeast": {"lat": 42.3590528302915, "lng": -71.1358100197085}, "southwest": {"lat": 42.3563548697085, "lng": -71.13850798029151}}}, "icon": "https://maps.gstatic.com/mapfiles/place_api/icons/generic_business-71.png", "id": "38fd92841f02cb2294b82a474d6b4cd011c9f926", "name": "Mc Guire & Anthony Inc", "place_id": "ChIJlWlzldF544kR14pn57BAT-M", "plus_code": {"compound_code": "9V57+55 Boston, Massachusetts, United States", "global_code": "87JC9V57+55"}, "reference": "ChIJlWlzldF544kR14pn57BAT-M", "scope": "GOOGLE", "types": ["point_of_interest", "establishment"], "vicinity": "214 Lincoln Street, Allston"}, "ChIJ__8_u9F544kRG_3uSu8mtOU": {"geometry": {"location": {"lat": 42.3578345, "lng": -71.137142}, "viewport": {"northeast": {"lat": 42.3590153802915, "lng": -71.13583221970849}, "southwest": {"lat": 42.3563174197085, "lng": -71.1385301802915}}}, "icon": "https://maps.gstatic.com/mapfiles/place_api/icons/generic_business-71.png", "id": "2e65bb2c2017cc89227e2d528ca3ab7e0af4a12c", "name": "food trucks 2 go", "place_id": "ChIJ__8_u9F544kRG_3uSu8mtOU", "plus_code": {"compound_code": "9V57+44 Boston, Massachusetts, United States", "global_code": "87JC9V57+44"}, "reference": "ChIJ__8_u9F544kRG_3uSu8mtOU", "scope": "GOOGLE", "types": ["point_of_interest", "establishment"], "vicinity": "214 Lincoln Street, Boston"}, "ChIJT2kVvNF544kRGOec4UcawV4": {"geometry": {"location": {"lat": 42.3578234, "lng": -71.13714209999999}, "viewport": {"northeast": {"lat": 42.3590096802915, "lng": -71.13583106970849}, "southwest": {"lat": 42.3563117197085, "lng": -71.13852903029151}}}, "icon": "https://maps.gstatic.com/mapfiles/place_api/icons/worship_general-71.png", "id": "e52f820122dbbacfc7baebed960073669592ce5c", "name": "Ideal Boston", "place_id": "ChIJT2kVvNF544kRGOec4UcawV4", "plus_code": {"compound_code": "9V57+44 Boston, Massachusetts, United States", "global_code": "87JC9V57+44"}, "rating": 5, "reference": "ChIJT2kVvNF544kRGOec4UcawV4", "scope": "GOOGLE", "types": ["church", "place_of_worship", "point_of_interest", "establishment"], "user_ratings_total": 1, "vicinity": "214 Lincoln Street, Allston"}}