{"ChIJhZirQQB544kRB9LbXEfedZQ": {"geometry": {"location": {"lat": 42.33176419999999, "lng": -71.1211635}, "viewport": {"northeast": {"lat": 42.3518109, "lng": -71.1056969}, "southwest": {"lat": 42.29459689999999, "lng": -71.1789959}}}, "icon": "https://maps.gstatic.com/mapfiles/place_api/icons/geocode-71.png", "id": "92986b2d1f69af2f2a7e29d34ced8adfa8573beb", "name": "Brookline", "photos": [{"height": 651, "html_attributions": ["<a href=\"https://maps.google.com/maps/contrib/114772942214832951419/photos\">Michael Ahn</a>"], "photo_reference": "CmRaAAAAVDGAumcwBIvpUNYAa6KwAsURf38OqgvU-LqpeU_QNAr1Sx3oiqNwNdkBKJnnwhJOcHMRD6anALHvZ0CMaduE_5zSP0BjsfUFNrplmo6-LwlMb_qKxi3iYp_j7qWvShR1EhBUKdWROzRPaYMcc3TSBIQUGhSz-5T_W1pKdWaKh_LBihQTQQZlVw", "width": 1608}], "place_id": "ChIJhZirQQB544kRB9LbXEfedZQ", "reference": "ChIJhZirQQB544kRB9LbXEfedZQ", "scope": "GOOGLE", "types": ["locality", "political"], "vicinity": "Brookline"}, "ChIJPZvPO7F544kRaiEg8O9KUxo": {"geometry": {"location": {"lat": 42.3412433, "lng": -71.136298}, "viewport": {"northeast": {"lat": 42.3426347802915, "lng": -71.1348998197085}, "southwest": {"lat": 42.3399368197085, "lng": -71.1375977802915}}}, "icon": "https://maps.gstatic.com/mapfiles/place_api/icons/school-71.png", "id": "0948521e1c28f6b1e11b7092e2f24f4ebf41ea97", "name": "Michael Driscoll School", "photos": [{"height": 3456, "html_attributions": ["<a href=\"https://maps.google.com/maps/contrib/108194558500929386389/photos\">Ivan Lisenkov</a>"], "photo_reference": "CmRaAAAAJoGHCjxKfv7mBCXUClcba-QRGN9SqeHM7WXtEiZdH0_kxQTTvBek452f2O04mYG0Q_Z5ALvajsiifLeJA0-1zJMOz7QNULo56W535ANz0wQgVk91aZLSkQl11oQzElSWEhBPAV62pfH20ONGbj3qRIr6GhQvfbrHMDjPwUY0yzwigNZOSbK8Mw", "width": 4608}], "place_id": "ChIJPZvPO7F544kRaiEg8O9KUxo", "plus_code": {"compound_code": "8VR7+FF Brookline, Massachusetts, United States", "global_code": "87JC8VR7+FF"}, "rating": 4.5, "reference": "ChIJPZvPO7F544kRaiEg8O9KUxo", "scope": "GOOGLE", "types": ["school", "point_of_interest", "establishment"], "user_ratings_total": 4, "vicinity": "64 Westbourne Terrace, Brookline"}, "ChIJlYFdQrd544kRpXSd5odYqR4": {"geometry": {"location": {"lat": 42.3424982, "lng": -71.1338969}, "viewport": {"northeast": {"lat": 42.34389403029149, "lng": -71.13253066970849}, "southwest": {"lat": 42.3411960697085, "lng": -71.13522863029151}}}, "icon": "https://maps.gstatic.com/mapfiles/place_api/icons/generic_recreational-71.png", "id": "7ebec53691e52fd22b686a88b224dab99419e65a", "name": "Corey Hill Outlook Park", "opening_hours": {"open_now": true}, "photos": [{"height": 2432, "html_attributions": ["<a href=\"https://maps.google.com/maps/contrib/107567652267788998028/photos\">Tim Bond</a>"], "photo_reference": "CmRaAAAAMtiM17i6cnPAfued7dCrKPg-lnwkF5TuJomZItUpLb01ij0UbC4d3tKLMPQTHED_kHQW_CYHNiOAqSjZoj6VQrRmPz_-NA16VBBY8bgxPi3N10B7Twr5Qpevm691M6sZEhDViqjgOxfXMaYa5YRNJ4AzGhQaLqBshtQSlseATHF9_Md4EtN5SQ", "width": 4320}], "place_id": "ChIJlYFdQrd544kRpXSd5odYqR4", "plus_code": {"compound_code": "8VR8+XC Brookline, Massachusetts, United States", "global_code": "87JC8VR8+XC"}, "rating": 4.6, "reference": "ChIJlYFdQrd544kRpXSd5odYqR4", "scope": "GOOGLE", "types": ["park", "point_of_interest", "establishment"], "user_ratings_total": 128, "vicinity": "Summit Avenue, Brookline"}, "ChIJO923KLF544kRHA4C3N7YaL4": {"geometry": {"location": {"lat": 42.3412621, "lng": -71.1365332}, "viewport": {"northeast": {"lat": 42.34269443029149, "lng": -71.13509896970848}, "southwest": {"lat": 42.3399964697085, "lng": -71.1377969302915}}}, "icon": "https://maps.gstatic.com/mapfiles/place_api/icons/school-71.png", "id": "e8799c86ded6c799a46f1c9c9916cb10c17b45f2", "name": "Driscoll Extended Day Program", "place_id": "ChIJO923KLF544kRHA4C3N7YaL4", "plus_code": {"compound_code": "8VR7+G9 Brookline, Massachusetts, United States", "global_code": "87JC8VR7+G9"}, "reference": "ChIJO923KLF544kRHA4C3N7YaL4", "scope": "GOOGLE", "types": ["point_of_interest", "establishment"], "vicinity": "64 Westbourne Terrace, Brookline"}, "ChIJx_Q_KLF544kR8xKaVXEbimA": {"geometry": {"location": {"lat": 42.34130499999999, "lng": -71.136031}, "viewport": {"northeast": {"lat": 42.3426293802915, "lng": -71.1347128697085}, "southwest": {"lat": 42.33993141970851, "lng": -71.1374108302915}}}, "icon": "https://maps.gstatic.com/mapfiles/place_api/icons/generic_business-71.png", "id": "97d9e2a89ba5aa0d86302d05f1611170fc1cd053", "name": "Capital Unlimited", "place_id": "ChIJx_Q_KLF544kR8xKaVXEbimA", "plus_code": {"compound_code": "8VR7+GH Brookline, Massachusetts, United States", "global_code": "87JC8VR7+GH"}, "reference": "ChIJx_Q_KLF544kR8xKaVXEbimA", "scope": "GOOGLE", "types": ["real_estate_agency", "point_of_interest", "establishment"], "vicinity": "675 Veterans of Foreign Wars Parkway, Chestnut Hill"}, "ChIJpa-acLJ544kREE0FlhB3fHI": {"geometry": {"location": {"lat": 42.341215, "lng": -71.1362798}, "viewport": {"northeast": {"lat": 42.3426094302915, "lng": -71.13487381970849}, "southwest": {"lat": 42.3399114697085, "lng": -71.1375717802915}}}, "icon": "https://maps.gstatic.com/mapfiles/place_api/icons/school-71.png", "id": "4cfdcb848d8ca37846f3a6661acdcbe7b3745218", "name": "Driscoll school", "place_id": "ChIJpa-acLJ544kREE0FlhB3fHI", "plus_code": {"compound_code": "8VR7+FF Brookline, Massachusetts, United States", "global_code": "87JC8VR7+FF"}, "rating": 5, "reference": "ChIJpa-acLJ544kREE0FlhB3fHI", "scope": "GOOGLE", "types": ["school", "point_of_interest", "establishment"], "user_ratings_total": 1, "vicinity": "64 Westbourne Terrace, Brookline"}, "ChIJbY7uyrZ544kRfGpG0yRdw6M": {"geometry": {"location": {"lat": 42.3422122, "lng": -71.1373665}, "viewport": {"northeast": {"lat": 42.3435444802915, "lng": -71.1360398697085}, "southwest": {"lat": 42.3408465197085, "lng": -71.1387378302915}}}, "icon": "https://maps.gstatic.com/mapfiles/place_api/icons/generic_business-71.png", "id": "4aff22c03e030db7c45a07e768914b05716050a3", "name": "Evident Marketing Inc", "place_id": "ChIJbY7uyrZ544kRfGpG0yRdw6M", "plus_code": {"compound_code": "8VR7+V3 Brookline, Massachusetts, United States", "global_code": "87JC8VR7+V3"}, "reference": "ChIJbY7uyrZ544kRfGpG0yRdw6M", "scope": "GOOGLE", "types": ["point_of_interest", "establishment"], "vicinity": "94 Westbourne Terrace, Brookline"}, "ChIJ6RrfLrF544kR5eAdD-g7Ih0": {"geometry": {"location": {"lat": 42.34142920000001, "lng": -71.1359998}, "viewport": {"northeast": {"lat": 42.34271443029151, "lng": -71.13473076970848}, "southwest": {"lat": 42.34001646970851, "lng": -71.13742873029149}}}, "icon": "https://maps.gstatic.com/mapfiles/place_api/icons/generic_business-71.png", "id": "98c31dcfbd8b197a64281bae9000a4f90c0a8ea1", "name": "Capital Needs Unlimited", "place_id": "ChIJ6RrfLrF544kR5eAdD-g7Ih0", "plus_code": {"compound_code": "8VR7+HJ Brookline, Massachusetts, United States", "global_code": "87JC8VR7+HJ"}, "reference": "ChIJ6RrfLrF544kR5eAdD-g7Ih0", "scope": "GOOGLE", "types": ["real_estate_agency", "point_of_interest", "establishment"], "vicinity": "57 Westbourne Terrace, Brookline"}, "ChIJ_xvYHrd544kR2Z_iBG9EkIM": {"geometry": {"location": {"lat": 42.3431758, "lng": -71.1354458}, "viewport": {"northeast": {"lat": 42.3443975302915, "lng": -71.1341430697085}, "southwest": {"lat": 42.3416995697085, "lng": -71.1368410302915}}}, "icon": "https://maps.gstatic.com/mapfiles/place_api/icons/generic_business-71.png", "id": "c85944f2f0eb767c228b1fa7215efeb00a4bf816", "name": "Grand Building", "place_id": "ChIJ_xvYHrd544kR2Z_iBG9EkIM", "plus_code": {"compound_code": "8VV7+7R Brookline, Massachusetts, United States", "global_code": "87JC8VV7+7R"}, "rating": 4.8, "reference": "ChIJ_xvYHrd544kR2Z_iBG9EkIM", "scope": "GOOGLE", "types": ["point_of_interest", "establishment"], "user_ratings_total": 4, "vicinity": "227 Summit Avenue, Brookline"}, "ChIJgVbUK7d544kRgKIelYOm_KE": {"geometry": {"location": {"lat": 42.34198300000001, "lng": -71.1357235}, "viewport": {"northeast": {"lat": 42.34334468029149, "lng": -71.13434936970849}, "southwest": {"lat": 42.3406467197085, "lng": -71.1370473302915}}}, "icon": "https://maps.gstatic.com/mapfiles/place_api/icons/generic_business-71.png", "id": "f1469d835cc55cc5154bfd1609d04b0deeb18e2a", "name": "GR Mechanical Heating and Air Conditioning (HVAC)", "opening_hours": {"open_now": true}, "place_id": "ChIJgVbUK7d544kRgKIelYOm_KE", "plus_code": {"compound_code": "8VR7+QP Brookline, Massachusetts, United States", "global_code": "87JC8VR7+QP"}, "rating": 5, "reference": "ChIJgVbUK7d544kRgKIelYOm_KE", "scope": "GOOGLE", "types": ["home_goods_store", "store", "general_contractor", "point_of_interest", "establishment"], "user_ratings_total": 1, "vicinity": "Brookline"}, "ChIJddYpsrZ544kRhsqhu4LGAYc": {"geometry": {"location": {"lat": 42.3410435, "lng": -71.13543990000001}, "viewport": {"northeast": {"lat": 42.3423266302915, "lng": -71.13421691970848}, "southwest": {"lat": 42.3396286697085, "lng": -71.1369148802915}}}, "icon": "https://maps.gstatic.com/mapfiles/place_api/icons/generic_business-71.png", "id": "14dccacf85d0f8f78f4e567290072989eb540469", "name": "Supermega Design", "place_id": "ChIJddYpsrZ544kRhsqhu4LGAYc", "plus_code": {"compound_code": "8VR7+CR Brookline, Massachusetts, United States", "global_code": "87JC8VR7+CR"}, "reference": "ChIJddYpsrZ544kRhsqhu4LGAYc", "scope": "GOOGLE", "types": ["point_of_interest", "establishment"], "vicinity": "41 Westbourne Terrace, Brookline"}, "ChIJ1yqw4LZ544kRPd4XvLqs1U8": {"geometry": {"location": {"lat": 42.34302809999999, "lng": -71.1363571}, "viewport": {"northeast": {"lat": 42.34443553029149, "lng": -71.13496171970849}, "southwest": {"lat": 42.3417375697085, "lng": -71.13765968029149}}}, "icon": "https://maps.gstatic.com/mapfiles/place_api/icons/generic_business-71.png", "id": "bb284c05b524a521a1857e37d82322affd154717", "name": "Diane Buchwald, PT", "place_id": "ChIJ1yqw4LZ544kRPd4XvLqs1U8", "plus_code": {"compound_code": "8VV7+6F Brookline, Massachusetts, United States", "global_code": "87JC8VV7+6F"}, "reference": "ChIJ1yqw4LZ544kRPd4XvLqs1U8", "scope": "GOOGLE", "types": ["physiotherapist", "health", "point_of_interest", "establishment"], "vicinity": "232 Summit Avenue, Brookline"}, "ChIJzZHuyrZ544kRfbn9y5YQEu8": {"geometry": {"location": {"lat": 42.3422122, "lng": -71.1373665}, "viewport": {"northeast": {"lat": 42.3435444802915, "lng": -71.1360398697085}, "southwest": {"lat": 42.3408465197085, "lng": -71.1387378302915}}}, "icon": "https://maps.gstatic.com/mapfiles/place_api/icons/generic_business-71.png", "id": "44112aee7065db757c9100654647320103e60bda", "name": "Nechama J. Wildanah, CPM", "place_id": "ChIJzZHuyrZ544kRfbn9y5YQEu8", "plus_code": {"compound_code": "8VR7+V3 Brookline, Massachusetts, United States", "global_code": "87JC8VR7+V3"}, "reference": "ChIJzZHuyrZ544kRfbn9y5YQEu8", "scope": "GOOGLE", "types": ["doctor", "health", "point_of_interest", "establishment"], "vicinity": "94 Westbourne Terrace, Brookline"}, "ChIJq6qqQ7d544kR-fOHiSq5Dm8": {"geometry": {"location": {"lat": 42.3424982, "lng": -71.1338969}, "viewport": {"northeast": {"lat": 42.34389403029149, "lng": -71.13253066970849}, "southwest": {"lat": 42.3411960697085, "lng": -71.13522863029151}}}, "icon": "https://maps.gstatic.com/mapfiles/place_api/icons/generic_business-71.png", "id": "5883d2be22011b2d18225ae284b3faf41dd18c77", "name": "Corey Hill Playground", "place_id": "ChIJq6qqQ7d544kR-fOHiSq5Dm8", "plus_code": {"compound_code": "8VR8+XC Brookline, Massachusetts, United States", "global_code": "87JC8VR8+XC"}, "reference": "ChIJq6qqQ7d544kR-fOHiSq5Dm8", "scope": "GOOGLE", "types": ["point_of_interest", "establishment"], "vicinity": "Summit Avenue, Brookline"}, "ChIJGyw1wrZ544kRnBw7QhHGo2s": {"geometry": {"location": {"lat": 42.3430385, "lng": -71.13689459999999}, "viewport": {"northeast": {"lat": 42.3443898302915, "lng": -71.13553121970848}, "southwest": {"lat": 42.3416918697085, "lng": -71.13822918029149}}}, "icon": "https://maps.gstatic.com/mapfiles/place_api/icons/generic_business-71.png", "id": "a76515e2a414b9c31403f46cb5f8c6c03f42036a", "name": "Friends-Corey Hl Partnership", "place_id": "ChIJGyw1wrZ544kRnBw7QhHGo2s", "plus_code": {"compound_code": "8VV7+66 Brookline, Massachusetts, United States", "global_code": "87JC8VV7+66"}, "reference": "ChIJGyw1wrZ544kRnBw7QhHGo2s", "scope": "GOOGLE", "types": ["point_of_interest", "establishment"], "vicinity": "166 Lancaster Terrace, Brookline"}, "ChIJ3QHJxLl544kRgAA8aVcrMe8": {"geometry": {"location": {"lat": 42.3422361, "lng": -71.1314831}, "viewport": {"northeast": {"lat": 42.346127, "lng": -71.1240239}, "southwest": {"lat": 42.339349, "lng": -71.1403582}}}, "icon": "https://maps.gstatic.com/mapfiles/place_api/icons/geocode-71.png", "id": "1bce25c23e7af4676c5dfe5a455349bab0e3fc8c", "name": "Corey Hill", "place_id": "ChIJ3QHJxLl544kRgAA8aVcrMe8", "reference": "ChIJ3QHJxLl544kRgAA8aVcrMe8", "scope": "GOOGLE", "types": ["neighborhood", "political"], "vicinity": "Boston"}}