{"ChIJGzE9DS1l44kRoOhiASS_fHg": {"geometry": {"location": {"lat": 42.3600825, "lng": -71.0588801}, "viewport": {"northeast": {"lat": 42.40081989999999, "lng": -70.749455}, "southwest": {"lat": 42.22788, "lng": -71.191113}}}, "icon": "https://maps.gstatic.com/mapfiles/place_api/icons/geocode-71.png", "id": "06755c25d2b34d13942a4713971756a55b870ced", "name": "Boston", "photos": [{"height": 3024, "html_attributions": ["<a href=\"https://maps.google.com/maps/contrib/104670289779338733432/photos\">Natalia Zalucean</a>"], "photo_reference": "CmRaAAAAnn99FAqCSBFUoIEU4tm7ED8XOFFojrkLnnYR2piFXG-wG5p-id2gRLLiOtUJADeJhkiJRlU5kwJs1iBgHrf1oUdnz8V8uG0rSvDNIZSzcUR-PNxwwf-gbo6kJ1gryrWXEhDWiXduncZHJuPsc_gbapgrGhQNAXizF-6M9rMAF4KR_vPtGNPguA", "width": 4032}], "place_id": "ChIJGzE9DS1l44kRoOhiASS_fHg", "reference": "ChIJGzE9DS1l44kRoOhiASS_fHg", "scope": "GOOGLE", "types": ["locality", "political"], "vicinity": "Boston"}, "ChIJD_zQFUxw44kRH_nol1zH-F0": {"geometry": {"location": {"lat": 42.3299251, "lng": -71.0894065}, "viewport": {"northeast": {"lat": 42.3312553802915, "lng": -71.08783276970848}, "southwest": {"lat": 42.3285574197085, "lng": -71.0905307302915}}}, "icon": "https://maps.gstatic.com/mapfiles/place_api/icons/generic_business-71.png", "id": "8b25b7f44cb24d1be6e0c996638023742f6c666f", "name": "UU Urban Ministry", "photos": [{"height": 3024, "html_attributions": ["<a href=\"https://maps.google.com/maps/contrib/115523073983381452063/photos\">Luther Pinckney</a>"], "photo_reference": "CmRaAAAAgJo1VQBlGcgsB0GColWUVwKIUyPvFGarYjSsyZvRXo9U5N9vPfnKGJvi8Is3yb6FiVeDjFfkH8P7-Il7D3XHJ7TxjnYxuVJ4PFYyVihGkYbE-5zJ02pdHPLbxWOlvdP2EhAqbZ88R8pVObGPQicaDdb4GhReAHcZ1X5EKevpZcgUNQ7ar0693Q", "width": 4032}], "place_id": "ChIJD_zQFUxw44kRH_nol1zH-F0", "plus_code": {"compound_code": "8WH6+X6 Boston, Massachusetts, United States", "global_code": "87JC8WH6+X6"}, "rating": 4.3, "reference": "ChIJD_zQFUxw44kRH_nol1zH-F0", "scope": "GOOGLE", "types": ["point_of_interest", "establishment"], "user_ratings_total": 15, "vicinity": "10 Putnam Street, Roxbury"}, "ChIJ9YXnkiV644kRWYUAB4rtQBw": {"geometry": {"location": {"lat": 42.3297443, "lng": -71.08998199999999}, "viewport": {"northeast": {"lat": 42.3310614802915, "lng": -71.0881331697085}, "southwest": {"lat": 42.3283635197085, "lng": -71.0908311302915}}}, "icon": "https://maps.gstatic.com/mapfiles/place_api/icons/worship_general-71.png", "id": "025185cac2d6c1f0b63980ff367360967a339d30", "name": "First Church In Roxbury", "photos": [{"height": 5248, "html_attributions": ["<a href=\"https://maps.google.com/maps/contrib/117810852553136165028/photos\">Stephanie Davis</a>"], "photo_reference": "CmRaAAAAQgXnQqM0AqElLZ-xF9yGdSxPq3OzAjcnjnNfzMHyhXgHnXo_IqxstFijI0sFr-Z_BnB9opS2hzuPKFvkGpMVB2QW06Y0U3CHt2CO2dlVz2G5W61SJWk8P27KN24vDSEGEhA7oXcU6I7wmTB8UTpIsM5fGhTD-c1MjdHsmmB9vh5wvfiTmiO-yg", "width": 3936}], "place_id": "ChIJ9YXnkiV644kRWYUAB4rtQBw", "plus_code": {"compound_code": "8WH6+V2 Boston, Massachusetts, United States", "global_code": "87JC8WH6+V2"}, "rating": 5, "reference": "ChIJ9YXnkiV644kRWYUAB4rtQBw", "scope": "GOOGLE", "types": ["church", "place_of_worship", "park", "point_of_interest", "establishment"], "user_ratings_total": 1, "vicinity": "10 Putnam Street, Boston"}, "ChIJKa53IYh544kRcScNtsytbs8": {"geometry": {"location": {"lat": 42.3294874, "lng": -71.0904388}, "viewport": {"northeast": {"lat": 42.3309048802915, "lng": -71.0890562697085}, "southwest": {"lat": 42.3282069197085, "lng": -71.0917542302915}}}, "icon": "https://maps.gstatic.com/mapfiles/place_api/icons/school-71.png", "id": "5ddb79f848d257d3f8895ae637b206a0bd9fba75", "name": "MissionSAFE", "opening_hours": {"open_now": true}, "photos": [{"height": 716, "html_attributions": ["<a href=\"https://maps.google.com/maps/contrib/111549965835794166202/photos\">MissionSAFE</a>"], "photo_reference": "CmRaAAAAsZdUS_1ls3zflauiAttrJaHVzEaVPLYSdEzxHYrSBvVrinHlz_vr4ERC6Oa8ObQr8_aATDrH5yxuHBPWhZwC0WGBXBsiSe9PG-xyUfYE3SYDwUkpx5zQQMsiVFfc-XH2EhBRYDnsVp2YInqS_QjUEMFhGhQz5umG5nM1xQVwk6KyDZz6LYIxVw", "width": 960}], "place_id": "ChIJKa53IYh544kRcScNtsytbs8", "plus_code": {"compound_code": "8WH5+QR Boston, Massachusetts, United States", "global_code": "87JC8WH5+QR"}, "reference": "ChIJKa53IYh544kRcScNtsytbs8", "scope": "GOOGLE", "types": ["point_of_interest", "establishment"], "vicinity": "18 John Eliot Square, Boston"}, "ChIJt2Xvai9644kRXTwezFelYbY": {"geometry": {"location": {"lat": 42.3281012, "lng": -71.0897943}, "viewport": {"northeast": {"lat": 42.3294482802915, "lng": -71.08842591970848}, "southwest": {"lat": 42.3267503197085, "lng": -71.0911238802915}}}, "icon": "https://maps.gstatic.com/mapfiles/place_api/icons/generic_business-71.png", "id": "d36bc675c520efcc96d37bed5bfdd1221c8f702a", "name": "healed", "place_id": "ChIJt2Xvai9644kRXTwezFelYbY", "plus_code": {"compound_code": "8WH6+63 Boston, Massachusetts, United States", "global_code": "87JC8WH6+63"}, "reference": "ChIJt2Xvai9644kRXTwezFelYbY", "scope": "GOOGLE", "types": ["store", "health", "point_of_interest", "establishment"], "vicinity": "23 Lambert Avenue, Roxbury"}, "ChIJqwYuXy9644kRjpOQ6rL80CY": {"geometry": {"location": {"lat": 42.3293669, "lng": -71.0897882}, "viewport": {"northeast": {"lat": 42.3306804802915, "lng": -71.0885203197085}, "southwest": {"lat": 42.3279825197085, "lng": -71.09121828029151}}}, "icon": "https://maps.gstatic.com/mapfiles/place_api/icons/generic_business-71.png", "id": "a1b1d595dfc85c3fbfb5dd185c46b2b738c74045", "name": "Cruz Companies, Inc.", "opening_hours": {"open_now": false}, "place_id": "ChIJqwYuXy9644kRjpOQ6rL80CY", "plus_code": {"compound_code": "8WH6+P3 Boston, Massachusetts, United States", "global_code": "87JC8WH6+P3"}, "rating": 3.6, "reference": "ChIJqwYuXy9644kRjpOQ6rL80CY", "scope": "GOOGLE", "types": ["general_contractor", "point_of_interest", "establishment"], "user_ratings_total": 5, "vicinity": "1 John Eliot Square, Roxbury"}, "ChIJqwYuXy9644kR6Os727KZ7js": {"geometry": {"location": {"lat": 42.3294478, "lng": -71.09035709999999}, "viewport": {"northeast": {"lat": 42.33087383029149, "lng": -71.08897221970848}, "southwest": {"lat": 42.3281758697085, "lng": -71.09167018029149}}}, "icon": "https://maps.gstatic.com/mapfiles/place_api/icons/generic_business-71.png", "id": "7a40a03c137d4cff568e0b99e75ad727dbb6383c", "name": "Ace Done An Institute-Educ-Research", "place_id": "ChIJqwYuXy9644kR6Os727KZ7js", "plus_code": {"compound_code": "8WH5+QV Boston, Massachusetts, United States", "global_code": "87JC8WH5+QV"}, "reference": "ChIJqwYuXy9644kR6Os727KZ7js", "scope": "GOOGLE", "types": ["point_of_interest", "school", "establishment"], "vicinity": "18 John Eliot Square, Boston"}, "ChIJ13ZDgiV644kRn_jW3y0qMZ0": {"geometry": {"location": {"lat": 42.3294212, "lng": -71.0885043}, "viewport": {"northeast": {"lat": 42.33074068029149, "lng": -71.0871626197085}, "southwest": {"lat": 42.3280427197085, "lng": -71.0898605802915}}}, "icon": "https://maps.gstatic.com/mapfiles/place_api/icons/generic_business-71.png", "id": "d1e254e3a440b6d1d64702e0192edd74e323ea02", "name": "Acedone", "place_id": "ChIJ13ZDgiV644kRn_jW3y0qMZ0", "plus_code": {"compound_code": "8WH6+QH Boston, Massachusetts, United States", "global_code": "87JC8WH6+QH"}, "rating": 5, "reference": "ChIJ13ZDgiV644kRn_jW3y0qMZ0", "scope": "GOOGLE", "types": ["point_of_interest", "establishment"], "user_ratings_total": 1, "vicinity": "48 John Eliot Square, Boston"}, "ChIJlfMFhSV644kRxnndCizjrZM": {"geometry": {"location": {"lat": 42.3299172, "lng": -71.0894714}, "viewport": {"northeast": {"lat": 42.33124483029149, "lng": -71.08786621970849}, "southwest": {"lat": 42.3285468697085, "lng": -71.0905641802915}}}, "icon": "https://maps.gstatic.com/mapfiles/place_api/icons/worship_general-71.png", "id": "10f3619e6046fec33e3c22ad051410898c67873c", "name": "First Church in Roxbury", "place_id": "ChIJlfMFhSV644kRxnndCizjrZM", "plus_code": {"compound_code": "8WH6+X6 Boston, Massachusetts, United States", "global_code": "87JC8WH6+X6"}, "rating": 5, "reference": "ChIJlfMFhSV644kRxnndCizjrZM", "scope": "GOOGLE", "types": ["church", "place_of_worship", "point_of_interest", "establishment"], "user_ratings_total": 4, "vicinity": "10 Putnam Street, Roxbury"}, "ChIJaXFJ8SV644kRlwnEbilF_3c": {"geometry": {"location": {"lat": 42.3296044, "lng": -71.09034}, "viewport": {"northeast": {"lat": 42.33093398029149, "lng": -71.08900051970848}, "southwest": {"lat": 42.3282360197085, "lng": -71.0916984802915}}}, "icon": "https://maps.gstatic.com/mapfiles/place_api/icons/generic_business-71.png", "id": "d577636f9cce3e6c481d90eafe224769bace22eb", "name": "Catalyst Ventures Development", "place_id": "ChIJaXFJ8SV644kRlwnEbilF_3c", "plus_code": {"compound_code": "8WH5+RV Boston, Massachusetts, United States", "global_code": "87JC8WH5+RV"}, "rating": 5, "reference": "ChIJaXFJ8SV644kRlwnEbilF_3c", "scope": "GOOGLE", "types": ["finance", "point_of_interest", "establishment"], "user_ratings_total": 1, "vicinity": "16 John Eliot Square, Boston"}, "ChIJByRnhy9644kRoUAd7-VxSDU": {"geometry": {"location": {"lat": 42.328866, "lng": -71.0879171}, "viewport": {"northeast": {"lat": 42.3302384302915, "lng": -71.0865405197085}, "southwest": {"lat": 42.3275404697085, "lng": -71.08923848029151}}}, "icon": "https://maps.gstatic.com/mapfiles/place_api/icons/generic_business-71.png", "id": "4e377977ab7cecad2ba866531022a37891f0f09b", "name": "The Most Worshipful George Washington Carver Grand Lodge", "place_id": "ChIJByRnhy9644kRoUAd7-VxSDU", "plus_code": {"compound_code": "8WH6+GR Boston, Massachusetts, United States", "global_code": "87JC8WH6+GR"}, "rating": 5, "reference": "ChIJByRnhy9644kRoUAd7-VxSDU", "scope": "GOOGLE", "types": ["point_of_interest", "establishment"], "user_ratings_total": 1, "vicinity": "23 Kenilworth Street, Boston"}, "ChIJUcCjfCV644kRYnvhxuDtT_M": {"geometry": {"location": {"lat": 42.3291158, "lng": -71.08773690000001}, "viewport": {"northeast": {"lat": 42.33053178029149, "lng": -71.08637101970851}, "southwest": {"lat": 42.32783381970849, "lng": -71.08906898029151}}}, "icon": "https://maps.gstatic.com/mapfiles/place_api/icons/school-71.png", "id": "0cae37dd72833c5f71789381850d5cd4629ee851", "name": "O'Bryant", "place_id": "ChIJUcCjfCV644kRYnvhxuDtT_M", "plus_code": {"compound_code": "8WH6+JW Boston, Massachusetts, United States", "global_code": "87JC8WH6+JW"}, "reference": "ChIJUcCjfCV644kRYnvhxuDtT_M", "scope": "GOOGLE", "types": ["school", "point_of_interest", "establishment"], "vicinity": "02120-3106, 55 Dudley Street, Boston"}, "ChIJXVZFYyV644kRszg5zv6a7nQ": {"geometry": {"location": {"lat": 42.3290789, "lng": -71.0876138}, "viewport": {"northeast": {"lat": 42.3305044802915, "lng": -71.08624546970849}, "southwest": {"lat": 42.3278065197085, "lng": -71.08894343029151}}}, "icon": "https://maps.gstatic.com/mapfiles/place_api/icons/generic_business-71.png", "id": "2f65ddb778d7b1b784c3c9df42291fffbadec6b3", "name": "Vinfen Corporation", "place_id": "ChIJXVZFYyV644kRszg5zv6a7nQ", "plus_code": {"compound_code": "8WH6+JX Boston, Massachusetts, United States", "global_code": "87JC8WH6+JX"}, "reference": "ChIJXVZFYyV644kRszg5zv6a7nQ", "scope": "GOOGLE", "types": ["health", "point_of_interest", "establishment"], "vicinity": "57 Dudley Street, Roxbury"}, "ChIJHd1EYiV644kRzCLaXHRO8TY": {"geometry": {"location": {"lat": 42.3289228, "lng": -71.08745189999999}, "viewport": {"northeast": {"lat": 42.3301899302915, "lng": -71.0860374697085}, "southwest": {"lat": 42.3274919697085, "lng": -71.0887354302915}}}, "icon": "https://maps.gstatic.com/mapfiles/place_api/icons/generic_business-71.png", "id": "e0f9523f6532f7aab8b024a17311a734b9cc23f1", "name": "Fort Hill Brokerage Group", "place_id": "ChIJHd1EYiV644kRzCLaXHRO8TY", "plus_code": {"compound_code": "8WH7+H2 Boston, Massachusetts, United States", "global_code": "87JC8WH7+H2"}, "reference": "ChIJHd1EYiV644kRzCLaXHRO8TY", "scope": "GOOGLE", "types": ["real_estate_agency", "finance", "point_of_interest", "establishment"], "vicinity": "13 Kenilworth Street, Boston"}, "ChIJq6qqqi1644kRPjAp6XIibv0": {"geometry": {"location": {"lat": 42.32935639999999, "lng": -71.0891232}, "viewport": {"northeast": {"lat": 42.3307499802915, "lng": -71.08776401970849}, "southwest": {"lat": 42.3280520197085, "lng": -71.09046198029151}}}, "icon": "https://maps.gstatic.com/mapfiles/place_api/icons/generic_business-71.png", "id": "49b3c3dc0a7ffb852f01977e410bb70fef94fcfa", "name": "Rudament Music Company", "place_id": "ChIJq6qqqi1644kRPjAp6XIibv0", "plus_code": {"compound_code": "8WH6+P9 Boston, Massachusetts, United States", "global_code": "87JC8WH6+P9"}, "reference": "ChIJq6qqqi1644kRPjAp6XIibv0", "scope": "GOOGLE", "types": ["electronics_store", "home_goods_store", "store", "point_of_interest", "school", "establishment"], "vicinity": "13 Dudley Street, Roxbury"}, "ChIJMaovgSV644kRw2vkSkCK1sg": {"geometry": {"location": {"lat": 42.3289058, "lng": -71.0890453}, "viewport": {"northeast": {"lat": 42.3302436802915, "lng": -71.08767776970849}, "southwest": {"lat": 42.3275457197085, "lng": -71.0903757302915}}}, "icon": "https://maps.gstatic.com/mapfiles/place_api/icons/worship_general-71.png", "id": "1a905915fa0c1aaebc275953a3c3622d905b73f2", "name": "Holy Temple Church", "place_id": "ChIJMaovgSV644kRw2vkSkCK1sg", "plus_code": {"compound_code": "8WH6+H9 Boston, Massachusetts, United States", "global_code": "87JC8WH6+H9"}, "rating": 5, "reference": "ChIJMaovgSV644kRw2vkSkCK1sg", "scope": "GOOGLE", "types": ["church", "place_of_worship", "point_of_interest", "establishment"], "user_ratings_total": 2, "vicinity": "14 Lambert Avenue, Roxbury"}, "ChIJH0ITe25744kRrQ-oa_FjmX0": {"geometry": {"location": {"lat": 42.3293645, "lng": -71.0896174}, "viewport": {"northeast": {"lat": 42.3307839802915, "lng": -71.08825456970848}, "southwest": {"lat": 42.3280860197085, "lng": -71.09095253029149}}}, "icon": "https://maps.gstatic.com/mapfiles/place_api/icons/generic_business-71.png", "id": "f0bd5a407c354311789d22d8488111ef8367600f", "name": "Sierra Madisen Cosmetics", "opening_hours": {"open_now": true}, "photos": [{"height": 3072, "html_attributions": ["<a href=\"https://maps.google.com/maps/contrib/106061414130949014913/photos\">Sierra Madisen Cosmetics</a>"], "photo_reference": "CmRaAAAAd0ajalcNsz3xbvUzjv8GBvtN14H4K5PDP4Cm-STMl5PMwfEp5vav0D8ntBMaLj7LTeP5ghRc6KUmbaZKqg2K_7jm9BRbupSRcuDu8xqIPyi36sQHRAQTonJ7y_0EQi4aEhCaD1Dg6WYSZI7eKSdX8bQmGhQgKdK14wOo9lgt8We4loMkW7sXEA", "width": 3072}], "place_id": "ChIJH0ITe25744kRrQ-oa_FjmX0", "plus_code": {"compound_code": "8WH6+P5 Boston, Massachusetts, United States", "global_code": "87JC8WH6+P5"}, "reference": "ChIJH0ITe25744kRrQ-oa_FjmX0", "scope": "GOOGLE", "types": ["beauty_salon", "point_of_interest", "establishment"], "vicinity": "3 Dudley Street, Roxbury"}, "ChIJcUHv9iV644kRw-a-d1FK700": {"geometry": {"location": {"lat": 42.3294951, "lng": -71.0903953}, "viewport": {"northeast": {"lat": 42.33090403029149, "lng": -71.08901696970848}, "southwest": {"lat": 42.32820606970849, "lng": -71.0917149302915}}}, "icon": "https://maps.gstatic.com/mapfiles/place_api/icons/generic_business-71.png", "id": "339443ba3837b0af18a21fb418ec8dfa538aed9c", "name": "Boston Means Business", "place_id": "ChIJcUHv9iV644kRw-a-d1FK700", "plus_code": {"compound_code": "8WH5+QR Boston, Massachusetts, United States", "global_code": "87JC8WH5+QR"}, "reference": "ChIJcUHv9iV644kRw-a-d1FK700", "scope": "GOOGLE", "types": ["point_of_interest", "establishment"], "vicinity": "16 John Eliot Square, Boston"}, "ChIJJQEi9yV644kRtV5svL_btYs": {"geometry": {"location": {"lat": 42.3295312, "lng": -71.0904707}, "viewport": {"northeast": {"lat": 42.3307695302915, "lng": -71.0892307697085}, "southwest": {"lat": 42.3280715697085, "lng": -71.09192873029151}}}, "icon": "https://maps.gstatic.com/mapfiles/place_api/icons/generic_business-71.png", "id": "511c293589dd4215adcd22082e07651f40cdad31", "name": "Sky View Travel", "place_id": "ChIJJQEi9yV644kRtV5svL_btYs", "plus_code": {"compound_code": "8WH5+RR Boston, Massachusetts, United States", "global_code": "87JC8WH5+RR"}, "reference": "ChIJJQEi9yV644kRtV5svL_btYs", "scope": "GOOGLE", "types": ["travel_agency", "point_of_interest", "establishment"], "vicinity": "office #, 18 Centre Street, Cambridge"}, "ChIJh-CN2yx644kRI8h5WPc98wQ": {"geometry": {"location": {"lat": 42.31519779999999, "lng": -71.0913748}, "viewport": {"northeast": {"lat": 42.335885, "lng": -71.06649519999999}, "southwest": {"lat": 42.29179790000001, "lng": -71.1067612}}}, "icon": "https://maps.gstatic.com/mapfiles/place_api/icons/geocode-71.png", "id": "33d978342c31fa28698809200432caaeeab1c79d", "name": "Roxbury", "photos": [{"height": 5312, "html_attributions": ["<a href=\"https://maps.google.com/maps/contrib/108141736953672835093/photos\">Warriorprincess4916</a>"], "photo_reference": "CmRaAAAA1us-8K8xyzIKDctlGZIX5Z5grk3EAIIf_EulKB1ipG18GYQjvBe4ovmUUvt_hXARpNcjlP-qjcf7rrEemNEDgljJsgChjKcwBm1LXjpvTUHj4pZJr00uHwrouZJAcYmHEhCbP70O87IqAHYG8q8VIMFZGhQy6nq29O21uOiE_4I8N9zuz64MOw", "width": 2988}], "place_id": "ChIJh-CN2yx644kRI8h5WPc98wQ", "reference": "ChIJh-CN2yx644kRI8h5WPc98wQ", "scope": "GOOGLE", "types": ["neighborhood", "political"], "vicinity": "Dorchester Center"}, "ChIJQ7klTC9644kRspvkJJ1bnhk": {"geometry": {"location": {"lat": 42.32861759999999, "lng": -71.0910336}, "viewport": {"northeast": {"lat": 42.3300019802915, "lng": -71.0896622697085}, "southwest": {"lat": 42.3273040197085, "lng": -71.0923602302915}}}, "icon": "https://maps.gstatic.com/mapfiles/place_api/icons/shopping-71.png", "id": "df3a79bc9748f8aeda03579619eb08b1bfe67a85", "name": "highlandhounds", "place_id": "ChIJQ7klTC9644kRspvkJJ1bnhk", "plus_code": {"compound_code": "8WH5+CH Boston, Massachusetts, United States", "global_code": "87JC8WH5+CH"}, "rating": 4.3, "reference": "ChIJQ7klTC9644kRspvkJJ1bnhk", "scope": "GOOGLE", "types": ["store", "point_of_interest", "establishment"], "user_ratings_total": 3, "vicinity": "19 Norfolk Street, Roxbury"}, "ChIJ12EvhC9644kRxiN1pOyXyyk": {"geometry": {"location": {"lat": 42.328547, "lng": -71.0878928}, "viewport": {"northeast": {"lat": 42.32999093029149, "lng": -71.08645281970848}, "southwest": {"lat": 42.32729296970849, "lng": -71.0891507802915}}}, "icon": "https://maps.gstatic.com/mapfiles/place_api/icons/worship_general-71.png", "id": "e0df4ca775bd3168f5419789501deaf10f5be2f2", "name": "Christ Temple Church Of Personal Experience", "place_id": "ChIJ12EvhC9644kRxiN1pOyXyyk", "plus_code": {"compound_code": "8WH6+CR Boston, Massachusetts, United States", "global_code": "87JC8WH6+CR"}, "reference": "ChIJ12EvhC9644kRxiN1pOyXyyk", "scope": "GOOGLE", "types": ["church", "place_of_worship", "point_of_interest", "establishment"], "vicinity": "28 - 30 Kenilworth Street, Boston"}, "ChIJSUz5hSV644kRtMoTpTp0q8U": {"geometry": {"location": {"lat": 42.32924440000001, "lng": -71.0880155}, "viewport": {"northeast": {"lat": 42.33060888029149, "lng": -71.0866627197085}, "southwest": {"lat": 42.3279109197085, "lng": -71.0893606802915}}}, "icon": "https://maps.gstatic.com/mapfiles/place_api/icons/bus-71.png", "id": "5fab0e82cf7240cb5d53b158506a0583426d4deb", "name": "42 Dudley St", "place_id": "ChIJSUz5hSV644kRtMoTpTp0q8U", "plus_code": {"compound_code": "8WH6+MQ Boston, Massachusetts, United States", "global_code": "87JC8WH6+MQ"}, "reference": "ChIJSUz5hSV644kRtMoTpTp0q8U", "scope": "GOOGLE", "types": ["bus_station", "transit_station", "point_of_interest", "establishment"], "vicinity": "United States"}, "ChIJ_e1jOy9644kRvj9IBf-qCDY": {"geometry": {"location": {"lat": 42.32758879999999, "lng": -71.0902807}, "viewport": {"northeast": {"lat": 42.32887288029149, "lng": -71.0889906697085}, "southwest": {"lat": 42.3261749197085, "lng": -71.0916886302915}}}, "icon": "https://maps.gstatic.com/mapfiles/place_api/icons/generic_business-71.png", "id": "832052ed500249dc4b579a258199b0862ace56e2", "name": "Refuge Church Of Christ", "place_id": "ChIJ_e1jOy9644kRvj9IBf-qCDY", "plus_code": {"compound_code": "8WH5+2V Boston, Massachusetts, United States", "global_code": "87JC8WH5+2V"}, "reference": "ChIJ_e1jOy9644kRvj9IBf-qCDY", "scope": "GOOGLE", "types": ["point_of_interest", "establishment"], "vicinity": "Millmont Street, Boston"}, "ChIJR0a0YiV644kRv-4YSKlEL6E": {"geometry": {"location": {"lat": 42.328888, "lng": -71.0876444}, "viewport": {"northeast": {"lat": 42.3301806302915, "lng": -71.0863617697085}, "southwest": {"lat": 42.3274826697085, "lng": -71.08905973029151}}}, "icon": "https://maps.gstatic.com/mapfiles/place_api/icons/generic_business-71.png", "id": "7e606ecd92d9c9f178906594671226544b77eb70", "name": "Last First", "place_id": "ChIJR0a0YiV644kRv-4YSKlEL6E", "plus_code": {"compound_code": "8WH6+HW Boston, Massachusetts, United States", "global_code": "87JC8WH6+HW"}, "reference": "ChIJR0a0YiV644kRv-4YSKlEL6E", "scope": "GOOGLE", "types": ["point_of_interest", "establishment"], "vicinity": "17 Kenilworth Street, Roxbury"}, "ChIJC49teiV644kRGMuXx2OohgY": {"geometry": {"location": {"lat": 42.32947799999999, "lng": -71.08793100000001}, "viewport": {"northeast": {"lat": 42.3307316802915, "lng": -71.08660561970851}, "southwest": {"lat": 42.3280337197085, "lng": -71.08930358029151}}}, "icon": "https://maps.gstatic.com/mapfiles/place_api/icons/generic_business-71.png", "id": "97438ccc51373f489dcb9e56c8fcceeacdbc60a3", "name": "Premiere Customized Services", "place_id": "ChIJC49teiV644kRGMuXx2OohgY", "plus_code": {"compound_code": "8WH6+QR Boston, Massachusetts, United States", "global_code": "87JC8WH6+QR"}, "reference": "ChIJC49teiV644kRGMuXx2OohgY", "scope": "GOOGLE", "types": ["point_of_interest", "establishment"], "vicinity": "46 Dudley Street, Roxbury"}, "ChIJuwMDJi9644kRkuINvuttQBw": {"geometry": {"location": {"lat": 42.3271968, "lng": -71.0907248}, "viewport": {"northeast": {"lat": 42.32857268029149, "lng": -71.08927051970849}, "southwest": {"lat": 42.3258747197085, "lng": -71.0919684802915}}}, "icon": "https://maps.gstatic.com/mapfiles/place_api/icons/generic_recreational-71.png", "id": "eb90878780ac20f3db7a9374e24c264e2f91bdfa", "name": "Lambert Avenue Playground", "place_id": "ChIJuwMDJi9644kRkuINvuttQBw", "reference": "ChIJuwMDJi9644kRkuINvuttQBw", "scope": "GOOGLE", "types": ["park", "premise", "point_of_interest", "establishment"], "vicinity": "Boston"}}