{"ChIJGzE9DS1l44kRoOhiASS_fHg": {"geometry": {"location": {"lat": 42.3600825, "lng": -71.0588801}, "viewport": {"northeast": {"lat": 42.40081989999999, "lng": -70.749455}, "southwest": {"lat": 42.22788, "lng": -71.191113}}}, "icon": "https://maps.gstatic.com/mapfiles/place_api/icons/geocode-71.png", "id": "06755c25d2b34d13942a4713971756a55b870ced", "name": "Boston", "photos": [{"height": 3024, "html_attributions": ["<a href=\"https://maps.google.com/maps/contrib/104670289779338733432/photos\">Natalia Zalucean</a>"], "photo_reference": "CmRaAAAAWiD4EoaHVW3GzK8h5mF6PXB2-EdwCcXa5NbqtTn223xM7N_6Tt3qCWSHQbmRdhgZxrWYcOfWqQqj7qeGahDWjo5X7zK8L3PIYrZy6GcTxcBrtCx7WQGiJHwAPy23nLiYEhBCc8YXUs43JW0nVCtFSBC6GhR2gzBL96LZ77t8nRt3HzrzQgnQUw", "width": 4032}], "place_id": "ChIJGzE9DS1l44kRoOhiASS_fHg", "reference": "ChIJGzE9DS1l44kRoOhiASS_fHg", "scope": "GOOGLE", "types": ["locality", "political"], "vicinity": "Boston"}, "ChIJXVVslVR544kRKLBx9fFlqAw": {"geometry": {"location": {"lat": 42.2845361, "lng": -71.10249639999999}, "viewport": {"northeast": {"lat": 42.2858505302915, "lng": -71.10119876970849}, "southwest": {"lat": 42.2831525697085, "lng": -71.1038967302915}}}, "icon": "https://maps.gstatic.com/mapfiles/place_api/icons/generic_business-71.png", "id": "8801dba288dc243f409052b0898eb9c3f3c7be41", "name": "MassBiologics", "opening_hours": {"open_now": false}, "photos": [{"height": 1536, "html_attributions": ["<a href=\"https://maps.google.com/maps/contrib/101027134825942119948/photos\">MassBiologics</a>"], "photo_reference": "CmRaAAAAOR3tjDUDcffnxURSQMoVCEhuknXxCHrzhcI7IGLwcQVgWJ3L1SPDRZMztucQGy_m6RnTULoALWQYKyzdlb7ssdUzGc1pgiENmqEGY0vfw-ZTcyDuEVXJhyyPm7f-x0WSEhB1_00HkdJcIc49IoNYOSDGGhTYdi3zFyA6kA9fg_TUanO8tkrRow", "width": 2048}], "place_id": "ChIJXVVslVR544kRKLBx9fFlqAw", "plus_code": {"compound_code": "7VMX+R2 Boston, Massachusetts, United States", "global_code": "87JC7VMX+R2"}, "rating": 5, "reference": "ChIJXVVslVR544kRKLBx9fFlqAw", "scope": "GOOGLE", "types": ["university", "point_of_interest", "establishment"], "user_ratings_total": 1, "vicinity": "460 Walk Hill Street, Mattapan"}, "ChIJDxn_w1R544kRBNimSfsm9MU": {"geometry": {"location": {"lat": 42.2845016, "lng": -71.1014022}, "viewport": {"northeast": {"lat": 42.28676069999999, "lng": -71.0984905}, "southwest": {"lat": 42.2823429, "lng": -71.10422319999999}}}, "icon": "https://maps.gstatic.com/mapfiles/place_api/icons/generic_recreational-71.png", "id": "de4b78e8b0c5a1a34ea4e87c8fc892d2bc907543", "name": "State Public Health Campus", "place_id": "ChIJDxn_w1R544kRBNimSfsm9MU", "reference": "ChIJDxn_w1R544kRBNimSfsm9MU", "scope": "GOOGLE", "types": ["park", "premise", "point_of_interest", "establishment"], "vicinity": "Boston"}, "ChIJZ_jeNsh-44kRDpddSEjrCd4": {"geometry": {"location": {"lat": 42.2832142, "lng": -71.1270268}, "viewport": {"northeast": {"lat": 42.301598, "lng": -71.09695909999999}, "southwest": {"lat": 42.2575859, "lng": -71.147601}}}, "icon": "https://maps.gstatic.com/mapfiles/place_api/icons/geocode-71.png", "id": "2cdf5de1734d80a609b83de9d29125ad0ec6aa4e", "name": "Roslindale", "photos": [{"height": 3120, "html_attributions": ["<a href=\"https://maps.google.com/maps/contrib/100299987382337147743/photos\">SPRING GARDEN</a>"], "photo_reference": "CmRaAAAAlXNVmJNp4f7swlGAY16IlaDmq6wlAnKMDMlAKcQHRl5Nmw1bCGskhaQYeR_YNM_dtFO4Nc_bw9G2NBJSRmPVvBmBaCzFnXC5UwblEgHd3aeQC6b1GzqfzxmXeD5CtwpSEhBfAWaMcLhG9SLQXSocLIZrGhRPfGZJ24qn61cEeD1a8kmX9ySfrg", "width": 4160}], "place_id": "ChIJZ_jeNsh-44kRDpddSEjrCd4", "reference": "ChIJZ_jeNsh-44kRDpddSEjrCd4", "scope": "GOOGLE", "types": ["neighborhood", "political"], "vicinity": "Dorchester Center"}}