{"ChIJGzE9DS1l44kRoOhiASS_fHg": {"geometry": {"location": {"lat": 42.3600825, "lng": -71.0588801}, "viewport": {"northeast": {"lat": 42.40081989999999, "lng": -70.749455}, "southwest": {"lat": 42.22788, "lng": -71.191113}}}, "icon": "https://maps.gstatic.com/mapfiles/place_api/icons/geocode-71.png", "id": "06755c25d2b34d13942a4713971756a55b870ced", "name": "Boston", "photos": [{"height": 3024, "html_attributions": ["<a href=\"https://maps.google.com/maps/contrib/104670289779338733432/photos\">Natalia Zalucean</a>"], "photo_reference": "CmRaAAAApR2FIwL6Kqax5jfmFspk9zQGM3OiOSSnIOh6QMRjoU9MdaCf0geGUTXullZWY9hkdGga1Sh2eqGWN74G-MUALDM1owZMjYkpRPz_AU9LjZMo-k-i-aliE8hXTkoMzuqFEhDnnUyLfpSlmaFmYekXRYYeGhQnc2XpTT3L1bjFMGZxI9KZwEtPug", "width": 4032}], "place_id": "ChIJGzE9DS1l44kRoOhiASS_fHg", "reference": "ChIJGzE9DS1l44kRoOhiASS_fHg", "scope": "GOOGLE", "types": ["locality", "political"], "vicinity": "Boston"}, "ChIJVcEfqQN844kRlQZe3xYzv4g": {"geometry": {"location": {"lat": 42.2755907, "lng": -71.0938352}, "viewport": {"northeast": {"lat": 42.27693848029149, "lng": -71.0923718697085}, "southwest": {"lat": 42.27424051970849, "lng": -71.09506983029151}}}, "icon": "https://maps.gstatic.com/mapfiles/place_api/icons/generic_business-71.png", "id": "a3bcb631e17f640a68eef7b32d796a3d100b09f5", "name": "Jeanine Rene, Dental", "place_id": "ChIJVcEfqQN844kRlQZe3xYzv4g", "plus_code": {"compound_code": "7WG4+6F Boston, Massachusetts, United States", "global_code": "87JC7WG4+6F"}, "reference": "ChIJVcEfqQN844kRlQZe3xYzv4g", "scope": "GOOGLE", "types": ["doctor", "health", "point_of_interest", "establishment"], "vicinity": "1425 Blue Hill Avenue, Mattapan, MA 02126, Mattapan"}, "ChIJVcEfqQN844kRY489WNfCPkM": {"geometry": {"location": {"lat": 42.2755907, "lng": -71.0938352}, "viewport": {"northeast": {"lat": 42.27693848029149, "lng": -71.0923718697085}, "southwest": {"lat": 42.27424051970849, "lng": -71.09506983029151}}}, "icon": "https://maps.gstatic.com/mapfiles/place_api/icons/generic_business-71.png", "id": "1bd2849d64d313b0d10cb7690a48773e333fc465", "name": "Dr. Sansei M. Fowler, MD", "place_id": "ChIJVcEfqQN844kRY489WNfCPkM", "plus_code": {"compound_code": "7WG4+6F Boston, Massachusetts, United States", "global_code": "87JC7WG4+6F"}, "reference": "ChIJVcEfqQN844kRY489WNfCPkM", "scope": "GOOGLE", "types": ["doctor", "health", "point_of_interest", "establishment"], "vicinity": "1425 Blue Hill Avenue, Mattapan"}, "ChIJVcEfqQN844kRpBjyWKsO_gQ": {"geometry": {"location": {"lat": 42.2755907, "lng": -71.0938352}, "viewport": {"northeast": {"lat": 42.27693848029149, "lng": -71.0923718697085}, "southwest": {"lat": 42.27424051970849, "lng": -71.09506983029151}}}, "icon": "https://maps.gstatic.com/mapfiles/place_api/icons/generic_business-71.png", "id": "e38087686dd1ff0329ae8fa460374293697b597c", "name": "Daphne A. Matthews, RN", "place_id": "ChIJVcEfqQN844kRpBjyWKsO_gQ", "plus_code": {"compound_code": "7WG4+6F Boston, Massachusetts, United States", "global_code": "87JC7WG4+6F"}, "reference": "ChIJVcEfqQN844kRpBjyWKsO_gQ", "scope": "GOOGLE", "types": ["doctor", "health", "point_of_interest", "establishment"], "vicinity": "1425 Blue Hill Avenue, Mattapan"}, "ChIJVcEfqQN844kReSxTnvTnBbc": {"geometry": {"location": {"lat": 42.2755907, "lng": -71.0938352}, "viewport": {"northeast": {"lat": 42.27693848029149, "lng": -71.0923718697085}, "southwest": {"lat": 42.27424051970849, "lng": -71.09506983029151}}}, "icon": "https://maps.gstatic.com/mapfiles/place_api/icons/generic_business-71.png", "id": "6a308bded1b51cfd627a29108c799bc6a6567e16", "name": "Tarma J. Johnson, NP", "place_id": "ChIJVcEfqQN844kReSxTnvTnBbc", "plus_code": {"compound_code": "7WG4+6F Boston, Massachusetts, United States", "global_code": "87JC7WG4+6F"}, "reference": "ChIJVcEfqQN844kReSxTnvTnBbc", "scope": "GOOGLE", "types": ["doctor", "health", "point_of_interest", "establishment"], "vicinity": "1585 Blue Hill Avenue, Boston"}, "ChIJVcEfqQN844kRVbZYYwWv0FI": {"geometry": {"location": {"lat": 42.2755907, "lng": -71.0938352}, "viewport": {"northeast": {"lat": 42.27693848029149, "lng": -71.0923718697085}, "southwest": {"lat": 42.27424051970849, "lng": -71.09506983029151}}}, "icon": "https://maps.gstatic.com/mapfiles/place_api/icons/generic_business-71.png", "id": "5c88c8fbd206796ad04098b7df001f3aea857f3b", "name": "Sharon D. Jackson, MS", "place_id": "ChIJVcEfqQN844kRVbZYYwWv0FI", "plus_code": {"compound_code": "7WG4+6F Boston, Massachusetts, United States", "global_code": "87JC7WG4+6F"}, "reference": "ChIJVcEfqQN844kRVbZYYwWv0FI", "scope": "GOOGLE", "types": ["dentist", "health", "point_of_interest", "establishment"], "vicinity": "1425 Blue Hill Avenue, Mattapan"}, "ChIJVcEfqQN844kROUWp3AnyVNA": {"geometry": {"location": {"lat": 42.2755907, "lng": -71.0938352}, "viewport": {"northeast": {"lat": 42.27693848029149, "lng": -71.0923718697085}, "southwest": {"lat": 42.27424051970849, "lng": -71.09506983029151}}}, "icon": "https://maps.gstatic.com/mapfiles/place_api/icons/generic_business-71.png", "id": "a9476bb22a07e64f1fe793d7a4554a5fe0700fad", "name": "Dr. Robin Mayfield, MD", "place_id": "ChIJVcEfqQN844kROUWp3AnyVNA", "plus_code": {"compound_code": "7WG4+6F Boston, Massachusetts, United States", "global_code": "87JC7WG4+6F"}, "reference": "ChIJVcEfqQN844kROUWp3AnyVNA", "scope": "GOOGLE", "types": ["doctor", "health", "point_of_interest", "establishment"], "vicinity": "1425 Blue Hill Avenue, Mattapan"}, "ChIJVcEfqQN844kRXfqcp3UMbcg": {"geometry": {"location": {"lat": 42.2755907, "lng": -71.0938352}, "viewport": {"northeast": {"lat": 42.27693848029149, "lng": -71.0923718697085}, "southwest": {"lat": 42.27424051970849, "lng": -71.09506983029151}}}, "icon": "https://maps.gstatic.com/mapfiles/place_api/icons/generic_business-71.png", "id": "1fc97dee92f0907cb55dcc1f93b8c98cb0d47276", "name": "Dr. Douglass L. Bibuld, MD", "place_id": "ChIJVcEfqQN844kRXfqcp3UMbcg", "plus_code": {"compound_code": "7WG4+6F Boston, Massachusetts, United States", "global_code": "87JC7WG4+6F"}, "reference": "ChIJVcEfqQN844kRXfqcp3UMbcg", "scope": "GOOGLE", "types": ["doctor", "health", "point_of_interest", "establishment"], "vicinity": "1425 Blue Hill Avenue, Mattapan"}, "ChIJVcEfqQN844kR_0LT2CYMQ58": {"geometry": {"location": {"lat": 42.2755907, "lng": -71.0938352}, "viewport": {"northeast": {"lat": 42.27693848029149, "lng": -71.0923718697085}, "southwest": {"lat": 42.27424051970849, "lng": -71.09506983029151}}}, "icon": "https://maps.gstatic.com/mapfiles/place_api/icons/generic_business-71.png", "id": "736fbb67662011ee77f5d09e735c348ec3d98eae", "name": "Ethel E. Rosado, RN", "place_id": "ChIJVcEfqQN844kR_0LT2CYMQ58", "plus_code": {"compound_code": "7WG4+6F Boston, Massachusetts, United States", "global_code": "87JC7WG4+6F"}, "reference": "ChIJVcEfqQN844kR_0LT2CYMQ58", "scope": "GOOGLE", "types": ["doctor", "health", "point_of_interest", "establishment"], "vicinity": "1425 Blue Hill Avenue, Mattapan, MA 02126, Mattapan"}, "ChIJVcEfqQN844kRRHH4D51pgCY": {"geometry": {"location": {"lat": 42.2755907, "lng": -71.0938352}, "viewport": {"northeast": {"lat": 42.27693848029149, "lng": -71.0923718697085}, "southwest": {"lat": 42.27424051970849, "lng": -71.09506983029151}}}, "icon": "https://maps.gstatic.com/mapfiles/place_api/icons/generic_business-71.png", "id": "76e3b5ccafc9ad45052fa0c193d22de36031a07c", "name": "Mattapan Community Health Center: Shahabuddin Mohammad MD", "place_id": "ChIJVcEfqQN844kRRHH4D51pgCY", "plus_code": {"compound_code": "7WG4+6F Boston, Massachusetts, United States", "global_code": "87JC7WG4+6F"}, "reference": "ChIJVcEfqQN844kRRHH4D51pgCY", "scope": "GOOGLE", "types": ["doctor", "health", "point_of_interest", "establishment"], "vicinity": "1425 Blue Hill Avenue, Mattapan"}, "ChIJVcEfqQN844kRIBnTzYvOMHM": {"geometry": {"location": {"lat": 42.2755907, "lng": -71.0938352}, "viewport": {"northeast": {"lat": 42.27693848029149, "lng": -71.0923718697085}, "southwest": {"lat": 42.27424051970849, "lng": -71.09506983029151}}}, "icon": "https://maps.gstatic.com/mapfiles/place_api/icons/generic_business-71.png", "id": "74ea7613f46f15865590f3760283b722d82ea4ae", "name": "Mattapan Community Health Center: Kadakol Amitha K MD", "place_id": "ChIJVcEfqQN844kRIBnTzYvOMHM", "plus_code": {"compound_code": "7WG4+6F Boston, Massachusetts, United States", "global_code": "87JC7WG4+6F"}, "reference": "ChIJVcEfqQN844kRIBnTzYvOMHM", "scope": "GOOGLE", "types": ["doctor", "health", "point_of_interest", "establishment"], "vicinity": "1425 Blue Hill Avenue, Mattapan"}, "ChIJVcEfqQN844kR0XDoRem2Y_E": {"geometry": {"location": {"lat": 42.2755907, "lng": -71.0938352}, "viewport": {"northeast": {"lat": 42.27693848029149, "lng": -71.0923718697085}, "southwest": {"lat": 42.27424051970849, "lng": -71.09506983029151}}}, "icon": "https://maps.gstatic.com/mapfiles/place_api/icons/generic_business-71.png", "id": "3eb68b2f6f5909f302dfbb6985c910fd903ab866", "name": "Dr. Mireille Alexis, DDS", "opening_hours": {"open_now": true}, "place_id": "ChIJVcEfqQN844kR0XDoRem2Y_E", "plus_code": {"compound_code": "7WG4+6F Boston, Massachusetts, United States", "global_code": "87JC7WG4+6F"}, "reference": "ChIJVcEfqQN844kR0XDoRem2Y_E", "scope": "GOOGLE", "types": ["dentist", "health", "point_of_interest", "establishment"], "vicinity": "1425 Blue Hill Avenue, Mattapan"}, "ChIJaedWTgJ844kR3-hKPB1uDpg": {"geometry": {"location": {"lat": 42.276088, "lng": -71.09487}, "viewport": {"northeast": {"lat": 42.2773543802915, "lng": -71.0935986697085}, "southwest": {"lat": 42.2746564197085, "lng": -71.0962966302915}}}, "icon": "https://maps.gstatic.com/mapfiles/place_api/icons/generic_business-71.png", "id": "be9f937536705be032d9c89425931bd0545d24cd", "name": "Store At Your Door", "place_id": "ChIJaedWTgJ844kR3-hKPB1uDpg", "plus_code": {"compound_code": "7WG4+C3 Boston, Massachusetts, United States", "global_code": "87JC7WG4+C3"}, "rating": 1, "reference": "ChIJaedWTgJ844kR3-hKPB1uDpg", "scope": "GOOGLE", "types": ["point_of_interest", "food", "establishment"], "user_ratings_total": 1, "vicinity": "23 Tennis Road, Boston"}, "ChIJVcEfqQN844kRSclSWb_55uI": {"geometry": {"location": {"lat": 42.2755907, "lng": -71.0938352}, "viewport": {"northeast": {"lat": 42.27693848029149, "lng": -71.0923718697085}, "southwest": {"lat": 42.27424051970849, "lng": -71.09506983029151}}}, "icon": "https://maps.gstatic.com/mapfiles/place_api/icons/generic_business-71.png", "id": "3eb28488fce9ee09f7c82549fcf9749fccb72973", "name": "Boddie-Willis, Dr. Cynthia", "place_id": "ChIJVcEfqQN844kRSclSWb_55uI", "plus_code": {"compound_code": "7WG4+6F Boston, Massachusetts, United States", "global_code": "87JC7WG4+6F"}, "reference": "ChIJVcEfqQN844kRSclSWb_55uI", "scope": "GOOGLE", "types": ["doctor", "health", "point_of_interest", "establishment"], "vicinity": "1425 Blue Hill Avenue, Mattapan"}, "ChIJVcEfqQN844kRY-37JSaSx84": {"geometry": {"location": {"lat": 42.2755907, "lng": -71.0938352}, "viewport": {"northeast": {"lat": 42.27693848029149, "lng": -71.0923718697085}, "southwest": {"lat": 42.27424051970849, "lng": -71.09506983029151}}}, "icon": "https://maps.gstatic.com/mapfiles/place_api/icons/generic_business-71.png", "id": "48f4a6bc800d750d57684768f9c233ea4db6da5a", "name": "Vanessa G. Taylor, Registered", "place_id": "ChIJVcEfqQN844kRY-37JSaSx84", "plus_code": {"compound_code": "7WG4+6F Boston, Massachusetts, United States", "global_code": "87JC7WG4+6F"}, "reference": "ChIJVcEfqQN844kRY-37JSaSx84", "scope": "GOOGLE", "types": ["doctor", "health", "point_of_interest", "establishment"], "vicinity": "1425 Blue Hill Avenue, Mattapan, MA 02126, Mattapan"}, "ChIJVcEfqQN844kRgOGLxqdUBgc": {"geometry": {"location": {"lat": 42.2755907, "lng": -71.0938352}, "viewport": {"northeast": {"lat": 42.27693848029149, "lng": -71.0923718697085}, "southwest": {"lat": 42.27424051970849, "lng": -71.09506983029151}}}, "icon": "https://maps.gstatic.com/mapfiles/place_api/icons/generic_business-71.png", "id": "f98d0da9f60b91ad6ff67ff12270cf0c70059261", "name": "Dr. Antoine A. Lespinasse, MD", "place_id": "ChIJVcEfqQN844kRgOGLxqdUBgc", "plus_code": {"compound_code": "7WG4+6F Boston, Massachusetts, United States", "global_code": "87JC7WG4+6F"}, "reference": "ChIJVcEfqQN844kRgOGLxqdUBgc", "scope": "GOOGLE", "types": ["doctor", "health", "point_of_interest", "establishment"], "vicinity": "1425 Blue Hill Avenue, Boston"}, "ChIJVcEfqQN844kR5adeJGFG_q8": {"geometry": {"location": {"lat": 42.2755907, "lng": -71.0938352}, "viewport": {"northeast": {"lat": 42.27693848029149, "lng": -71.0923718697085}, "southwest": {"lat": 42.27424051970849, "lng": -71.09506983029151}}}, "icon": "https://maps.gstatic.com/mapfiles/place_api/icons/generic_business-71.png", "id": "b6c67007b3a219841d4b7ee3e0263b7328c47fee", "name": "Jennifer Morisset, LPN", "place_id": "ChIJVcEfqQN844kR5adeJGFG_q8", "plus_code": {"compound_code": "7WG4+6F Boston, Massachusetts, United States", "global_code": "87JC7WG4+6F"}, "reference": "ChIJVcEfqQN844kR5adeJGFG_q8", "scope": "GOOGLE", "types": ["doctor", "health", "point_of_interest", "establishment"], "vicinity": "1425 Blue Hill Avenue, Mattapan, MA 02126, Mattapan"}, "ChIJOZwYCgN844kRbPAnWn8BN4I": {"geometry": {"location": {"lat": 42.27499939999999, "lng": -71.0933323}, "viewport": {"northeast": {"lat": 42.2763494302915, "lng": -71.09204526970849}, "southwest": {"lat": 42.2736514697085, "lng": -71.0947432302915}}}, "icon": "https://maps.gstatic.com/mapfiles/place_api/icons/generic_business-71.png", "id": "e5947c057e785cebc13658d8a7cf5d919cd0dfec", "name": "Fast2help Service", "place_id": "ChIJOZwYCgN844kRbPAnWn8BN4I", "plus_code": {"compound_code": "7WF4+XM Boston, Massachusetts, United States", "global_code": "87JC7WF4+XM"}, "reference": "ChIJOZwYCgN844kRbPAnWn8BN4I", "scope": "GOOGLE", "types": ["point_of_interest", "establishment"], "vicinity": "1434 Blue Hill Avenue, Boston"}, "ChIJVcEfqQN844kRv03MpTZKs4Y": {"geometry": {"location": {"lat": 42.2755907, "lng": -71.0938352}, "viewport": {"northeast": {"lat": 42.27693848029149, "lng": -71.0923718697085}, "southwest": {"lat": 42.27424051970849, "lng": -71.09506983029151}}}, "icon": "https://maps.gstatic.com/mapfiles/place_api/icons/generic_business-71.png", "id": "f03a8381f65029c6692dcccfa48d046ab4b29897", "name": "Vidya Sharma, MA", "place_id": "ChIJVcEfqQN844kRv03MpTZKs4Y", "plus_code": {"compound_code": "7WG4+6F Boston, Massachusetts, United States", "global_code": "87JC7WG4+6F"}, "reference": "ChIJVcEfqQN844kRv03MpTZKs4Y", "scope": "GOOGLE", "types": ["doctor", "health", "point_of_interest", "establishment"], "vicinity": "1425 Blue Hill Avenue, Mattapan, MA 02126, Mattapan"}, "ChIJ1aKJnQd844kRhKw4NxUCnrc": {"geometry": {"location": {"lat": 42.2771417, "lng": -71.0913748}, "viewport": {"northeast": {"lat": 42.298298, "lng": -71.0675939}, "southwest": {"lat": 42.2628979, "lng": -71.1091958}}}, "icon": "https://maps.gstatic.com/mapfiles/place_api/icons/geocode-71.png", "id": "7c0a81020a91ce611773eac0f6b1e8dc62406dab", "name": "Mattapan", "photos": [{"height": 1932, "html_attributions": ["<a href=\"https://maps.google.com/maps/contrib/105123441827892866459/photos\">Alonzo Mcneal</a>"], "photo_reference": "CmRaAAAAFKDFUpJrkM1Kb0dPk2NWe0UVzht6Z06r13Pl_f2qpdL05pl2UvQvvsVgTnMnLVJHVj-BxmHxHRK99ZAnNiLRr-vOQaLKFiDPXYwsIWNLuOLY18NZkeqVLXP9eU9QOSCREhCYmpc-Yl5gK1wBHhhByyVtGhRHd1C7E5tO-Iv0xs6pcuMEUnllhQ", "width": 2576}], "place_id": "ChIJ1aKJnQd844kRhKw4NxUCnrc", "reference": "ChIJ1aKJnQd844kRhKw4NxUCnrc", "scope": "GOOGLE", "types": ["neighborhood", "political"], "vicinity": "Dorchester Center"}, "ChIJVcEfqQN844kRDkATBK23nIU": {"geometry": {"location": {"lat": 42.2755907, "lng": -71.0938352}, "viewport": {"northeast": {"lat": 42.27693848029149, "lng": -71.0923718697085}, "southwest": {"lat": 42.27424051970849, "lng": -71.09506983029151}}}, "icon": "https://maps.gstatic.com/mapfiles/place_api/icons/generic_business-71.png", "id": "b1e382f75ec4f382c1ba9ea54dd3af14ef37d923", "name": "Dr. Benjamin C. Eleonu, MD", "place_id": "ChIJVcEfqQN844kRDkATBK23nIU", "plus_code": {"compound_code": "7WG4+6F Boston, Massachusetts, United States", "global_code": "87JC7WG4+6F"}, "reference": "ChIJVcEfqQN844kRDkATBK23nIU", "scope": "GOOGLE", "types": ["doctor", "health", "point_of_interest", "establishment"], "vicinity": "1425 Blue Hill Avenue, Mattapan"}, "ChIJCZ8xECh944kRdIVlQ4BxrcY": {"geometry": {"location": {"lat": 42.27537, "lng": -71.0938342}, "viewport": {"northeast": {"lat": 42.2767178302915, "lng": -71.0923734697085}, "southwest": {"lat": 42.2740198697085, "lng": -71.09507143029151}}}, "icon": "https://maps.gstatic.com/mapfiles/place_api/icons/generic_business-71.png", "id": "39202290c383774aeed0a3f4897eaef2ba658ace", "name": "Mini's Nails Salon and Spa", "opening_hours": {"open_now": true}, "photos": [{"height": 1080, "html_attributions": ["<a href=\"https://maps.google.com/maps/contrib/118032667703107635826/photos\">Dexter arias</a>"], "photo_reference": "CmRaAAAAwwrlJb1KEzZB0b4_EeglJP7cP9VM_lRJy2QSkT-hvVGf3X5UlVanEgGNXb3-6s7KMNjTcB-q4g_5L5FX-EmwnXwUme0ZrXCP-oMezQUNgUYJtz_3fYxMmwyxxE8105oMEhBIUjizG5fyDEH6UBRPUmRpGhRr-VCe9uhdXcLOf4HgQjLJbttm4Q", "width": 1920}], "place_id": "ChIJCZ8xECh944kRdIVlQ4BxrcY", "plus_code": {"compound_code": "7WG4+4F Boston, Massachusetts, United States", "global_code": "87JC7WG4+4F"}, "rating": 5, "reference": "ChIJCZ8xECh944kRdIVlQ4BxrcY", "scope": "GOOGLE", "types": ["beauty_salon", "point_of_interest", "establishment"], "user_ratings_total": 1, "vicinity": "1431 Blue Hill Avenue, Boston"}, "ChIJn4mQrgN844kR3oRqefDfNDU": {"geometry": {"location": {"lat": 42.275596, "lng": -71.093924}, "viewport": {"northeast": {"lat": 42.27694333029149, "lng": -71.0924162197085}, "southwest": {"lat": 42.2742453697085, "lng": -71.0951141802915}}}, "icon": "https://maps.gstatic.com/mapfiles/place_api/icons/generic_business-71.png", "id": "7f5189c7a22f80e0b308a1615b6cd7da12de0f74", "name": "D\u2019 tris salon", "opening_hours": {"open_now": true}, "place_id": "ChIJn4mQrgN844kR3oRqefDfNDU", "plus_code": {"compound_code": "7WG4+6C Boston, Massachusetts, United States", "global_code": "87JC7WG4+6C"}, "reference": "ChIJn4mQrgN844kR3oRqefDfNDU", "scope": "GOOGLE", "types": ["hair_care", "health", "point_of_interest", "establishment"], "vicinity": "1419-1435 Blue Hill Avenue, Mattapan"}, "ChIJn4mQrgN844kRZlVxCtBHhmU": {"geometry": {"location": {"lat": 42.275596, "lng": -71.093924}, "viewport": {"northeast": {"lat": 42.27694333029149, "lng": -71.0924162197085}, "southwest": {"lat": 42.2742453697085, "lng": -71.0951141802915}}}, "icon": "https://maps.gstatic.com/mapfiles/place_api/icons/generic_business-71.png", "id": "efa7936dd874056a09e1b70167edfa654682609d", "name": "D\u2019 yris salon", "opening_hours": {"open_now": true}, "photos": [{"height": 4032, "html_attributions": ["<a href=\"https://maps.google.com/maps/contrib/106129665865604949256/photos\">Keilyn@hotmail.com Guerrero</a>"], "photo_reference": "CmRaAAAAnVJ-RoVN8f7sP-czrIsUg375n0m1UB8ByTZCACtQk7a43izIt8Lz9GhRU3K1wBCeieaF4x3wqbsWD7SAAgz9D36Etg1DNJbZEt9N_w-nLOE3jyn7v-JtIIvD7rkPdQUNEhBw19R8SE6j2__Ig_IqJ5WHGhR_jQM1JyYtMyYpzSuNJc_8gMPVAA", "width": 3024}], "place_id": "ChIJn4mQrgN844kRZlVxCtBHhmU", "plus_code": {"compound_code": "7WG4+6C Boston, Massachusetts, United States", "global_code": "87JC7WG4+6C"}, "rating": 5, "reference": "ChIJn4mQrgN844kRZlVxCtBHhmU", "scope": "GOOGLE", "types": ["hair_care", "health", "point_of_interest", "establishment"], "user_ratings_total": 4, "vicinity": "1419-1435 Blue Hill Avenue, Mattapan"}, "ChIJNamdAD5944kR3hCgDeaoFQ0": {"geometry": {"location": {"lat": 42.275596, "lng": -71.093924}, "viewport": {"northeast": {"lat": 42.27694333029149, "lng": -71.0924162197085}, "southwest": {"lat": 42.2742453697085, "lng": -71.0951141802915}}}, "icon": "https://maps.gstatic.com/mapfiles/place_api/icons/shopping-71.png", "id": "0d8f86faec8ac0f555ef52e96045c03a4e7308d9", "name": "D' Y & M Hair Salon", "opening_hours": {"open_now": true}, "place_id": "ChIJNamdAD5944kR3hCgDeaoFQ0", "plus_code": {"compound_code": "7WG4+6C Boston, Massachusetts, United States", "global_code": "87JC7WG4+6C"}, "reference": "ChIJNamdAD5944kR3hCgDeaoFQ0", "scope": "GOOGLE", "types": ["shopping_mall", "point_of_interest", "establishment"], "vicinity": "1419-1435 Blue Hill Avenue, Mattapan"}, "ChIJW8vfqAN844kR4qXcm0m-Lxg": {"geometry": {"location": {"lat": 42.2753986, "lng": -71.0937775}, "viewport": {"northeast": {"lat": 42.2767065802915, "lng": -71.09246816970848}, "southwest": {"lat": 42.2740086197085, "lng": -71.0951661302915}}}, "icon": "https://maps.gstatic.com/mapfiles/place_api/icons/shopping-71.png", "id": "3187b708b1f836ece183f2b24a3216794f65aeef", "name": "Tejeda's Family Market", "place_id": "ChIJW8vfqAN844kR4qXcm0m-Lxg", "plus_code": {"compound_code": "7WG4+5F Boston, Massachusetts, United States", "global_code": "87JC7WG4+5F"}, "rating": 5, "reference": "ChIJW8vfqAN844kR4qXcm0m-Lxg", "scope": "GOOGLE", "types": ["grocery_or_supermarket", "store", "point_of_interest", "food", "establishment"], "user_ratings_total": 2, "vicinity": "Mattapan"}, "ChIJVcEfqQN844kRzw4TEecAjqM": {"geometry": {"location": {"lat": 42.2755907, "lng": -71.0938352}, "viewport": {"northeast": {"lat": 42.27693848029149, "lng": -71.0923718697085}, "southwest": {"lat": 42.27424051970849, "lng": -71.09506983029151}}}, "icon": "https://maps.gstatic.com/mapfiles/place_api/icons/generic_business-71.png", "id": "18171b819352c3e596f9aed80784429538035a0a", "name": "Chauvet Edwina", "place_id": "ChIJVcEfqQN844kRzw4TEecAjqM", "plus_code": {"compound_code": "7WG4+6F Boston, Massachusetts, United States", "global_code": "87JC7WG4+6F"}, "reference": "ChIJVcEfqQN844kRzw4TEecAjqM", "scope": "GOOGLE", "types": ["health", "point_of_interest", "establishment"], "vicinity": "1425 Blue Hill Avenue, Mattapan"}, "ChIJL9pPrwN844kRUbklSWt_LRc": {"geometry": {"location": {"lat": 42.2755907, "lng": -71.0938352}, "viewport": {"northeast": {"lat": 42.27693848029149, "lng": -71.0923718697085}, "southwest": {"lat": 42.27424051970849, "lng": -71.09506983029151}}}, "icon": "https://maps.gstatic.com/mapfiles/place_api/icons/generic_business-71.png", "id": "2cd5fc019e55d02d0dcd07071016403d606715a6", "name": "Guirlene Jean-Simon, NP", "place_id": "ChIJL9pPrwN844kRUbklSWt_LRc", "plus_code": {"compound_code": "7WG4+6F Boston, Massachusetts, United States", "global_code": "87JC7WG4+6F"}, "reference": "ChIJL9pPrwN844kRUbklSWt_LRc", "scope": "GOOGLE", "types": ["doctor", "health", "point_of_interest", "establishment"], "vicinity": "1425 Blue Hill Avenue, Mattapan"}, "ChIJVcEfqQN844kRJGrpB8WXj-0": {"geometry": {"location": {"lat": 42.2755907, "lng": -71.0938352}, "viewport": {"northeast": {"lat": 42.27693848029149, "lng": -71.0923718697085}, "southwest": {"lat": 42.27424051970849, "lng": -71.09506983029151}}}, "icon": "https://maps.gstatic.com/mapfiles/place_api/icons/generic_business-71.png", "id": "ab959b04fb3db2a88262580836dfbf9a583b038e", "name": "Vanessa R. Harrell, LPN", "place_id": "ChIJVcEfqQN844kRJGrpB8WXj-0", "plus_code": {"compound_code": "7WG4+6F Boston, Massachusetts, United States", "global_code": "87JC7WG4+6F"}, "reference": "ChIJVcEfqQN844kRJGrpB8WXj-0", "scope": "GOOGLE", "types": ["doctor", "health", "point_of_interest", "establishment"], "vicinity": "1425 Blue Hill Avenue, Mattapan"}, "ChIJVcEfqQN844kRXNYqCHRyJTU": {"geometry": {"location": {"lat": 42.2755907, "lng": -71.0938352}, "viewport": {"northeast": {"lat": 42.27693848029149, "lng": -71.0923718697085}, "southwest": {"lat": 42.27424051970849, "lng": -71.09506983029151}}}, "icon": "https://maps.gstatic.com/mapfiles/place_api/icons/generic_business-71.png", "id": "d67335f4d21c131351d54d3c58d5fd15b36d1be9", "name": "Dr. Robert Taylor, MD", "place_id": "ChIJVcEfqQN844kRXNYqCHRyJTU", "plus_code": {"compound_code": "7WG4+6F Boston, Massachusetts, United States", "global_code": "87JC7WG4+6F"}, "reference": "ChIJVcEfqQN844kRXNYqCHRyJTU", "scope": "GOOGLE", "types": ["doctor", "health", "point_of_interest", "establishment"], "vicinity": "1425 Blue Hill Avenue, Mattapan"}, "ChIJsdJPrwN844kRjN79g-IOErY": {"geometry": {"location": {"lat": 42.2755907, "lng": -71.0938352}, "viewport": {"northeast": {"lat": 42.27693848029149, "lng": -71.0923718697085}, "southwest": {"lat": 42.27424051970849, "lng": -71.09506983029151}}}, "icon": "https://maps.gstatic.com/mapfiles/place_api/icons/generic_business-71.png", "id": "654322aa1b7305bee875dd83c9a697ecdec73b19", "name": "Rocklin Suzanne E", "place_id": "ChIJsdJPrwN844kRjN79g-IOErY", "plus_code": {"compound_code": "7WG4+6F Boston, Massachusetts, United States", "global_code": "87JC7WG4+6F"}, "reference": "ChIJsdJPrwN844kRjN79g-IOErY", "scope": "GOOGLE", "types": ["doctor", "health", "point_of_interest", "establishment"], "vicinity": "1425 Blue Hill Avenue, Mattapan"}, "ChIJL9pPrwN844kREOAjZsJi8vM": {"geometry": {"location": {"lat": 42.2755907, "lng": -71.0938352}, "viewport": {"northeast": {"lat": 42.27693848029149, "lng": -71.0923718697085}, "southwest": {"lat": 42.27424051970849, "lng": -71.09506983029151}}}, "icon": "https://maps.gstatic.com/mapfiles/place_api/icons/generic_business-71.png", "id": "d03ac91a8092504bf7b54297d071d6e1daf16e4e", "name": "Megan A. Cavanaugh, RN", "place_id": "ChIJL9pPrwN844kREOAjZsJi8vM", "plus_code": {"compound_code": "7WG4+6F Boston, Massachusetts, United States", "global_code": "87JC7WG4+6F"}, "reference": "ChIJL9pPrwN844kREOAjZsJi8vM", "scope": "GOOGLE", "types": ["doctor", "health", "point_of_interest", "establishment"], "vicinity": "1425 Blue Hill Avenue, Mattapan, MA 02126, Mattapan"}, "ChIJVcEfqQN844kR9PXXx9A3L5Q": {"geometry": {"location": {"lat": 42.2755907, "lng": -71.0938352}, "viewport": {"northeast": {"lat": 42.27693848029149, "lng": -71.0923718697085}, "southwest": {"lat": 42.27424051970849, "lng": -71.09506983029151}}}, "icon": "https://maps.gstatic.com/mapfiles/place_api/icons/generic_business-71.png", "id": "e137cbc68d0d8a05ef2510ec0dd82e8c387af5ff", "name": "Bogard Betty M", "place_id": "ChIJVcEfqQN844kR9PXXx9A3L5Q", "plus_code": {"compound_code": "7WG4+6F Boston, Massachusetts, United States", "global_code": "87JC7WG4+6F"}, "reference": "ChIJVcEfqQN844kR9PXXx9A3L5Q", "scope": "GOOGLE", "types": ["health", "point_of_interest", "establishment"], "vicinity": "Mattapan"}, "ChIJi_X6rgN844kRon8RA2pLJwA": {"geometry": {"location": {"lat": 42.2755988, "lng": -71.09382839999999}, "viewport": {"northeast": {"lat": 42.2769466302915, "lng": -71.0923683697085}, "southwest": {"lat": 42.27424866970851, "lng": -71.0950663302915}}}, "icon": "https://maps.gstatic.com/mapfiles/place_api/icons/generic_business-71.png", "id": "e6590259a2ed21f0e6b39da06ab4b62592d79602", "name": "GM-Comunications", "opening_hours": {"open_now": true}, "place_id": "ChIJi_X6rgN844kRon8RA2pLJwA", "plus_code": {"compound_code": "7WG4+6F Boston, Massachusetts, United States", "global_code": "87JC7WG4+6F"}, "reference": "ChIJi_X6rgN844kRon8RA2pLJwA", "scope": "GOOGLE", "types": ["point_of_interest", "establishment"], "vicinity": "1419 Blue Hill Avenue, Mattapan"}, "ChIJEw4JGQN844kR8wnQWQH1Y8M": {"geometry": {"location": {"lat": 42.274185, "lng": -71.093802}, "viewport": {"northeast": {"lat": 42.27553243029149, "lng": -71.09237691970849}, "southwest": {"lat": 42.2728344697085, "lng": -71.0950748802915}}}, "icon": "https://maps.gstatic.com/mapfiles/place_api/icons/bus-71.png", "id": "17e128ccaf68b38360eb202c4da6b31cbf968dad", "name": "Blue Hill Ave @ Almont St", "place_id": "ChIJEw4JGQN844kR8wnQWQH1Y8M", "plus_code": {"compound_code": "7WF4+MF Boston, Massachusetts, United States", "global_code": "87JC7WF4+MF"}, "rating": 3, "reference": "ChIJEw4JGQN844kR8wnQWQH1Y8M", "scope": "GOOGLE", "types": ["bus_station", "transit_station", "point_of_interest", "establishment"], "user_ratings_total": 1, "vicinity": "United States"}, "ChIJiWngZwJ844kR7-SXFV6tYvs": {"geometry": {"location": {"lat": 42.276126, "lng": -71.095919}, "viewport": {"northeast": {"lat": 42.2775614302915, "lng": -71.0944887697085}, "southwest": {"lat": 42.2748634697085, "lng": -71.09718673029151}}}, "icon": "https://maps.gstatic.com/mapfiles/place_api/icons/generic_business-71.png", "id": "782932cec425c0d4a7fe03b5647cad266003b7c0", "name": "Ross Music Co", "place_id": "ChIJiWngZwJ844kR7-SXFV6tYvs", "plus_code": {"compound_code": "7WG3+FJ Boston, Massachusetts, United States", "global_code": "87JC7WG3+FJ"}, "reference": "ChIJiWngZwJ844kR7-SXFV6tYvs", "scope": "GOOGLE", "types": ["point_of_interest", "establishment"], "vicinity": "48 Tennis Road, Mattapan"}, "ChIJL5hk2gJ844kRc1rMXuJQuYk": {"geometry": {"location": {"lat": 42.27368639999999, "lng": -71.0948417}, "viewport": {"northeast": {"lat": 42.2751057802915, "lng": -71.0934279197085}, "southwest": {"lat": 42.2724078197085, "lng": -71.09612588029151}}}, "icon": "https://maps.gstatic.com/mapfiles/place_api/icons/generic_business-71.png", "id": "6a225b76e6009eb53c471f4447445ce2e8c2cf00", "name": "Boston Advertising", "place_id": "ChIJL5hk2gJ844kRc1rMXuJQuYk", "plus_code": {"compound_code": "7WF4+F3 Boston, Massachusetts, United States", "global_code": "87JC7WF4+F3"}, "reference": "ChIJL5hk2gJ844kRc1rMXuJQuYk", "scope": "GOOGLE", "types": ["point_of_interest", "establishment"], "vicinity": "8 Culbert Street, Mattapan"}, "ChIJOZwYCgN844kR6fxEXo0kfjg": {"geometry": {"location": {"lat": 42.27499939999999, "lng": -71.0933323}, "viewport": {"northeast": {"lat": 42.2763494302915, "lng": -71.09204526970849}, "southwest": {"lat": 42.2736514697085, "lng": -71.0947432302915}}}, "icon": "https://maps.gstatic.com/mapfiles/place_api/icons/shopping-71.png", "id": "d75abdb96c220d04b7d57e286538ba3ecdf87e64", "name": "Elegant Trophy Department LLC", "opening_hours": {"open_now": true}, "place_id": "ChIJOZwYCgN844kR6fxEXo0kfjg", "plus_code": {"compound_code": "7WF4+XM Boston, Massachusetts, United States", "global_code": "87JC7WF4+XM"}, "reference": "ChIJOZwYCgN844kR6fxEXo0kfjg", "scope": "GOOGLE", "types": ["store", "point_of_interest", "establishment"], "vicinity": "1434 Blue Hill Avenue, Mattapan"}, "ChIJjSENCQN844kRbVk7GGF7xhI": {"geometry": {"location": {"lat": 42.274918, "lng": -71.093328}, "viewport": {"northeast": {"lat": 42.27626808029149, "lng": -71.09204436970849}, "southwest": {"lat": 42.27357011970849, "lng": -71.0947423302915}}}, "icon": "https://maps.gstatic.com/mapfiles/place_api/icons/bus-71.png", "id": "7bc3f855ffb4206d913bbc0168ed9a3e701fe133", "name": "1458 Blue Hill Ave opp Almont St", "place_id": "ChIJjSENCQN844kRbVk7GGF7xhI", "plus_code": {"compound_code": "7WF4+XM Boston, Massachusetts, United States", "global_code": "87JC7WF4+XM"}, "rating": 5, "reference": "ChIJjSENCQN844kRbVk7GGF7xhI", "scope": "GOOGLE", "types": ["bus_station", "transit_station", "point_of_interest", "establishment"], "user_ratings_total": 2, "vicinity": "United States"}, "ChIJq6o2SwJ844kRnWj3R05Xfj4": {"geometry": {"location": {"lat": 42.27625800000001, "lng": -71.0943691}, "viewport": {"northeast": {"lat": 42.2776816802915, "lng": -71.0930029197085}, "southwest": {"lat": 42.2749837197085, "lng": -71.0957008802915}}}, "icon": "https://maps.gstatic.com/mapfiles/place_api/icons/generic_business-71.png", "id": "b3301fd1c35468d699951681eae60db3dc80f353", "name": "Myers Care and Cleaning Company", "opening_hours": {"open_now": true}, "place_id": "ChIJq6o2SwJ844kRnWj3R05Xfj4", "plus_code": {"compound_code": "7WG4+G7 Boston, Massachusetts, United States", "global_code": "87JC7WG4+G7"}, "reference": "ChIJq6o2SwJ844kRnWj3R05Xfj4", "scope": "GOOGLE", "types": ["point_of_interest", "establishment"], "vicinity": "12 Hiawatha Road apt 4, Mattapan"}, "ChIJywRuoQJ844kRF1_Qanu6XPE": {"geometry": {"location": {"lat": 42.27422869999999, "lng": -71.0969496}, "viewport": {"northeast": {"lat": 42.2755776802915, "lng": -71.09560061970849}, "southwest": {"lat": 42.2728797197085, "lng": -71.09829858029151}}}, "icon": "https://maps.gstatic.com/mapfiles/place_api/icons/generic_recreational-71.png", "id": "08d91992f13f22029e367125922d797a40c95f2d", "name": "Hunt Playground", "photos": [{"height": 2988, "html_attributions": ["<a href=\"https://maps.google.com/maps/contrib/107587881079728936708/photos\">Joel Machado</a>"], "photo_reference": "CmRaAAAA7gskVKNTgRcX4gRql2ugBEqbxwZxrY2EiYJyA5GQY6pOz7lWeFPJ_9WG438_o8QtxmbHCAMVPlQlpfOUWtISAaKLqY7O_foD2-EMN7OuscXkFj024Qxsdk2MOrVMa_TjEhBhHGFKwSNQA75YltOy9ljBGhRQOFP8ZE2CuwSgWluw_05eEFihaQ", "width": 5312}], "place_id": "ChIJywRuoQJ844kRF1_Qanu6XPE", "plus_code": {"compound_code": "7WF3+M6 Boston, Massachusetts, United States", "global_code": "87JC7WF3+M6"}, "rating": 4.2, "reference": "ChIJywRuoQJ844kRF1_Qanu6XPE", "scope": "GOOGLE", "types": ["park", "point_of_interest", "establishment"], "user_ratings_total": 153, "vicinity": "Boston"}, "ChIJ__9boQN844kRf65j8mw7QLw": {"geometry": {"location": {"lat": 42.2753561, "lng": -71.0931777}, "viewport": {"northeast": {"lat": 42.2767073802915, "lng": -71.0919623197085}, "southwest": {"lat": 42.2740094197085, "lng": -71.0946602802915}}}, "icon": "https://maps.gstatic.com/mapfiles/place_api/icons/generic_business-71.png", "id": "eec92926f8032a7f8d08c95e68491f2c02bcd653", "name": "amjch", "place_id": "ChIJ__9boQN844kRf65j8mw7QLw", "plus_code": {"compound_code": "7WG4+4P Boston, Massachusetts, United States", "global_code": "87JC7WG4+4P"}, "reference": "ChIJ__9boQN844kRf65j8mw7QLw", "scope": "GOOGLE", "types": ["point_of_interest", "establishment"], "vicinity": "1424 Blue Hill Avenue, Mattapan"}, "ChIJIbFZoQN844kRMNxGl9w_BJk": {"geometry": {"location": {"lat": 42.2753561, "lng": -71.0931777}, "viewport": {"northeast": {"lat": 42.2767073802915, "lng": -71.0919623197085}, "southwest": {"lat": 42.2740094197085, "lng": -71.0946602802915}}}, "icon": "https://maps.gstatic.com/mapfiles/place_api/icons/generic_business-71.png", "id": "3a5e30c8d6dcf6e4a8dc0eca82895068679583d6", "name": "STRENGTH IN UNITY GLOBAL (SIUG)", "opening_hours": {"open_now": true}, "place_id": "ChIJIbFZoQN844kRMNxGl9w_BJk", "plus_code": {"compound_code": "7WG4+4P Boston, Massachusetts, United States", "global_code": "87JC7WG4+4P"}, "reference": "ChIJIbFZoQN844kRMNxGl9w_BJk", "scope": "GOOGLE", "types": ["point_of_interest", "establishment"], "vicinity": "1424 Blue Hill Avenue #100, Boston"}, "ChIJc65foQN844kRhTQ31bs4Jy8": {"geometry": {"location": {"lat": 42.2753458, "lng": -71.0931621}, "viewport": {"northeast": {"lat": 42.2766972302915, "lng": -71.0919546697085}, "southwest": {"lat": 42.2739992697085, "lng": -71.0946526302915}}}, "icon": "https://maps.gstatic.com/mapfiles/place_api/icons/generic_business-71.png", "id": "09d271de7f8b3bd80ed16ccf1277a368212b087f", "name": "Radio Nouveaute", "place_id": "ChIJc65foQN844kRhTQ31bs4Jy8", "plus_code": {"compound_code": "7WG4+4P Boston, Massachusetts, United States", "global_code": "87JC7WG4+4P"}, "rating": 4, "reference": "ChIJc65foQN844kRhTQ31bs4Jy8", "scope": "GOOGLE", "types": ["point_of_interest", "establishment"], "user_ratings_total": 1, "vicinity": "1424 Blue Hill Avenue, Mattapan"}}