{"ChIJGzE9DS1l44kRoOhiASS_fHg": {"geometry": {"location": {"lat": 42.3600825, "lng": -71.0588801}, "viewport": {"northeast": {"lat": 42.40081989999999, "lng": -70.749455}, "southwest": {"lat": 42.22788, "lng": -71.191113}}}, "icon": "https://maps.gstatic.com/mapfiles/place_api/icons/geocode-71.png", "id": "06755c25d2b34d13942a4713971756a55b870ced", "name": "Boston", "photos": [{"height": 3024, "html_attributions": ["<a href=\"https://maps.google.com/maps/contrib/104670289779338733432/photos\">Natalia Zalucean</a>"], "photo_reference": "CmRaAAAAqOuQR4sgqfrywPXkEzzSn4jQxBnomiC0Z4Q2pWS2ez8Pm4b4bXwrZEuye5Az8CQLBMptCHs94oRJjwWFZquXiwMmZoZ_utmkUAbIlM2CuU0C2EGizNMAl8zGTTELck2KEhCPeGb3PePC3lYUqsCNWjuAGhR0zqRqSsk9tGQfLwMFJvbK6aKsXQ", "width": 4032}], "place_id": "ChIJGzE9DS1l44kRoOhiASS_fHg", "reference": "ChIJGzE9DS1l44kRoOhiASS_fHg", "scope": "GOOGLE", "types": ["locality", "political"], "vicinity": "Boston"}, "ChIJ0yITg3Z844kRvuP7tnTaz4g": {"geometry": {"location": {"lat": 42.274756, "lng": -71.065885}, "viewport": {"northeast": {"lat": 42.2761550802915, "lng": -71.0646502697085}, "southwest": {"lat": 42.2734571197085, "lng": -71.0673482302915}}}, "icon": "https://maps.gstatic.com/mapfiles/place_api/icons/school-71.png", "id": "c41fe175b73d0229160c1f04cfa3b49c647520f5", "name": "Boston Youth Sanctuary", "opening_hours": {"open_now": true}, "place_id": "ChIJ0yITg3Z844kRvuP7tnTaz4g", "plus_code": {"compound_code": "7WFM+WJ Boston, Massachusetts, United States", "global_code": "87JC7WFM+WJ"}, "rating": 3, "reference": "ChIJ0yITg3Z844kRvuP7tnTaz4g", "scope": "GOOGLE", "types": ["point_of_interest", "establishment"], "user_ratings_total": 2, "vicinity": "2216 Dorchester Avenue, Dorchester Center"}, "ChIJWfIQjnd844kRqeKvmp-lzho": {"geometry": {"location": {"lat": 42.27534730000001, "lng": -71.062405}, "viewport": {"northeast": {"lat": 42.2766482802915, "lng": -71.06104731970849}, "southwest": {"lat": 42.2739503197085, "lng": -71.0637452802915}}}, "icon": "https://maps.gstatic.com/mapfiles/place_api/icons/generic_business-71.png", "id": "822a61ddca352539abe17242bdffef734a78a5f7", "name": "Essential Europe Travel", "opening_hours": {"open_now": false}, "place_id": "ChIJWfIQjnd844kRqeKvmp-lzho", "plus_code": {"compound_code": "7WGQ+42 Boston, Massachusetts, United States", "global_code": "87JC7WGQ+42"}, "reference": "ChIJWfIQjnd844kRqeKvmp-lzho", "scope": "GOOGLE", "types": ["travel_agency", "point_of_interest", "establishment"], "vicinity": "130 Richmond Street #2, Boston"}, "ChIJGbWrF3d844kRsXwm_5qOkD0": {"geometry": {"location": {"lat": 42.2735822, "lng": -71.0635751}, "viewport": {"northeast": {"lat": 42.2749438302915, "lng": -71.0622426697085}, "southwest": {"lat": 42.2722458697085, "lng": -71.06494063029152}}}, "icon": "https://maps.gstatic.com/mapfiles/place_api/icons/generic_business-71.png", "id": "b3fdf357b4fb623d10aa0d2020688599b2fab3b1", "name": "Real Estate Mapping, Inc", "place_id": "ChIJGbWrF3d844kRsXwm_5qOkD0", "plus_code": {"compound_code": "7WFP+CH Boston, Massachusetts, United States", "global_code": "87JC7WFP+CH"}, "reference": "ChIJGbWrF3d844kRsXwm_5qOkD0", "scope": "GOOGLE", "types": ["real_estate_agency", "point_of_interest", "establishment"], "vicinity": "1115 Adams Street #2, Dorchester Center"}, "ChIJTVXe5Yhw44kRGzFN5Um5QBE": {"geometry": {"location": {"lat": 42.2749285, "lng": -71.0634391}, "viewport": {"northeast": {"lat": 42.2763089302915, "lng": -71.06210606970849}, "southwest": {"lat": 42.2736109697085, "lng": -71.0648040302915}}}, "icon": "https://maps.gstatic.com/mapfiles/place_api/icons/generic_business-71.png", "id": "0823a641b28704f89f991357d3221be4fc6ac280", "name": "Cornish & Adams: Cornish Maggie M", "place_id": "ChIJTVXe5Yhw44kRGzFN5Um5QBE", "plus_code": {"compound_code": "7WFP+XJ Boston, Massachusetts, United States", "global_code": "87JC7WFP+XJ"}, "reference": "ChIJTVXe5Yhw44kRGzFN5Um5QBE", "scope": "GOOGLE", "types": ["lawyer", "point_of_interest", "establishment"], "vicinity": "115 Richmond Street, Dorchester Center"}, "ChIJs4veGkl644kROEK8ix2v_oY": {"geometry": {"location": {"lat": 42.30163049999999, "lng": -71.067605}, "viewport": {"northeast": {"lat": 42.3358969, "lng": -71.0325551}, "southwest": {"lat": 42.267598, "lng": -71.0800369}}}, "icon": "https://maps.gstatic.com/mapfiles/place_api/icons/geocode-71.png", "id": "9e12301fdeebf54c1266b9986602466425a9c326", "name": "Dorchester", "photos": [{"height": 1944, "html_attributions": ["<a href=\"https://maps.google.com/maps/contrib/118366960396286562471/photos\">Michael Laferriere</a>"], "photo_reference": "CmRaAAAA-6vT-tiIU-jaJB4f7V08ieGgraMgv8XY10a3AN0_vjgMjtYzYmmc33TI_taT31rzMtoPuC0bT7WFMcq8Luknu36KM1mk9GT5W_Z8nWYwyjII_aLIqHLFGVVntgTQTw_uEhBbpYx7isaB5JKm5ao35UK1GhQOK1zzJzX-0RcPI6dC0HBgE8tpKA", "width": 2592}], "place_id": "ChIJs4veGkl644kROEK8ix2v_oY", "reference": "ChIJs4veGkl644kROEK8ix2v_oY", "scope": "GOOGLE", "types": ["neighborhood", "political"], "vicinity": "Dorchester Center"}}