{"ChIJGzE9DS1l44kRoOhiASS_fHg": {"geometry": {"location": {"lat": 42.3600825, "lng": -71.0588801}, "viewport": {"northeast": {"lat": 42.40081989999999, "lng": -70.749455}, "southwest": {"lat": 42.22788, "lng": -71.191113}}}, "icon": "https://maps.gstatic.com/mapfiles/place_api/icons/geocode-71.png", "id": "06755c25d2b34d13942a4713971756a55b870ced", "name": "Boston", "photos": [{"height": 3024, "html_attributions": ["<a href=\"https://maps.google.com/maps/contrib/104670289779338733432/photos\">Natalia Zalucean</a>"], "photo_reference": "CmRaAAAApyvSsM_EKtjMg9fzx2fgMQMqX-hvif-0EWbriSUg-XKPflZtGgrJQHKnaTGhHi8b334sr44DPVOWX9iPyJSwMwXpL0rwKK_bjy5d28-leYetzVvTjokz5mHHbHDZQEs4EhAOQlGr_hNucPEZ_QsxNzDtGhRHOcM8rJwOB93nfTt5QYOfJ_oWEA", "width": 4032}], "place_id": "ChIJGzE9DS1l44kRoOhiASS_fHg", "reference": "ChIJGzE9DS1l44kRoOhiASS_fHg", "scope": "GOOGLE", "types": ["locality", "political"], "vicinity": "Boston"}, "ChIJ27McfGF344kRkAibGTEhlk8": {"geometry": {"location": {"lat": 42.36670400000001, "lng": -71.12675109999999}, "viewport": {"northeast": {"lat": 42.3675236802915, "lng": -71.12450125000001}, "southwest": {"lat": 42.3648257197085, "lng": -71.12750104999999}}}, "icon": "https://maps.gstatic.com/mapfiles/place_api/icons/generic_business-71.png", "id": "40c7573dcb1f8fed434792879850c4bec9c43850", "name": "Harvard Stadium", "opening_hours": {"open_now": false}, "photos": [{"height": 3024, "html_attributions": ["<a href=\"https://maps.google.com/maps/contrib/110344283172678365745/photos\">Jim Ryan</a>"], "photo_reference": "CmRaAAAASrdv0DojTH8iSgREoqymLMGa1-Y70GT4wYsLhJkxo6NAwNwDtpqL02_FRUaUmdG19OPFrC75hhkY55oRopM9j149ouLdp2SVNvL3XlS8rk6uhW2mfgpvTQUVEPp-prhrEhDH62r6VtQm_ms8Qwq51MSIGhT0_2kreYqqUL_wOHEVX58mbBRFuA", "width": 4032}], "place_id": "ChIJ27McfGF344kRkAibGTEhlk8", "plus_code": {"compound_code": "9V8F+M7 Boston, Massachusetts, United States", "global_code": "87JC9V8F+M7"}, "rating": 4.6, "reference": "ChIJ27McfGF344kRkAibGTEhlk8", "scope": "GOOGLE", "types": ["stadium", "point_of_interest", "establishment"], "user_ratings_total": 140, "vicinity": "79 North Harvard Street, Allston"}, "ChIJ5YUaa2J344kR5rq7vIJEHDo": {"geometry": {"location": {"lat": 42.3653764, "lng": -71.12869789999999}, "viewport": {"northeast": {"lat": 42.3670987802915, "lng": -71.1273788697085}, "southwest": {"lat": 42.3644008197085, "lng": -71.1300768302915}}}, "icon": "https://maps.gstatic.com/mapfiles/place_api/icons/generic_business-71.png", "id": "b3833f106c6841e106423aee8c915abd0117cb9c", "name": "McCurdy Outdoor Track", "opening_hours": {"open_now": false}, "photos": [{"height": 5312, "html_attributions": ["<a href=\"https://maps.google.com/maps/contrib/113387050321537971260/photos\">Shakera Reece</a>"], "photo_reference": "CmRaAAAAhXVGp74zz43WdIRx3xuFPI7mPtT3DwrsQOXFuda0HsHeuMeq458q1J9Oj8GAYVZ-SDsIt3gtKQBbzLVr9f318vHxvjZ3CRAWdvgsFwbxL_gpjCL9GGca7L0tsGFZMc-OEhCb_MLZosuMCRe2-nCo9LcBGhSjTtb0nxsN0StMoD91ZLQqRD6Nqg", "width": 2988}], "place_id": "ChIJ5YUaa2J344kR5rq7vIJEHDo", "plus_code": {"compound_code": "9V8C+5G Boston, Massachusetts, United States", "global_code": "87JC9V8C+5G"}, "rating": 4.8, "reference": "ChIJ5YUaa2J344kR5rq7vIJEHDo", "scope": "GOOGLE", "types": ["point_of_interest", "establishment"], "user_ratings_total": 11, "vicinity": "145 North Harvard Street, Boston"}, "ChIJTfjHwWN344kRZd-hBk1eSNY": {"geometry": {"location": {"lat": 42.3677554, "lng": -71.1282777}, "viewport": {"northeast": {"lat": 42.36910838029149, "lng": -71.12692361970848}, "southwest": {"lat": 42.36641041970849, "lng": -71.1296215802915}}}, "icon": "https://maps.gstatic.com/mapfiles/place_api/icons/school-71.png", "id": "a9f06b32e8f866780afb1e6f02f3e760156b76ad", "name": "Harvard University Athletics Complex", "photos": [{"height": 3464, "html_attributions": ["<a href=\"https://maps.google.com/maps/contrib/103970671316388693706/photos\">Tim Jennings</a>"], "photo_reference": "CmRaAAAAigUCvYTm9OLHdOGnQC3dwHZ18vUbPe7TkQOB0K9THQMsMreYKAnTWHEQuw_51A6Kh4fQBvblExWVXBWZZ17I52DK9Uf34T5sj2I2tvKpwuEqmieTxLQTcCtH8qkB0rypEhBACN-fSvTKaljp3Nx6j1YTGhQkooBsOMH9ln1wZ5HIjSYMjWUq3Q", "width": 4618}], "place_id": "ChIJTfjHwWN344kRZd-hBk1eSNY", "plus_code": {"compound_code": "9V9C+4M Boston, Massachusetts, United States", "global_code": "87JC9V9C+4M"}, "rating": 4.3, "reference": "ChIJTfjHwWN344kRZd-hBk1eSNY", "scope": "GOOGLE", "types": ["point_of_interest", "establishment"], "user_ratings_total": 4, "vicinity": "65 North Harvard Street, Boston"}, "ChIJF9tytmN344kRN83VK75LxKI": {"geometry": {"location": {"lat": 42.36720340000001, "lng": -71.1285889}, "viewport": {"northeast": {"lat": 42.3680093302915, "lng": -71.12732936970849}, "southwest": {"lat": 42.3653113697085, "lng": -71.1300273302915}}}, "icon": "https://maps.gstatic.com/mapfiles/place_api/icons/generic_business-71.png", "id": "3b76fa5274b199dd464f27c5df87d1cb3149903e", "name": "O'Donnell Field", "photos": [{"height": 2322, "html_attributions": ["<a href=\"https://maps.google.com/maps/contrib/109070569787544061571/photos\">Michael Diamond</a>"], "photo_reference": "CmRaAAAASXLQ9yN3BrxpzZNvoSoCQ0l9mcbyizbwgDCSmtYkaWbEzv37Uvjag5M-ompUGyOKGfScpjTZfPqilsjvZDPMxJpswR0J2-dtJfsF7qp6WE3byKDwrNVhZWgKx4KP70F7EhCxLgJG6qkC9GI8sltl7uBzGhScKGow5JnC4ktq9U7WHBNIH0CWxg", "width": 4128}], "place_id": "ChIJF9tytmN344kRN83VK75LxKI", "plus_code": {"compound_code": "9V8C+VH Boston, Massachusetts, United States", "global_code": "87JC9V8C+VH"}, "rating": 5, "reference": "ChIJF9tytmN344kRN83VK75LxKI", "scope": "GOOGLE", "types": ["point_of_interest", "establishment"], "user_ratings_total": 2, "vicinity": "65 North Harvard Street, Boston"}, "ChIJqXWSVWJ344kR38-NfLV9HXI": {"geometry": {"location": {"lat": 42.3666954, "lng": -71.12990479999999}, "viewport": {"northeast": {"lat": 42.36781983029151, "lng": -71.12850766970848}, "southwest": {"lat": 42.36512186970851, "lng": -71.1312056302915}}}, "icon": "https://maps.gstatic.com/mapfiles/place_api/icons/generic_business-71.png", "id": "4ab3d568b6c19bd7eabf5639d6065cb1bc98182b", "name": "Soldier Softball Field", "place_id": "ChIJqXWSVWJ344kR38-NfLV9HXI", "plus_code": {"compound_code": "9V8C+M2 Boston, Massachusetts, United States", "global_code": "87JC9V8C+M2"}, "rating": 3, "reference": "ChIJqXWSVWJ344kR38-NfLV9HXI", "scope": "GOOGLE", "types": ["park", "point_of_interest", "establishment"], "user_ratings_total": 2, "vicinity": "114 North Harvard Street, Boston"}, "ChIJPZy8w2N344kRfQTP6iSFDm0": {"geometry": {"location": {"lat": 42.3676531, "lng": -71.1281365}, "viewport": {"northeast": {"lat": 42.3758965, "lng": -71.11212909999999}, "southwest": {"lat": 42.3594086, "lng": -71.1441439}}}, "icon": "https://maps.gstatic.com/mapfiles/place_api/icons/generic_business-71.png", "id": "01c1b2667e6041f9087abb1a426648eebf053e6d", "name": "GORD", "place_id": "ChIJPZy8w2N344kRfQTP6iSFDm0", "reference": "ChIJPZy8w2N344kRfQTP6iSFDm0", "scope": "GOOGLE", "types": ["premise", "parking", "point_of_interest", "establishment"], "vicinity": "Boston"}, "ChIJIcPgus9544kRjk7LevvW_Os": {"geometry": {"location": {"lat": 42.3539038, "lng": -71.1337112}, "viewport": {"northeast": {"lat": 42.37437389999999, "lng": -71.110533}, "southwest": {"lat": 42.3460228, "lng": -71.143925}}}, "icon": "https://maps.gstatic.com/mapfiles/place_api/icons/geocode-71.png", "id": "e7453d23034c3414f98e19df650f49a83b645952", "name": "Allston", "photos": [{"height": 1536, "html_attributions": ["<a href=\"https://maps.google.com/maps/contrib/104422420120565835220/photos\">Welmyr De Baguio</a>"], "photo_reference": "CmRaAAAAeE2l1cSimC39a3TpDPzCiwFnv4Hny0oZUl232zrXS8fsx9eGqbrzUbutDJOmPRogE48-44-m9ZglIvEdh81snLSPisaY13rgmXphl2vQ1C7oI9ZNHxOsdFKLOtqyL-C6EhAWRAiXrNujC7CAjZNuDbK9GhSurGcwf0_0kvbTah45Mcs6dze6lQ", "width": 1536}], "place_id": "ChIJIcPgus9544kRjk7LevvW_Os", "reference": "ChIJIcPgus9544kRjk7LevvW_Os", "scope": "GOOGLE", "types": ["neighborhood", "political"], "vicinity": "Boston"}}