{"ChIJGzE9DS1l44kRoOhiASS_fHg": {"geometry": {"location": {"lat": 42.3600825, "lng": -71.0588801}, "viewport": {"northeast": {"lat": 42.40081989999999, "lng": -70.749455}, "southwest": {"lat": 42.22788, "lng": -71.191113}}}, "icon": "https://maps.gstatic.com/mapfiles/place_api/icons/geocode-71.png", "id": "06755c25d2b34d13942a4713971756a55b870ced", "name": "Boston", "photos": [{"height": 3024, "html_attributions": ["<a href=\"https://maps.google.com/maps/contrib/104670289779338733432/photos\">Natalia Zalucean</a>"], "photo_reference": "CmRaAAAAA4Hbnb9O6hZ8Fe3hAeX1WfyKeTbBPeQAFkyvajCwrVJocE_cvMU6MDZSyVw5AVJZrXsY3D0yMvXIob8Jg4bwvvWw17OFjAbLUMf3zmeN9aAdNQkBHZGfXK3nCd1ySsyWEhA8ILx2LPZHXOuY1h2G66pBGhSI7NPB0qyK5xKkaPjl6dE80aZtJQ", "width": 4032}], "place_id": "ChIJGzE9DS1l44kRoOhiASS_fHg", "reference": "ChIJGzE9DS1l44kRoOhiASS_fHg", "scope": "GOOGLE", "types": ["locality", "political"], "vicinity": "Boston"}, "ChIJc1lVr4R644kRKgfrsgQxdLI": {"geometry": {"location": {"lat": 42.3406177, "lng": -71.0419345}, "viewport": {"northeast": {"lat": 42.3417907802915, "lng": -71.04078441970849}, "southwest": {"lat": 42.3390928197085, "lng": -71.04348238029151}}}, "icon": "https://maps.gstatic.com/mapfiles/place_api/icons/generic_business-71.png", "id": "7e0ef5bbabf96a69440257dce0db9b75ff2a0216", "name": "UPS Customer Center", "opening_hours": {"open_now": true}, "photos": [{"height": 5312, "html_attributions": ["<a href=\"https://maps.google.com/maps/contrib/108849898574504086592/photos\">Yancy M.</a>"], "photo_reference": "CmRaAAAAiCWEtPVbRoNfXQVuDFILvQGZhh2-kX0gcNYc4EXqxnnD8djxBsNNPnw6aNIxrrFbAZsm5p6dTruwaQBhPGtcXTOYHGQtwQZ4-029lbtRolNCwVVyWeH9NqaZBMpT0ISoEhA__rVxsZPRErE6fIQW_pAEGhTqcLyj9143BhQZAIm3_zqGKOUDdA", "width": 2988}], "place_id": "ChIJc1lVr4R644kRKgfrsgQxdLI", "plus_code": {"compound_code": "8XR5+66 Boston, Massachusetts, United States", "global_code": "87JC8XR5+66"}, "rating": 2.9, "reference": "ChIJc1lVr4R644kRKgfrsgQxdLI", "scope": "GOOGLE", "types": ["point_of_interest", "establishment"], "user_ratings_total": 145, "vicinity": "647 Summer Street B, Boston"}, "ChIJXX8vhYV644kRtokDlIq53Ck": {"geometry": {"location": {"lat": 42.34071060000001, "lng": -71.0418123}, "viewport": {"northeast": {"lat": 42.34218053029151, "lng": -71.04031421970849}, "southwest": {"lat": 42.33948256970851, "lng": -71.04301218029151}}}, "icon": "https://maps.gstatic.com/mapfiles/place_api/icons/generic_business-71.png", "id": "f851d3ea9fd997b55e39db708a713b6886ddcbae", "name": "E X O T E C Inc", "place_id": "ChIJXX8vhYV644kRtokDlIq53Ck", "plus_code": {"compound_code": "8XR5+77 Boston, Massachusetts, United States", "global_code": "87JC8XR5+77"}, "reference": "ChIJXX8vhYV644kRtokDlIq53Ck", "scope": "GOOGLE", "types": ["general_contractor", "point_of_interest", "establishment"], "vicinity": "647 Summer Street, Boston"}, "ChIJ4WXBmI9644kRngXikuJJwC8": {"geometry": {"location": {"lat": 42.33865480000001, "lng": -71.04039809999999}, "viewport": {"northeast": {"lat": 42.33970728029151, "lng": -71.03904071970848}, "southwest": {"lat": 42.33700931970851, "lng": -71.0417386802915}}}, "icon": "https://maps.gstatic.com/mapfiles/place_api/icons/shopping-71.png", "id": "3f4b7c912d05fb3316f59ca516b0c4a05b2d70fb", "name": "Robert N. Karpp Co. Inc. Building Materials", "opening_hours": {"open_now": false}, "photos": [{"height": 1000, "html_attributions": ["<a href=\"https://maps.google.com/maps/contrib/109824919963402541593/photos\">Robert N. Karpp Co. Inc. Building Materials</a>"], "photo_reference": "CmRaAAAARM9DNb_1P9do79F-5qtF0Fhu8vSqzHQxEoJM8Luj6Z5bcONFgr4y2ON3knqLi2iQHeHxv8ttZBUvnnko-NOgQa_dyU65AOjqsMCGCA-Tkk41KVFUFshsEmIyMh-k56McEhCwsw3sCh-50PjNLrkuxZO5GhTVVzwG0sDKjYdn4xTM5vP624qQJg", "width": 1500}], "place_id": "ChIJ4WXBmI9644kRngXikuJJwC8", "plus_code": {"compound_code": "8XQ5+FR Boston, Massachusetts, United States", "global_code": "87JC8XQ5+FR"}, "rating": 4.8, "reference": "ChIJ4WXBmI9644kRngXikuJJwC8", "scope": "GOOGLE", "types": ["hardware_store", "store", "point_of_interest", "establishment"], "user_ratings_total": 5, "vicinity": "480 East 1st Street, Boston"}, "ChIJS9hGQgAP-IcRdiCfNJPbPXc": {"geometry": {"location": {"lat": 42.33821940000001, "lng": -71.0411486}, "viewport": {"northeast": {"lat": 42.3394832802915, "lng": -71.03979701970849}, "southwest": {"lat": 42.33678531970851, "lng": -71.04249498029151}}}, "icon": "https://maps.gstatic.com/mapfiles/place_api/icons/generic_business-71.png", "id": "8dad0c17c13481348ea4005266378765f022522c", "name": "United Rentals - Aerial", "opening_hours": {"open_now": false}, "photos": [{"height": 1000, "html_attributions": ["<a href=\"https://maps.google.com/maps/contrib/101579658201496357411/photos\">United Rentals - Aerial</a>"], "photo_reference": "CmRaAAAAfs_VmEqjR6cAUvQsv4Yxrl-rMm_h-xUjfsuslgiNo7jYwwe4iCJLJ3kOsCP3W4oXUHZHfVD4A9_mZkj_zZO-Mml2sz0mhM6RHE-j-YVQ8tBrb_DGBtVk_THZC7UGhFQIEhCtmczEAp5j338Fu7O-VH1KGhQwaRlftozKxntbB95T03huosYfsw", "width": 1000}], "place_id": "ChIJS9hGQgAP-IcRdiCfNJPbPXc", "plus_code": {"compound_code": "8XQ5+7G Boston, Massachusetts, United States", "global_code": "87JC8XQ5+7G"}, "rating": 1, "reference": "ChIJS9hGQgAP-IcRdiCfNJPbPXc", "scope": "GOOGLE", "types": ["point_of_interest", "establishment"], "user_ratings_total": 1, "vicinity": "430 East 1st Street, Boston"}, "ChIJLbQfIo9644kRSAbkbsuY9D0": {"geometry": {"location": {"lat": 42.338221, "lng": -71.04122559999999}, "viewport": {"northeast": {"lat": 42.33948343029149, "lng": -71.0398739697085}, "southwest": {"lat": 42.3367854697085, "lng": -71.0425719302915}}}, "icon": "https://maps.gstatic.com/mapfiles/place_api/icons/generic_business-71.png", "id": "9403a300493c08d2e572a9ae35454ed4a815255c", "name": "Casey & Hayes", "place_id": "ChIJLbQfIo9644kRSAbkbsuY9D0", "plus_code": {"compound_code": "8XQ5+7G Boston, Massachusetts, United States", "global_code": "87JC8XQ5+7G"}, "reference": "ChIJLbQfIo9644kRSAbkbsuY9D0", "scope": "GOOGLE", "types": ["moving_company", "storage", "point_of_interest", "establishment"], "vicinity": "430 East 1st Street, South Boston"}, "ChIJc1lVr4R644kRLTjmUUdXozg": {"geometry": {"location": {"lat": 42.3405742, "lng": -71.0420695}, "viewport": {"northeast": {"lat": 42.3417846302915, "lng": -71.04087716970848}, "southwest": {"lat": 42.3390866697085, "lng": -71.0435751302915}}}, "icon": "https://maps.gstatic.com/mapfiles/place_api/icons/shopping-71.png", "id": "5db3d8eb2f1f9ff575893457b7646f9c9faf544c", "name": "W.B. Mason", "opening_hours": {"open_now": false}, "photos": [{"height": 3024, "html_attributions": ["<a href=\"https://maps.google.com/maps/contrib/108050226750304510254/photos\">Triple</a>"], "photo_reference": "CmRaAAAA8DuG2_MrnybdBxIqbUTFIlyt90AFqtBjU-WN6wgbp_ZFyXeWTGV5ywcAsk-V9ilZZS6ceNiYQmqilXgDH0sux0cDyWf6UT511XaWZpAXH0-2Us_HZ9cG6pboZxxJEMVREhBT1z6wX3W2pMKc_gXnDzAmGhQzKF5VjRYDisgS8DcauRSGuHWOXQ", "width": 4032}], "place_id": "ChIJc1lVr4R644kRLTjmUUdXozg", "plus_code": {"compound_code": "8XR5+65 Boston, Massachusetts, United States", "global_code": "87JC8XR5+65"}, "rating": 3.2, "reference": "ChIJc1lVr4R644kRLTjmUUdXozg", "scope": "GOOGLE", "types": ["furniture_store", "home_goods_store", "store", "point_of_interest", "establishment"], "user_ratings_total": 15, "vicinity": "647 Summer Street, Boston"}, "ChIJnxOYpY9644kRtmpoOe0T7z8": {"geometry": {"location": {"lat": 42.33804869999999, "lng": -71.04034659999999}, "viewport": {"northeast": {"lat": 42.3393798802915, "lng": -71.03899711970848}, "southwest": {"lat": 42.3366819197085, "lng": -71.04169508029149}}}, "icon": "https://maps.gstatic.com/mapfiles/place_api/icons/generic_business-71.png", "id": "dab93aa0a7a1856aedd87eec3fc9561c5cc9104c", "name": "Residential Appraisal Services", "place_id": "ChIJnxOYpY9644kRtmpoOe0T7z8", "plus_code": {"compound_code": "8XQ5+6V Boston, Massachusetts, United States", "global_code": "87JC8XQ5+6V"}, "reference": "ChIJnxOYpY9644kRtmpoOe0T7z8", "scope": "GOOGLE", "types": ["point_of_interest", "establishment"], "vicinity": "167 Street #1, Boston"}, "ChIJJ5Punpp644kRN9UbcMObkac": {"geometry": {"location": {"lat": 42.33805, "lng": -71.04028199999999}, "viewport": {"northeast": {"lat": 42.3393808802915, "lng": -71.0389325197085}, "southwest": {"lat": 42.3366829197085, "lng": -71.0416304802915}}}, "icon": "https://maps.gstatic.com/mapfiles/place_api/icons/generic_business-71.png", "id": "c8b785be96df1f62d5a584cc3a69c3f06e605ec6", "name": "Duffy Design Group, Inc.", "opening_hours": {"open_now": false}, "photos": [{"height": 683, "html_attributions": ["<a href=\"https://maps.google.com/maps/contrib/111931303781286020427/photos\">Duffy Design Group, Inc.</a>"], "photo_reference": "CmRaAAAA4pIRIuCusgeo-qk6V-4iadJiU8Hb6sEYXf6m_8Se9ty4p4-H5GXsW9LRK5_2A5CX8EmN0YUTccyvZOkRP3WqMFd4oowHWHqRhoTb6jfrnqDBoqfv5wsMhUj5oFyd2yItEhAdaO9kOtaygYwG8UmDnGaqGhQRt06uey6pbmbhpFD_dpI15Mo9aA", "width": 1024}], "place_id": "ChIJJ5Punpp644kRN9UbcMObkac", "plus_code": {"compound_code": "8XQ5+6V Boston, Massachusetts, United States", "global_code": "87JC8XQ5+6V"}, "reference": "ChIJJ5Punpp644kRN9UbcMObkac", "scope": "GOOGLE", "types": ["general_contractor", "point_of_interest", "establishment"], "vicinity": "455 East 1st Street Unit #202, Boston"}, "ChIJk2cGpoR644kRAsJJFDLmHpA": {"geometry": {"location": {"lat": 42.33963, "lng": -71.0426267}, "viewport": {"northeast": {"lat": 42.3408878302915, "lng": -71.04112591970848}, "southwest": {"lat": 42.3381898697085, "lng": -71.0438238802915}}}, "icon": "https://maps.gstatic.com/mapfiles/place_api/icons/generic_business-71.png", "id": "ce05b6e2d7a934e86e79f5b38cee570c324dc407", "name": "Modern Continental", "place_id": "ChIJk2cGpoR644kRAsJJFDLmHpA", "plus_code": {"compound_code": "8XQ4+VW Boston, Massachusetts, United States", "global_code": "87JC8XQ4+VW"}, "reference": "ChIJk2cGpoR644kRAsJJFDLmHpA", "scope": "GOOGLE", "types": ["lawyer", "point_of_interest", "establishment"], "vicinity": "649 Summer Street, Boston"}, "ChIJySFSPZJ644kRQd1ylK2wP54": {"geometry": {"location": {"lat": 42.3381437, "lng": -71.0475773}, "viewport": {"northeast": {"lat": 42.3551665, "lng": -71.0091984}, "southwest": {"lat": 42.32115, "lng": -71.0652948}}}, "icon": "https://maps.gstatic.com/mapfiles/place_api/icons/geocode-71.png", "id": "56a2680fff3ada55ed539f65fc2e901a748193c6", "name": "South Boston", "photos": [{"height": 1836, "html_attributions": ["<a href=\"https://maps.google.com/maps/contrib/100381122114234243821/photos\">Gary Stephens</a>"], "photo_reference": "CmRaAAAA9TojuvHEM2Bbb-xytxVH1GHFOUybFRec74D_KrdalzAL1QfFpi_KwVjV4IwIXmzRZJRvvmKiG8nIl-rD71aVeBKhzpEm_OulvWgbuKRlH1w8GvSdc-EKjxpfgrb3hvPOEhA8L-soJlOkFtoLy4_iVyukGhQfpQFx3mJTjgOVlokguSMX1Wjntg", "width": 3264}], "place_id": "ChIJySFSPZJ644kRQd1ylK2wP54", "reference": "ChIJySFSPZJ644kRQd1ylK2wP54", "scope": "GOOGLE", "types": ["neighborhood", "political"], "vicinity": "Boston"}}