{"ChIJGzE9DS1l44kRoOhiASS_fHg": {"geometry": {"location": {"lat": 42.3600825, "lng": -71.0588801}, "viewport": {"northeast": {"lat": 42.40081989999999, "lng": -70.749455}, "southwest": {"lat": 42.22788, "lng": -71.191113}}}, "icon": "https://maps.gstatic.com/mapfiles/place_api/icons/geocode-71.png", "id": "06755c25d2b34d13942a4713971756a55b870ced", "name": "Boston", "photos": [{"height": 3024, "html_attributions": ["<a href=\"https://maps.google.com/maps/contrib/104670289779338733432/photos\">Natalia Zalucean</a>"], "photo_reference": "CmRaAAAADp_41UuCO-6TVfIW5th5E9QjwUkwbF7cZumuLRahacUyab7npAvRo5DQEle6hJTPaZMNSvOkAfo_DjybjFB5im_QKDr3whoDzh_X7i3s6Sg8RnaXvIjczMN5x0kYsKM2EhBJvLR3UBAgtQg8S9zytDUcGhR4JjwlCtKPUwNBJZmJAjnbHyLH2Q", "width": 4032}], "place_id": "ChIJGzE9DS1l44kRoOhiASS_fHg", "reference": "ChIJGzE9DS1l44kRoOhiASS_fHg", "scope": "GOOGLE", "types": ["locality", "political"], "vicinity": "Boston"}, "ChIJbUElHXB744kRcK4LFyxWZKM": {"geometry": {"location": {"lat": 42.2822422, "lng": -71.0385472}, "viewport": {"northeast": {"lat": 42.2835515802915, "lng": -71.0371765197085}, "southwest": {"lat": 42.2808536197085, "lng": -71.03987448029152}}}, "icon": "https://maps.gstatic.com/mapfiles/place_api/icons/lodging-71.png", "id": "ba0ef88327c4471ac28a8e086b0968c7bc32bf87", "name": "Best Western Adams Inn Quincy-Boston", "opening_hours": {"open_now": true}, "photos": [{"height": 2160, "html_attributions": ["<a href=\"https://maps.google.com/maps/contrib/103826430418574016134/photos\">Best Western Adams Inn Quincy-Boston</a>"], "photo_reference": "CmRaAAAA7Os3jZWQnhGU5XXqSRShHvZLcm58CrE1u-XiuTuZ6tN2Xxd0fkyuQLE7FWJBaMGyz_rpjFuuKzTPpM_nz6XWJ6xBV7r4s7mOm0lCCsoJwB8c_AarOUl3jb0B0dJ4Y3dyEhBVp4zR-DEgEWiDG9yg59tfGhRXG2ncM2Tc0D5lcD0EwzSq56xDGw", "width": 3840}], "place_id": "ChIJbUElHXB744kRcK4LFyxWZKM", "plus_code": {"compound_code": "7XJ6+VH Quincy, Massachusetts, United States", "global_code": "87JC7XJ6+VH"}, "rating": 3.8, "reference": "ChIJbUElHXB744kRcK4LFyxWZKM", "scope": "GOOGLE", "types": ["lodging", "point_of_interest", "establishment"], "user_ratings_total": 724, "vicinity": "29 Hancock Street, Quincy"}, "ChIJbUElHXB744kRjAxKMqv6ENM": {"geometry": {"location": {"lat": 42.2822702, "lng": -71.0386709}, "viewport": {"northeast": {"lat": 42.28355913029149, "lng": -71.0372521197085}, "southwest": {"lat": 42.28086116970849, "lng": -71.03995008029152}}}, "icon": "https://maps.gstatic.com/mapfiles/place_api/icons/atm-71.png", "id": "73b7ee58f190a32f97c0a6cbd91471357512edd8", "name": "Cardtronics ATM", "place_id": "ChIJbUElHXB744kRjAxKMqv6ENM", "plus_code": {"compound_code": "7XJ6+WG Quincy, Massachusetts, United States", "global_code": "87JC7XJ6+WG"}, "reference": "ChIJbUElHXB744kRjAxKMqv6ENM", "scope": "GOOGLE", "types": ["atm", "finance", "point_of_interest", "establishment"], "vicinity": "29 Hancock Street, Quincy"}, "ChIJv5R3HXB744kR_QHrL5FBCNA": {"geometry": {"location": {"lat": 42.28223, "lng": -71.0386927}, "viewport": {"northeast": {"lat": 42.2837463802915, "lng": -71.03701751970848}, "southwest": {"lat": 42.2810484197085, "lng": -71.03971548029149}}}, "icon": "https://maps.gstatic.com/mapfiles/place_api/icons/bar-71.png", "id": "56466f185e2262a983d59e23f19e5758e68d6c7d", "name": "The Adams Pub", "opening_hours": {"open_now": true}, "photos": [{"height": 2880, "html_attributions": ["<a href=\"https://maps.google.com/maps/contrib/114804893147035776693/photos\">Alberto Ammirati</a>"], "photo_reference": "CmRaAAAAUoyvPBYuyHF1iqF4o7REd1uSGtIPSpZwY8oCZJnxwn6wzwWuS7IU6Jd4KgGiCAkfqdzjYZsfyx9l7348kTa8SLQsSKZzClo5bXMZ4EBrHfwLebeXGiwZXrsM7lPu8ZehEhAfl43o9TSz5tKTOF-8hlVbGhRJ4vQo59rh4JMQ2jniRsOj1MTr1g", "width": 2160}], "place_id": "ChIJv5R3HXB744kR_QHrL5FBCNA", "plus_code": {"compound_code": "7XJ6+VG Quincy, Massachusetts, United States", "global_code": "87JC7XJ6+VG"}, "rating": 4.2, "reference": "ChIJv5R3HXB744kR_QHrL5FBCNA", "scope": "GOOGLE", "types": ["bar", "point_of_interest", "establishment"], "user_ratings_total": 23, "vicinity": "29 Hancock Street, Quincy"}, "ChIJl59aOHB744kR2W0h1b-nFS0": {"geometry": {"location": {"lat": 42.2841807, "lng": -71.03923780000001}, "viewport": {"northeast": {"lat": 42.2855354302915, "lng": -71.0378814697085}, "southwest": {"lat": 42.2828374697085, "lng": -71.0405794302915}}}, "icon": "https://maps.gstatic.com/mapfiles/place_api/icons/generic_business-71.png", "id": "63a5f8d39671b19df3d6152f55bee1c98d66010c", "name": "\u5148\u8fbe\u6865", "photos": [{"height": 1536, "html_attributions": ["<a href=\"https://maps.google.com/maps/contrib/117057391814584072006/photos\">\u5168\u666f\u5168\u7403</a>"], "photo_reference": "CmRaAAAAkI4X2OYZKOiou3naeXJgpMg27sVGcXaioVxoXIwCVWWv-teO2kX7MNk8LhnTze8xcOSP4l7fGSVKkzB6ll8F-MUVRG1RtkROKPkNMmrsX_1Mf54WbQTaQKFqHMNfdanmEhDBTGW79CtOxDf4_UKizzNmGhRChQAMksKtjPgT6ITImPWnNd3QGQ", "width": 2048}], "place_id": "ChIJl59aOHB744kR2W0h1b-nFS0", "plus_code": {"compound_code": "7XM6+M8 Boston, Massachusetts, United States", "global_code": "87JC7XM6+M8"}, "rating": 5, "reference": "ChIJl59aOHB744kR2W0h1b-nFS0", "scope": "GOOGLE", "types": ["point_of_interest", "establishment"], "user_ratings_total": 1, "vicinity": "Massachusetts 3A, Boston"}, "ChIJ7xKsI3B744kRQhIYI0vXV7A": {"geometry": {"location": {"lat": 42.28430170000001, "lng": -71.0393357}, "viewport": {"northeast": {"lat": 42.28562758029149, "lng": -71.0380145697085}, "southwest": {"lat": 42.28292961970849, "lng": -71.0407125302915}}}, "icon": "https://maps.gstatic.com/mapfiles/place_api/icons/generic_business-71.png", "id": "789e370525b0e179c78612b22571ad2d23284fb2", "name": "Neponset Bridge", "photos": [{"height": 599, "html_attributions": ["<a href=\"https://maps.google.com/maps/contrib/103249935933874093614/photos\">The Bridge Lover</a>"], "photo_reference": "CmRaAAAAo4mua3D1c6h3OKrSkc9eR2Ywf8m_lBhEnF9B4IpCyhxH0b2Gs9whTgKUsF9wL8OZWZLwVZixXAJQZNglzAQswM0oEcvNHmTHro0rzD1JzFZfJfaCH3U04A3gD15JJKoEEhAvByKKtm2EjanNEddo7XtgGhSoKqnD_4DnYwfRPLeyB0vqyLYx7g", "width": 900}], "place_id": "ChIJ7xKsI3B744kRQhIYI0vXV7A", "plus_code": {"compound_code": "7XM6+P7 Boston, Massachusetts, United States", "global_code": "87JC7XM6+P7"}, "reference": "ChIJ7xKsI3B744kRQhIYI0vXV7A", "scope": "GOOGLE", "types": ["point_of_interest", "establishment"], "vicinity": "Neponset Avenue, Boston"}, "ChIJZe_yl8Fk44kRY0HFGpi0-Mw": {"geometry": {"location": {"lat": 42.2528772, "lng": -71.0022705}, "viewport": {"northeast": {"lat": 42.3135981, "lng": -70.93769089999999}, "southwest": {"lat": 42.204256, "lng": -71.0932991}}}, "icon": "https://maps.gstatic.com/mapfiles/place_api/icons/geocode-71.png", "id": "953c51e40d42a2fe23ce1bcc31caa132fbf2195f", "name": "Quincy", "photos": [{"height": 2988, "html_attributions": ["<a href=\"https://maps.google.com/maps/contrib/113527371625310867064/photos\">Annette Suardi</a>"], "photo_reference": "CmRaAAAAud_nQ8lKl_DatGyCd7ONYLXZy9QgvwwToZFRuZ2FZMgi2Sssr2augeBGKRMFvrasF7vysr2IjxC3O4UuMRJPKZIdB4dA7OA1vlil0CeeIqYtuA4L6TxyKpARTrlkITE4EhCksLIY5wHlc_Kq56dz0IY6GhRQ3H68iJ51bftzo5n5FZMKGRbWbw", "width": 5312}], "place_id": "ChIJZe_yl8Fk44kRY0HFGpi0-Mw", "reference": "ChIJZe_yl8Fk44kRY0HFGpi0-Mw", "scope": "GOOGLE", "types": ["locality", "political"], "vicinity": "Quincy"}}