{"ChIJGzE9DS1l44kRoOhiASS_fHg": {"geometry": {"location": {"lat": 42.3600825, "lng": -71.0588801}, "viewport": {"northeast": {"lat": 42.40081989999999, "lng": -70.749455}, "southwest": {"lat": 42.22788, "lng": -71.191113}}}, "icon": "https://maps.gstatic.com/mapfiles/place_api/icons/geocode-71.png", "id": "06755c25d2b34d13942a4713971756a55b870ced", "name": "Boston", "photos": [{"height": 3024, "html_attributions": ["<a href=\"https://maps.google.com/maps/contrib/104670289779338733432/photos\">Natalia Zalucean</a>"], "photo_reference": "CmRaAAAA8HUAhYMMChgup_ix9i6noFJYieRikf3JjzrK2L6PNiO9tEoYUTJKMrwdYQxHeVPaOazHJQ7GtHQp06aMLPfwNG-o6ZFl1WL1mdHI-5FK4F1QN7U_-_3nk5vr2537OZPTEhCPBvsNLCQL4Vf4CwuIYX5CGhSLFGfrCaIJqAzFeIfpA6gl2eTsMw", "width": 4032}], "place_id": "ChIJGzE9DS1l44kRoOhiASS_fHg", "reference": "ChIJGzE9DS1l44kRoOhiASS_fHg", "scope": "GOOGLE", "types": ["locality", "political"], "vicinity": "Boston"}, "ChIJAQAAAMV744kRv5HEezQo3Og": {"geometry": {"location": {"lat": 42.2913532, "lng": -71.0773336}, "viewport": {"northeast": {"lat": 42.2927279302915, "lng": -71.0760445197085}, "southwest": {"lat": 42.2900299697085, "lng": -71.07874248029151}}}, "icon": "https://maps.gstatic.com/mapfiles/place_api/icons/generic_business-71.png", "id": "8ce61e53805ed13989bfc0e8d2e2b2732b777e47", "name": "Empire Party Rentals", "opening_hours": {"open_now": true}, "photos": [{"height": 1000, "html_attributions": ["<a href=\"https://maps.google.com/maps/contrib/101627285803431855598/photos\">Empire Party Rentals</a>"], "photo_reference": "CmRaAAAARR4IBNT69zsD8XWg5VJqwFSyk2zlnHv9sT7QS-z9ooB4E3xQh5XLdr7ib3e-4sd8pu4PsoLmCg0graTqbhUKITCV7EOq3XkAMvZt4lOfr5eBt5uC6l8ThmRVzJ0NfXx2EhBsSUBqnkok4urxJgyxOkUjGhRFx0uOIl_cZHtvI_pMKRMeOHvnnQ", "width": 1000}], "place_id": "ChIJAQAAAMV744kRv5HEezQo3Og", "plus_code": {"compound_code": "7WRF+G3 Boston, Massachusetts, United States", "global_code": "87JC7WRF+G3"}, "rating": 4.4, "reference": "ChIJAQAAAMV744kRv5HEezQo3Og", "scope": "GOOGLE", "types": ["point_of_interest", "food", "establishment"], "user_ratings_total": 81, "vicinity": "14 New England Avenue, Boston"}, "ChIJb5Iwi-x744kRVSpZYCQ1G9U": {"geometry": {"location": {"lat": 42.2924327, "lng": -71.0763099}, "viewport": {"northeast": {"lat": 42.29376688029151, "lng": -71.07503506970849}, "southwest": {"lat": 42.29106891970851, "lng": -71.0777330302915}}}, "icon": "https://maps.gstatic.com/mapfiles/place_api/icons/shopping-71.png", "id": "32945585233c780473bcf54ed348b5ab873bd4bf", "name": "Sneaker Online Store", "opening_hours": {"open_now": true}, "photos": [{"height": 433, "html_attributions": ["<a href=\"https://maps.google.com/maps/contrib/107390315590451947098/photos\">Sneaker Online Store</a>"], "photo_reference": "CmRaAAAAaIe6ZgLupQBRUsZf4d2L-Z0ntXZnXlVj3EGGRYDRm-rQafiplagxbToPFMUiOwT-jaZ9Ax0w0rrRKCaW4wqeZV7mc3g0cdWLBzI0682olAYix_XQ_c_n1cgL7_khZau2EhBy1w-uR13GDIH7m2Rc9P-TGhRMBNxPqx32YE6bFBbbuHymCGjPOg", "width": 650}], "place_id": "ChIJb5Iwi-x744kRVSpZYCQ1G9U", "plus_code": {"compound_code": "7WRF+XF Boston, Massachusetts, United States", "global_code": "87JC7WRF+XF"}, "rating": 5, "reference": "ChIJb5Iwi-x744kRVSpZYCQ1G9U", "scope": "GOOGLE", "types": ["shoe_store", "clothing_store", "store", "point_of_interest", "establishment"], "user_ratings_total": 1, "vicinity": "112 Millet Street, Dorchester Center"}, "ChIJMbkoEO5744kRMg4bOi6qyEI": {"geometry": {"location": {"lat": 42.2901885, "lng": -71.0787671}, "viewport": {"northeast": {"lat": 42.2915332802915, "lng": -71.0774318197085}, "southwest": {"lat": 42.2888353197085, "lng": -71.0801297802915}}}, "icon": "https://maps.gstatic.com/mapfiles/place_api/icons/cemetery_grave-71.png", "id": "61a5d1128eb2b52e17b23c5e2252257b27598c08", "name": "St. Mary's Cemetery", "place_id": "ChIJMbkoEO5744kRMg4bOi6qyEI", "plus_code": {"compound_code": "7WRC+3F Boston, Massachusetts, United States", "global_code": "87JC7WRC+3F"}, "reference": "ChIJMbkoEO5744kRMg4bOi6qyEI", "scope": "GOOGLE", "types": ["cemetery", "point_of_interest", "establishment"], "vicinity": "Boston"}, "ChIJSSUz2LR844kRdQXGhPiBM8w": {"geometry": {"location": {"lat": 42.290156, "lng": -71.07869800000002}, "viewport": {"northeast": {"lat": 42.29151168029149, "lng": -71.07732741970848}, "southwest": {"lat": 42.28881371970849, "lng": -71.0800253802915}}}, "icon": "https://maps.gstatic.com/mapfiles/place_api/icons/generic_business-71.png", "id": "2aa7f57a3b899ba4bac4c46e1832d6a2eab3025a", "name": "Max Energy Therapy", "opening_hours": {"open_now": false}, "photos": [{"height": 1080, "html_attributions": ["<a href=\"https://maps.google.com/maps/contrib/101864399611404057540/photos\">Max Energy Therapy</a>"], "photo_reference": "CmRaAAAAds08F3IGspsbX6WfC5MRA9aszdtBVH_dPSZHiNzLWKwv-64JTkpMbZ_1i0VvzRrntlOSW3RLj3St_SMewdWgiUIa_24wbIl9UpDJ84UJJEqRKeGxo8GQcLbE6ANLB6ZUEhCg7unrEcLN6jEV3hP5al0RGhRhbam-0SdiwuDqWKdinebksNMKIQ", "width": 1920}], "place_id": "ChIJSSUz2LR844kRdQXGhPiBM8w", "plus_code": {"compound_code": "7WRC+3G Boston, Massachusetts, United States", "global_code": "87JC7WRC+3G"}, "reference": "ChIJSSUz2LR844kRdQXGhPiBM8w", "scope": "GOOGLE", "types": ["insurance_agency", "finance", "point_of_interest", "establishment"], "vicinity": "144 Bernard Street #1, Boston"}, "ChIJN1weQux744kR6xG5r0nnAuA": {"geometry": {"location": {"lat": 42.2925804, "lng": -71.0776245}, "viewport": {"northeast": {"lat": 42.2939484802915, "lng": -71.0762825197085}, "southwest": {"lat": 42.29125051970851, "lng": -71.0789804802915}}}, "icon": "https://maps.gstatic.com/mapfiles/place_api/icons/generic_business-71.png", "id": "4288bbc3472eff2d1e0207c7f94ddff6518e87b5", "name": "Workbench Technology", "place_id": "ChIJN1weQux744kR6xG5r0nnAuA", "plus_code": {"compound_code": "7WVC+2X Boston, Massachusetts, United States", "global_code": "87JC7WVC+2X"}, "reference": "ChIJN1weQux744kR6xG5r0nnAuA", "scope": "GOOGLE", "types": ["point_of_interest", "establishment"], "vicinity": "109 Wheatland Avenue, Dorchester Center"}, "ChIJsWpa_ex744kR7kS0dOw9b0M": {"geometry": {"location": {"lat": 42.2910963, "lng": -71.0758297}, "viewport": {"northeast": {"lat": 42.2924319802915, "lng": -71.0745392197085}, "southwest": {"lat": 42.2897340197085, "lng": -71.0772371802915}}}, "icon": "https://maps.gstatic.com/mapfiles/place_api/icons/generic_business-71.png", "id": "6220420952f1c4806834e1b8fa455aea9fc9b2c7", "name": "Salon 3", "opening_hours": {"open_now": true}, "photos": [{"height": 2592, "html_attributions": ["<a href=\"https://maps.google.com/maps/contrib/115789375461082152575/photos\">Stacey Little</a>"], "photo_reference": "CmRaAAAA1SBEaw1kfosF_Z4Mb3wGmGvuZpsk9LF2uNuwdHz_cZki7o1seht7Rj_GPvC-Q61GFMaZ4NDty1D_hEStOUTEaWi9wKUPrTNxtoqJWQC96lW17PPbmjRjS7AY5Q6Qp9B-EhDRCJK6_G7qEyDdICE1-_IyGhSzJxqXdnWr2hd-SvPe8PZMoLiNRw", "width": 1944}], "place_id": "ChIJsWpa_ex744kR7kS0dOw9b0M", "plus_code": {"compound_code": "7WRF+CM Boston, Massachusetts, United States", "global_code": "87JC7WRF+CM"}, "rating": 4.5, "reference": "ChIJsWpa_ex744kR7kS0dOw9b0M", "scope": "GOOGLE", "types": ["beauty_salon", "hair_care", "point_of_interest", "establishment"], "user_ratings_total": 35, "vicinity": "259 Talbot Avenue, Dorchester Center"}, "ChIJyVdCs-1744kRH2YTWLv1aa4": {"geometry": {"location": {"lat": 42.2912306, "lng": -71.0775809}, "viewport": {"northeast": {"lat": 42.2925667302915, "lng": -71.0762021197085}, "southwest": {"lat": 42.2898687697085, "lng": -71.0789000802915}}}, "icon": "https://maps.gstatic.com/mapfiles/place_api/icons/generic_business-71.png", "id": "db530ddda98bdf7b80d0f0b1f6a6727d439a16e0", "name": "Cunard Woodworking Co Inc", "place_id": "ChIJyVdCs-1744kRH2YTWLv1aa4", "plus_code": {"compound_code": "7WRC+FX Boston, Massachusetts, United States", "global_code": "87JC7WRC+FX"}, "reference": "ChIJyVdCs-1744kRH2YTWLv1aa4", "scope": "GOOGLE", "types": ["general_contractor", "point_of_interest", "establishment"], "vicinity": "19 New England Avenue, Dorchester Center"}, "ChIJm1eDqjl744kRROimhGToRiA": {"geometry": {"location": {"lat": 42.2906031, "lng": -71.0769134}, "viewport": {"northeast": {"lat": 42.2918703802915, "lng": -71.07552871970849}, "southwest": {"lat": 42.2891724197085, "lng": -71.07822668029151}}}, "icon": "https://maps.gstatic.com/mapfiles/place_api/icons/generic_business-71.png", "id": "39b9a69a022617f503208c6dd03eb0bbb85b8ee1", "name": "Dreamworks Kingdom", "place_id": "ChIJm1eDqjl744kRROimhGToRiA", "plus_code": {"compound_code": "7WRF+66 Boston, Massachusetts, United States", "global_code": "87JC7WRF+66"}, "reference": "ChIJm1eDqjl744kRROimhGToRiA", "scope": "GOOGLE", "types": ["point_of_interest", "establishment"], "vicinity": "43 Colonial Avenue, Dorchester"}, "ChIJMZg5pu1744kReFINnizWagM": {"geometry": {"location": {"lat": 42.29064699999999, "lng": -71.0767599}, "viewport": {"northeast": {"lat": 42.29191103029149, "lng": -71.07537376970849}, "southwest": {"lat": 42.2892130697085, "lng": -71.0780717302915}}}, "icon": "https://maps.gstatic.com/mapfiles/place_api/icons/school-71.png", "id": "104336d8b125b26c3c72de2248e660ab2d6f4b77", "name": "\"Butterfly Home\" Family Day Care", "opening_hours": {"open_now": true}, "photos": [{"height": 3120, "html_attributions": ["<a href=\"https://maps.google.com/maps/contrib/111958466562132705156/photos\">Dargelys C</a>"], "photo_reference": "CmRaAAAAImBmwZ0y0eMl4bBTNmdWRzxViqI-BIEMYMPVzlM_uXK3AvKI9Luiqlag9Kd9t2QDEfxE0IF7UI-0ZDSSNsl4W24mIf79QKTkiDGVJI3_kZF1SAX_fpdURQZIkCqmW9vvEhDuPHD7aXBCuHkxFPG0XOW8GhSB2VsG_k6T-A2EYUGF8km7Kb8SRA", "width": 4160}], "place_id": "ChIJMZg5pu1744kReFINnizWagM", "plus_code": {"compound_code": "7WRF+77 Boston, Massachusetts, United States", "global_code": "87JC7WRF+77"}, "reference": "ChIJMZg5pu1744kReFINnizWagM", "scope": "GOOGLE", "types": ["school", "point_of_interest", "establishment"], "vicinity": "39 Colonial Avenue, Dorchester Center"}, "ChIJU37cTex744kReGWw_iHkWMk": {"geometry": {"location": {"lat": 42.2916768, "lng": -71.077377}, "viewport": {"northeast": {"lat": 42.2930046802915, "lng": -71.0759777197085}, "southwest": {"lat": 42.2903067197085, "lng": -71.07867568029151}}}, "icon": "https://maps.gstatic.com/mapfiles/place_api/icons/generic_business-71.png", "id": "c95dee3f96acc60ec07b66da22811a05a7b8d913", "name": "Jovan Lacet", "place_id": "ChIJU37cTex744kReGWw_iHkWMk", "plus_code": {"compound_code": "7WRF+M2 Boston, Massachusetts, United States", "global_code": "87JC7WRF+M2"}, "reference": "ChIJU37cTex744kReGWw_iHkWMk", "scope": "GOOGLE", "types": ["point_of_interest", "establishment"], "vicinity": "Boston"}, "ChIJQWktTOx744kR_a0W4CjrAjI": {"geometry": {"location": {"lat": 42.2916834, "lng": -71.07745419999999}, "viewport": {"northeast": {"lat": 42.2930910802915, "lng": -71.07607466970849}, "southwest": {"lat": 42.2903931197085, "lng": -71.0787726302915}}}, "icon": "https://maps.gstatic.com/mapfiles/place_api/icons/generic_business-71.png", "id": "e0d9cce85f2fe795e3f91b1246e8dfcccc93c169", "name": "Rebuilt Automatic Transmission", "place_id": "ChIJQWktTOx744kR_a0W4CjrAjI", "plus_code": {"compound_code": "7WRF+M2 Boston, Massachusetts, United States", "global_code": "87JC7WRF+M2"}, "reference": "ChIJQWktTOx744kR_a0W4CjrAjI", "scope": "GOOGLE", "types": ["car_repair", "point_of_interest", "establishment"], "vicinity": "219 Talbot Avenue, Boston"}, "ChIJHwK0_-x744kR5qDBxkO59ZY": {"geometry": {"location": {"lat": 42.2913244, "lng": -71.07635599999999}, "viewport": {"northeast": {"lat": 42.2927466802915, "lng": -71.07496701970848}, "southwest": {"lat": 42.2900487197085, "lng": -71.07766498029149}}}, "icon": "https://maps.gstatic.com/mapfiles/place_api/icons/generic_business-71.png", "id": "345fcd6b7a604f2377d11e5fbe34befba4319500", "name": "charitable givings of summit electronics", "opening_hours": {"open_now": true}, "place_id": "ChIJHwK0_-x744kR5qDBxkO59ZY", "plus_code": {"compound_code": "7WRF+GF Boston, Massachusetts, United States", "global_code": "87JC7WRF+GF"}, "reference": "ChIJHwK0_-x744kR5qDBxkO59ZY", "scope": "GOOGLE", "types": ["point_of_interest", "establishment"], "vicinity": "247 Talbot Avenue, Boston"}, "ChIJMwHF_ux744kR_wGnT2Glz1k": {"geometry": {"location": {"lat": 42.2913244, "lng": -71.07635599999999}, "viewport": {"northeast": {"lat": 42.2927466802915, "lng": -71.07496701970848}, "southwest": {"lat": 42.2900487197085, "lng": -71.07766498029149}}}, "icon": "https://maps.gstatic.com/mapfiles/place_api/icons/generic_business-71.png", "id": "f88a57c653a49d7b3c9ef0f5b3543f9570066a6e", "name": "summit electronics boston recycle computer repair xbox repair playstation repair laptop repair", "opening_hours": {"open_now": true}, "place_id": "ChIJMwHF_ux744kR_wGnT2Glz1k", "plus_code": {"compound_code": "7WRF+GF Boston, Massachusetts, United States", "global_code": "87JC7WRF+GF"}, "rating": 2, "reference": "ChIJMwHF_ux744kR_wGnT2Glz1k", "scope": "GOOGLE", "types": ["point_of_interest", "establishment"], "user_ratings_total": 2, "vicinity": "247 Talbot Avenue, Boston"}, "ChIJn84LTux744kRFrfXGhr-TaA": {"geometry": {"location": {"lat": 42.2917899, "lng": -71.07765839999999}, "viewport": {"northeast": {"lat": 42.29317768029149, "lng": -71.07628786970848}, "southwest": {"lat": 42.2904797197085, "lng": -71.0789858302915}}}, "icon": "https://maps.gstatic.com/mapfiles/place_api/icons/generic_business-71.png", "id": "085f2bddc913dd479d4b37de137e5c255ff11fc0", "name": "Talbot Collision Center", "photos": [{"height": 3264, "html_attributions": ["<a href=\"https://maps.google.com/maps/contrib/104327332768449629505/photos\">Smith Pierre</a>"], "photo_reference": "CmRaAAAAvfvQzmDcmwx-V4VzL0y5ElPslMQ9TudlC4zfwzNbSiZjZbOXzR7B-ocGhIIlpltxlw9q3mRpPF0eo_YWMh7lrMUheGPqUBijCnCJbYqlY-qlSFqiFIgvdJWYaL54KJNxEhAD4_tT9MRdUfXZ09GpMJALGhTyC0XCqmbNClWZAcwzANRmqZpNbQ", "width": 2448}], "place_id": "ChIJn84LTux744kRFrfXGhr-TaA", "plus_code": {"compound_code": "7WRC+PW Boston, Massachusetts, United States", "global_code": "87JC7WRC+PW"}, "rating": 3.1, "reference": "ChIJn84LTux744kRFrfXGhr-TaA", "scope": "GOOGLE", "types": ["car_repair", "point_of_interest", "establishment"], "user_ratings_total": 7, "vicinity": "215 Talbot Avenue, Dorchester Center"}, "ChIJv5Xc-Ox744kR87zkxEKRWCs": {"geometry": {"location": {"lat": 42.2917226, "lng": -71.0763459}, "viewport": {"northeast": {"lat": 42.2929723802915, "lng": -71.0750510197085}, "southwest": {"lat": 42.2902744197085, "lng": -71.0777489802915}}}, "icon": "https://maps.gstatic.com/mapfiles/place_api/icons/shopping-71.png", "id": "be32ca02904fbfe40930fc15c51526ecb70a220d", "name": "Dominican Fruts", "place_id": "ChIJv5Xc-Ox744kR87zkxEKRWCs", "plus_code": {"compound_code": "7WRF+MF Boston, Massachusetts, United States", "global_code": "87JC7WRF+MF"}, "rating": 4, "reference": "ChIJv5Xc-Ox744kR87zkxEKRWCs", "scope": "GOOGLE", "types": ["supermarket", "grocery_or_supermarket", "store", "point_of_interest", "food", "establishment"], "user_ratings_total": 4, "vicinity": "246 Talbot Avenue, Boston"}, "ChIJ4-MjSOx744kR2CXtqROgVD8": {"geometry": {"location": {"lat": 42.291903, "lng": -71.077992}, "viewport": {"northeast": {"lat": 42.2932854302915, "lng": -71.07662501970849}, "southwest": {"lat": 42.2905874697085, "lng": -71.07932298029151}}}, "icon": "https://maps.gstatic.com/mapfiles/place_api/icons/bus-71.png", "id": "ec1b598ce13127bab197c0550f41fb3efb6245a5", "name": "Talbot Ave @ Talbot Station", "place_id": "ChIJ4-MjSOx744kR2CXtqROgVD8", "plus_code": {"compound_code": "7WRC+QR Boston, Massachusetts, United States", "global_code": "87JC7WRC+QR"}, "reference": "ChIJ4-MjSOx744kR2CXtqROgVD8", "scope": "GOOGLE", "types": ["bus_station", "transit_station", "point_of_interest", "establishment"], "vicinity": "United States"}, "ChIJ4-MjSOx744kR42T4WXaZYlw": {"geometry": {"location": {"lat": 42.292015, "lng": -71.077978}, "viewport": {"northeast": {"lat": 42.29335993029149, "lng": -71.07663116970849}, "southwest": {"lat": 42.2906619697085, "lng": -71.0793291302915}}}, "icon": "https://maps.gstatic.com/mapfiles/place_api/icons/bus-71.png", "id": "7bc54b60cf745d53fe5eac66ea022fc4221e809e", "name": "Talbot Ave @ Talbot Station", "place_id": "ChIJ4-MjSOx744kR42T4WXaZYlw", "plus_code": {"compound_code": "7WRC+RR Boston, Massachusetts, United States", "global_code": "87JC7WRC+RR"}, "reference": "ChIJ4-MjSOx744kR42T4WXaZYlw", "scope": "GOOGLE", "types": ["bus_station", "transit_station", "point_of_interest", "establishment"], "vicinity": "United States"}, "ChIJZwa4XGx744kRcC-hFh1ft1E": {"geometry": {"location": {"lat": 42.290734, "lng": -71.07865799999999}, "viewport": {"northeast": {"lat": 42.2920363802915, "lng": -71.07746931970848}, "southwest": {"lat": 42.2893384197085, "lng": -71.0801672802915}}}, "icon": "https://maps.gstatic.com/mapfiles/place_api/icons/generic_business-71.png", "id": "7e13ba173bdb023d6b2e1caac519464a06e4483b", "name": "Don.AdoEma.com", "opening_hours": {"open_now": true}, "photos": [{"height": 3216, "html_attributions": ["<a href=\"https://maps.google.com/maps/contrib/113437139631284752130/photos\">Don.AdoEma.com</a>"], "photo_reference": "CmRaAAAA5NVZBAVActvhM7jLYJJJuDW5FJjPSWAjwk5RH7PjgsvrQ2wDH08c3eHSzbAG965Xgib2t72-KIQvzw-nk9cf355eHzpCq7FCil4DHOXitlWaQCfwdfV2CwhHIhaSKZDpEhDrDIowK7Dz-nka70BnJIZKGhR3VgOenmpFKrT1YWXEHNYgAOnS3w", "width": 4288}], "place_id": "ChIJZwa4XGx744kRcC-hFh1ft1E", "plus_code": {"compound_code": "7WRC+7G Boston, Massachusetts, United States", "global_code": "87JC7WRC+7G"}, "reference": "ChIJZwa4XGx744kRcC-hFh1ft1E", "scope": "GOOGLE", "types": ["point_of_interest", "establishment"], "vicinity": "144 Bernard Street #1, Dorchester"}, "ChIJs4veGkl644kROEK8ix2v_oY": {"geometry": {"location": {"lat": 42.30163049999999, "lng": -71.067605}, "viewport": {"northeast": {"lat": 42.3358969, "lng": -71.0325551}, "southwest": {"lat": 42.267598, "lng": -71.0800369}}}, "icon": "https://maps.gstatic.com/mapfiles/place_api/icons/geocode-71.png", "id": "9e12301fdeebf54c1266b9986602466425a9c326", "name": "Dorchester", "photos": [{"height": 1944, "html_attributions": ["<a href=\"https://maps.google.com/maps/contrib/118366960396286562471/photos\">Michael Laferriere</a>"], "photo_reference": "CmRaAAAADeDr4RbWcEmbZl30g1bQnAeJ4CXL8-sxLKL5yBfJNdsZYnXjqxLGM_T8r6AHGISt-L6qtkElP2sQzEONSRN_FU4XNVdKb3oZSKlG9gV279QNMNe5Bmk0Ufm30etCoGq0EhCyikunZO_QZn7dkcGnTwYxGhSAQQUnV8UgXHwg9BL5tL2QP4D3zg", "width": 2592}], "place_id": "ChIJs4veGkl644kROEK8ix2v_oY", "reference": "ChIJs4veGkl644kROEK8ix2v_oY", "scope": "GOOGLE", "types": ["neighborhood", "political"], "vicinity": "Dorchester Center"}, "ChIJY-Je4-x744kR77nsPBU2Mz4": {"geometry": {"location": {"lat": 42.291485, "lng": -71.07556199999999}, "viewport": {"northeast": {"lat": 42.29273828029149, "lng": -71.07426526970849}, "southwest": {"lat": 42.2900403197085, "lng": -71.07696323029151}}}, "icon": "https://maps.gstatic.com/mapfiles/place_api/icons/generic_business-71.png", "id": "4e0fe6648868393f89a0266b7cca198159905609", "name": "Maritn Automobile Repair", "place_id": "ChIJY-Je4-x744kR77nsPBU2Mz4", "plus_code": {"compound_code": "7WRF+HQ Boston, Massachusetts, United States", "global_code": "87JC7WRF+HQ"}, "reference": "ChIJY-Je4-x744kR77nsPBU2Mz4", "scope": "GOOGLE", "types": ["car_repair", "point_of_interest", "establishment"], "vicinity": "270 Talbot Avenue, Dorchester Center"}, "ChIJb4aL5Ox744kReyhRuDCrkNc": {"geometry": {"location": {"lat": 42.291485, "lng": -71.07556199999999}, "viewport": {"northeast": {"lat": 42.29273828029149, "lng": -71.07426526970849}, "southwest": {"lat": 42.2900403197085, "lng": -71.07696323029151}}}, "icon": "https://maps.gstatic.com/mapfiles/place_api/icons/generic_business-71.png", "id": "a5c0aa35658e8443404c065b7426063f1896243a", "name": "M R T Auto Body & Repair", "place_id": "ChIJb4aL5Ox744kReyhRuDCrkNc", "plus_code": {"compound_code": "7WRF+HQ Boston, Massachusetts, United States", "global_code": "87JC7WRF+HQ"}, "reference": "ChIJb4aL5Ox744kReyhRuDCrkNc", "scope": "GOOGLE", "types": ["car_repair", "point_of_interest", "establishment"], "vicinity": "270 Talbot Avenue, Dorchester Center"}, "ChIJb4aL5Ox744kRD1ZQw6Nvo_w": {"geometry": {"location": {"lat": 42.291485, "lng": -71.07556199999999}, "viewport": {"northeast": {"lat": 42.29273828029149, "lng": -71.07426526970849}, "southwest": {"lat": 42.2900403197085, "lng": -71.07696323029151}}}, "icon": "https://maps.gstatic.com/mapfiles/place_api/icons/generic_business-71.png", "id": "e33f1d520b1288c90ab615475aaefdd812445c74", "name": "Roper's Auto Repair", "place_id": "ChIJb4aL5Ox744kRD1ZQw6Nvo_w", "plus_code": {"compound_code": "7WRF+HQ Boston, Massachusetts, United States", "global_code": "87JC7WRF+HQ"}, "rating": 1.5, "reference": "ChIJb4aL5Ox744kRD1ZQw6Nvo_w", "scope": "GOOGLE", "types": ["car_repair", "point_of_interest", "establishment"], "user_ratings_total": 2, "vicinity": "270 Talbot Avenue, Dorchester Center"}, "ChIJE074Q-x744kR1teOjhqIfdI": {"geometry": {"location": {"lat": 42.292344, "lng": -71.077595}, "viewport": {"northeast": {"lat": 42.2937151802915, "lng": -71.0761357697085}, "southwest": {"lat": 42.29101721970851, "lng": -71.0788337302915}}}, "icon": "https://maps.gstatic.com/mapfiles/place_api/icons/school-71.png", "id": "39985c8094c9be2b2fca8d9415154acb7ad91492", "name": "Vilmas Friendly Childcare", "place_id": "ChIJE074Q-x744kR1teOjhqIfdI", "plus_code": {"compound_code": "7WRC+WX Boston, Massachusetts, United States", "global_code": "87JC7WRC+WX"}, "reference": "ChIJE074Q-x744kR1teOjhqIfdI", "scope": "GOOGLE", "types": ["point_of_interest", "establishment"], "vicinity": "293 Norwell Street, Dorchester Center"}, "ChIJl1uCL-x744kRcUmnKsb77eA": {"geometry": {"location": {"lat": 42.2918187, "lng": -71.0786765}, "viewport": {"northeast": {"lat": 42.2933244802915, "lng": -71.0772428197085}, "southwest": {"lat": 42.2906265197085, "lng": -71.07994078029151}}}, "icon": "https://maps.gstatic.com/mapfiles/place_api/icons/generic_business-71.png", "id": "43370321a8ce6316367e1eccaa27f4df63c88b52", "name": "Bernard Talbot Apartments", "place_id": "ChIJl1uCL-x744kRcUmnKsb77eA", "plus_code": {"compound_code": "7WRC+PG Boston, Massachusetts, United States", "global_code": "87JC7WRC+PG"}, "reference": "ChIJl1uCL-x744kRcUmnKsb77eA", "scope": "GOOGLE", "types": ["point_of_interest", "establishment"], "vicinity": "193 Talbot Avenue, Dorchester Center"}, "ChIJBXoO4ex744kR8bfEHq8ZLss": {"geometry": {"location": {"lat": 42.291229, "lng": -71.075287}, "viewport": {"northeast": {"lat": 42.2925666302915, "lng": -71.07394386970849}, "southwest": {"lat": 42.2898686697085, "lng": -71.0766418302915}}}, "icon": "https://maps.gstatic.com/mapfiles/place_api/icons/bus-71.png", "id": "a4863226b1c3fe883b66f588190be586cc7e2d91", "name": "Talbot Ave @ Spencer St", "place_id": "ChIJBXoO4ex744kR8bfEHq8ZLss", "plus_code": {"compound_code": "7WRF+FV Boston, Massachusetts, United States", "global_code": "87JC7WRF+FV"}, "rating": 5, "reference": "ChIJBXoO4ex744kR8bfEHq8ZLss", "scope": "GOOGLE", "types": ["bus_station", "transit_station", "point_of_interest", "establishment"], "user_ratings_total": 2, "vicinity": "United States"}, "ChIJwftS7-1744kRuuOJzCj5u_o": {"geometry": {"location": {"lat": 42.29024179999999, "lng": -71.078608}, "viewport": {"northeast": {"lat": 42.29156993029149, "lng": -71.0773267697085}, "southwest": {"lat": 42.2888719697085, "lng": -71.08002473029151}}}, "icon": "https://maps.gstatic.com/mapfiles/place_api/icons/generic_business-71.png", "id": "3c65aabbf6c921b4f394d118a8a9db238f97d380", "name": "Debra Moses Ministries", "place_id": "ChIJwftS7-1744kRuuOJzCj5u_o", "plus_code": {"compound_code": "7WRC+3H Boston, Massachusetts, United States", "global_code": "87JC7WRC+3H"}, "reference": "ChIJwftS7-1744kRuuOJzCj5u_o", "scope": "GOOGLE", "types": ["point_of_interest", "establishment"], "vicinity": "152 Bernard Street, Dorchester Center"}, "ChIJ6Xyy6O1744kRyJTmo1-kNU8": {"geometry": {"location": {"lat": 42.2901558, "lng": -71.0786983}, "viewport": {"northeast": {"lat": 42.2915115802915, "lng": -71.07732731970849}, "southwest": {"lat": 42.2888136197085, "lng": -71.0800252802915}}}, "icon": "https://maps.gstatic.com/mapfiles/place_api/icons/generic_business-71.png", "id": "e72c13b13641c5e51ba20f673c1f5df17978a7a8", "name": "Boston FFS Insurance Services", "opening_hours": {"open_now": true}, "place_id": "ChIJ6Xyy6O1744kRyJTmo1-kNU8", "plus_code": {"compound_code": "7WRC+3G Boston, Massachusetts, United States", "global_code": "87JC7WRC+3G"}, "reference": "ChIJ6Xyy6O1744kRyJTmo1-kNU8", "scope": "GOOGLE", "types": ["insurance_agency", "point_of_interest", "establishment"], "vicinity": "144 Bernard Street #1, Boston"}, "ChIJNd-qjux744kRy9moM9L60hk": {"geometry": {"location": {"lat": 42.29271290000001, "lng": -71.076101}, "viewport": {"northeast": {"lat": 42.2940408302915, "lng": -71.07479411970849}, "southwest": {"lat": 42.2913428697085, "lng": -71.0774920802915}}}, "icon": "https://maps.gstatic.com/mapfiles/place_api/icons/generic_recreational-71.png", "id": "dcbbd348f3445f7e37560736df00842429cb38ba", "name": "Wheatland Avenue Community Garden", "place_id": "ChIJNd-qjux744kRy9moM9L60hk", "reference": "ChIJNd-qjux744kRy9moM9L60hk", "scope": "GOOGLE", "types": ["park", "premise", "point_of_interest", "establishment"], "vicinity": "Boston"}, "ChIJQxCvkYN744kR3pwNABXCsyQ": {"geometry": {"location": {"lat": 42.29077909999999, "lng": -71.0759849}, "viewport": {"northeast": {"lat": 42.2921280802915, "lng": -71.0746359197085}, "southwest": {"lat": 42.2894301197085, "lng": -71.0773338802915}}}, "icon": "https://maps.gstatic.com/mapfiles/place_api/icons/generic_business-71.png", "id": "fcdf7482c95fe5205cef7669e13a00fd36230a05", "name": "Trambler Himbis", "place_id": "ChIJQxCvkYN744kR3pwNABXCsyQ", "plus_code": {"compound_code": "7WRF+8J Boston, Massachusetts, United States", "global_code": "87JC7WRF+8J"}, "reference": "ChIJQxCvkYN744kR3pwNABXCsyQ", "scope": "GOOGLE", "types": ["general_contractor", "point_of_interest", "establishment"], "vicinity": "153 Millet Street #257, Boston"}}