{"ChIJGzE9DS1l44kRoOhiASS_fHg": {"geometry": {"location": {"lat": 42.3600825, "lng": -71.0588801}, "viewport": {"northeast": {"lat": 42.40081989999999, "lng": -70.749455}, "southwest": {"lat": 42.22788, "lng": -71.191113}}}, "icon": "https://maps.gstatic.com/mapfiles/place_api/icons/geocode-71.png", "id": "06755c25d2b34d13942a4713971756a55b870ced", "name": "Boston", "photos": [{"height": 3024, "html_attributions": ["<a href=\"https://maps.google.com/maps/contrib/104670289779338733432/photos\">Natalia Zalucean</a>"], "photo_reference": "CmRaAAAAolpnyEasZm_l-0fUEuIvXv_qfIPhGSns3tsNVwqxGLojSq_byI_qvgtYHOXa72DU8AfVM8pGKo1oAEPwKYzfs-j6pEo7bqyAZBXAuZMgUsoxuZGbBgZ8md1c3kSIl8oGEhCPBMC26J_8mjKssYHSUVFkGhRvLqMeM07a8PckyywFiSkf1oANlg", "width": 4032}], "place_id": "ChIJGzE9DS1l44kRoOhiASS_fHg", "reference": "ChIJGzE9DS1l44kRoOhiASS_fHg", "scope": "GOOGLE", "types": ["locality", "political"], "vicinity": "Boston"}, "ChIJ7Rz53utw44kRO0J7JNiyGlk": {"geometry": {"location": {"lat": 42.37790629999999, "lng": -71.069249}, "viewport": {"northeast": {"lat": 42.37921053029149, "lng": -71.0678477197085}, "southwest": {"lat": 42.3765125697085, "lng": -71.07054568029152}}}, "icon": "https://maps.gstatic.com/mapfiles/place_api/icons/generic_business-71.png", "id": "8dd188da397a2d654e48cc4c21b58de9d18b5831", "name": "Jacks Webs", "opening_hours": {"open_now": true}, "place_id": "ChIJ7Rz53utw44kRO0J7JNiyGlk", "plus_code": {"compound_code": "9WHJ+58 Boston, Massachusetts, United States", "global_code": "87JC9WHJ+58"}, "reference": "ChIJ7Rz53utw44kRO0J7JNiyGlk", "scope": "GOOGLE", "types": ["point_of_interest", "establishment"], "vicinity": "41 Tibbetts Town Way, Boston"}, "ChIJny9Vfulw44kRrzdw8KVgzAE": {"geometry": {"location": {"lat": 42.3782461, "lng": -71.0704892}, "viewport": {"northeast": {"lat": 42.3796281302915, "lng": -71.06908061970849}, "southwest": {"lat": 42.3769301697085, "lng": -71.07177858029151}}}, "icon": "https://maps.gstatic.com/mapfiles/place_api/icons/generic_business-71.png", "id": "1223b940bc5ab3b7d9c15b31cc408f9340b058ef", "name": "Raymond W Couture", "place_id": "ChIJny9Vfulw44kRrzdw8KVgzAE", "plus_code": {"compound_code": "9WHH+7R Boston, Massachusetts, United States", "global_code": "87JC9WHH+7R"}, "reference": "ChIJny9Vfulw44kRrzdw8KVgzAE", "scope": "GOOGLE", "types": ["point_of_interest", "establishment"], "vicinity": "410 Rutherford Avenue, Charlestown"}, "ChIJOZBUfulw44kRA9HUiw0bwHg": {"geometry": {"location": {"lat": 42.3782461, "lng": -71.0704892}, "viewport": {"northeast": {"lat": 42.3796281302915, "lng": -71.06908061970849}, "southwest": {"lat": 42.3769301697085, "lng": -71.07177858029151}}}, "icon": "https://maps.gstatic.com/mapfiles/place_api/icons/generic_business-71.png", "id": "ceaaa4d522e4239fc207c71684349e481cde73b6", "name": "Roger Ide", "place_id": "ChIJOZBUfulw44kRA9HUiw0bwHg", "plus_code": {"compound_code": "9WHH+7R Boston, Massachusetts, United States", "global_code": "87JC9WHH+7R"}, "reference": "ChIJOZBUfulw44kRA9HUiw0bwHg", "scope": "GOOGLE", "types": ["point_of_interest", "establishment"], "vicinity": "402 Rutherford Avenue, Charlestown"}, "ChIJRzSezOtw44kRxdx-gLrgRUg": {"geometry": {"location": {"lat": 42.37727659999999, "lng": -71.0704708}, "viewport": {"northeast": {"lat": 42.3786255802915, "lng": -71.06912181970849}, "southwest": {"lat": 42.3759276197085, "lng": -71.07181978029149}}}, "icon": "https://maps.gstatic.com/mapfiles/place_api/icons/school-71.png", "id": "512167b65a2832091e40cba74535159835db1209", "name": "Fenway Middle College", "place_id": "ChIJRzSezOtw44kRxdx-gLrgRUg", "plus_code": {"compound_code": "9WGH+WR Boston, Massachusetts, United States", "global_code": "87JC9WGH+WR"}, "reference": "ChIJRzSezOtw44kRxdx-gLrgRUg", "scope": "GOOGLE", "types": ["school", "university", "point_of_interest", "establishment"], "vicinity": "Boston"}, "ChIJhSeRX-lw44kR0_YuNFHOl4Q": {"geometry": {"location": {"lat": 42.37803099999999, "lng": -71.06907149999999}, "viewport": {"northeast": {"lat": 42.37933678029149, "lng": -71.0676642197085}, "southwest": {"lat": 42.37663881970849, "lng": -71.07036218029151}}}, "icon": "https://maps.gstatic.com/mapfiles/place_api/icons/generic_business-71.png", "id": "0e8f59466af66912481fdc4762e9e61929e112d3", "name": "Shear Delight", "place_id": "ChIJhSeRX-lw44kR0_YuNFHOl4Q", "plus_code": {"compound_code": "9WHJ+69 Boston, Massachusetts, United States", "global_code": "87JC9WHJ+69"}, "rating": 4, "reference": "ChIJhSeRX-lw44kR0_YuNFHOl4Q", "scope": "GOOGLE", "types": ["beauty_salon", "point_of_interest", "establishment"], "user_ratings_total": 2, "vicinity": "31 Tibbetts Town Way, Charlestown"}, "ChIJpVnx1etw44kRFZdimJ2S6j8": {"geometry": {"location": {"lat": 42.37814059999999, "lng": -71.0722941}, "viewport": {"northeast": {"lat": 42.3797604302915, "lng": -71.06979855}, "southwest": {"lat": 42.3770624697085, "lng": -71.07312594999999}}}, "icon": "https://maps.gstatic.com/mapfiles/place_api/icons/generic_business-71.png", "id": "06d3decb473d85cc71cc712b99f383bf39c49458", "name": "Liberty Bell Wholesale Grocery", "place_id": "ChIJpVnx1etw44kRFZdimJ2S6j8", "plus_code": {"compound_code": "9WHH+73 Boston, Massachusetts, United States", "global_code": "87JC9WHH+73"}, "reference": "ChIJpVnx1etw44kRFZdimJ2S6j8", "scope": "GOOGLE", "types": ["point_of_interest", "food", "establishment"], "vicinity": "400 Rutherford Avenue, Charlestown"}, "ChIJVfIKyutw44kRunD93de8Un8": {"geometry": {"location": {"lat": 42.376607, "lng": -71.0704834}, "viewport": {"northeast": {"lat": 42.3779983302915, "lng": -71.0693404697085}, "southwest": {"lat": 42.3753003697085, "lng": -71.0720384302915}}}, "icon": "https://maps.gstatic.com/mapfiles/place_api/icons/generic_business-71.png", "id": "c2130a5a0ed38908f83ca446a3cbd2a826964290", "name": "Lot 5", "place_id": "ChIJVfIKyutw44kRunD93de8Un8", "reference": "ChIJVfIKyutw44kRunD93de8Un8", "scope": "GOOGLE", "types": ["premise", "parking", "point_of_interest", "establishment"], "vicinity": "Boston"}, "ChIJGwVKWe5w44kRcr4b9E25-Go": {"geometry": {"location": {"lat": 42.3782065, "lng": -71.0602131}, "viewport": {"northeast": {"lat": 42.3897705, "lng": -71.04429809999999}, "southwest": {"lat": 42.3688756, "lng": -71.0734062}}}, "icon": "https://maps.gstatic.com/mapfiles/place_api/icons/geocode-71.png", "id": "aee8a281af2c986490fb56a44a229b45f48ac164", "name": "Charlestown", "photos": [{"height": 2000, "html_attributions": ["<a href=\"https://maps.google.com/maps/contrib/115519834423791060860/photos\">Luca Raggi</a>"], "photo_reference": "CmRaAAAAc0oM6XHB2xznOXiAf6zFE5Nu1oDhv8ASIMQ92ats92gbWNt_dtp3XzNfA8Yq3WprloURBb_RUwN6_xA4WiHOb6APHKfWMjMTAPIUuR9X_e7JFwmtXikrpYKjVuXK9ZVWEhBNgnSW6eoX92lFoCULJVmCGhRwBWIEoVljKQjpfmUuI_Hf_-fIyw", "width": 3008}], "place_id": "ChIJGwVKWe5w44kRcr4b9E25-Go", "reference": "ChIJGwVKWe5w44kRcr4b9E25-Go", "scope": "GOOGLE", "types": ["neighborhood", "political"], "vicinity": "Boston"}}