{"ChIJpSUHhAmC44kRfq9wm3sIklU": {"geometry": {"location": {"lat": 42.3370413, "lng": -71.20922139999999}, "viewport": {"northeast": {"lat": 42.3679719, "lng": -71.1569968}, "southwest": {"lat": 42.2827739, "lng": -71.270359}}}, "icon": "https://maps.gstatic.com/mapfiles/place_api/icons/geocode-71.png", "id": "d74f935d4736f725e4eba20abe314f6094a27c4a", "name": "Newton", "photos": [{"height": 1536, "html_attributions": ["<a href=\"https://maps.google.com/maps/contrib/103956073675495355808/photos\">Fumiaki Imamura</a>"], "photo_reference": "CmRZAAAA3IUdQLlTHqgc0HTT-X4Lkq1PA_QUEBe2A1gItyWoXrd5VX5guDAeDIP1cmQoflb4l_JQfHqxAMWKXEi-gGya-x-P1YlfBMcaF03NoZXU5S-NQCqfKwkCnIM665KyktBpEhDeerY-Me96KoLW3IkYXrhhGhQlfwmOjUnyQZltIXaiBoMWg5GUQw", "width": 2048}], "place_id": "ChIJpSUHhAmC44kRfq9wm3sIklU", "reference": "ChIJpSUHhAmC44kRfq9wm3sIklU", "scope": "GOOGLE", "types": ["locality", "political"], "vicinity": "Newton"}, "ChIJG-GPc6F444kR4y2DEjOD-d0": {"geometry": {"location": {"lat": 42.3146454, "lng": -71.18766839999999}, "viewport": {"northeast": {"lat": 42.31595893029149, "lng": -71.1863368697085}, "southwest": {"lat": 42.31326096970849, "lng": -71.1890348302915}}}, "icon": "https://maps.gstatic.com/mapfiles/place_api/icons/generic_business-71.png", "id": "3f32635590aca17bcc2aafef8891bde12da605a1", "name": "Newton Public School Custodian", "opening_hours": {"open_now": true}, "place_id": "ChIJG-GPc6F444kR4y2DEjOD-d0", "plus_code": {"compound_code": "8R76+VW Newton, Massachusetts, United States", "global_code": "87JC8R76+VW"}, "reference": "ChIJG-GPc6F444kR4y2DEjOD-d0", "scope": "GOOGLE", "types": ["point_of_interest", "establishment"], "vicinity": "140 Brandeis Road, Newton"}, "ChIJ6R6cc6F444kR6bzOdW7vdrc": {"geometry": {"location": {"lat": 42.3145829, "lng": -71.1877209}, "viewport": {"northeast": {"lat": 42.3159581802915, "lng": -71.1863589697085}, "southwest": {"lat": 42.3132602197085, "lng": -71.1890569302915}}}, "icon": "https://maps.gstatic.com/mapfiles/place_api/icons/school-71.png", "id": "35a2399ad8e975dcb7fd4ca27ee1c327c0714b5f", "name": "The China Exchange Initiative", "place_id": "ChIJ6R6cc6F444kR6bzOdW7vdrc", "plus_code": {"compound_code": "8R76+RW Newton, Massachusetts, United States", "global_code": "87JC8R76+RW"}, "rating": 5, "reference": "ChIJ6R6cc6F444kR6bzOdW7vdrc", "scope": "GOOGLE", "types": ["school", "point_of_interest", "establishment"], "user_ratings_total": 1, "vicinity": "140 Brandeis Road, Newton"}, "ChIJ6R6cc6F444kRanjcTnhJTWo": {"geometry": {"location": {"lat": 42.3145829, "lng": -71.1877209}, "viewport": {"northeast": {"lat": 42.3159581802915, "lng": -71.1863589697085}, "southwest": {"lat": 42.3132602197085, "lng": -71.1890569302915}}}, "icon": "https://maps.gstatic.com/mapfiles/place_api/icons/generic_business-71.png", "id": "52facd9405b1e691ffb7292099940caa86782996", "name": "South Stage", "place_id": "ChIJ6R6cc6F444kRanjcTnhJTWo", "plus_code": {"compound_code": "8R76+RW Newton, Massachusetts, United States", "global_code": "87JC8R76+RW"}, "rating": 5, "reference": "ChIJ6R6cc6F444kRanjcTnhJTWo", "scope": "GOOGLE", "types": ["point_of_interest", "establishment"], "user_ratings_total": 1, "vicinity": "140 Brandeis Road, Newton"}, "ChIJKUd8n36C44kRIKlOBBZ8xBQ": {"geometry": {"location": {"lat": 42.3300503, "lng": -71.1948255}, "viewport": {"northeast": {"lat": 42.344237, "lng": -71.1778798}, "southwest": {"lat": 42.3105097, "lng": -71.2183319}}}, "icon": "https://maps.gstatic.com/mapfiles/place_api/icons/geocode-71.png", "id": "bba2a101184a0ad7977628a37d337fa216bf0a04", "name": "Newton Centre", "photos": [{"height": 2340, "html_attributions": ["<a href=\"https://maps.google.com/maps/contrib/107616254629505716161/photos\">Alexander Rivman</a>"], "photo_reference": "CmRaAAAAsE9iTwxcf4E-ujp0VDE6nqMLIlT-W1mSzoVY_jnTzMCofoZUuiNR4Ur8NJGzWBY-qCa_KS6F6_4Sa22buUFBOyAxHpYYCxdmJc4bz1G_BXzRkjYmAfMnfLTcXyCJhDgiEhDmkxfBEdukTXDsCZi1mc7yGhSExMLVyrPR2nAee1kBi85wUl3vSA", "width": 4160}], "place_id": "ChIJKUd8n36C44kRIKlOBBZ8xBQ", "reference": "ChIJKUd8n36C44kRIKlOBBZ8xBQ", "scope": "GOOGLE", "types": ["neighborhood", "political"], "vicinity": "Newton"}}