{"ChIJGzE9DS1l44kRoOhiASS_fHg": {"geometry": {"location": {"lat": 42.3600825, "lng": -71.0588801}, "viewport": {"northeast": {"lat": 42.40081989999999, "lng": -70.749455}, "southwest": {"lat": 42.22788, "lng": -71.191113}}}, "icon": "https://maps.gstatic.com/mapfiles/place_api/icons/geocode-71.png", "id": "06755c25d2b34d13942a4713971756a55b870ced", "name": "Boston", "photos": [{"height": 3024, "html_attributions": ["<a href=\"https://maps.google.com/maps/contrib/104670289779338733432/photos\">Natalia Zalucean</a>"], "photo_reference": "CmRaAAAAxgX-121QHkd_ItQozWWJ2pekwaux79DKM0yqCrv9Rsh8PPzp_isTcWTJu67aFy51-VtE1BhoBVsaR2Lwp8yHR3KhTtI-vCEQX1sSEfpNZS53Kbr-VNyCyMtg9LmCcE_eEhBZMU5plh89PWKBzNN6jA-_GhRhsATNuC45cAC6H6CN1gqdGrk5DA", "width": 4032}], "place_id": "ChIJGzE9DS1l44kRoOhiASS_fHg", "reference": "ChIJGzE9DS1l44kRoOhiASS_fHg", "scope": "GOOGLE", "types": ["locality", "political"], "vicinity": "Boston"}, "ChIJX_eMaEdw44kRwoCPzF3Gjos": {"geometry": {"location": {"lat": 42.3720632, "lng": -71.0268299}, "viewport": {"northeast": {"lat": 42.3732997802915, "lng": -71.02567711970849}, "southwest": {"lat": 42.3706018197085, "lng": -71.0283750802915}}}, "icon": "https://maps.gstatic.com/mapfiles/place_api/icons/generic_business-71.png", "id": "6fb61495998629ba5abff4411572185f8b14ed08", "name": "UPS Customer Service", "opening_hours": {"open_now": true}, "photos": [{"height": 4032, "html_attributions": ["<a href=\"https://maps.google.com/maps/contrib/110533574789486714100/photos\">Bryan Xiao</a>"], "photo_reference": "CmRaAAAAuk1kFyinCNtGxx2BNCmx0Js3O56WmsrGqsnkBG2yGYbcXXC0gVc0OHl25tt0WsDkw2KRXJ45ab4kHrfs1gilKM2LibONgWFFSXDGa5neg5_FJtbKTeFuyCEkLPCtKznWEhBieTnBEnQ5R5MkI3geZfp9GhSTbElr5bEtKu3S63dQR-lyUdMd9Q", "width": 3024}], "place_id": "ChIJX_eMaEdw44kRwoCPzF3Gjos", "plus_code": {"compound_code": "9XCF+R7 Boston, Massachusetts, United States", "global_code": "87JC9XCF+R7"}, "rating": 3.3, "reference": "ChIJX_eMaEdw44kRwoCPzF3Gjos", "scope": "GOOGLE", "types": ["point_of_interest", "establishment"], "user_ratings_total": 9, "vicinity": "10 Service Road, Boston"}, "ChIJuVsXUj9w44kRxB0r1OlWyV4": {"geometry": {"location": {"lat": 42.3710587, "lng": -71.025262}, "viewport": {"northeast": {"lat": 42.37219848029149, "lng": -71.02418126970849}, "southwest": {"lat": 42.3695005197085, "lng": -71.0268792302915}}}, "icon": "https://maps.gstatic.com/mapfiles/place_api/icons/civic_building-71.png", "id": "2a340060f3185f63830606e5c8668275dae16416", "name": "US General Services Administration", "place_id": "ChIJuVsXUj9w44kRxB0r1OlWyV4", "plus_code": {"compound_code": "9XCF+CV Boston, Massachusetts, United States", "global_code": "87JC9XCF+CV"}, "reference": "ChIJuVsXUj9w44kRxB0r1OlWyV4", "scope": "GOOGLE", "types": ["point_of_interest", "establishment"], "vicinity": "21 Service Road, East Boston"}, "ChIJ31VGaUdw44kRzMpZdcaWSYM": {"geometry": {"location": {"lat": 42.37217589999999, "lng": -71.02703910000001}, "viewport": {"northeast": {"lat": 42.3734287302915, "lng": -71.02585791970849}, "southwest": {"lat": 42.3707307697085, "lng": -71.0285558802915}}}, "icon": "https://maps.gstatic.com/mapfiles/place_api/icons/generic_business-71.png", "id": "d845822f2eda1a94fca093c665cb1fd765d7120c", "name": "UPS LOGISTICS", "place_id": "ChIJ31VGaUdw44kRzMpZdcaWSYM", "plus_code": {"compound_code": "9XCF+V5 Boston, Massachusetts, United States", "global_code": "87JC9XCF+V5"}, "reference": "ChIJ31VGaUdw44kRzMpZdcaWSYM", "scope": "GOOGLE", "types": ["point_of_interest", "establishment"], "vicinity": "94 Service Road, Boston"}, "ChIJfWKzVT9w44kRopYxbioBIjI": {"geometry": {"location": {"lat": 42.370212, "lng": -71.025592}, "viewport": {"northeast": {"lat": 42.37155828029149, "lng": -71.02422386970849}, "southwest": {"lat": 42.36886031970849, "lng": -71.02692183029151}}}, "icon": "https://maps.gstatic.com/mapfiles/place_api/icons/generic_business-71.png", "id": "2f57622f0a54eb0522b7167965fc11162f147f2c", "name": "Cell Phone Lot", "photos": [{"height": 2448, "html_attributions": ["<a href=\"https://maps.google.com/maps/contrib/111422728611093350148/photos\">Alvin Lu</a>"], "photo_reference": "CmRaAAAAbHZq_R7dGZUmShL8pvZ-hE5V25cxo5Y054-gndz6THyKHkzC8bMqX2-DjXYv6vldI0unczjVFAUeB5ZLf20TVAp2PV-VaF1Rsb5XGfLwLRvSm3K47i7cU9X_kq3tVRpgEhBDyNvWRD0Ps95FrIYK_QXYGhSMYfO427lOCW9Cjpu1rW--kDF6Gg", "width": 3264}], "place_id": "ChIJfWKzVT9w44kRopYxbioBIjI", "reference": "ChIJfWKzVT9w44kRopYxbioBIjI", "scope": "GOOGLE", "types": ["premise", "parking", "point_of_interest", "establishment"], "vicinity": "Boston"}, "ChIJw8RbIFtw44kR5riss54MeeI": {"geometry": {"location": {"lat": 42.37021370000001, "lng": -71.0388601}, "viewport": {"northeast": {"lat": 42.3987239, "lng": -70.9865939}, "southwest": {"lat": 42.347397, "lng": -71.045895}}}, "icon": "https://maps.gstatic.com/mapfiles/place_api/icons/geocode-71.png", "id": "1555c7295ebc731502b9d96f86583f84b299bb98", "name": "East Boston", "photos": [{"height": 4000, "html_attributions": ["<a href=\"https://maps.google.com/maps/contrib/105981093830108277006/photos\">Leo Fu</a>"], "photo_reference": "CmRaAAAAODLsQU3GsophK_P4YMiCyvf_w-n3SMvzq0wzmBk__E5JqoIjTIxS79JPSmM_l6OxOr6qG5ScWKf2OtK4gWjBP4mSHvF1F1SqH_UWggmOfRlnHaZuPZgXnyu7R-v5abDtEhC_fJpCiuMaWrc4eD31iT3SGhQ42UhiyY-mOGHE7OQU7_RXKEXu-w", "width": 6000}], "place_id": "ChIJw8RbIFtw44kR5riss54MeeI", "reference": "ChIJw8RbIFtw44kR5riss54MeeI", "scope": "GOOGLE", "types": ["neighborhood", "political"], "vicinity": "Boston"}}