{"ChIJGzE9DS1l44kRoOhiASS_fHg": {"geometry": {"location": {"lat": 42.3600825, "lng": -71.0588801}, "viewport": {"northeast": {"lat": 42.40081989999999, "lng": -70.749455}, "southwest": {"lat": 42.22788, "lng": -71.191113}}}, "icon": "https://maps.gstatic.com/mapfiles/place_api/icons/geocode-71.png", "id": "06755c25d2b34d13942a4713971756a55b870ced", "name": "Boston", "photos": [{"height": 3024, "html_attributions": ["<a href=\"https://maps.google.com/maps/contrib/104670289779338733432/photos\">Natalia Zalucean</a>"], "photo_reference": "CmRaAAAA2n9KALPrESuLazAkVcYgn3z_5SoTL_Djq_Q56l5JLIJ9nyk_Fyv4hrffomTL7ggUu9p1BlfSqovjGMynqwzYCthal0PXlYngytS0MQcF5o-pYjAM4aHbKznt-UdGbdUsEhC3kZ4ewJjwcc_VVjNpVQ3AGhT1X8GKrznrLyS3ukoMq9K1b_0N0Q", "width": 4032}], "place_id": "ChIJGzE9DS1l44kRoOhiASS_fHg", "reference": "ChIJGzE9DS1l44kRoOhiASS_fHg", "scope": "GOOGLE", "types": ["locality", "political"], "vicinity": "Boston"}, "ChIJi3nQBV9644kRZDD8khalG-I": {"geometry": {"location": {"lat": 42.3305692, "lng": -71.0517978}, "viewport": {"northeast": {"lat": 42.3318610802915, "lng": -71.0505146197085}, "southwest": {"lat": 42.3291631197085, "lng": -71.0532125802915}}}, "icon": "https://maps.gstatic.com/mapfiles/place_api/icons/generic_business-71.png", "id": "9e10637d7c09dceedaef62a30a783c0a6150f013", "name": "The Anne M. Lynch Homes at Old Colony", "opening_hours": {"open_now": true}, "photos": [{"height": 700, "html_attributions": ["<a href=\"https://maps.google.com/maps/contrib/118340096808034858720/photos\">The Anne M. Lynch Homes at Old Colony</a>"], "photo_reference": "CmRaAAAAIm3m2Cr3pFzF0eju-LYFAK64JNyYttWq7r07sgucduLaPsnNNsfbO-dLmOSQkTkxni_yHc9khhHb8C6f1GqIb72Ysa9Q6nc8PywOPO_9zer5p4m50YOgyMOK64859oGlEhDnZ4Qx7-X1-IotjBQyCxejGhRRcjHmkmvA-2bxsU_BFTohdUM5SQ", "width": 1240}], "place_id": "ChIJi3nQBV9644kRZDD8khalG-I", "plus_code": {"compound_code": "8WJX+67 Boston, Massachusetts, United States", "global_code": "87JC8WJX+67"}, "rating": 5, "reference": "ChIJi3nQBV9644kRZDD8khalG-I", "scope": "GOOGLE", "types": ["point_of_interest", "establishment"], "user_ratings_total": 3, "vicinity": "25 James O'Neil Street, Boston"}, "ChIJRYMj019644kRzPlQVAlGf78": {"geometry": {"location": {"lat": 42.3320002, "lng": -71.0527275}, "viewport": {"northeast": {"lat": 42.33331508029149, "lng": -71.05134191970849}, "southwest": {"lat": 42.33061711970849, "lng": -71.05403988029151}}}, "icon": "https://maps.gstatic.com/mapfiles/place_api/icons/bar-71.png", "id": "dd9637901c8ffbad84f10dde702ce61eae9e4f3f", "name": "Telegraph Hill", "opening_hours": {"open_now": true}, "photos": [{"height": 3024, "html_attributions": ["<a href=\"https://maps.google.com/maps/contrib/104578247846188377346/photos\">Eliott Wiener</a>"], "photo_reference": "CmRaAAAAPEFwrOW-gFAzt1b9JugzhH0E2N7GvBHjUJ-GRbyd3DvYBaWtA0BNQMPWziYh3nkiozkYgvNTaJw1WQGNrrtbOHaexuKu3pcdUJzwbhGdUDZFEfLfWANEflxqyLH1PtZhEhD9Qg2q1wJkw4phCF8nA3fBGhQPURNOy6yJ0P077SNq9k1BSFNYsA", "width": 4032}], "place_id": "ChIJRYMj019644kRzPlQVAlGf78", "plus_code": {"compound_code": "8WJW+RW Boston, Massachusetts, United States", "global_code": "87JC8WJW+RW"}, "price_level": 2, "rating": 4.2, "reference": "ChIJRYMj019644kRzPlQVAlGf78", "scope": "GOOGLE", "types": ["bar", "restaurant", "point_of_interest", "food", "establishment"], "user_ratings_total": 127, "vicinity": "289 Dorchester Street, Boston"}, "ChIJkVZr3Ft644kRCHeNbYVxs3k": {"geometry": {"location": {"lat": 42.3320623, "lng": -71.0513356}, "viewport": {"northeast": {"lat": 42.33345458029149, "lng": -71.0499386697085}, "southwest": {"lat": 42.3307566197085, "lng": -71.05263663029152}}}, "icon": "https://maps.gstatic.com/mapfiles/place_api/icons/civic_building-71.png", "id": "59f99d12bd9221200c455a3639b3495bee7f9596", "name": "Boston Housing Authority", "place_id": "ChIJkVZr3Ft644kRCHeNbYVxs3k", "plus_code": {"compound_code": "8WJX+RF Boston, Massachusetts, United States", "global_code": "87JC8WJX+RF"}, "reference": "ChIJkVZr3Ft644kRCHeNbYVxs3k", "scope": "GOOGLE", "types": ["local_government_office", "point_of_interest", "establishment"], "vicinity": "265 East 9th Street, Boston"}, "ChIJTfGf7V9644kR6UXnR8Bgu9I": {"geometry": {"location": {"lat": 42.3312963, "lng": -71.0505661}, "viewport": {"northeast": {"lat": 42.3325427802915, "lng": -71.04933326970848}, "southwest": {"lat": 42.3298448197085, "lng": -71.05203123029149}}}, "icon": "https://maps.gstatic.com/mapfiles/place_api/icons/school-71.png", "id": "5f2e324e86c4600f7d80ed57fbb6fc649b08b4a5", "name": "Michael J Perkins School", "photos": [{"height": 3264, "html_attributions": ["<a href=\"https://maps.google.com/maps/contrib/117792131853287017722/photos\">Angel Santana!</a>"], "photo_reference": "CmRaAAAAyl1MR-kS_huAwSfiR2vaq1j9kIzUGRLQPHGal_i2U9xuz5RFdige7gOy3fU5BU1Pv4ocRSmusljb18A8CcRm5tMwdApL35CGWd6xfvOkyIb_Nz66_NMnbSsDObzvpBW0EhCRTqiC5fRazKmj2zpgfIseGhRhT9Ey009BKBe-SDRfSqLzxnKrCQ", "width": 2448}], "place_id": "ChIJTfGf7V9644kR6UXnR8Bgu9I", "plus_code": {"compound_code": "8WJX+GQ Boston, Massachusetts, United States", "global_code": "87JC8WJX+GQ"}, "rating": 3.2, "reference": "ChIJTfGf7V9644kR6UXnR8Bgu9I", "scope": "GOOGLE", "types": ["point_of_interest", "school", "establishment"], "user_ratings_total": 11, "vicinity": "50 Rev Burke Street, Boston"}, "ChIJMezkL15644kRYppqr74HfEc": {"geometry": {"location": {"lat": 42.3316836, "lng": -71.05333929999999}, "viewport": {"northeast": {"lat": 42.3330467802915, "lng": -71.05194641970849}, "southwest": {"lat": 42.3303488197085, "lng": -71.05464438029149}}}, "icon": "https://maps.gstatic.com/mapfiles/place_api/icons/shopping-71.png", "id": "8301ef19011696a50fe0f87c6ed0634bfd2360d3", "name": "Winthrop Graphic Solutions", "photos": [{"height": 338, "html_attributions": ["<a href=\"https://maps.google.com/maps/contrib/109026179229561207989/photos\">Winthrop Graphic Solutions</a>"], "photo_reference": "CmRaAAAAzWSKim1fB_MVjtmhww_nBjwazdXZXtD07krGsX2-OIeA4O9s4AEfxQDwOaUOkMbTlTNxWZGz0Qo5bil3RkKLwIeLOnGLqM7smvADu6IVxPEqZajo-o9rcZTE_SRoaxSgEhD0zEY1XR98dkHYXI3aZfQ9GhQ4Q5stjCl8_QJDVLvhYok7p_AxsQ", "width": 1395}], "place_id": "ChIJMezkL15644kRYppqr74HfEc", "plus_code": {"compound_code": "8WJW+MM Boston, Massachusetts, United States", "global_code": "87JC8WJW+MM"}, "reference": "ChIJMezkL15644kRYppqr74HfEc", "scope": "GOOGLE", "types": ["storage", "store", "point_of_interest", "establishment"], "vicinity": "235 Old Colony Avenue, Boston"}, "ChIJ48_S419644kRsWjksP4DR5k": {"geometry": {"location": {"lat": 42.33254360000001, "lng": -71.0518893}, "viewport": {"northeast": {"lat": 42.33392278029149, "lng": -71.05049461970849}, "southwest": {"lat": 42.3312248197085, "lng": -71.0531925802915}}}, "icon": "https://maps.gstatic.com/mapfiles/place_api/icons/school-71.png", "id": "df946c9a250edea876667b3e4465d519bf81c280", "name": "ABCD South Boston Head Start", "place_id": "ChIJ48_S419644kRsWjksP4DR5k", "plus_code": {"compound_code": "8WMX+26 Boston, Massachusetts, United States", "global_code": "87JC8WMX+26"}, "reference": "ChIJ48_S419644kRsWjksP4DR5k", "scope": "GOOGLE", "types": ["point_of_interest", "establishment"], "vicinity": "265 East 9th Street, South Boston"}, "ChIJ_ckZc2B644kRFvnXk_fFJ5w": {"geometry": {"location": {"lat": 42.33251839999999, "lng": -71.051323}, "viewport": {"northeast": {"lat": 42.33389928029149, "lng": -71.0500107197085}, "southwest": {"lat": 42.3312013197085, "lng": -71.0527086802915}}}, "icon": "https://maps.gstatic.com/mapfiles/place_api/icons/shopping-71.png", "id": "bf7221ff413604fe3e764a47aa04ac12644de4e6", "name": "Bell's Market", "opening_hours": {"open_now": true}, "photos": [{"height": 3120, "html_attributions": ["<a href=\"https://maps.google.com/maps/contrib/113103664005726880728/photos\">Gabriel Khoury</a>"], "photo_reference": "CmRaAAAA7VfR_B7qgtC6XxnBh9POyw6eoWr8N4CahOd-7HlLFGpOEUOP6-AXdmfMnT6VbI7T_AVUQ7lNuLXvIqIW-PjU-SZep5iktw86rSOeku9xZoWcTQNumHj26OquuMiQs7AOEhAibV21QWcjBY-2sZIAdsHUGhSKSamvDaLNEiDVNqqStcw_J88NZA", "width": 3120}], "place_id": "ChIJ_ckZc2B644kRFvnXk_fFJ5w", "plus_code": {"compound_code": "8WMX+2F Boston, Massachusetts, United States", "global_code": "87JC8WMX+2F"}, "rating": 4.3, "reference": "ChIJ_ckZc2B644kRFvnXk_fFJ5w", "scope": "GOOGLE", "types": ["grocery_or_supermarket", "store", "point_of_interest", "food", "establishment"], "user_ratings_total": 108, "vicinity": "246 Dorchester Street, South Boston"}, "ChIJXb4H419644kRSrB75AqMz-8": {"geometry": {"location": {"lat": 42.33184360000001, "lng": -71.0506994}, "viewport": {"northeast": {"lat": 42.3332020302915, "lng": -71.0493396197085}, "southwest": {"lat": 42.3305040697085, "lng": -71.05203758029151}}}, "icon": "https://maps.gstatic.com/mapfiles/place_api/icons/generic_business-71.png", "id": "4c0d0ebd5e2d1eaec7721fb6237d74af554fcbc2", "name": "Housing Opportunities Unlimited", "place_id": "ChIJXb4H419644kRSrB75AqMz-8", "plus_code": {"compound_code": "8WJX+PP Boston, Massachusetts, United States", "global_code": "87JC8WJX+PP"}, "reference": "ChIJXb4H419644kRSrB75AqMz-8", "scope": "GOOGLE", "types": ["point_of_interest", "establishment"], "vicinity": "266 East 9th Street, Boston"}, "ChIJUcwOhol644kRQyKz7zjLpnk": {"geometry": {"location": {"lat": 42.3309512, "lng": -71.05320429999999}, "viewport": {"northeast": {"lat": 42.3323252302915, "lng": -71.05170641970848}, "southwest": {"lat": 42.32962726970851, "lng": -71.0544043802915}}}, "icon": "https://maps.gstatic.com/mapfiles/place_api/icons/generic_business-71.png", "id": "09ce231935480e5f3a9b821a25864e67d363126c", "name": "H&R Block", "opening_hours": {"open_now": true}, "photos": [{"height": 900, "html_attributions": ["<a href=\"https://maps.google.com/maps/contrib/108294404673738157770/photos\">H&amp;R Block</a>"], "photo_reference": "CmRaAAAAuc5yUNHfSk8dO-Bubebl5imoXlAXggWAGCTZ4UaATCA97Zr7fUfqoLD3CdFriLSyC-08RShv9GNlek6H2Fnek0943nG3cRzoQTAdaoyVbdp4kIPD9-KFJgGCtvFFEwKgEhBrC8_sP2_0dBFdI1FKte_SGhR--ejTCswRNlbCOElXCTKWvWxlNg", "width": 900}], "place_id": "ChIJUcwOhol644kRQyKz7zjLpnk", "plus_code": {"compound_code": "8WJW+9P Boston, Massachusetts, United States", "global_code": "87JC8WJW+9P"}, "reference": "ChIJUcwOhol644kRQyKz7zjLpnk", "scope": "GOOGLE", "types": ["accounting", "finance", "point_of_interest", "establishment"], "vicinity": "267 Old Colony Avenue, South Boston"}, "ChIJx4nQbGB644kRCsXbANP6Ka0": {"geometry": {"location": {"lat": 42.3328355, "lng": -71.0513289}, "viewport": {"northeast": {"lat": 42.3341505302915, "lng": -71.04994161970849}, "southwest": {"lat": 42.3314525697085, "lng": -71.0526395802915}}}, "icon": "https://maps.gstatic.com/mapfiles/place_api/icons/restaurant-71.png", "id": "2591357082a6380ff878037fcb32d632c3444b83", "name": "Alfredo's Italian Kitchen", "opening_hours": {"open_now": true}, "photos": [{"height": 800, "html_attributions": ["<a href=\"https://maps.google.com/maps/contrib/107351971638461195757/photos\">Alfredo&#39;s Italian Kitchen</a>"], "photo_reference": "CmRaAAAA08XO_TzVCg3iAf6y461c6aY-zUzUaBIlbZImCaZucio-e3C6Z_iEeT2tfOr7f5jW8dEgxt_3hkb9IvKJkho_Y9ZxgbxkuOGG-jHfrb48ujT71AB0hUcs864CPu_yECUwEhD2pk0gelb90F0J81w7s6N_GhQ_pT5Nw_eT9cxMuraFiOuaHjTbHQ", "width": 1200}], "place_id": "ChIJx4nQbGB644kRCsXbANP6Ka0", "plus_code": {"compound_code": "8WMX+4F Boston, Massachusetts, United States", "global_code": "87JC8WMX+4F"}, "price_level": 2, "rating": 4.4, "reference": "ChIJx4nQbGB644kRCsXbANP6Ka0", "scope": "GOOGLE", "types": ["meal_delivery", "meal_takeaway", "restaurant", "point_of_interest", "food", "establishment"], "user_ratings_total": 107, "vicinity": "243 Dorchester Street, Boston"}, "ChIJqesremB644kR3MR52L5vO40": {"geometry": {"location": {"lat": 42.3325881, "lng": -71.0521729}, "viewport": {"northeast": {"lat": 42.33397943029149, "lng": -71.0508751697085}, "southwest": {"lat": 42.3312814697085, "lng": -71.05357313029151}}}, "icon": "https://maps.gstatic.com/mapfiles/place_api/icons/generic_business-71.png", "id": "567d5074e0c71cde0846b20e71963c1f3713b72c", "name": "Clean Green Solutions, llc", "place_id": "ChIJqesremB644kR3MR52L5vO40", "plus_code": {"compound_code": "8WMX+24 Boston, Massachusetts, United States", "global_code": "87JC8WMX+24"}, "reference": "ChIJqesremB644kR3MR52L5vO40", "scope": "GOOGLE", "types": ["point_of_interest", "establishment"], "vicinity": "8 Mitchell Street, Boston"}, "ChIJZ1ZtUl5644kRyK_6L-Ae_IM": {"geometry": {"location": {"lat": 42.33065709999999, "lng": -71.0531334}, "viewport": {"northeast": {"lat": 42.33202863029149, "lng": -71.05162556970848}, "southwest": {"lat": 42.3293306697085, "lng": -71.0543235302915}}}, "icon": "https://maps.gstatic.com/mapfiles/place_api/icons/generic_business-71.png", "id": "f28d680c5d035b56e217f4ccf718b0ddf084845f", "name": "Charles King Real Estate", "opening_hours": {"open_now": true}, "photos": [{"height": 1365, "html_attributions": ["<a href=\"https://maps.google.com/maps/contrib/103779440001555082135/photos\">Charles King Real Estate</a>"], "photo_reference": "CmRaAAAAOSNCtTMkNUv_PdoZ4Feq1cVlfIVSXT1EHzgAx2RfYMLu9VQ_sUHc-wFG2TDtnsNjMtf6yltGrwxyTdVSJCGas-z7NQgGzFKcItBKKddgoq2ZOkySZNP-p3VJpzNGx3-PEhCKDszS_WdDOAkXlAfByhRYGhSDGqnHmDWLYI_mwVASNEo2T22Utw", "width": 2048}], "place_id": "ChIJZ1ZtUl5644kRyK_6L-Ae_IM", "plus_code": {"compound_code": "8WJW+7P Boston, Massachusetts, United States", "global_code": "87JC8WJW+7P"}, "rating": 5, "reference": "ChIJZ1ZtUl5644kRyK_6L-Ae_IM", "scope": "GOOGLE", "types": ["real_estate_agency", "point_of_interest", "establishment"], "user_ratings_total": 1, "vicinity": "275 Old Colony Avenue, Boston"}, "ChIJF2oWDWB644kRAD2TthnIiVI": {"geometry": {"location": {"lat": 42.3325269, "lng": -71.0511977}, "viewport": {"northeast": {"lat": 42.33392818029149, "lng": -71.04990886970849}, "southwest": {"lat": 42.33123021970849, "lng": -71.05260683029151}}}, "icon": "https://maps.gstatic.com/mapfiles/place_api/icons/doctor-71.png", "id": "40bdeac3a2880dbe05a3352073a95e410c0d585b", "name": "Herbal Medical Center", "place_id": "ChIJF2oWDWB644kRAD2TthnIiVI", "plus_code": {"compound_code": "8WMX+2G Boston, Massachusetts, United States", "global_code": "87JC8WMX+2G"}, "rating": 3.5, "reference": "ChIJF2oWDWB644kRAD2TthnIiVI", "scope": "GOOGLE", "types": ["hospital", "point_of_interest", "establishment"], "user_ratings_total": 2, "vicinity": "242 Dorchester Street, Boston"}, "ChIJC0RKtJlw44kRDs459C1f5E4": {"geometry": {"location": {"lat": 42.3324256, "lng": -71.05051209999999}, "viewport": {"northeast": {"lat": 42.3337687302915, "lng": -71.04916971970849}, "southwest": {"lat": 42.3310707697085, "lng": -71.0518676802915}}}, "icon": "https://maps.gstatic.com/mapfiles/place_api/icons/generic_business-71.png", "id": "cbd15fb56596ca64a6759027a6f8bdf5f118e8d7", "name": "Massachusetts Eye & Ear Infirm: Kumar Radhika L MD", "place_id": "ChIJC0RKtJlw44kRDs459C1f5E4", "plus_code": {"compound_code": "8WJX+XQ Boston, Massachusetts, United States", "global_code": "87JC8WJX+XQ"}, "reference": "ChIJC0RKtJlw44kRDs459C1f5E4", "scope": "GOOGLE", "types": ["doctor", "health", "point_of_interest", "establishment"], "vicinity": "243 Charles St # 8th, Boston"}, "ChIJXaiBBWB644kRb-EmZ8eBM_4": {"geometry": {"location": {"lat": 42.3324282, "lng": -71.0505055}, "viewport": {"northeast": {"lat": 42.3337674302915, "lng": -71.04916761970851}, "southwest": {"lat": 42.3310694697085, "lng": -71.05186558029152}}}, "icon": "https://maps.gstatic.com/mapfiles/place_api/icons/generic_business-71.png", "id": "a8944a745204d572e57e0a2e64219fb786a157cc", "name": "Browne Ellen E MD", "place_id": "ChIJXaiBBWB644kRb-EmZ8eBM_4", "plus_code": {"compound_code": "8WJX+XQ Boston, Massachusetts, United States", "global_code": "87JC8WJX+XQ"}, "reference": "ChIJXaiBBWB644kRb-EmZ8eBM_4", "scope": "GOOGLE", "types": ["doctor", "health", "point_of_interest", "establishment"], "vicinity": "243 Charles St # 8th, Boston"}, "ChIJXaiBBWB644kRELg1i_JGAN4": {"geometry": {"location": {"lat": 42.3324282, "lng": -71.0505055}, "viewport": {"northeast": {"lat": 42.3337674302915, "lng": -71.04916761970851}, "southwest": {"lat": 42.3310694697085, "lng": -71.05186558029152}}}, "icon": "https://maps.gstatic.com/mapfiles/place_api/icons/generic_business-71.png", "id": "7dd495489e95a4ba4591b9cb7e14a9bd1086b4a1", "name": "Turalba Angela V MD", "place_id": "ChIJXaiBBWB644kRELg1i_JGAN4", "plus_code": {"compound_code": "8WJX+XQ Boston, Massachusetts, United States", "global_code": "87JC8WJX+XQ"}, "reference": "ChIJXaiBBWB644kRELg1i_JGAN4", "scope": "GOOGLE", "types": ["doctor", "health", "point_of_interest", "establishment"], "vicinity": "243 Charles St # 8th, Boston"}, "ChIJXaiBBWB644kRceO0gmBYbTA": {"geometry": {"location": {"lat": 42.3324282, "lng": -71.0505055}, "viewport": {"northeast": {"lat": 42.3337674302915, "lng": -71.04916761970851}, "southwest": {"lat": 42.3310694697085, "lng": -71.05186558029152}}}, "icon": "https://maps.gstatic.com/mapfiles/place_api/icons/generic_business-71.png", "id": "75fdaca685903698236c3453395061cad3f72335", "name": "Brauner Stacey MD", "place_id": "ChIJXaiBBWB644kRceO0gmBYbTA", "plus_code": {"compound_code": "8WJX+XQ Boston, Massachusetts, United States", "global_code": "87JC8WJX+XQ"}, "reference": "ChIJXaiBBWB644kRceO0gmBYbTA", "scope": "GOOGLE", "types": ["doctor", "health", "point_of_interest", "establishment"], "vicinity": "243 Charles St # 8th, Boston"}, "ChIJ5--3jV9644kRwhs_q6BsFJ0": {"geometry": {"location": {"lat": 42.330561, "lng": -71.0503773}, "viewport": {"northeast": {"lat": 42.3318530302915, "lng": -71.0489397697085}, "southwest": {"lat": 42.3291550697085, "lng": -71.0516377302915}}}, "icon": "https://maps.gstatic.com/mapfiles/place_api/icons/school-71.png", "id": "0d0e11c323bd53b339d99c26f0259e89e7e8ec29", "name": "The Joseph M. Tierney Learning Center", "place_id": "ChIJ5--3jV9644kRwhs_q6BsFJ0", "plus_code": {"compound_code": "8WJX+6R Boston, Massachusetts, United States", "global_code": "87JC8WJX+6R"}, "reference": "ChIJ5--3jV9644kRwhs_q6BsFJ0", "scope": "GOOGLE", "types": ["school", "point_of_interest", "establishment"], "vicinity": "125 Mercer Street, Boston"}, "ChIJySFSPZJ644kRQd1ylK2wP54": {"geometry": {"location": {"lat": 42.3381437, "lng": -71.0475773}, "viewport": {"northeast": {"lat": 42.3551665, "lng": -71.0091984}, "southwest": {"lat": 42.32115, "lng": -71.0652948}}}, "icon": "https://maps.gstatic.com/mapfiles/place_api/icons/geocode-71.png", "id": "56a2680fff3ada55ed539f65fc2e901a748193c6", "name": "South Boston", "photos": [{"height": 1836, "html_attributions": ["<a href=\"https://maps.google.com/maps/contrib/100381122114234243821/photos\">Gary Stephens</a>"], "photo_reference": "CmRaAAAA2x5Mvovh6JYdTe8MEocINGraNf2jYQ1EPwDg7N4Lqn5uGfhGSPpNBQqZnG7yFkzG7Y60Zyj-nT--5VTczkeSy7mzZllAFjm9AzpOuctPFVCLOtaZDtLnqJBXLFj68YnMEhDFWynhvYtQGNbXicwP-13iGhTxjerdB1K2qR5qESyPjbJHlXLPDg", "width": 3264}], "place_id": "ChIJySFSPZJ644kRQd1ylK2wP54", "reference": "ChIJySFSPZJ644kRQd1ylK2wP54", "scope": "GOOGLE", "types": ["neighborhood", "political"], "vicinity": "Boston"}, "ChIJQWvJjV9644kRNoK5kDByYdY": {"geometry": {"location": {"lat": 42.33054289999999, "lng": -71.0503626}, "viewport": {"northeast": {"lat": 42.33184148029149, "lng": -71.0489353197085}, "southwest": {"lat": 42.3291435197085, "lng": -71.05163328029151}}}, "icon": "https://maps.gstatic.com/mapfiles/place_api/icons/generic_business-71.png", "id": "79311deaa7890978fb119c7a475c9a2802ddca74", "name": "Tierney Learning Center", "opening_hours": {"open_now": true}, "photos": [{"height": 1125, "html_attributions": ["<a href=\"https://maps.google.com/maps/contrib/102330248751417226439/photos\">Tierney Learning Center</a>"], "photo_reference": "CmRaAAAAVmwzVR9C7PGYk-JdHGkwUmBjl8yq-3UulXVVHVbqlO-1nY89jNOoOLksA08Lid4GRAlFgTVd5harPHxGe_NIdr8-1zxkX4GjRyyogKvWSzZ-5BaLXIZ0E3uSG-9j5TmDEhCauHuOqMBjEwe5uZWJZPuoGhQivtkjGXh3whzGxxZMbndQVXEwog", "width": 2000}], "place_id": "ChIJQWvJjV9644kRNoK5kDByYdY", "plus_code": {"compound_code": "8WJX+6V Boston, Massachusetts, United States", "global_code": "87JC8WJX+6V"}, "rating": 4.5, "reference": "ChIJQWvJjV9644kRNoK5kDByYdY", "scope": "GOOGLE", "types": ["point_of_interest", "establishment"], "user_ratings_total": 4, "vicinity": "125 Mercer Street, Boston"}, "ChIJkRr2JF5644kRsXFNuNTFbCw": {"geometry": {"location": {"lat": 42.33209699999999, "lng": -71.053743}, "viewport": {"northeast": {"lat": 42.3335279302915, "lng": -71.0523979697085}, "southwest": {"lat": 42.3308299697085, "lng": -71.05509593029151}}}, "icon": "https://maps.gstatic.com/mapfiles/place_api/icons/generic_business-71.png", "id": "a6b0bc5050c004a349ab9df35250d56c39b91755", "name": "Brian T Malone Co", "place_id": "ChIJkRr2JF5644kRsXFNuNTFbCw", "plus_code": {"compound_code": "8WJW+RG Boston, Massachusetts, United States", "global_code": "87JC8WJW+RG"}, "reference": "ChIJkRr2JF5644kRsXFNuNTFbCw", "scope": "GOOGLE", "types": ["painter", "point_of_interest", "establishment"], "vicinity": "89 Damrell Street, Boston"}, "ChIJLS15EmB644kRjwfillpATbo": {"geometry": {"location": {"lat": 42.33268039999999, "lng": -71.05105689999999}, "viewport": {"northeast": {"lat": 42.3340628302915, "lng": -71.04974636970849}, "southwest": {"lat": 42.3313648697085, "lng": -71.0524443302915}}}, "icon": "https://maps.gstatic.com/mapfiles/place_api/icons/generic_business-71.png", "id": "d49926fb459956352d6210d8f3bba7009099fe4e", "name": "Salon 236", "photos": [{"height": 4032, "html_attributions": ["<a href=\"https://maps.google.com/maps/contrib/104850240706755433493/photos\">Nicole Macdonald</a>"], "photo_reference": "CmRaAAAA2oge7AHevuYvbmtEkjIQfruYnolwVuFRpyBgLrlPMi3kYe1aCNher6Ospagq7TyncRI5TlN4PDgppLnrEtQjdmsQIWb1jfayAA7rpn-zRpGGl7jwZBkd8p9BNBE5bD6wEhA4PnRFBs_swI3_-XLkzCOmGhQXC99CQBiNPdBAjEIXb1WXvEyyxA", "width": 3024}], "place_id": "ChIJLS15EmB644kRjwfillpATbo", "plus_code": {"compound_code": "8WMX+3H Boston, Massachusetts, United States", "global_code": "87JC8WMX+3H"}, "rating": 4.9, "reference": "ChIJLS15EmB644kRjwfillpATbo", "scope": "GOOGLE", "types": ["beauty_salon", "point_of_interest", "establishment"], "user_ratings_total": 8, "vicinity": "236 Dorchester Street, South Boston"}, "ChIJD1GyM15644kR-dJywL5koqs": {"geometry": {"location": {"lat": 42.3316625, "lng": -71.05299}, "viewport": {"northeast": {"lat": 42.3330228302915, "lng": -71.05165296970848}, "southwest": {"lat": 42.33032486970851, "lng": -71.0543509302915}}}, "icon": "https://maps.gstatic.com/mapfiles/place_api/icons/generic_business-71.png", "id": "13679b23955ee099b4e80badb1824af022ddac14", "name": "Dorchester St @ Old Colony Ave", "place_id": "ChIJD1GyM15644kR-dJywL5koqs", "plus_code": {"compound_code": "8WJW+MR Boston, Massachusetts, United States", "global_code": "87JC8WJW+MR"}, "reference": "ChIJD1GyM15644kR-dJywL5koqs", "scope": "GOOGLE", "types": ["transit_station", "point_of_interest", "establishment"], "vicinity": "United States"}, "ChIJn_ozd2B644kR6jQDY_sU-gw": {"geometry": {"location": {"lat": 42.3325021, "lng": -71.0518621}, "viewport": {"northeast": {"lat": 42.3338184802915, "lng": -71.05047831970847}, "southwest": {"lat": 42.3311205197085, "lng": -71.0531762802915}}}, "icon": "https://maps.gstatic.com/mapfiles/place_api/icons/shopping-71.png", "id": "39a1c0273de1871adece882b4ce61dba8e43fcf4", "name": "Old Colony Wine", "place_id": "ChIJn_ozd2B644kR6jQDY_sU-gw", "plus_code": {"compound_code": "8WMX+27 Boston, Massachusetts, United States", "global_code": "87JC8WMX+27"}, "rating": 3.7, "reference": "ChIJn_ozd2B644kR6jQDY_sU-gw", "scope": "GOOGLE", "types": ["liquor_store", "store", "point_of_interest", "establishment"], "user_ratings_total": 9, "vicinity": "259 Dorchester Street, South Boston"}, "ChIJexbw2V9644kRxCBY3BblWVc": {"geometry": {"location": {"lat": 42.3319757, "lng": -71.0519537}, "viewport": {"northeast": {"lat": 42.3332762302915, "lng": -71.0506622197085}, "southwest": {"lat": 42.3305782697085, "lng": -71.0533601802915}}}, "icon": "https://maps.gstatic.com/mapfiles/place_api/icons/generic_business-71.png", "id": "bf5e997122350d12404987429b110b2c9f8d20c8", "name": "South Boston en Accion", "place_id": "ChIJexbw2V9644kRxCBY3BblWVc", "plus_code": {"compound_code": "8WJX+Q6 Boston, Massachusetts, United States", "global_code": "87JC8WJX+Q6"}, "reference": "ChIJexbw2V9644kRxCBY3BblWVc", "scope": "GOOGLE", "types": ["point_of_interest", "establishment"], "vicinity": "8 Rev Burke Street, Boston"}, "ChIJMW0lzV9644kRmPxnQ6iXDss": {"geometry": {"location": {"lat": 42.33165380000001, "lng": -71.05269609999999}, "viewport": {"northeast": {"lat": 42.3328876302915, "lng": -71.05115926970849}, "southwest": {"lat": 42.33018966970851, "lng": -71.0538572302915}}}, "icon": "https://maps.gstatic.com/mapfiles/place_api/icons/shopping-71.png", "id": "e81dad00ee33e3d74b5ad1e5120ee0b56c3d3c16", "name": "Metro Pcs", "place_id": "ChIJMW0lzV9644kRmPxnQ6iXDss", "plus_code": {"compound_code": "8WJW+MW Boston, Massachusetts, United States", "global_code": "87JC8WJW+MW"}, "reference": "ChIJMW0lzV9644kRmPxnQ6iXDss", "scope": "GOOGLE", "types": ["store", "point_of_interest", "establishment"], "vicinity": "Joseph Agri Street, Boston"}, "ChIJgXaPST1644kRqQNnFuhQ6R8": {"geometry": {"location": {"lat": 42.33209099999999, "lng": -71.05187819999999}, "viewport": {"northeast": {"lat": 42.3335031302915, "lng": -71.05059626970849}, "southwest": {"lat": 42.3308051697085, "lng": -71.0532942302915}}}, "icon": "https://maps.gstatic.com/mapfiles/place_api/icons/generic_business-71.png", "id": "517fcbaec17aba51b1b168b336ed931cb1097325", "name": "Intensive Outpatient Program", "place_id": "ChIJgXaPST1644kRqQNnFuhQ6R8", "plus_code": {"compound_code": "8WJX+R6 Boston, Massachusetts, United States", "global_code": "87JC8WJX+R6"}, "reference": "ChIJgXaPST1644kRqQNnFuhQ6R8", "scope": "GOOGLE", "types": ["health", "point_of_interest", "establishment"], "vicinity": "Boston"}, "ChIJlUcGM15644kRNoWwWcjKnok": {"geometry": {"location": {"lat": 42.331629, "lng": -71.052919}, "viewport": {"northeast": {"lat": 42.3329860302915, "lng": -71.0515784697085}, "southwest": {"lat": 42.3302880697085, "lng": -71.05427643029151}}}, "icon": "https://maps.gstatic.com/mapfiles/place_api/icons/bus-71.png", "id": "df6340fbb308a63dedac2566188d760271ea34e4", "name": "Dorchester St @ Old Colony Ave", "place_id": "ChIJlUcGM15644kRNoWwWcjKnok", "plus_code": {"compound_code": "8WJW+MR Boston, Massachusetts, United States", "global_code": "87JC8WJW+MR"}, "reference": "ChIJlUcGM15644kRNoWwWcjKnok", "scope": "GOOGLE", "types": ["bus_station", "transit_station", "point_of_interest", "establishment"], "vicinity": "United States"}, "ChIJv2mG019644kRvJblQq5Dox4": {"geometry": {"location": {"lat": 42.332108, "lng": -71.0525815}, "viewport": {"northeast": {"lat": 42.3334160802915, "lng": -71.0511886197085}, "southwest": {"lat": 42.3307181197085, "lng": -71.0538865802915}}}, "icon": "https://maps.gstatic.com/mapfiles/place_api/icons/generic_business-71.png", "id": "37d244f5de5136296abb181dcdb1073cb6338950", "name": "Redsun Corporation", "place_id": "ChIJv2mG019644kRvJblQq5Dox4", "plus_code": {"compound_code": "8WJW+RX Boston, Massachusetts, United States", "global_code": "87JC8WJW+RX"}, "reference": "ChIJv2mG019644kRvJblQq5Dox4", "scope": "GOOGLE", "types": ["point_of_interest", "establishment"], "vicinity": "285 Dorchester Street, Boston"}, "ChIJl1QyMl5644kRXjPf-Np0dds": {"geometry": {"location": {"lat": 42.331696, "lng": -71.053061}, "viewport": {"northeast": {"lat": 42.3330677802915, "lng": -71.0517356197085}, "southwest": {"lat": 42.3303698197085, "lng": -71.0544335802915}}}, "icon": "https://maps.gstatic.com/mapfiles/place_api/icons/bus-71.png", "id": "4e2950270458c272a04a6a11915aa94641e4aa64", "name": "Dorchester St @ Old Colony Ave", "place_id": "ChIJl1QyMl5644kRXjPf-Np0dds", "plus_code": {"compound_code": "8WJW+MQ Boston, Massachusetts, United States", "global_code": "87JC8WJW+MQ"}, "rating": 4, "reference": "ChIJl1QyMl5644kRXjPf-Np0dds", "scope": "GOOGLE", "types": ["bus_station", "transit_station", "point_of_interest", "establishment"], "user_ratings_total": 1, "vicinity": "United States"}, "ChIJTbIa1l9644kRvpzBMAXi_RA": {"geometry": {"location": {"lat": 42.3322689, "lng": -71.05232939999999}, "viewport": {"northeast": {"lat": 42.3335730802915, "lng": -71.0509322197085}, "southwest": {"lat": 42.3308751197085, "lng": -71.0536301802915}}}, "icon": "https://maps.gstatic.com/mapfiles/place_api/icons/generic_business-71.png", "id": "4d2a0d5c3890acd45e2221b748c092911cf8029b", "name": "Bostonian Glass Company", "place_id": "ChIJTbIa1l9644kRvpzBMAXi_RA", "plus_code": {"compound_code": "8WJX+W3 Boston, Massachusetts, United States", "global_code": "87JC8WJX+W3"}, "rating": 3, "reference": "ChIJTbIa1l9644kRvpzBMAXi_RA", "scope": "GOOGLE", "types": ["point_of_interest", "establishment"], "user_ratings_total": 6, "vicinity": "277 Dorchester Street, Boston"}, "ChIJgccr4F9644kR82LSvvGwwC4": {"geometry": {"location": {"lat": 42.332041, "lng": -71.0510309}, "viewport": {"northeast": {"lat": 42.33340258029149, "lng": -71.04966781970849}, "southwest": {"lat": 42.3307046197085, "lng": -71.05236578029151}}}, "icon": "https://maps.gstatic.com/mapfiles/place_api/icons/shopping-71.png", "id": "f340f79e6132aac0dab6dc7d4ebf77f302ab57b8", "name": "T & D Import & Export", "place_id": "ChIJgccr4F9644kR82LSvvGwwC4", "plus_code": {"compound_code": "8WJX+RH Boston, Massachusetts, United States", "global_code": "87JC8WJX+RH"}, "rating": 5, "reference": "ChIJgccr4F9644kR82LSvvGwwC4", "scope": "GOOGLE", "types": ["store", "point_of_interest", "establishment"], "user_ratings_total": 1, "vicinity": "254 East 9th Street, South Boston"}, "ChIJS87S419644kRQlBQ0JkfhRs": {"geometry": {"location": {"lat": 42.3319006, "lng": -71.0508529}, "viewport": {"northeast": {"lat": 42.33323268029149, "lng": -71.04952281970849}, "southwest": {"lat": 42.3305347197085, "lng": -71.05222078029149}}}, "icon": "https://maps.gstatic.com/mapfiles/place_api/icons/generic_business-71.png", "id": "96a377d7a912b6485cd915a3b9a49b0a4a21beab", "name": "Susan's Corner @ O'Sea House", "place_id": "ChIJS87S419644kRQlBQ0JkfhRs", "plus_code": {"compound_code": "8WJX+QM Boston, Massachusetts, United States", "global_code": "87JC8WJX+QM"}, "reference": "ChIJS87S419644kRQlBQ0JkfhRs", "scope": "GOOGLE", "types": ["point_of_interest", "establishment"], "vicinity": "265 East 9th Street, Boston"}, "ChIJAZOD5F9644kROJ-immgTfSk": {"geometry": {"location": {"lat": 42.3317078, "lng": -71.0506757}, "viewport": {"northeast": {"lat": 42.33308478029149, "lng": -71.0492947197085}, "southwest": {"lat": 42.33038681970849, "lng": -71.0519926802915}}}, "icon": "https://maps.gstatic.com/mapfiles/place_api/icons/generic_business-71.png", "id": "871b7c32a96c3fdf1eb09729cfdcd4154e9aeb2f", "name": "Old Colony Management Office", "place_id": "ChIJAZOD5F9644kROJ-immgTfSk", "plus_code": {"compound_code": "8WJX+MP Boston, Massachusetts, United States", "global_code": "87JC8WJX+MP"}, "reference": "ChIJAZOD5F9644kROJ-immgTfSk", "scope": "GOOGLE", "types": ["point_of_interest", "establishment"], "vicinity": "East 9th Street, Boston"}, "ChIJfczc1l9644kRULF5bn7SDN8": {"geometry": {"location": {"lat": 42.3324194, "lng": -71.05149399999999}, "viewport": {"northeast": {"lat": 42.33379783029149, "lng": -71.05017891970849}, "southwest": {"lat": 42.3310998697085, "lng": -71.0528768802915}}}, "icon": "https://maps.gstatic.com/mapfiles/place_api/icons/generic_business-71.png", "id": "8ceb98dd7f1a00d2b852bb04a80448f8a8e28ce7", "name": "All Phase Dental Laboratories", "opening_hours": {"open_now": true}, "place_id": "ChIJfczc1l9644kRULF5bn7SDN8", "plus_code": {"compound_code": "8WJX+XC Boston, Massachusetts, United States", "global_code": "87JC8WJX+XC"}, "reference": "ChIJfczc1l9644kRULF5bn7SDN8", "scope": "GOOGLE", "types": ["dentist", "store", "health", "point_of_interest", "establishment"], "vicinity": "256 Dorchester Street, South Boston"}, "ChIJK_menmt744kR6gf_xFErzaM": {"geometry": {"location": {"lat": 42.3319005, "lng": -71.0535664}, "viewport": {"northeast": {"lat": 42.3332774302915, "lng": -71.05213426970849}, "southwest": {"lat": 42.3305794697085, "lng": -71.0548322302915}}}, "icon": "https://maps.gstatic.com/mapfiles/place_api/icons/generic_business-71.png", "id": "d9e661acc846381b2e23044db7f389f897271e06", "name": "Washington Village", "photos": [{"height": 591, "html_attributions": ["<a href=\"https://maps.google.com/maps/contrib/116111868658521143222/photos\">Bronte La Valli\u00e8re</a>"], "photo_reference": "CmRaAAAA0oBITegch4i2wtO6pdsfmfp5reGjTEZmwIVpVrVhBf2hdKeL6bYNJOImex2fKg4sxYSdav8v_tHYvL8iVYUWCJRTH3ebWLGJOWaM1d2RR2CozSg4dhM3wYVRvA_PnyGREhBUT8cez2vWv69B5zP20nbzGhT2yP-QIyd8N6IGDE3uprS8gaFVHw", "width": 1000}], "place_id": "ChIJK_menmt744kR6gf_xFErzaM", "plus_code": {"compound_code": "8WJW+QH Boston, Massachusetts, United States", "global_code": "87JC8WJW+QH"}, "reference": "ChIJK_menmt744kR6gf_xFErzaM", "scope": "GOOGLE", "types": ["point_of_interest", "establishment"], "vicinity": "235 Old Colony Avenue, Boston"}, "ChIJLUedDWB644kR5AOHfqnOPAE": {"geometry": {"location": {"lat": 42.33264179999999, "lng": -71.0510716}, "viewport": {"northeast": {"lat": 42.3340327302915, "lng": -71.0497708697085}, "southwest": {"lat": 42.3313347697085, "lng": -71.0524688302915}}}, "icon": "https://maps.gstatic.com/mapfiles/place_api/icons/shopping-71.png", "id": "20883a75920283fa078a518bba9e91361554db4f", "name": "Express Wireless", "place_id": "ChIJLUedDWB644kR5AOHfqnOPAE", "plus_code": {"compound_code": "8WMX+3H Boston, Massachusetts, United States", "global_code": "87JC8WMX+3H"}, "reference": "ChIJLUedDWB644kR5AOHfqnOPAE", "scope": "GOOGLE", "types": ["store", "point_of_interest", "establishment"], "vicinity": "Boston"}, "ChIJCS6ZcmB644kRV9UFxql-1Ws": {"geometry": {"location": {"lat": 42.3327667, "lng": -71.0514492}, "viewport": {"northeast": {"lat": 42.33408033029149, "lng": -71.05005996970849}, "southwest": {"lat": 42.3313823697085, "lng": -71.0527579302915}}}, "icon": "https://maps.gstatic.com/mapfiles/place_api/icons/generic_business-71.png", "id": "40d561dbe9f67aff0926f8a7861bff9f1631b2f2", "name": "Valet Laundry South Boston", "opening_hours": {"open_now": true}, "photos": [{"height": 682, "html_attributions": ["<a href=\"https://maps.google.com/maps/contrib/117926116158010412449/photos\">Valet Laundry South Boston</a>"], "photo_reference": "CmRaAAAA2hEUeeRWbAidSB2tKF5F0oQp0TNSmbuwZ9a7Cun5xkQ4A95I6D7IehccRV4N86kJysoWI2OEVItevD83g_aK0uewbFRwU7A2roGMqcX7Y2qaebkUQ_N-APYbXjIKvxWKEhBnJdkgIkeTBDf_oTXLrBdrGhTUn1QgJGJVDSMxgpxh5U-eRtPlgQ", "width": 1024}], "place_id": "ChIJCS6ZcmB644kRV9UFxql-1Ws", "plus_code": {"compound_code": "8WMX+4C Boston, Massachusetts, United States", "global_code": "87JC8WMX+4C"}, "rating": 4, "reference": "ChIJCS6ZcmB644kRV9UFxql-1Ws", "scope": "GOOGLE", "types": ["laundry", "point_of_interest", "establishment"], "user_ratings_total": 2, "vicinity": "249 Dorchester Street, Boston"}, "ChIJw0G8Uwl744kRcHzsUbqgO3g": {"geometry": {"location": {"lat": 42.3322204, "lng": -71.0534921}, "viewport": {"northeast": {"lat": 42.33356673029149, "lng": -71.0521511697085}, "southwest": {"lat": 42.3308687697085, "lng": -71.0548491302915}}}, "icon": "https://maps.gstatic.com/mapfiles/place_api/icons/generic_business-71.png", "id": "d38083cd1dfae7407a7f2217abe3ddd8cf266f67", "name": "Caulfield Properties", "place_id": "ChIJw0G8Uwl744kRcHzsUbqgO3g", "plus_code": {"compound_code": "8WJW+VJ Boston, Massachusetts, United States", "global_code": "87JC8WJW+VJ"}, "reference": "ChIJw0G8Uwl744kRcHzsUbqgO3g", "scope": "GOOGLE", "types": ["point_of_interest", "establishment"], "vicinity": "236-232 Old Colony Avenue, Boston"}, "ChIJI-KbEmB644kRHJyDCb1c_DQ": {"geometry": {"location": {"lat": 42.332717, "lng": -71.05114600000002}, "viewport": {"northeast": {"lat": 42.3340550802915, "lng": -71.0497845197085}, "southwest": {"lat": 42.3313571197085, "lng": -71.0524824802915}}}, "icon": "https://maps.gstatic.com/mapfiles/place_api/icons/bus-71.png", "id": "7d62bb619c2d73fb1186bcedccc09c0e6123b5c0", "name": "Dorchester St @ E 8th St", "place_id": "ChIJI-KbEmB644kRHJyDCb1c_DQ", "plus_code": {"compound_code": "8WMX+3G Boston, Massachusetts, United States", "global_code": "87JC8WMX+3G"}, "reference": "ChIJI-KbEmB644kRHJyDCb1c_DQ", "scope": "GOOGLE", "types": ["bus_station", "transit_station", "point_of_interest", "establishment"], "vicinity": "United States"}, "ChIJocJDbWB644kRNSbReP4ps68": {"geometry": {"location": {"lat": 42.332781, "lng": -71.051338}, "viewport": {"northeast": {"lat": 42.3341150802915, "lng": -71.0499722197085}, "southwest": {"lat": 42.3314171197085, "lng": -71.0526701802915}}}, "icon": "https://maps.gstatic.com/mapfiles/place_api/icons/bus-71.png", "id": "5749637eecd30e990746b66cba7e8ebcf2fa6603", "name": "Dorchester St @ W 8th St", "place_id": "ChIJocJDbWB644kRNSbReP4ps68", "plus_code": {"compound_code": "8WMX+4F Boston, Massachusetts, United States", "global_code": "87JC8WMX+4F"}, "reference": "ChIJocJDbWB644kRNSbReP4ps68", "scope": "GOOGLE", "types": ["bus_station", "transit_station", "point_of_interest", "establishment"], "vicinity": "United States"}, "ChIJ58YKEmB644kRb_HuR_kjER8": {"geometry": {"location": {"lat": 42.332673, "lng": -71.05098}, "viewport": {"northeast": {"lat": 42.33404133029149, "lng": -71.0496090197085}, "southwest": {"lat": 42.3313433697085, "lng": -71.0523069802915}}}, "icon": "https://maps.gstatic.com/mapfiles/place_api/icons/bus-71.png", "id": "ef67908dcd7fd4ab769a60c057fd5e73a2870021", "name": "E 8th St @ Dorchester St", "place_id": "ChIJ58YKEmB644kRb_HuR_kjER8", "plus_code": {"compound_code": "8WMX+3J Boston, Massachusetts, United States", "global_code": "87JC8WMX+3J"}, "reference": "ChIJ58YKEmB644kRb_HuR_kjER8", "scope": "GOOGLE", "types": ["bus_station", "transit_station", "point_of_interest", "establishment"], "vicinity": "United States"}, "ChIJC6lWnkJ744kRkTmgrbbYlqw": {"geometry": {"location": {"lat": 42.3305961, "lng": -71.0503803}, "viewport": {"northeast": {"lat": 42.3318799802915, "lng": -71.0489301697085}, "southwest": {"lat": 42.3291820197085, "lng": -71.0516281302915}}}, "icon": "https://maps.gstatic.com/mapfiles/place_api/icons/school-71.png", "id": "650d5899afd3e77c6ebc15b0810378ee7ae387b2", "name": "Little Groove Music & Arts - Tierney Center", "opening_hours": {"open_now": false}, "photos": [{"height": 1688, "html_attributions": ["<a href=\"https://maps.google.com/maps/contrib/101573788019636485321/photos\">Little Groove Music &amp; Arts - Tierney Center</a>"], "photo_reference": "CmRaAAAAdmcSrNIobPFhM-Vzmhzu5Zt451mCRd-Qo-Bxxsu3nekX5WhIuEIRLIW_1zxzcbNxYGYP6XDJuJh8kVsy-mhyzRCIBQa0Fj5uoGtJbJQNyNPqWgbGnVAniYAbcfNPYF0IEhC7afgYkalPEPBnwIM2dXl3GhQbkC9xeGzJgFPyeAI6uJMGz2HAFg", "width": 2048}], "place_id": "ChIJC6lWnkJ744kRkTmgrbbYlqw", "plus_code": {"compound_code": "8WJX+6R Boston, Massachusetts, United States", "global_code": "87JC8WJX+6R"}, "reference": "ChIJC6lWnkJ744kRkTmgrbbYlqw", "scope": "GOOGLE", "types": ["point_of_interest", "establishment"], "vicinity": "125 Mercer Street, Boston"}, "ChIJd9aPEmB644kRDfHqcsmQjLE": {"geometry": {"location": {"lat": 42.3327386, "lng": -71.0511191}, "viewport": {"northeast": {"lat": 42.3340739802915, "lng": -71.04975446970849}, "southwest": {"lat": 42.3313760197085, "lng": -71.0524524302915}}}, "icon": "https://maps.gstatic.com/mapfiles/place_api/icons/generic_business-71.png", "id": "140a55a43d1b41a92bc410643f708eb05ee8c3f6", "name": "Mass Maid", "place_id": "ChIJd9aPEmB644kRDfHqcsmQjLE", "plus_code": {"compound_code": "8WMX+3H Boston, Massachusetts, United States", "global_code": "87JC8WMX+3H"}, "reference": "ChIJd9aPEmB644kRDfHqcsmQjLE", "scope": "GOOGLE", "types": ["point_of_interest", "establishment"], "vicinity": "238 Dorchester Street, Boston"}, "ChIJZU8UEmB644kRehXBvCLKmf0": {"geometry": {"location": {"lat": 42.3327275, "lng": -71.0509685}, "viewport": {"northeast": {"lat": 42.33405963029149, "lng": -71.04963861970849}, "southwest": {"lat": 42.3313616697085, "lng": -71.0523365802915}}}, "icon": "https://maps.gstatic.com/mapfiles/place_api/icons/generic_business-71.png", "id": "eb971606f27c4cb030ea172d0ef7da5b727dcbed", "name": "E 8th St @ Dorchester St", "place_id": "ChIJZU8UEmB644kRehXBvCLKmf0", "plus_code": {"compound_code": "8WMX+3J Boston, Massachusetts, United States", "global_code": "87JC8WMX+3J"}, "reference": "ChIJZU8UEmB644kRehXBvCLKmf0", "scope": "GOOGLE", "types": ["transit_station", "point_of_interest", "establishment"], "vicinity": "United States"}, "ChIJkRr2JF5644kRfVgBUQGinzU": {"geometry": {"location": {"lat": 42.33209699999999, "lng": -71.053743}, "viewport": {"northeast": {"lat": 42.3335279302915, "lng": -71.0523979697085}, "southwest": {"lat": 42.3308299697085, "lng": -71.05509593029151}}}, "icon": "https://maps.gstatic.com/mapfiles/place_api/icons/shopping-71.png", "id": "a50df5e40a45288d66ea862bce8301fef4de99a6", "name": "South Boston Sign Shop", "place_id": "ChIJkRr2JF5644kRfVgBUQGinzU", "plus_code": {"compound_code": "8WJW+RG Boston, Massachusetts, United States", "global_code": "87JC8WJW+RG"}, "reference": "ChIJkRr2JF5644kRfVgBUQGinzU", "scope": "GOOGLE", "types": ["store", "point_of_interest", "establishment"], "vicinity": "89 Damrell Street, Boston"}, "ChIJy9swEmB644kR1P3ZlTmDBWg": {"geometry": {"location": {"lat": 42.33278199999999, "lng": -71.050957}, "viewport": {"northeast": {"lat": 42.3341263302915, "lng": -71.0496133197085}, "southwest": {"lat": 42.3314283697085, "lng": -71.0523112802915}}}, "icon": "https://maps.gstatic.com/mapfiles/place_api/icons/bus-71.png", "id": "58d6dcb9ed4baadd759d6e5b06657abe4d2c9722", "name": "E 8th St @ Dorchester St", "place_id": "ChIJy9swEmB644kR1P3ZlTmDBWg", "plus_code": {"compound_code": "8WMX+4J Boston, Massachusetts, United States", "global_code": "87JC8WMX+4J"}, "reference": "ChIJy9swEmB644kR1P3ZlTmDBWg", "scope": "GOOGLE", "types": ["bus_station", "transit_station", "point_of_interest", "establishment"], "vicinity": "United States"}}