{"ChIJGzE9DS1l44kRoOhiASS_fHg": {"geometry": {"location": {"lat": 42.3600825, "lng": -71.0588801}, "viewport": {"northeast": {"lat": 42.40081989999999, "lng": -70.749455}, "southwest": {"lat": 42.22788, "lng": -71.191113}}}, "icon": "https://maps.gstatic.com/mapfiles/place_api/icons/geocode-71.png", "id": "06755c25d2b34d13942a4713971756a55b870ced", "name": "Boston", "photos": [{"height": 3024, "html_attributions": ["<a href=\"https://maps.google.com/maps/contrib/104670289779338733432/photos\">Natalia Zalucean</a>"], "photo_reference": "CmRaAAAAv9aYCK4v0BJG-RPS0Jwj8vjoAY8p-BNdSmLNyNYb5DV_GJ6VGyQ3_yfQPvH5PaEeI-R1gVu3FdZtKdp0AN176vNdJk2lH9ShjWpZaUH-SIq8fRBnJ_PcPU8etAWBJS6wEhB_mLvN_BXQ-QOh5Mxk58HMGhSmV6sYj8zcv5wj6flaWfJdR1KDmQ", "width": 4032}], "place_id": "ChIJGzE9DS1l44kRoOhiASS_fHg", "reference": "ChIJGzE9DS1l44kRoOhiASS_fHg", "scope": "GOOGLE", "types": ["locality", "political"], "vicinity": "Boston"}, "ChIJj_dO35d-44kRt7cjs3erGlE": {"geometry": {"location": {"lat": 42.2661653, "lng": -71.11102629999999}, "viewport": {"northeast": {"lat": 42.2675357802915, "lng": -71.1096187197085}, "southwest": {"lat": 42.2648378197085, "lng": -71.1123166802915}}}, "icon": "https://maps.gstatic.com/mapfiles/place_api/icons/generic_business-71.png", "id": "222deceb1d07d5d04cb1fc3845e175fd45c433bf", "name": "r&j building services", "opening_hours": {"open_now": true}, "place_id": "ChIJj_dO35d-44kRt7cjs3erGlE", "plus_code": {"compound_code": "7V8Q+FH Boston, Massachusetts, United States", "global_code": "87JC7V8Q+FH"}, "reference": "ChIJj_dO35d-44kRt7cjs3erGlE", "scope": "GOOGLE", "types": ["point_of_interest", "establishment"], "vicinity": "219 Wood Avenue, Boston"}, "ChIJYd8BDL1-44kRJ7GfVtgp9eY": {"geometry": {"location": {"lat": 42.2678288, "lng": -71.1117845}, "viewport": {"northeast": {"lat": 42.2691498302915, "lng": -71.11032631970849}, "southwest": {"lat": 42.2664518697085, "lng": -71.1130242802915}}}, "icon": "https://maps.gstatic.com/mapfiles/place_api/icons/generic_business-71.png", "id": "47329148885c12033f1c7eb13385e5768ac43315", "name": "Bishop F.J.Wilson Hall", "place_id": "ChIJYd8BDL1-44kRJ7GfVtgp9eY", "plus_code": {"compound_code": "7V9Q+47 Boston, Massachusetts, United States", "global_code": "87JC7V9Q+47"}, "rating": 5, "reference": "ChIJYd8BDL1-44kRJ7GfVtgp9eY", "scope": "GOOGLE", "types": ["point_of_interest", "establishment"], "user_ratings_total": 5, "vicinity": "175 Wood Avenue, Hyde Park"}, "ChIJAQDwn71-44kR0TVnvBKj3I4": {"geometry": {"location": {"lat": 42.267323, "lng": -71.11218099999999}, "viewport": {"northeast": {"lat": 42.26861478029149, "lng": -71.1108021197085}, "southwest": {"lat": 42.26591681970849, "lng": -71.1135000802915}}}, "icon": "https://maps.gstatic.com/mapfiles/place_api/icons/worship_general-71.png", "id": "2562aa49b0e4fae8c4afcc359bc618fbd91f2032", "name": "Greater Faith Worship Center Campus", "place_id": "ChIJAQDwn71-44kR0TVnvBKj3I4", "plus_code": {"compound_code": "7V8Q+W4 Boston, Massachusetts, United States", "global_code": "87JC7V8Q+W4"}, "rating": 4.5, "reference": "ChIJAQDwn71-44kR0TVnvBKj3I4", "scope": "GOOGLE", "types": ["church", "place_of_worship", "point_of_interest", "establishment"], "user_ratings_total": 4, "vicinity": "120 Safford Street, Hyde Park"}, "ChIJ_RtB_Zd-44kRxjnQ6OGQUwk": {"geometry": {"location": {"lat": 42.265951, "lng": -71.109867}, "viewport": {"northeast": {"lat": 42.2671727802915, "lng": -71.10886651970849}, "southwest": {"lat": 42.2644748197085, "lng": -71.11156448029149}}}, "icon": "https://maps.gstatic.com/mapfiles/place_api/icons/worship_general-71.png", "id": "fe6c076c9b7c0592b9cc384339c4e8170c898f72", "name": "Kingdom Hall of Jehovah\u2019s Witnesses", "photos": [{"height": 1440, "html_attributions": ["<a href=\"https://maps.google.com/maps/contrib/111300651292062559731/photos\">Joel Saintjean</a>"], "photo_reference": "CmRaAAAA4PGX8_Kion97mgSLa34nRMIQFsk9ZiaocVB0hd9dAd96mXB_2230tt6VKC_CkZllvxI6U9wpM-3ydQ_568A_cfrJ1SJTBKMzdmgb4eqPEDmgC5EqNFw2DOYxMbJfGQKZEhBD7xIBDehiS2dgRH5L3IIWGhRSZdlJoebR2IXttsK-oZNARduyLg", "width": 2560}], "place_id": "ChIJ_RtB_Zd-44kRxjnQ6OGQUwk", "plus_code": {"compound_code": "7V8R+93 Boston, Massachusetts, United States", "global_code": "87JC7V8R+93"}, "rating": 5, "reference": "ChIJ_RtB_Zd-44kRxjnQ6OGQUwk", "scope": "GOOGLE", "types": ["church", "place_of_worship", "point_of_interest", "establishment"], "user_ratings_total": 8, "vicinity": "230 Wood Avenue, Hyde Park"}, "ChIJNYumFr1-44kRGDKF1bGAkqs": {"geometry": {"location": {"lat": 42.2677031, "lng": -71.11106989999999}, "viewport": {"northeast": {"lat": 42.2689688302915, "lng": -71.1096722197085}, "southwest": {"lat": 42.2662708697085, "lng": -71.1123701802915}}}, "icon": "https://maps.gstatic.com/mapfiles/place_api/icons/generic_business-71.png", "id": "d2b351d7b039991d395f87236939fa5133b3d2ca", "name": "Reform Masonry", "photos": [{"height": 5312, "html_attributions": ["<a href=\"https://maps.google.com/maps/contrib/105071999569941327058/photos\">Dj Your boy</a>"], "photo_reference": "CmRaAAAAoUqjzGC3saDcWtO6zBCnNhDmKmzNUEVxcTP0fnbdAUpM040LK2cgWNr9_W7XprEymMKFfAGnukRM_6cqCRmHXUpxmTlC8BR3INapiJrbE-62EqTLGLuP3jJupKqS6XOPEhA5qASmPOaYL-WWpLH92tofGhS6gvyWikWlGxdvsxzIszbLuUFRUQ", "width": 2988}], "place_id": "ChIJNYumFr1-44kRGDKF1bGAkqs", "plus_code": {"compound_code": "7V9Q+3H Boston, Massachusetts, United States", "global_code": "87JC7V9Q+3H"}, "rating": 3, "reference": "ChIJNYumFr1-44kRGDKF1bGAkqs", "scope": "GOOGLE", "types": ["general_contractor", "point_of_interest", "establishment"], "user_ratings_total": 1, "vicinity": "14 Parker Street, Hyde Park"}, "ChIJWaa1w5d-44kRMJvd2N5Db30": {"geometry": {"location": {"lat": 42.2653764, "lng": -71.1108849}, "viewport": {"northeast": {"lat": 42.2668038302915, "lng": -71.10932101970849}, "southwest": {"lat": 42.2641058697085, "lng": -71.1120189802915}}}, "icon": "https://maps.gstatic.com/mapfiles/place_api/icons/school-71.png", "id": "f8617d36c388187d9df7df17c82a37ab3a6e2c0f", "name": "Elihu Greenwood School", "place_id": "ChIJWaa1w5d-44kRMJvd2N5Db30", "plus_code": {"compound_code": "7V8Q+5J Boston, Massachusetts, United States", "global_code": "87JC7V8Q+5J"}, "reference": "ChIJWaa1w5d-44kRMJvd2N5Db30", "scope": "GOOGLE", "types": ["school", "point_of_interest", "establishment"], "vicinity": "Boston"}, "ChIJKaX9WPN-44kRuBkSMPi0ovg": {"geometry": {"location": {"lat": 42.2565289, "lng": -71.1240559}, "viewport": {"northeast": {"lat": 42.280099, "lng": -71.09799509999999}, "southwest": {"lat": 42.227798, "lng": -71.1460957}}}, "icon": "https://maps.gstatic.com/mapfiles/place_api/icons/geocode-71.png", "id": "c0e96efb3074e45bd87b53a676a6308f74ca332d", "name": "Hyde Park", "photos": [{"height": 2448, "html_attributions": ["<a href=\"https://maps.google.com/maps/contrib/109826948244288350691/photos\">Bayoan Martinez-Yung</a>"], "photo_reference": "CmRaAAAAiE6g4qdEa5VRB5lG09cur_d3wVzy-OExuADEry-IIbrRYhwWr65iHyR9100_qrW1jUIN1QS5QbbQIOwdOFJtlOwy8kPWTyFj4fzAFRiS9vZpii-dkjMkH0G9RWjRXGvFEhAWqVjkZGVPW-5cbDrpl4OOGhT_kbPUeB90vJS6S8U9vUxxC7EagA", "width": 3264}], "place_id": "ChIJKaX9WPN-44kRuBkSMPi0ovg", "reference": "ChIJKaX9WPN-44kRuBkSMPi0ovg", "scope": "GOOGLE", "types": ["neighborhood", "political"], "vicinity": "Boston"}}