{"ChIJGzE9DS1l44kRoOhiASS_fHg": {"geometry": {"location": {"lat": 42.3600825, "lng": -71.0588801}, "viewport": {"northeast": {"lat": 42.40081989999999, "lng": -70.749455}, "southwest": {"lat": 42.22788, "lng": -71.191113}}}, "icon": "https://maps.gstatic.com/mapfiles/place_api/icons/geocode-71.png", "id": "06755c25d2b34d13942a4713971756a55b870ced", "name": "Boston", "photos": [{"height": 3024, "html_attributions": ["<a href=\"https://maps.google.com/maps/contrib/104670289779338733432/photos\">Natalia Zalucean</a>"], "photo_reference": "CmRaAAAA-Flf0HwvUntQgN_JQPrXCF4AmMkxAQGJzikdL2yQMyId-d05qFerFmYVOzXoAGXl-PpUkjzjtLJ9DDYgavpqvGsDt-0ABabVTWOfiMtCaDp1Trd83go8e4tGuwZYQdKvEhCnHa-YEEhrTcDimc41QE9RGhQERRYYF0CfpgGcWha9k4o1YIJowQ", "width": 4032}], "place_id": "ChIJGzE9DS1l44kRoOhiASS_fHg", "reference": "ChIJGzE9DS1l44kRoOhiASS_fHg", "scope": "GOOGLE", "types": ["locality", "political"], "vicinity": "Boston"}, "ChIJtSOcGG5644kRgmK3oI-85Z4": {"geometry": {"location": {"lat": 42.34387079999999, "lng": -71.06634249999999}, "viewport": {"northeast": {"lat": 42.34517833029149, "lng": -71.06487196970849}, "southwest": {"lat": 42.3424803697085, "lng": -71.06756993029151}}}, "icon": "https://maps.gstatic.com/mapfiles/place_api/icons/generic_business-71.png", "id": "8fbf395429a8e3eda5a8bb4c9be38bc4b1024e05", "name": "Project Place", "photos": [{"height": 1456, "html_attributions": ["<a href=\"https://maps.google.com/maps/contrib/111680143285634234135/photos\">Jennifer Gould</a>"], "photo_reference": "CmRaAAAAQz7fRhCk2D71eSVfcBYowNm6WuIkkZSUVfZB0tCKZM6Db6TDKS3ubJUi2AejMYnwfbAjtWwdjBct2GOadKjj0YMIZWMmL9uMNupxbOBtKcc0iv6lTZi0g4U-sVPK_J77EhA37MUuCqOLHXzzApXfTuPfGhQZjElNG-ZIChh-IDtiWx5EdLywlg", "width": 1962}], "place_id": "ChIJtSOcGG5644kRgmK3oI-85Z4", "plus_code": {"compound_code": "8WVM+GF Boston, Massachusetts, United States", "global_code": "87JC8WVM+GF"}, "rating": 4.6, "reference": "ChIJtSOcGG5644kRgmK3oI-85Z4", "scope": "GOOGLE", "types": ["point_of_interest", "establishment"], "user_ratings_total": 35, "vicinity": "1145 Washington Street, Boston"}, "ChIJs8yo23F644kRScIIr53rSt0": {"geometry": {"location": {"lat": 42.3442158, "lng": -71.0656443}, "viewport": {"northeast": {"lat": 42.3455903802915, "lng": -71.0643675197085}, "southwest": {"lat": 42.3428924197085, "lng": -71.0670654802915}}}, "icon": "https://maps.gstatic.com/mapfiles/place_api/icons/shopping-71.png", "id": "b241445e9db6b0298589078b0e26968309628307", "name": "Ming's Supermarket", "opening_hours": {"open_now": true}, "photos": [{"height": 3024, "html_attributions": ["<a href=\"https://maps.google.com/maps/contrib/113631667309182153889/photos\">Andy Zhang</a>"], "photo_reference": "CmRaAAAAkncoBLCvy0htUWRmCM54FQtpjnLIr9l_dKJ1RKiSEDTlcoPSDqayLQKXkBbwjGWVpASRmLpQ7G_dvga93vhNJ9qEIq7bRT-t3yOb1CRY7ErhEFpUhgAw7VBJyRKe5vmhEhBzGN80Er3pXbB228AkRk6CGhRrRDwkYRkbnTazEl1FJk0JDNhYaw", "width": 4032}], "place_id": "ChIJs8yo23F644kRScIIr53rSt0", "plus_code": {"compound_code": "8WVM+MP Boston, Massachusetts, United States", "global_code": "87JC8WVM+MP"}, "rating": 4.1, "reference": "ChIJs8yo23F644kRScIIr53rSt0", "scope": "GOOGLE", "types": ["supermarket", "grocery_or_supermarket", "store", "point_of_interest", "food", "establishment"], "user_ratings_total": 389, "vicinity": "1102 Washington Street, Boston"}, "ChIJb-b-IG5644kRRIIRL6F0CQI": {"geometry": {"location": {"lat": 42.343983, "lng": -71.065687}, "viewport": {"northeast": {"lat": 42.3453740802915, "lng": -71.06445406970849}, "southwest": {"lat": 42.34267611970851, "lng": -71.06715203029151}}}, "icon": "https://maps.gstatic.com/mapfiles/place_api/icons/shopping-71.png", "id": "86d79c62828eecc5a939874eff71e6170b4a487c", "name": "Empire Loan of Boston", "opening_hours": {"open_now": true}, "photos": [{"height": 723, "html_attributions": ["<a href=\"https://maps.google.com/maps/contrib/103858300743746114601/photos\">Empire Loan of Boston</a>"], "photo_reference": "CmRaAAAABqmIpkLB5BzSe9eAyxCYQSshwWEFzyy7nkWtzsnwyMTbKzhN4BUUNoOjK7-VcV54OvtoFN78ahY_ed504gcKkZ5SDf5Lq3TwCZb3TpIEKTI7QghvAQl8JY_JcPtm0MOcEhAS7Hjo0EQukbkZW6RrJDRqGhT9XnNjtsE5FsRAML0TT7jNYSZOfA", "width": 1185}], "place_id": "ChIJb-b-IG5644kRRIIRL6F0CQI", "plus_code": {"compound_code": "8WVM+HP Boston, Massachusetts, United States", "global_code": "87JC8WVM+HP"}, "rating": 2.7, "reference": "ChIJb-b-IG5644kRRIIRL6F0CQI", "scope": "GOOGLE", "types": ["jewelry_store", "finance", "store", "point_of_interest", "establishment"], "user_ratings_total": 38, "vicinity": "1130 Washington Street, Boston"}, "ChIJzaAS73F644kRrvD06s-CbA0": {"geometry": {"location": {"lat": 42.34485400000001, "lng": -71.0664089}, "viewport": {"northeast": {"lat": 42.3462540302915, "lng": -71.0652266197085}, "southwest": {"lat": 42.3435560697085, "lng": -71.0679245802915}}}, "icon": "https://maps.gstatic.com/mapfiles/place_api/icons/generic_business-71.png", "id": "7920d1000c523eee70461aa372303b30066a5100", "name": "Waterford Place", "place_id": "ChIJzaAS73F644kRrvD06s-CbA0", "plus_code": {"compound_code": "8WVM+WC Boston, Massachusetts, United States", "global_code": "87JC8WVM+WC"}, "rating": 5, "reference": "ChIJzaAS73F644kRrvD06s-CbA0", "scope": "GOOGLE", "types": ["point_of_interest", "establishment"], "user_ratings_total": 2, "vicinity": "180 Shawmut Avenue, Boston"}, "ChIJMzgS421644kRqBZHFUi3D44": {"geometry": {"location": {"lat": 42.3438641, "lng": -71.06794579999999}, "viewport": {"northeast": {"lat": 42.34516263029149, "lng": -71.06654296970851}, "southwest": {"lat": 42.34246466970849, "lng": -71.06924093029151}}}, "icon": "https://maps.gstatic.com/mapfiles/place_api/icons/generic_business-71.png", "id": "cb5327dbf0a8407f5784f3cab2c4f684e2bf34a6", "name": "Shawmut Place", "opening_hours": {"open_now": true}, "photos": [{"height": 3024, "html_attributions": ["<a href=\"https://maps.google.com/maps/contrib/100444203488619289184/photos\">Chris C</a>"], "photo_reference": "CmRaAAAACXJFuYok862Bdv4sB8GShSvp-NTdTo1a_UhH2S1b4CSndzXmUL7akD9l49eERV5OVIMUSgQTN5EKqTPi6VnV7IU4qJXRXgj5nb27BoxCusu-V-6mtDiJ6hzXkkz6x84uEhB-gVIIdkQSOmHMzX4ilY9kGhR9l6H9mr0ZZvmbJGnEgUp5L3PRag", "width": 4032}], "place_id": "ChIJMzgS421644kRqBZHFUi3D44", "plus_code": {"compound_code": "8WVJ+GR Boston, Massachusetts, United States", "global_code": "87JC8WVJ+GR"}, "rating": 3.7, "reference": "ChIJMzgS421644kRqBZHFUi3D44", "scope": "GOOGLE", "types": ["point_of_interest", "establishment"], "user_ratings_total": 3, "vicinity": "231 Shawmut Avenue, Boston"}, "ChIJgQLz5xZ644kRi3Q2G4xuV5o": {"geometry": {"location": {"lat": 42.3437321, "lng": -71.06583189999999}, "viewport": {"northeast": {"lat": 42.3451240302915, "lng": -71.06460721970849}, "southwest": {"lat": 42.3424260697085, "lng": -71.06730518029151}}}, "icon": "https://maps.gstatic.com/mapfiles/place_api/icons/cafe-71.png", "id": "1b2a1c067971bbafcd31d05c9d32cb0d47379d6c", "name": "Dunkin' Donuts", "opening_hours": {"open_now": true}, "photos": [{"height": 2988, "html_attributions": ["<a href=\"https://maps.google.com/maps/contrib/113041496069928855924/photos\">Hwaseong Lee</a>"], "photo_reference": "CmRaAAAAX1IBya89yqwtsgguAoAMALEHeSvLCo1ngCTLVp_Q1ungR1FommTZQmDI4VFi2Zb2qUsZY-ZBzybkPyJfyO2xxBuUuF-v5reqaZ8dWJUh1KFJE-Rp4ljlE0A320lpPDe7EhCFJcXOBWY590w5ijwGjb7hGhRXTf0hZK9h_Uaow2l3gIAnMM-IXA", "width": 5312}], "place_id": "ChIJgQLz5xZ644kRi3Q2G4xuV5o", "plus_code": {"compound_code": "8WVM+FM Boston, Massachusetts, United States", "global_code": "87JC8WVM+FM"}, "price_level": 1, "rating": 4, "reference": "ChIJgQLz5xZ644kRi3Q2G4xuV5o", "scope": "GOOGLE", "types": ["cafe", "bakery", "store", "restaurant", "point_of_interest", "food", "establishment"], "user_ratings_total": 74, "vicinity": "1138 Washington Street, Boston"}, "ChIJY6BSCHJ644kRqAu5dx9H7Ho": {"geometry": {"location": {"lat": 42.3446352, "lng": -71.0684407}, "viewport": {"northeast": {"lat": 42.3460434302915, "lng": -71.0670534197085}, "southwest": {"lat": 42.3433454697085, "lng": -71.0697513802915}}}, "icon": "https://maps.gstatic.com/mapfiles/place_api/icons/generic_recreational-71.png", "id": "e6fc1a2bf18d3f92d2057dd04c3e496e67af6923", "name": "Berkeley Community Garden", "photos": [{"height": 3621, "html_attributions": ["<a href=\"https://maps.google.com/maps/contrib/109684182341949109183/photos\">Brooks Payne</a>"], "photo_reference": "CmRaAAAAGQ1hI-Ftx5Oss5AmHR_NRCarssNSmZB6OQzIFAxwonMjRLcoER3QkRoAAviBKSY6jj26_WeSqNXOwwQLKljSDGE0hjoR9aPtDG3gM9so8zg69C8x0g9dZ8fGruCH4fTeEhC8bvNgQGOKzrhVuqkGwdl9GhSSXEV7be6vyBva0et4r2lQMOKDGA", "width": 5747}], "place_id": "ChIJY6BSCHJ644kRqAu5dx9H7Ho", "plus_code": {"compound_code": "8WVJ+VJ Boston, Massachusetts, United States", "global_code": "87JC8WVJ+VJ"}, "rating": 4.6, "reference": "ChIJY6BSCHJ644kRqAu5dx9H7Ho", "scope": "GOOGLE", "types": ["park", "point_of_interest", "establishment"], "user_ratings_total": 13, "vicinity": "East Berkeley Street, Boston"}, "ChIJP9qIAm5644kRMzjIKNFKb80": {"geometry": {"location": {"lat": 42.3442019, "lng": -71.0669008}, "viewport": {"northeast": {"lat": 42.3455675802915, "lng": -71.0655424697085}, "southwest": {"lat": 42.3428696197085, "lng": -71.06824043029151}}}, "icon": "https://maps.gstatic.com/mapfiles/place_api/icons/generic_business-71.png", "id": "70db4591fd24d74ae29e382b9ee085a6f1af2900", "name": "MODA", "photos": [{"height": 332, "html_attributions": ["<a href=\"https://maps.google.com/maps/contrib/101468570619377749515/photos\">MODA</a>"], "photo_reference": "CmRaAAAA726NbO42YfpiGATBUDXIW62cRdICncHhRqXlyVCxgOZjE7SFS1noqALgKe14JPP5GbjfkNPMuxfYWdb9rQszNgTkDaYLzrf1V0-XU2rhi2AHTaKZ8eypFD1hzwOYTFcYEhC9fQM3stv8medH5suHeFEAGhTbI0TN7tsnpGC2Gpa0FsApunpJog", "width": 510}], "place_id": "ChIJP9qIAm5644kRMzjIKNFKb80", "plus_code": {"compound_code": "8WVM+M6 Boston, Massachusetts, United States", "global_code": "87JC8WVM+M6"}, "reference": "ChIJP9qIAm5644kRMzjIKNFKb80", "scope": "GOOGLE", "types": ["point_of_interest", "establishment"], "vicinity": "69 East Berkeley Street, Boston"}, "ChIJITYP-m1644kRxp4SjntlI7g": {"geometry": {"location": {"lat": 42.3442648, "lng": -71.0682325}, "viewport": {"northeast": {"lat": 42.3455406802915, "lng": -71.06693666970848}, "southwest": {"lat": 42.3428427197085, "lng": -71.0696346302915}}}, "icon": "https://maps.gstatic.com/mapfiles/place_api/icons/generic_business-71.png", "id": "fb5117a4d54d69e2ca0c7b696cb50cab77c99885", "name": "South End Errands, LLC", "opening_hours": {"open_now": true}, "place_id": "ChIJITYP-m1644kRxp4SjntlI7g", "plus_code": {"compound_code": "8WVJ+PP Boston, Massachusetts, United States", "global_code": "87JC8WVJ+PP"}, "reference": "ChIJITYP-m1644kRxp4SjntlI7g", "scope": "GOOGLE", "types": ["point_of_interest", "establishment"], "vicinity": "17 Dwight Street, Boston"}, "ChIJxxfR6gx644kRoH80MYCbsCk": {"geometry": {"location": {"lat": 42.34387079999999, "lng": -71.06634249999999}, "viewport": {"northeast": {"lat": 42.34517833029149, "lng": -71.06487196970849}, "southwest": {"lat": 42.3424803697085, "lng": -71.06756993029151}}}, "icon": "https://maps.gstatic.com/mapfiles/place_api/icons/restaurant-71.png", "id": "b59ddf1064addf9a6b1958e7c67bfbd8d5c1d4a4", "name": "Myers+Chang", "opening_hours": {"open_now": true}, "photos": [{"height": 2268, "html_attributions": ["<a href=\"https://maps.google.com/maps/contrib/100869899117565370560/photos\">Jen Wong</a>"], "photo_reference": "CmRaAAAABZPZxoNZXZ8XETRGXDISa1li7r-UPSWOl1g38yXh4EzXh49wnbR5KAlqDKbvFHm-qL1eBT_zpEU7w6ggr_ATGj8dEtwSGC7Ur3BMmxIPF0wzTBNi6JFI_AgfoMVYwAw0EhCbR7vspMj1-aH52DPm_ASmGhQIR6k9BEWfWgCwFjAuaArM6kVgvw", "width": 4032}], "place_id": "ChIJxxfR6gx644kRoH80MYCbsCk", "plus_code": {"compound_code": "8WVM+GF Boston, Massachusetts, United States", "global_code": "87JC8WVM+GF"}, "price_level": 2, "rating": 4.5, "reference": "ChIJxxfR6gx644kRoH80MYCbsCk", "scope": "GOOGLE", "types": ["restaurant", "point_of_interest", "food", "establishment"], "user_ratings_total": 664, "vicinity": "1145 Washington Street, Boston"}, "ChIJa6fOIm5644kRjzEHBWXYIwA": {"geometry": {"location": {"lat": 42.34356280000001, "lng": -71.0659445}, "viewport": {"northeast": {"lat": 42.3449549302915, "lng": -71.0647162697085}, "southwest": {"lat": 42.34225696970851, "lng": -71.0674142302915}}}, "icon": "https://maps.gstatic.com/mapfiles/place_api/icons/generic_business-71.png", "id": "28aa006c809e761a419ae25716097da81841310f", "name": "Richard Soohoo Insurance", "opening_hours": {"open_now": false}, "photos": [{"height": 2048, "html_attributions": ["<a href=\"https://maps.google.com/maps/contrib/111866811899028551868/photos\">Richard Soohoo Insurance</a>"], "photo_reference": "CmRaAAAAmNRQlwLoqRTb13e4cdHSemNW-tp5J-C2WxvJaCLrPmEK55kzBXAz78q90dFQ-Rq-bSK1TvF-1CLDJpXN5yE3jul5MEmfuhLK61uKx1N5FtrUXXgWVMeV5A0php6z6BXvEhCezsGZijbkX8kqxGqe1icYGhS-gnuhMQYO3sJghDuRtJMIJI5m1g", "width": 2048}], "place_id": "ChIJa6fOIm5644kRjzEHBWXYIwA", "plus_code": {"compound_code": "8WVM+CJ Boston, Massachusetts, United States", "global_code": "87JC8WVM+CJ"}, "rating": 4, "reference": "ChIJa6fOIm5644kRjzEHBWXYIwA", "scope": "GOOGLE", "types": ["insurance_agency", "point_of_interest", "establishment"], "user_ratings_total": 4, "vicinity": "1148 Washington Street, Boston"}, "ChIJ4y93GG5644kRQ9VN88rnRTI": {"geometry": {"location": {"lat": 42.3436389, "lng": -71.065944}, "viewport": {"northeast": {"lat": 42.3450227802915, "lng": -71.0646974197085}, "southwest": {"lat": 42.3423248197085, "lng": -71.0673953802915}}}, "icon": "https://maps.gstatic.com/mapfiles/place_api/icons/generic_business-71.png", "id": "39f9b289b85776ed1e69624b8ca5413fe2e86ef1", "name": "William Soohoo Law Office", "opening_hours": {"open_now": true}, "place_id": "ChIJ4y93GG5644kRQ9VN88rnRTI", "plus_code": {"compound_code": "8WVM+FJ Boston, Massachusetts, United States", "global_code": "87JC8WVM+FJ"}, "rating": 5, "reference": "ChIJ4y93GG5644kRQ9VN88rnRTI", "scope": "GOOGLE", "types": ["lawyer", "point_of_interest", "establishment"], "user_ratings_total": 2, "vicinity": "1146 Washington Street # 1, Boston"}, "ChIJpb97Jm5644kR4bFK3DUiwOo": {"geometry": {"location": {"lat": 42.343806, "lng": -71.065531}, "viewport": {"northeast": {"lat": 42.3451387302915, "lng": -71.0641901697085}, "southwest": {"lat": 42.3424407697085, "lng": -71.0668881302915}}}, "icon": "https://maps.gstatic.com/mapfiles/place_api/icons/shopping-71.png", "id": "7a21444e8087202172b8f806c63f55b267245ce7", "name": "FastFrame - Boston", "opening_hours": {"open_now": true}, "photos": [{"height": 1000, "html_attributions": ["<a href=\"https://maps.google.com/maps/contrib/109201824823721214427/photos\">FastFrame Boston</a>"], "photo_reference": "CmRaAAAAfvseDuwy1A_3bqYLFMNNs9JC7i5GVQWPd549SmVA2jtR-t8CbLFlJJvdZnsrFyoO9tCk0JRgYRKj4ZECFqYKkZlDp6l8eiBdBAuzEyMYPrzJwjAnRczr7iL5T7mHcKn9EhAxUZzZBCNle1rv_-o9v0AOGhR9W_v8FakzbjKFMHQeTsCpiWQxGA", "width": 1500}], "place_id": "ChIJpb97Jm5644kR4bFK3DUiwOo", "plus_code": {"compound_code": "8WVM+GQ Boston, Massachusetts, United States", "global_code": "87JC8WVM+GQ"}, "price_level": 2, "rating": 4.5, "reference": "ChIJpb97Jm5644kR4bFK3DUiwOo", "scope": "GOOGLE", "types": ["store", "point_of_interest", "establishment"], "user_ratings_total": 6, "vicinity": "105-107 East Berkeley Street, Boston"}, "ChIJmWjLvHF644kRIxoya1YSDQ8": {"geometry": {"location": {"lat": 42.345897, "lng": -71.065861}, "viewport": {"northeast": {"lat": 42.34729893029149, "lng": -71.06470121970848}, "southwest": {"lat": 42.3446009697085, "lng": -71.0673991802915}}}, "icon": "https://maps.gstatic.com/mapfiles/place_api/icons/generic_business-71.png", "id": "36581f9e6549ff3c21dbef3d803ab9fc5044464d", "name": "The Lucas", "photos": [{"height": 768, "html_attributions": ["<a href=\"https://maps.google.com/maps/contrib/112645070145184358823/photos\">Eric Laliberte</a>"], "photo_reference": "CmRaAAAALSQlPv5CgDa9XSrEfDmsU__4gHJiKY0YC4D5JxEaGOUwnBlgnYA_dyDU5BfXm2bjwbSAltAdw26-Ho7i4AozFmc_GbfcUiDku7YT9k1Oad3kecoTlNyMCb0yyEg_rboDEhAoETaubqUBIO9jHF13T2nsGhSLuNXjhJjldVC_G6QpbF5-ZbuAVQ", "width": 1024}], "place_id": "ChIJmWjLvHF644kRIxoya1YSDQ8", "plus_code": {"compound_code": "8WWM+9M Boston, Massachusetts, United States", "global_code": "87JC8WWM+9M"}, "rating": 3, "reference": "ChIJmWjLvHF644kRIxoya1YSDQ8", "scope": "GOOGLE", "types": ["point_of_interest", "establishment"], "user_ratings_total": 2, "vicinity": "136 Shawmut Avenue, Boston"}, "ChIJk8Um5G1644kRl7TzahDxQ5g": {"geometry": {"location": {"lat": 42.3436811, "lng": -71.0681563}, "viewport": {"northeast": {"lat": 42.3449945302915, "lng": -71.0667702197085}, "southwest": {"lat": 42.3422965697085, "lng": -71.06946818029151}}}, "icon": "https://maps.gstatic.com/mapfiles/place_api/icons/generic_business-71.png", "id": "1e3e860edb75932b6b5e141d4888db306674c4a2", "name": "Chestnut Hill Interiors", "place_id": "ChIJk8Um5G1644kRl7TzahDxQ5g", "plus_code": {"compound_code": "8WVJ+FP Boston, Massachusetts, United States", "global_code": "87JC8WVJ+FP"}, "reference": "ChIJk8Um5G1644kRl7TzahDxQ5g", "scope": "GOOGLE", "types": ["general_contractor", "point_of_interest", "establishment"], "vicinity": "239 Shawmut Avenue, Boston"}, "ChIJM7yqI25644kR7IQsALMx3LU": {"geometry": {"location": {"lat": 42.3436897, "lng": -71.06592859999999}, "viewport": {"northeast": {"lat": 42.3450713302915, "lng": -71.06467526970849}, "southwest": {"lat": 42.3423733697085, "lng": -71.0673732302915}}}, "icon": "https://maps.gstatic.com/mapfiles/place_api/icons/generic_business-71.png", "id": "939a4964a07be769300b546dcad834f8985e8b82", "name": "Ben Shepherd Financial", "place_id": "ChIJM7yqI25644kR7IQsALMx3LU", "plus_code": {"compound_code": "8WVM+FJ Boston, Massachusetts, United States", "global_code": "87JC8WVM+FJ"}, "reference": "ChIJM7yqI25644kR7IQsALMx3LU", "scope": "GOOGLE", "types": ["finance", "point_of_interest", "establishment"], "vicinity": "1140 Washington Street, Boston"}, "ChIJQ8qsIG5644kRuPKX8as3EXE": {"geometry": {"location": {"lat": 42.34408690000001, "lng": -71.065712}, "viewport": {"northeast": {"lat": 42.34546378029151, "lng": -71.0644417197085}, "southwest": {"lat": 42.34276581970851, "lng": -71.0671396802915}}}, "icon": "https://maps.gstatic.com/mapfiles/place_api/icons/shopping-71.png", "id": "2a99ecc30ecc1edb52f6480637109fee6a400691", "name": "Sid's Smoke", "opening_hours": {"open_now": true}, "place_id": "ChIJQ8qsIG5644kRuPKX8as3EXE", "plus_code": {"compound_code": "8WVM+JP Boston, Massachusetts, United States", "global_code": "87JC8WVM+JP"}, "rating": 3.3, "reference": "ChIJQ8qsIG5644kRuPKX8as3EXE", "scope": "GOOGLE", "types": ["store", "point_of_interest", "establishment"], "user_ratings_total": 4, "vicinity": "1120 Washington Street, Boston"}, "ChIJleb-IG5644kRjzz5-HwT7VA": {"geometry": {"location": {"lat": 42.3439736, "lng": -71.0656941}, "viewport": {"northeast": {"lat": 42.3453645302915, "lng": -71.06446081970849}, "southwest": {"lat": 42.3426665697085, "lng": -71.0671587802915}}}, "icon": "https://maps.gstatic.com/mapfiles/place_api/icons/atm-71.png", "id": "fe7e1fd6881a0ca5f692fe07a3b2da9725285bdf", "name": "ATM Express", "place_id": "ChIJleb-IG5644kRjzz5-HwT7VA", "plus_code": {"compound_code": "8WVM+HP Boston, Massachusetts, United States", "global_code": "87JC8WVM+HP"}, "rating": 4, "reference": "ChIJleb-IG5644kRjzz5-HwT7VA", "scope": "GOOGLE", "types": ["atm", "finance", "point_of_interest", "establishment"], "user_ratings_total": 1, "vicinity": "1130 Washington Street, Boston"}, "ChIJ28p2uBR644kRGOnQAcK4Txc": {"geometry": {"location": {"lat": 42.3388111, "lng": -71.0765188}, "viewport": {"northeast": {"lat": 42.347756, "lng": -71.0607948}, "southwest": {"lat": 42.331455, "lng": -71.09079799999999}}}, "icon": "https://maps.gstatic.com/mapfiles/place_api/icons/geocode-71.png", "id": "bf793a5ca0b5e36b87cfa6836ddba9f86f2af360", "name": "South End", "photos": [{"height": 2736, "html_attributions": ["<a href=\"https://maps.google.com/maps/contrib/110185226650349094791/photos\">Alex Harm</a>"], "photo_reference": "CmRaAAAAbgFdzp46rWq86hX9QLw5TORHC__4RGmoy3Rw3b0ArfstzB41uQVxCvSV5SJPh6J6um1OGX12siGlpbCZMKjQZktvvUdrHYNZ7vL3D94UO1819pnbhKfD66OY-mVlIoQYEhAYgNWuxirjSdRRr_eQCK8qGhSrdEJi0yzlfZTORz6AtYwpHfXzkQ", "width": 3648}], "place_id": "ChIJ28p2uBR644kRGOnQAcK4Txc", "reference": "ChIJ28p2uBR644kRGOnQAcK4Txc", "scope": "GOOGLE", "types": ["neighborhood", "political"], "vicinity": "Boston"}, "ChIJzZ1u-21644kRlRgrNKqfjyk": {"geometry": {"location": {"lat": 42.3439546, "lng": -71.068083}, "viewport": {"northeast": {"lat": 42.3453318802915, "lng": -71.0667141197085}, "southwest": {"lat": 42.3426339197085, "lng": -71.0694120802915}}}, "icon": "https://maps.gstatic.com/mapfiles/place_api/icons/generic_business-71.png", "id": "804ec3080e7b4af7538384651df4674efc12ddae", "name": "Buddy Pal", "place_id": "ChIJzZ1u-21644kRlRgrNKqfjyk", "plus_code": {"compound_code": "8WVJ+HQ Boston, Massachusetts, United States", "global_code": "87JC8WVJ+HQ"}, "reference": "ChIJzZ1u-21644kRlRgrNKqfjyk", "scope": "GOOGLE", "types": ["point_of_interest", "establishment"], "vicinity": "7 Dwight Street, Boston"}, "ChIJl-9FPW5644kR6GqmnYutD0E": {"geometry": {"location": {"lat": 42.3435193, "lng": -71.0660529}, "viewport": {"northeast": {"lat": 42.3449028302915, "lng": -71.0647922197085}, "southwest": {"lat": 42.3422048697085, "lng": -71.0674901802915}}}, "icon": "https://maps.gstatic.com/mapfiles/place_api/icons/school-71.png", "id": "7e23d59b6567b2f8c6bc34256006afe7ae6a1ab3", "name": "City Lights Performing arts school", "place_id": "ChIJl-9FPW5644kR6GqmnYutD0E", "plus_code": {"compound_code": "8WVM+CH Boston, Massachusetts, United States", "global_code": "87JC8WVM+CH"}, "reference": "ChIJl-9FPW5644kR6GqmnYutD0E", "scope": "GOOGLE", "types": ["school", "point_of_interest", "establishment"], "vicinity": "1154 Washington Street, Boston"}, "ChIJMxavHm5644kRUfNw-j_vxLE": {"geometry": {"location": {"lat": 42.3444996, "lng": -71.0666865}, "viewport": {"northeast": {"lat": 42.34585653029151, "lng": -71.0654405197085}, "southwest": {"lat": 42.34315856970851, "lng": -71.06813848029151}}}, "icon": "https://maps.gstatic.com/mapfiles/place_api/icons/generic_business-71.png", "id": "aa524f4dbe1c051a67fe5afb63f060500e6bd08d", "name": "Stanhope Garage", "place_id": "ChIJMxavHm5644kRUfNw-j_vxLE", "plus_code": {"compound_code": "8WVM+Q8 Boston, Massachusetts, United States", "global_code": "87JC8WVM+Q8"}, "rating": 4.7, "reference": "ChIJMxavHm5644kRUfNw-j_vxLE", "scope": "GOOGLE", "types": ["parking", "point_of_interest", "establishment"], "user_ratings_total": 3, "vicinity": "79-81 East Berkeley Street A, Boston"}, "ChIJz-1oya9744kREi_AJUv-izY": {"geometry": {"location": {"lat": 42.3444102, "lng": -71.0673695}, "viewport": {"northeast": {"lat": 42.34578773029149, "lng": -71.0660025197085}, "southwest": {"lat": 42.34308976970849, "lng": -71.06870048029151}}}, "icon": "https://maps.gstatic.com/mapfiles/place_api/icons/generic_business-71.png", "id": "2aa2fe23be5ce0df6f240a9b9510f623979058d9", "name": "KeyMe", "opening_hours": {"open_now": true}, "photos": [{"height": 474, "html_attributions": ["<a href=\"https://maps.google.com/maps/contrib/105272766556181296247/photos\">KeyMe</a>"], "photo_reference": "CmRaAAAA3OUOPvINVTnkL5uKkPcke1O9Llk5qi7kCODrS_r1M9qwlF0NCeEc5VJrIOvgMQ6fsLxCyRzh2M9osogqhNzYdbr0p0yAxIf8SgiidjCwCtFpGtTQeuoLaAnOr2DGGMKhEhBZ362Rh7vzcKpFLmnQFeMWGhTm8w2cR19wmBBftgxefSOKcrVngQ", "width": 474}], "place_id": "ChIJz-1oya9744kREi_AJUv-izY", "plus_code": {"compound_code": "8WVM+Q3 Boston, Massachusetts, United States", "global_code": "87JC8WVM+Q3"}, "reference": "ChIJz-1oya9744kREi_AJUv-izY", "scope": "GOOGLE", "types": ["locksmith", "point_of_interest", "establishment"], "vicinity": "55 East Berkeley Street, Boston"}, "ChIJl2fu43F644kRBpmYdUpFcQ0": {"geometry": {"location": {"lat": 42.3444914, "lng": -71.0665549}, "viewport": {"northeast": {"lat": 42.3458808802915, "lng": -71.06499931970849}, "southwest": {"lat": 42.3431829197085, "lng": -71.06769728029151}}}, "icon": "https://maps.gstatic.com/mapfiles/place_api/icons/generic_business-71.png", "id": "6404cafa005a9968ff89a0d4c4c11a6afc98c44d", "name": "60 E Berkeley St Parking", "place_id": "ChIJl2fu43F644kRBpmYdUpFcQ0", "plus_code": {"compound_code": "8WVM+Q9 Boston, Massachusetts, United States", "global_code": "87JC8WVM+Q9"}, "rating": 4, "reference": "ChIJl2fu43F644kRBpmYdUpFcQ0", "scope": "GOOGLE", "types": ["parking", "point_of_interest", "establishment"], "user_ratings_total": 1, "vicinity": "60E East Berkeley Street, Boston"}, "ChIJcaSrBnJ644kR9wxI127pqVU": {"geometry": {"location": {"lat": 42.34476830000001, "lng": -71.06799}, "viewport": {"northeast": {"lat": 42.3461046302915, "lng": -71.0666020197085}, "southwest": {"lat": 42.34340666970851, "lng": -71.0692999802915}}}, "icon": "https://maps.gstatic.com/mapfiles/place_api/icons/generic_business-71.png", "id": "3411d3c0b99f0188c1c8a54c13eb3f10c5fd9911", "name": "Castle Court", "place_id": "ChIJcaSrBnJ644kR9wxI127pqVU", "plus_code": {"compound_code": "8WVJ+WR Boston, Massachusetts, United States", "global_code": "87JC8WVJ+WR"}, "reference": "ChIJcaSrBnJ644kR9wxI127pqVU", "scope": "GOOGLE", "types": ["point_of_interest", "establishment"], "vicinity": "4 Castle Court, Boston"}, "ChIJCZzR4HF644kR3VG7WBhxe9s": {"geometry": {"location": {"lat": 42.34446519999999, "lng": -71.0662688}, "viewport": {"northeast": {"lat": 42.34586778029149, "lng": -71.06485626970849}, "southwest": {"lat": 42.34316981970849, "lng": -71.0675542302915}}}, "icon": "https://maps.gstatic.com/mapfiles/place_api/icons/generic_business-71.png", "id": "21cbac6d8b3c4a5fe3b6a9c20cb7f9eb545956d3", "name": "State Inspection", "place_id": "ChIJCZzR4HF644kR3VG7WBhxe9s", "plus_code": {"compound_code": "8WVM+QF Boston, Massachusetts, United States", "global_code": "87JC8WVM+QF"}, "reference": "ChIJCZzR4HF644kR3VG7WBhxe9s", "scope": "GOOGLE", "types": ["point_of_interest", "establishment"], "vicinity": "Boston"}, "ChIJabSd4HF644kR6a0QfU258J0": {"geometry": {"location": {"lat": 42.34435139999999, "lng": -71.0662354}, "viewport": {"northeast": {"lat": 42.3456684802915, "lng": -71.06478876970849}, "southwest": {"lat": 42.3429705197085, "lng": -71.0674867302915}}}, "icon": "https://maps.gstatic.com/mapfiles/place_api/icons/generic_business-71.png", "id": "cce1a165e54d25c40736760b9db49334c08f2ca9", "name": "Domenic J Basile Inc./Global Auto", "opening_hours": {"open_now": false}, "photos": [{"height": 2992, "html_attributions": ["<a href=\"https://maps.google.com/maps/contrib/113865231197476749592/photos\">Greg Allen</a>"], "photo_reference": "CmRaAAAAqM3_Uwv3v6UbTPgLyOrTDCopiprz2hHFD3-tXWpjAq9T5HBFu9lpbbGLawZM-9uj8cqu5Z8kbknFaEFCpe_i2oR39ZR9fPv1oEcMxv-OHZ80ZtdLhJ4TIqq0e6y59l-LEhCja1P_6c8dHmgmfLXScKcGGhQPj0hV_4OzW1Rdz-bgeMS8u0vLEQ", "width": 4000}], "place_id": "ChIJabSd4HF644kR6a0QfU258J0", "plus_code": {"compound_code": "8WVM+PG Boston, Massachusetts, United States", "global_code": "87JC8WVM+PG"}, "rating": 3.7, "reference": "ChIJabSd4HF644kR6a0QfU258J0", "scope": "GOOGLE", "types": ["car_repair", "point_of_interest", "establishment"], "user_ratings_total": 22, "vicinity": "1115 Washington Street, Boston"}, "ChIJx_qxRLN744kRZrvQGjM5e9g": {"geometry": {"location": {"lat": 42.344039, "lng": -71.067664}, "viewport": {"northeast": {"lat": 42.34533948029149, "lng": -71.06626316970848}, "southwest": {"lat": 42.3426415197085, "lng": -71.0689611302915}}}, "icon": "https://maps.gstatic.com/mapfiles/place_api/icons/generic_business-71.png", "id": "05ad77e8d6b7559d851e0e1a3afff9ff013cddb8", "name": "The Road To Recovery", "photos": [{"height": 555, "html_attributions": ["<a href=\"https://maps.google.com/maps/contrib/112152837662540511520/photos\">The Road To Recovery</a>"], "photo_reference": "CmRaAAAAxxp6rC7Fc4pRg44Y9g2k8hScKdgxCfAlmLGVsNd64pZullMioKF0OgKxCJgTZNTpbObmBiF9Q5ZGHsYZo6c0qxbiR3dLcefKnLtATBn3U2E9vqg-VXS6i2QQaPoOQpuyEhCRWkT9YWt51MKwsBqr5M8uGhR2NZGWt5sUX0bx-qrh4yvPjo2_8A", "width": 554}], "place_id": "ChIJx_qxRLN744kRZrvQGjM5e9g", "plus_code": {"compound_code": "8WVJ+JW Boston, Massachusetts, United States", "global_code": "87JC8WVJ+JW"}, "reference": "ChIJx_qxRLN744kRZrvQGjM5e9g", "scope": "GOOGLE", "types": ["health", "point_of_interest", "establishment"], "vicinity": "Boston"}, "ChIJRdB6-W1644kR8TSQhyZPTY4": {"geometry": {"location": {"lat": 42.3442386, "lng": -71.06811809999999}, "viewport": {"northeast": {"lat": 42.3455079302915, "lng": -71.06682231970849}, "southwest": {"lat": 42.3428099697085, "lng": -71.0695202802915}}}, "icon": "https://maps.gstatic.com/mapfiles/place_api/icons/generic_business-71.png", "id": "fead42c16b1fdf892b8f2f1b63a499fcc0ecfbfe", "name": "Curtis Paul Alden Aia Inc", "place_id": "ChIJRdB6-W1644kR8TSQhyZPTY4", "plus_code": {"compound_code": "8WVJ+MQ Boston, Massachusetts, United States", "global_code": "87JC8WVJ+MQ"}, "reference": "ChIJRdB6-W1644kR8TSQhyZPTY4", "scope": "GOOGLE", "types": ["point_of_interest", "establishment"], "vicinity": "13 Dwight Street, Boston"}, "ChIJBewyT05744kRH9lzxKVSYw4": {"geometry": {"location": {"lat": 42.3447961, "lng": -71.06545419999999}, "viewport": {"northeast": {"lat": 42.34613213029149, "lng": -71.0640664697085}, "southwest": {"lat": 42.34343416970849, "lng": -71.0667644302915}}}, "icon": "https://maps.gstatic.com/mapfiles/place_api/icons/school-71.png", "id": "7a4d9abb82fc72efc516d02c17784d03b52046ec", "name": "DIVAS Mentoring divas Inc.", "opening_hours": {"open_now": false}, "photos": [{"height": 565, "html_attributions": ["<a href=\"https://maps.google.com/maps/contrib/100695744964486866108/photos\">DIVAS Mentoring divas Inc.</a>"], "photo_reference": "CmRaAAAAl26Z8FnY7Gm1p6cKfKaoex4V9pxzPoB8esS_G_SJueAUeSWBn5KEdQVd60ACCSzGWQlBum16bAA5xwsPKQ2nVRa8LalM--F2z2FMrCfhd_44jTT-u5H3zZSR3uRPE1KJEhCbtQyAo1JtsbiYg0uE45gfGhRJDy_R9HiEWeKiKK_4fePUFuKX5A", "width": 960}], "place_id": "ChIJBewyT05744kRH9lzxKVSYw4", "plus_code": {"compound_code": "8WVM+WR Boston, Massachusetts, United States", "global_code": "87JC8WVM+WR"}, "reference": "ChIJBewyT05744kRH9lzxKVSYw4", "scope": "GOOGLE", "types": ["point_of_interest", "establishment"], "vicinity": "1076 Washington Street, Boston"}, "ChIJ2-bUI25644kRpacZm6EWWbk": {"geometry": {"location": {"lat": 42.3441396, "lng": -71.0657363}, "viewport": {"northeast": {"lat": 42.34550808029149, "lng": -71.0644422197085}, "southwest": {"lat": 42.3428101197085, "lng": -71.0671401802915}}}, "icon": "https://maps.gstatic.com/mapfiles/place_api/icons/bus-71.png", "id": "de52ffb4c182eb91e3242c67aa0916cdb0017ff2", "name": "Washington St @ E Berkeley St", "place_id": "ChIJ2-bUI25644kRpacZm6EWWbk", "plus_code": {"compound_code": "8WVM+MP Boston, Massachusetts, United States", "global_code": "87JC8WVM+MP"}, "rating": 5, "reference": "ChIJ2-bUI25644kRpacZm6EWWbk", "scope": "GOOGLE", "types": ["bus_station", "transit_station", "point_of_interest", "establishment"], "user_ratings_total": 1, "vicinity": "United States"}, "ChIJryHVlul744kRfOJMjTuw6BI": {"geometry": {"location": {"lat": 42.3442158, "lng": -71.0656443}, "viewport": {"northeast": {"lat": 42.3455903802915, "lng": -71.0643675197085}, "southwest": {"lat": 42.3428924197085, "lng": -71.0670654802915}}}, "icon": "https://maps.gstatic.com/mapfiles/place_api/icons/restaurant-71.png", "id": "3fb2aa1e385ddb7caafe5cabc644647b71d75876", "name": "Meng's Kitchen", "opening_hours": {"open_now": true}, "photos": [{"height": 600, "html_attributions": ["<a href=\"https://maps.google.com/maps/contrib/100487175178481602282/photos\">Meng&#39;s Kitchen</a>"], "photo_reference": "CmRaAAAAe5MUlSxTqDHByRYlfw8F0pANskRI9_4OWsoZoJ8xkMXLflh6coK9Fj1cm0ibq6Rf4GMmYnhp5dE27ct2U7PkvHCx_ghYskz9WZyjkdf_KlAXjOJ6wWiTVHQJcg3AtdxzEhDa6Kp_W4_vSpVh1sO2D-8TGhTw5pqsxzAwqzcNgmtZFlEc8Fz5ig", "width": 800}], "place_id": "ChIJryHVlul744kRfOJMjTuw6BI", "plus_code": {"compound_code": "8WVM+MP Boston, Massachusetts, United States", "global_code": "87JC8WVM+MP"}, "reference": "ChIJryHVlul744kRfOJMjTuw6BI", "scope": "GOOGLE", "types": ["restaurant", "point_of_interest", "food", "establishment"], "vicinity": "1102 Washington Street, Boston"}, "ChIJJYxhxMB744kRTotPEvuyP_o": {"geometry": {"location": {"lat": 42.3438595, "lng": -71.06605429999999}, "viewport": {"northeast": {"lat": 42.3452218302915, "lng": -71.06474391970849}, "southwest": {"lat": 42.3425238697085, "lng": -71.0674418802915}}}, "icon": "https://maps.gstatic.com/mapfiles/place_api/icons/shopping-71.png", "id": "3cbc6d3f71acdba8508c67b0a86d7c6e1694e443", "name": "Quincy Pest Control Pros", "opening_hours": {"open_now": true}, "place_id": "ChIJJYxhxMB744kRTotPEvuyP_o", "plus_code": {"compound_code": "8WVM+GH Boston, Massachusetts, United States", "global_code": "87JC8WVM+GH"}, "reference": "ChIJJYxhxMB744kRTotPEvuyP_o", "scope": "GOOGLE", "types": ["home_goods_store", "store", "point_of_interest", "establishment"], "vicinity": "1137 Washington Street #59 B, Boston"}, "ChIJjaqCIW5644kRHITQpqri2Bs": {"geometry": {"location": {"lat": 42.3438725, "lng": -71.065934}, "viewport": {"northeast": {"lat": 42.3452438302915, "lng": -71.06457371970848}, "southwest": {"lat": 42.3425458697085, "lng": -71.0672716802915}}}, "icon": "https://maps.gstatic.com/mapfiles/place_api/icons/generic_business-71.png", "id": "3a627d0368ad84e7519b53294bc0518be1ad5214", "name": "Washington St @ E Berkeley St", "place_id": "ChIJjaqCIW5644kRHITQpqri2Bs", "plus_code": {"compound_code": "8WVM+GJ Boston, Massachusetts, United States", "global_code": "87JC8WVM+GJ"}, "reference": "ChIJjaqCIW5644kRHITQpqri2Bs", "scope": "GOOGLE", "types": ["transit_station", "point_of_interest", "establishment"], "vicinity": "United States"}, "ChIJeyIOIm5644kRrf15A7zc7TQ": {"geometry": {"location": {"lat": 42.34380900000001, "lng": -71.066075}, "viewport": {"northeast": {"lat": 42.34514788029151, "lng": -71.06469651970849}, "southwest": {"lat": 42.34244991970851, "lng": -71.0673944802915}}}, "icon": "https://maps.gstatic.com/mapfiles/place_api/icons/bus-71.png", "id": "601e3498ba78a6a81227e94ccba174a14f7a227a", "name": "Washington St @ E Berkeley St", "place_id": "ChIJeyIOIm5644kRrf15A7zc7TQ", "plus_code": {"compound_code": "8WVM+GH Boston, Massachusetts, United States", "global_code": "87JC8WVM+GH"}, "rating": 5, "reference": "ChIJeyIOIm5644kRrf15A7zc7TQ", "scope": "GOOGLE", "types": ["bus_station", "transit_station", "point_of_interest", "establishment"], "user_ratings_total": 1, "vicinity": "United States"}, "ChIJiYwlIW5644kRYJkJr14voVo": {"geometry": {"location": {"lat": 42.343936, "lng": -71.065793}, "viewport": {"northeast": {"lat": 42.3452766302915, "lng": -71.0644482197085}, "southwest": {"lat": 42.3425786697085, "lng": -71.0671461802915}}}, "icon": "https://maps.gstatic.com/mapfiles/place_api/icons/bus-71.png", "id": "54a3ed8221d5346bd183fa0820e4aaed43ae0ebb", "name": "E Berkeley St @ Washington St", "place_id": "ChIJiYwlIW5644kRYJkJr14voVo", "plus_code": {"compound_code": "8WVM+HM Boston, Massachusetts, United States", "global_code": "87JC8WVM+HM"}, "rating": 5, "reference": "ChIJiYwlIW5644kRYJkJr14voVo", "scope": "GOOGLE", "types": ["bus_station", "transit_station", "point_of_interest", "establishment"], "user_ratings_total": 1, "vicinity": "United States"}, "ChIJKzeOIW5644kRZwJy0w6sVSY": {"geometry": {"location": {"lat": 42.3438195, "lng": -71.0658705}, "viewport": {"northeast": {"lat": 42.34519813029149, "lng": -71.0646072697085}, "southwest": {"lat": 42.34250016970849, "lng": -71.06730523029151}}}, "icon": "https://maps.gstatic.com/mapfiles/place_api/icons/bank_dollar-71.png", "id": "3556163e32e2956f1b369fa52b98b09b6ac9c6d1", "name": "East Boston Savings Bank", "opening_hours": {"open_now": false}, "photos": [{"height": 1473, "html_attributions": ["<a href=\"https://maps.google.com/maps/contrib/118328298444747767539/photos\">East Boston Savings Bank</a>"], "photo_reference": "CmRaAAAAT2G4R47CDsRrl50awZ-lHxJivQHRVaRrdMqtUyzffqj1TopT0dfKAaXwJf76f96dDQxnXIk14zLuT3TXeS11Y6hdMeBXhruLkAchpzxJBJT1LWeuh8uxnsetGsTTHSAVEhBvkVgMyvxOlffJfvqSthgXGhSFvnhrXl6CffU9T41N8h9nVCF-GQ", "width": 2048}], "place_id": "ChIJKzeOIW5644kRZwJy0w6sVSY", "plus_code": {"compound_code": "8WVM+GM Boston, Massachusetts, United States", "global_code": "87JC8WVM+GM"}, "rating": 2.3, "reference": "ChIJKzeOIW5644kRZwJy0w6sVSY", "scope": "GOOGLE", "types": ["bank", "atm", "finance", "point_of_interest", "establishment"], "user_ratings_total": 3, "vicinity": "1134 Washington Street, Boston"}, "ChIJU2xyo3J644kR14vgqYeI7ko": {"geometry": {"location": {"lat": 42.3439736, "lng": -71.0656941}, "viewport": {"northeast": {"lat": 42.3453645302915, "lng": -71.06446081970849}, "southwest": {"lat": 42.3426665697085, "lng": -71.0671587802915}}}, "icon": "https://maps.gstatic.com/mapfiles/place_api/icons/generic_business-71.png", "id": "490e6c4b1da1dadabd13197447ad4a24968b100a", "name": "advancement advisers", "place_id": "ChIJU2xyo3J644kR14vgqYeI7ko", "plus_code": {"compound_code": "8WVM+HP Boston, Massachusetts, United States", "global_code": "87JC8WVM+HP"}, "reference": "ChIJU2xyo3J644kR14vgqYeI7ko", "scope": "GOOGLE", "types": ["point_of_interest", "establishment"], "vicinity": "1130 Washington Street, Boston"}, "ChIJ8SRyunF644kRdWSafqKhACA": {"geometry": {"location": {"lat": 42.34562030000001, "lng": -71.06541519999999}, "viewport": {"northeast": {"lat": 42.3469833302915, "lng": -71.06411916970849}, "southwest": {"lat": 42.3442853697085, "lng": -71.0668171302915}}}, "icon": "https://maps.gstatic.com/mapfiles/place_api/icons/generic_business-71.png", "id": "687629710460a25e4a4c9c60b77c5ff427def35c", "name": "140R Shawmut Ave Parking", "place_id": "ChIJ8SRyunF644kRdWSafqKhACA", "plus_code": {"compound_code": "8WWM+6R Boston, Massachusetts, United States", "global_code": "87JC8WWM+6R"}, "rating": 5, "reference": "ChIJ8SRyunF644kRdWSafqKhACA", "scope": "GOOGLE", "types": ["parking", "point_of_interest", "establishment"], "user_ratings_total": 1, "vicinity": "140R Shawmut Avenue, Boston"}, "ChIJMbyqI25644kRBoNUMZhWRzk": {"geometry": {"location": {"lat": 42.34368969999999, "lng": -71.0659287}, "viewport": {"northeast": {"lat": 42.3450712802915, "lng": -71.06467531970848}, "southwest": {"lat": 42.3423733197085, "lng": -71.06737328029149}}}, "icon": "https://maps.gstatic.com/mapfiles/place_api/icons/generic_business-71.png", "id": "6dfea79fe15d1ca6ec21f47272afbf1c2540d233", "name": "JAM-DESIGN", "place_id": "ChIJMbyqI25644kRBoNUMZhWRzk", "plus_code": {"compound_code": "8WVM+FJ Boston, Massachusetts, United States", "global_code": "87JC8WVM+FJ"}, "reference": "ChIJMbyqI25644kRBoNUMZhWRzk", "scope": "GOOGLE", "types": ["point_of_interest", "establishment"], "vicinity": "1140 Washington Street, Boston"}, "ChIJM41DPW5644kRJK3vOMOuUN8": {"geometry": {"location": {"lat": 42.343502, "lng": -71.0660556}, "viewport": {"northeast": {"lat": 42.3448869802915, "lng": -71.06479871970849}, "southwest": {"lat": 42.3421890197085, "lng": -71.0674966802915}}}, "icon": "https://maps.gstatic.com/mapfiles/place_api/icons/generic_business-71.png", "id": "3787da3fe364e815bf1fe63849a973b854180ca8", "name": "Columbia Building", "place_id": "ChIJM41DPW5644kRJK3vOMOuUN8", "plus_code": {"compound_code": "8WVM+CH Boston, Massachusetts, United States", "global_code": "87JC8WVM+CH"}, "reference": "ChIJM41DPW5644kRJK3vOMOuUN8", "scope": "GOOGLE", "types": ["point_of_interest", "establishment"], "vicinity": "1154 02118, Washington Street, Boston"}, "ChIJJUxuG3J644kRF6hTKdCcqxk": {"geometry": {"location": {"lat": 42.3456113, "lng": -71.06806929999999}, "viewport": {"northeast": {"lat": 42.3465399302915, "lng": -71.0659612197085}, "southwest": {"lat": 42.3438419697085, "lng": -71.0686591802915}}}, "icon": "https://maps.gstatic.com/mapfiles/place_api/icons/generic_recreational-71.png", "id": "cfc3f4dad5bb475c56647638e5d2b54b90e7326c", "name": "Castle Square Parks", "place_id": "ChIJJUxuG3J644kRF6hTKdCcqxk", "reference": "ChIJJUxuG3J644kRF6hTKdCcqxk", "scope": "GOOGLE", "types": ["park", "premise", "point_of_interest", "establishment"], "vicinity": "Boston"}, "ChIJbdQM0nF644kRUsePObSbz-Y": {"geometry": {"location": {"lat": 42.344388, "lng": -71.06481939999999}, "viewport": {"northeast": {"lat": 42.3458270302915, "lng": -71.06353216970848}, "southwest": {"lat": 42.3431290697085, "lng": -71.0662301302915}}}, "icon": "https://maps.gstatic.com/mapfiles/place_api/icons/generic_business-71.png", "id": "cec2e7ecf057e8852ee0a2383f9c7df80e4f4763", "name": "Traveler Parking Lot", "place_id": "ChIJbdQM0nF644kRUsePObSbz-Y", "reference": "ChIJbdQM0nF644kRUsePObSbz-Y", "scope": "GOOGLE", "types": ["premise", "parking", "point_of_interest", "establishment"], "vicinity": "Boston"}, "ChIJbfxrcnJ644kRG3lxeM3uiiM": {"geometry": {"location": {"lat": 42.3452393, "lng": -71.0693692}, "viewport": {"northeast": {"lat": 42.34660153029149, "lng": -71.06799831970848}, "southwest": {"lat": 42.3439035697085, "lng": -71.0706962802915}}}, "icon": "https://maps.gstatic.com/mapfiles/place_api/icons/generic_recreational-71.png", "id": "096239be5c5335d9bdef3c9d56af27cdfc726918", "name": "Lt. Jeremiah W. Sullivan Square", "place_id": "ChIJbfxrcnJ644kRG3lxeM3uiiM", "reference": "ChIJbfxrcnJ644kRG3lxeM3uiiM", "scope": "GOOGLE", "types": ["park", "premise", "point_of_interest", "establishment"], "vicinity": "Boston"}, "ChIJXW3U7m1644kRRXTLNSD_ikM": {"geometry": {"location": {"lat": 42.3437892, "lng": -71.0684871}, "viewport": {"northeast": {"lat": 42.3450487302915, "lng": -71.0671935697085}, "southwest": {"lat": 42.3423507697085, "lng": -71.06989153029151}}}, "icon": "https://maps.gstatic.com/mapfiles/place_api/icons/generic_recreational-71.png", "id": "ca3434163878167ed0019ba555f26dd72af07fce", "name": "Watson Park I", "place_id": "ChIJXW3U7m1644kRRXTLNSD_ikM", "reference": "ChIJXW3U7m1644kRRXTLNSD_ikM", "scope": "GOOGLE", "types": ["park", "premise", "point_of_interest", "establishment"], "vicinity": "Boston"}}