{"ChIJGzE9DS1l44kRoOhiASS_fHg": {"geometry": {"location": {"lat": 42.3600825, "lng": -71.0588801}, "viewport": {"northeast": {"lat": 42.40081989999999, "lng": -70.749455}, "southwest": {"lat": 42.22788, "lng": -71.191113}}}, "icon": "https://maps.gstatic.com/mapfiles/place_api/icons/geocode-71.png", "id": "06755c25d2b34d13942a4713971756a55b870ced", "name": "Boston", "photos": [{"height": 3024, "html_attributions": ["<a href=\"https://maps.google.com/maps/contrib/104670289779338733432/photos\">Natalia Zalucean</a>"], "photo_reference": "CmRaAAAASnzuFmKNTPg8KQwt7Z-oKEwRA1uoTCxG5xntr-cCNuRrFdsrqcRbKDP48bwCgAfEUWYUKtDKmGoKWJfnxFKmgf2KdZ2CT718zqDBnVoumusGOKKjr_9RWx7CANA8x_-XEhD7gWepJ00LZaB7_PpGbS_wGhSlvWTjwSDDhvhgPxPTwzYkf459wA", "width": 4032}], "place_id": "ChIJGzE9DS1l44kRoOhiASS_fHg", "reference": "ChIJGzE9DS1l44kRoOhiASS_fHg", "scope": "GOOGLE", "types": ["locality", "political"], "vicinity": "Boston"}, "ChIJoROdc-l-44kRY-fiSBWg2M0": {"geometry": {"location": {"lat": 42.266435, "lng": -71.12832}, "viewport": {"northeast": {"lat": 42.2677410302915, "lng": -71.1270776697085}, "southwest": {"lat": 42.2650430697085, "lng": -71.1297756302915}}}, "icon": "https://maps.gstatic.com/mapfiles/place_api/icons/generic_business-71.png", "id": "ce09999a5e99aeeeb828bcae424fa1653f69214b", "name": "Artful Gardens", "place_id": "ChIJoROdc-l-44kRY-fiSBWg2M0", "plus_code": {"compound_code": "7V8C+HM Boston, Massachusetts, United States", "global_code": "87JC7V8C+HM"}, "reference": "ChIJoROdc-l-44kRY-fiSBWg2M0", "scope": "GOOGLE", "types": ["general_contractor", "point_of_interest", "establishment"], "vicinity": "19 Deforest Street, Boston"}, "ChIJj-3SgOl-44kRCUwZ4cY13S4": {"geometry": {"location": {"lat": 42.26687130000001, "lng": -71.1271728}, "viewport": {"northeast": {"lat": 42.2683112302915, "lng": -71.12579861970849}, "southwest": {"lat": 42.2656132697085, "lng": -71.1284965802915}}}, "icon": "https://maps.gstatic.com/mapfiles/place_api/icons/generic_business-71.png", "id": "5d18bcab046541f788f989d1ba61a4db770ad026", "name": "Vinfen Corporation", "place_id": "ChIJj-3SgOl-44kRCUwZ4cY13S4", "plus_code": {"compound_code": "7V8F+P4 Boston, Massachusetts, United States", "global_code": "87JC7V8F+P4"}, "rating": 5, "reference": "ChIJj-3SgOl-44kRCUwZ4cY13S4", "scope": "GOOGLE", "types": ["point_of_interest", "establishment"], "user_ratings_total": 1, "vicinity": "30 Goff Street, Hyde Park"}, "ChIJDYbdDul-44kRmYP5vxCAgv4": {"geometry": {"location": {"lat": 42.266527, "lng": -71.129037}, "viewport": {"northeast": {"lat": 42.2679394802915, "lng": -71.1275791697085}, "southwest": {"lat": 42.2652415197085, "lng": -71.1302771302915}}}, "icon": "https://maps.gstatic.com/mapfiles/place_api/icons/generic_business-71.png", "id": "76a751d17352fe83a3160424d98b8ac438c23160", "name": "Eastland Roofing & Restoration", "place_id": "ChIJDYbdDul-44kRmYP5vxCAgv4", "plus_code": {"compound_code": "7V8C+J9 Boston, Massachusetts, United States", "global_code": "87JC7V8C+J9"}, "reference": "ChIJDYbdDul-44kRmYP5vxCAgv4", "scope": "GOOGLE", "types": ["roofing_contractor", "point_of_interest", "establishment"], "vicinity": "32 Deforest Street, Hyde Park"}, "ChIJEfbwg-l-44kRRfIDR9BX0BM": {"geometry": {"location": {"lat": 42.266898, "lng": -71.12745199999999}, "viewport": {"northeast": {"lat": 42.2683461802915, "lng": -71.1260661697085}, "southwest": {"lat": 42.2656482197085, "lng": -71.1287641302915}}}, "icon": "https://maps.gstatic.com/mapfiles/place_api/icons/generic_business-71.png", "id": "92ec6f4667020f4a436ca665bc43ca9c9a158d81", "name": "Coffee Direct 2U", "place_id": "ChIJEfbwg-l-44kRRfIDR9BX0BM", "plus_code": {"compound_code": "7V8F+Q2 Boston, Massachusetts, United States", "global_code": "87JC7V8F+Q2"}, "rating": 1, "reference": "ChIJEfbwg-l-44kRRfIDR9BX0BM", "scope": "GOOGLE", "types": ["point_of_interest", "establishment"], "user_ratings_total": 1, "vicinity": "34 Goff Street, Boston"}, "ChIJ2QOeq-l-44kRTMC9P_A_EAA": {"geometry": {"location": {"lat": 42.267349, "lng": -71.129539}, "viewport": {"northeast": {"lat": 42.26871463029151, "lng": -71.1281638697085}, "southwest": {"lat": 42.26601666970851, "lng": -71.13086183029151}}}, "icon": "https://maps.gstatic.com/mapfiles/place_api/icons/generic_business-71.png", "id": "e452893f5c3595c0f84778326ef913372522badb", "name": "Hugues Boucher", "place_id": "ChIJ2QOeq-l-44kRTMC9P_A_EAA", "plus_code": {"compound_code": "7V8C+W5 Boston, Massachusetts, United States", "global_code": "87JC7V8C+W5"}, "reference": "ChIJ2QOeq-l-44kRTMC9P_A_EAA", "scope": "GOOGLE", "types": ["doctor", "health", "point_of_interest", "establishment"], "vicinity": "58 Deforest Street, Hyde Park, MA 02136, Hyde Park"}, "ChIJF-BMPul-44kRSGwgMOqM8Kw": {"geometry": {"location": {"lat": 42.265549, "lng": -71.128704}, "viewport": {"northeast": {"lat": 42.26688853029149, "lng": -71.1273691697085}, "southwest": {"lat": 42.2641905697085, "lng": -71.13006713029151}}}, "icon": "https://maps.gstatic.com/mapfiles/place_api/icons/bus-71.png", "id": "f0f3367a140dee5bab002fa1b51a03c44bede4b2", "name": "West St @ Deforest St", "place_id": "ChIJF-BMPul-44kRSGwgMOqM8Kw", "plus_code": {"compound_code": "7V8C+6G Boston, Massachusetts, United States", "global_code": "87JC7V8C+6G"}, "reference": "ChIJF-BMPul-44kRSGwgMOqM8Kw", "scope": "GOOGLE", "types": ["bus_station", "transit_station", "point_of_interest", "establishment"], "vicinity": "United States"}, "ChIJrxTU_Oh-44kRoBldKX1FwcA": {"geometry": {"location": {"lat": 42.266515, "lng": -71.130202}, "viewport": {"northeast": {"lat": 42.2679317802915, "lng": -71.12873591970849}, "southwest": {"lat": 42.26523381970851, "lng": -71.1314338802915}}}, "icon": "https://maps.gstatic.com/mapfiles/place_api/icons/generic_business-71.png", "id": "11d1a446564793298748804299e6cf6925120ad7", "name": "Ryan Rosemary MD", "place_id": "ChIJrxTU_Oh-44kRoBldKX1FwcA", "plus_code": {"compound_code": "7V89+JW Boston, Massachusetts, United States", "global_code": "87JC7V89+JW"}, "reference": "ChIJrxTU_Oh-44kRoBldKX1FwcA", "scope": "GOOGLE", "types": ["doctor", "health", "point_of_interest", "establishment"], "vicinity": "338 West Street, Hyde Park"}, "ChIJ-1IU_-h-44kR8rU7PpY42lU": {"geometry": {"location": {"lat": 42.267019, "lng": -71.130262}, "viewport": {"northeast": {"lat": 42.2683580302915, "lng": -71.12893151970849}, "southwest": {"lat": 42.2656600697085, "lng": -71.1316294802915}}}, "icon": "https://maps.gstatic.com/mapfiles/place_api/icons/bus-71.png", "id": "a17ef9cdccd952be72bd7ada05079a79a0ce8e1d", "name": "347 West St", "place_id": "ChIJ-1IU_-h-44kR8rU7PpY42lU", "plus_code": {"compound_code": "7V89+RV Boston, Massachusetts, United States", "global_code": "87JC7V89+RV"}, "reference": "ChIJ-1IU_-h-44kR8rU7PpY42lU", "scope": "GOOGLE", "types": ["bus_station", "transit_station", "point_of_interest", "establishment"], "vicinity": "United States"}, "ChIJ4cuqTuh-44kRzi2EvzwicFE": {"geometry": {"location": {"lat": 42.2684362, "lng": -71.1306475}, "viewport": {"northeast": {"lat": 42.2693660302915, "lng": -71.12902691970848}, "southwest": {"lat": 42.2666680697085, "lng": -71.1317248802915}}}, "icon": "https://maps.gstatic.com/mapfiles/place_api/icons/generic_recreational-71.png", "id": "45c2759d8949cce1280010375067fa68ecc1377d", "name": "DeForest Urban Wild", "place_id": "ChIJ4cuqTuh-44kRzi2EvzwicFE", "reference": "ChIJ4cuqTuh-44kRzi2EvzwicFE", "scope": "GOOGLE", "types": ["park", "premise", "point_of_interest", "establishment"], "vicinity": "Boston"}, "ChIJZ_jeNsh-44kRDpddSEjrCd4": {"geometry": {"location": {"lat": 42.2832142, "lng": -71.1270268}, "viewport": {"northeast": {"lat": 42.301598, "lng": -71.09695909999999}, "southwest": {"lat": 42.2575859, "lng": -71.147601}}}, "icon": "https://maps.gstatic.com/mapfiles/place_api/icons/geocode-71.png", "id": "2cdf5de1734d80a609b83de9d29125ad0ec6aa4e", "name": "Roslindale", "photos": [{"height": 3120, "html_attributions": ["<a href=\"https://maps.google.com/maps/contrib/100299987382337147743/photos\">SPRING GARDEN</a>"], "photo_reference": "CmRaAAAA0RW7Fivtua8RYQurvQsJe6W2vWJ4as1pewuXJDrWzJMrEErcKja63UYQWPCHZ-JqZey8y8yUsBI2iwF6sycKZOn4zmUoyOOuR-4MxtoPGkjQUNurFirLRb4FS2KXqamYEhCfPzv3nF7quaM8_tJdxlNYGhRPBe5r-XErxc5HYHM2u9pIZ0otog", "width": 4160}], "place_id": "ChIJZ_jeNsh-44kRDpddSEjrCd4", "reference": "ChIJZ_jeNsh-44kRDpddSEjrCd4", "scope": "GOOGLE", "types": ["neighborhood", "political"], "vicinity": "Dorchester Center"}}