{"ChIJGzE9DS1l44kRoOhiASS_fHg": {"geometry": {"location": {"lat": 42.3600825, "lng": -71.0588801}, "viewport": {"northeast": {"lat": 42.40081989999999, "lng": -70.749455}, "southwest": {"lat": 42.22788, "lng": -71.191113}}}, "icon": "https://maps.gstatic.com/mapfiles/place_api/icons/geocode-71.png", "id": "06755c25d2b34d13942a4713971756a55b870ced", "name": "Boston", "photos": [{"height": 3024, "html_attributions": ["<a href=\"https://maps.google.com/maps/contrib/104670289779338733432/photos\">Natalia Zalucean</a>"], "photo_reference": "CmRaAAAAC29uEHmtKW9FF6rU2fpOWNAaPMmnzFS5CXJWCqw9vixqtYjVLhuJ0n5rRoyrsJPu2J1T6EbOmLKdDQY6NDvSrWgUWjBlXWx3ssNOHD150aZUagGQp46BzbnlHUK_UQHREhBOwHmP-g_4fN9pEHKWBjpnGhS4X1aDVLjm0ianmMBKFKK1XSh12A", "width": 4032}], "place_id": "ChIJGzE9DS1l44kRoOhiASS_fHg", "reference": "ChIJGzE9DS1l44kRoOhiASS_fHg", "scope": "GOOGLE", "types": ["locality", "political"], "vicinity": "Boston"}, "ChIJTWXT-MB744kRiW84ODJIH80": {"geometry": {"location": {"lat": 42.3008247, "lng": -71.0762258}, "viewport": {"northeast": {"lat": 42.3022296302915, "lng": -71.0748192697085}, "southwest": {"lat": 42.2995316697085, "lng": -71.0775172302915}}}, "icon": "https://maps.gstatic.com/mapfiles/place_api/icons/worship_general-71.png", "id": "3540c3d6e0bd4b006c5db1e5f805c324676086f1", "name": "Friendship Apostolic Church", "place_id": "ChIJTWXT-MB744kRiW84ODJIH80", "plus_code": {"compound_code": "8W2F+8G Boston, Massachusetts, United States", "global_code": "87JC8W2F+8G"}, "rating": 5, "reference": "ChIJTWXT-MB744kRiW84ODJIH80", "scope": "GOOGLE", "types": ["church", "place_of_worship", "point_of_interest", "establishment"], "user_ratings_total": 1, "vicinity": "275 Washington Street, Dorchester"}, "ChIJBzvdAsF744kRbDQFfZ430Gg": {"geometry": {"location": {"lat": 42.3011479, "lng": -71.076849}, "viewport": {"northeast": {"lat": 42.30257463029149, "lng": -71.0753900197085}, "southwest": {"lat": 42.29987666970849, "lng": -71.0780879802915}}}, "icon": "https://maps.gstatic.com/mapfiles/place_api/icons/shopping-71.png", "id": "95a0b772fc49702acabdb99972f2aa36608ea032", "name": "E&R Motors", "place_id": "ChIJBzvdAsF744kRbDQFfZ430Gg", "plus_code": {"compound_code": "8W2F+F7 Boston, Massachusetts, United States", "global_code": "87JC8W2F+F7"}, "reference": "ChIJBzvdAsF744kRbDQFfZ430Gg", "scope": "GOOGLE", "types": ["car_dealer", "store", "point_of_interest", "establishment"], "vicinity": "255 Washington Street, Dorchester"}, "ChIJPSoXHcF744kRI7gfrgGn40g": {"geometry": {"location": {"lat": 42.3014427, "lng": -71.0766502}, "viewport": {"northeast": {"lat": 42.30276233029149, "lng": -71.07534271970849}, "southwest": {"lat": 42.3000643697085, "lng": -71.07804068029151}}}, "icon": "https://maps.gstatic.com/mapfiles/place_api/icons/worship_general-71.png", "id": "4a61a331e2239783c0dd182870c929ffa79b6418", "name": "Life Center-Boston", "place_id": "ChIJPSoXHcF744kRI7gfrgGn40g", "plus_code": {"compound_code": "8W2F+H8 Boston, Massachusetts, United States", "global_code": "87JC8W2F+H8"}, "rating": 5, "reference": "ChIJPSoXHcF744kRI7gfrgGn40g", "scope": "GOOGLE", "types": ["church", "place_of_worship", "point_of_interest", "establishment"], "user_ratings_total": 1, "vicinity": "260 Washington Street, Dorchester"}, "ChIJYxm5PsF744kR3v0LF2ROcFc": {"geometry": {"location": {"lat": 42.302414, "lng": -71.0777123}, "viewport": {"northeast": {"lat": 42.3037437802915, "lng": -71.0764118197085}, "southwest": {"lat": 42.3010458197085, "lng": -71.0791097802915}}}, "icon": "https://maps.gstatic.com/mapfiles/place_api/icons/generic_business-71.png", "id": "15ef51429821470d4722df4c2b4cc54a1aeaa0a4", "name": "Endgame Hair and Beauty Bar", "opening_hours": {"open_now": true}, "photos": [{"height": 673, "html_attributions": ["<a href=\"https://maps.google.com/maps/contrib/112856077842018173692/photos\">Endgame Hair and Beauty Bar</a>"], "photo_reference": "CmRaAAAAyJlMxl2vw_zfA0tDT-1Qw9Gid_gkY4fEsBO42afvfqG1Hwj37QWP1kzt8C39LspOJ8u9wxOADRU4UNWYRyLrKkT4hWtx0D3WjT2UcTrEGLrX6uW4PP2BvX7oMHdrNQ-xEhDK9PgYusn83s6kfNNWWhpyGhRQjM3k7-ehAg7W0a2RHpYAti_TNQ", "width": 1200}], "place_id": "ChIJYxm5PsF744kR3v0LF2ROcFc", "plus_code": {"compound_code": "8W2C+XW Boston, Massachusetts, United States", "global_code": "87JC8W2C+XW"}, "rating": 5, "reference": "ChIJYxm5PsF744kR3v0LF2ROcFc", "scope": "GOOGLE", "types": ["beauty_salon", "point_of_interest", "establishment"], "user_ratings_total": 30, "vicinity": "214 Washington Street, Dorchester"}, "ChIJ2zVA-8B744kR7d83ESqPP18": {"geometry": {"location": {"lat": 42.3012169, "lng": -71.0761944}, "viewport": {"northeast": {"lat": 42.30250213029149, "lng": -71.07492301970849}, "southwest": {"lat": 42.2998041697085, "lng": -71.0776209802915}}}, "icon": "https://maps.gstatic.com/mapfiles/place_api/icons/generic_business-71.png", "id": "e4f427e946fb29497bc9caeef70e3e69584b64ec", "name": "Alpha Building Construction and Development", "place_id": "ChIJ2zVA-8B744kR7d83ESqPP18", "plus_code": {"compound_code": "8W2F+FG Boston, Massachusetts, United States", "global_code": "87JC8W2F+FG"}, "reference": "ChIJ2zVA-8B744kR7d83ESqPP18", "scope": "GOOGLE", "types": ["general_contractor", "point_of_interest", "establishment"], "vicinity": "272 Washington Street, Dorchester"}, "ChIJZ7yfOcF744kRjli_GvjU0CQ": {"geometry": {"location": {"lat": 42.30262, "lng": -71.077719}, "viewport": {"northeast": {"lat": 42.30392783029149, "lng": -71.0764738697085}, "southwest": {"lat": 42.30122986970849, "lng": -71.0791718302915}}}, "icon": "https://maps.gstatic.com/mapfiles/place_api/icons/shopping-71.png", "id": "efe7e2c5218123454fac599feea68987d845e3a4", "name": "Mico Hookah Smoke Shop", "opening_hours": {"open_now": true}, "photos": [{"height": 3024, "html_attributions": ["<a href=\"https://maps.google.com/maps/contrib/114809715253819832069/photos\">Carlos Castellanos</a>"], "photo_reference": "CmRaAAAAH7Q5TMWQtuNqlMt5G0AATgQax7QpkpRin8gvzIpKkY5qQs31U2L-A-pdiOgCpnMCS2vl89GoYiX2Q3s7QoPT0NDbpVRN-iETkpj-cBMTX2lyq5mzaC_h0rYRCEBouJgfEhAbAYiuS1SivRWJ0duWSnbUGhTrOTEQe4OOcWfq2k9mOaFkEWakRA", "width": 4032}], "place_id": "ChIJZ7yfOcF744kRjli_GvjU0CQ", "plus_code": {"compound_code": "8W3C+2W Boston, Massachusetts, United States", "global_code": "87JC8W3C+2W"}, "rating": 4.9, "reference": "ChIJZ7yfOcF744kRjli_GvjU0CQ", "scope": "GOOGLE", "types": ["store", "point_of_interest", "establishment"], "user_ratings_total": 9, "vicinity": "208 Washington Street Suite B, Dorchester"}, "ChIJr0ZdOMF744kRFIc3oUBGoxA": {"geometry": {"location": {"lat": 42.3027405, "lng": -71.0779491}, "viewport": {"northeast": {"lat": 42.3040704302915, "lng": -71.0766485197085}, "southwest": {"lat": 42.30137246970851, "lng": -71.0793464802915}}}, "icon": "https://maps.gstatic.com/mapfiles/place_api/icons/generic_business-71.png", "id": "06efd332953b22ac2a400377b9402b4a6b7b1e1f", "name": "Supplies Exchange Systems", "opening_hours": {"open_now": false}, "place_id": "ChIJr0ZdOMF744kRFIc3oUBGoxA", "plus_code": {"compound_code": "8W3C+3R Boston, Massachusetts, United States", "global_code": "87JC8W3C+3R"}, "reference": "ChIJr0ZdOMF744kRFIc3oUBGoxA", "scope": "GOOGLE", "types": ["point_of_interest", "establishment"], "vicinity": "204 Washington Street, Dorchester"}, "ChIJdRc3xsB744kRt-l4zHDzago": {"geometry": {"location": {"lat": 42.3022701, "lng": -71.07525869999999}, "viewport": {"northeast": {"lat": 42.3036337302915, "lng": -71.0739168197085}, "southwest": {"lat": 42.3009357697085, "lng": -71.07661478029151}}}, "icon": "https://maps.gstatic.com/mapfiles/place_api/icons/generic_business-71.png", "id": "2156bac4f69fd382d104a67306158669d223e91c", "name": "Parziale Nicholas MD", "place_id": "ChIJdRc3xsB744kRt-l4zHDzago", "plus_code": {"compound_code": "8W2F+WV Boston, Massachusetts, United States", "global_code": "87JC8W2F+WV"}, "reference": "ChIJdRc3xsB744kRt-l4zHDzago", "scope": "GOOGLE", "types": ["doctor", "health", "point_of_interest", "establishment"], "vicinity": "41 Mallon Road, Dorchester"}, "ChIJJcTvSMF744kRwYRLviKxi7g": {"geometry": {"location": {"lat": 42.30289979999999, "lng": -71.0779946}, "viewport": {"northeast": {"lat": 42.30421918029149, "lng": -71.07672091970849}, "southwest": {"lat": 42.30152121970849, "lng": -71.0794188802915}}}, "icon": "https://maps.gstatic.com/mapfiles/place_api/icons/generic_business-71.png", "id": "7d19e2e4ce24a42d9a3bbc003d8b3df5ef17c563", "name": "Boston JUMP", "photos": [{"height": 1944, "html_attributions": ["<a href=\"https://maps.google.com/maps/contrib/104900324613631461314/photos\">Damari Brown</a>"], "photo_reference": "CmRaAAAASTKPkL1rL0muA38upelEyGmEeWsQGo-5Lo8nupeFLOlCP2M35WB8j5_k0k8MQmNuf8DHmgLWmra_wuss0Zv4RUUtrjZYSKpOXpsViKIp8Wib3WlQkqrU9ukBRHuWaP7sEhBCyL7ju9WkZKvCVHcCPxTtGhR4er_H_f1BheStXnCBwxJWgg2Qdg", "width": 2592}], "place_id": "ChIJJcTvSMF744kRwYRLviKxi7g", "plus_code": {"compound_code": "8W3C+5R Boston, Massachusetts, United States", "global_code": "87JC8W3C+5R"}, "rating": 5, "reference": "ChIJJcTvSMF744kRwYRLviKxi7g", "scope": "GOOGLE", "types": ["point_of_interest", "establishment"], "user_ratings_total": 2, "vicinity": "200 Washington Street, Boston"}, "ChIJSSPRR8F744kREUpm6L_z8LU": {"geometry": {"location": {"lat": 42.302815, "lng": -71.0781581}, "viewport": {"northeast": {"lat": 42.3041587802915, "lng": -71.0768223197085}, "southwest": {"lat": 42.3014608197085, "lng": -71.07952028029152}}}, "icon": "https://maps.gstatic.com/mapfiles/place_api/icons/generic_business-71.png", "id": "d4a055d0e4d56c5843953ca7502410b906c24113", "name": "Informatics In Context, Inc.", "place_id": "ChIJSSPRR8F744kREUpm6L_z8LU", "plus_code": {"compound_code": "8W3C+4P Boston, Massachusetts, United States", "global_code": "87JC8W3C+4P"}, "reference": "ChIJSSPRR8F744kREUpm6L_z8LU", "scope": "GOOGLE", "types": ["point_of_interest", "establishment"], "vicinity": "201 Washington Street, Boston"}, "ChIJlT1mrMF744kR_wbZgLaDXpg": {"geometry": {"location": {"lat": 42.3004566, "lng": -71.07672769999999}, "viewport": {"northeast": {"lat": 42.3017499802915, "lng": -71.07529566970848}, "southwest": {"lat": 42.2990520197085, "lng": -71.0779936302915}}}, "icon": "https://maps.gstatic.com/mapfiles/place_api/icons/generic_business-71.png", "id": "13d9def25c0104bf302ad98da3361796372c62b6", "name": "Only Great Deal", "place_id": "ChIJlT1mrMF744kR_wbZgLaDXpg", "plus_code": {"compound_code": "8W2F+58 Boston, Massachusetts, United States", "global_code": "87JC8W2F+58"}, "reference": "ChIJlT1mrMF744kR_wbZgLaDXpg", "scope": "GOOGLE", "types": ["health", "point_of_interest", "establishment"], "vicinity": "15 Vassar Street, Dorchester"}, "ChIJhcn2yz9744kRlSQpq7c160k": {"geometry": {"location": {"lat": 42.3016073, "lng": -71.0766117}, "viewport": {"northeast": {"lat": 42.3028805302915, "lng": -71.0753698697085}, "southwest": {"lat": 42.3001825697085, "lng": -71.0780678302915}}}, "icon": "https://maps.gstatic.com/mapfiles/place_api/icons/generic_business-71.png", "id": "07a6c20a414490a5c59ac63e2bc5c4b8ca3fb40c", "name": "The Guild", "opening_hours": {"open_now": true}, "photos": [{"height": 824, "html_attributions": ["<a href=\"https://maps.google.com/maps/contrib/115399126290197087973/photos\">The Guild</a>"], "photo_reference": "CmRaAAAAkkkcpazAO2Xc11YKluZE0QihqvKIIYrSaVbKMLc3Ysz2jf7CTFaFTQbFesgGGfPpCkVWkXP_-inUqyziXP7WOoqgkRR0h2gSoQWnE4wB971Ey5cD3vMblaJ4mWboby0pEhARiYMyIiyF3AsSDdiIhbBoGhSBQjHMfiE1ezDLHhv6cJ87yTq6eg", "width": 1224}], "place_id": "ChIJhcn2yz9744kRlSQpq7c160k", "plus_code": {"compound_code": "8W2F+J9 Boston, Massachusetts, United States", "global_code": "87JC8W2F+J9"}, "rating": 5, "reference": "ChIJhcn2yz9744kRlSQpq7c160k", "scope": "GOOGLE", "types": ["point_of_interest", "establishment"], "user_ratings_total": 1, "vicinity": "260 Washington Street, Dorchester"}, "ChIJYzWjBMF744kRC71jzFPP_Yg": {"geometry": {"location": {"lat": 42.3013793, "lng": -71.07693619999999}, "viewport": {"northeast": {"lat": 42.3027669302915, "lng": -71.0755325697085}, "southwest": {"lat": 42.30006896970851, "lng": -71.0782305302915}}}, "icon": "https://maps.gstatic.com/mapfiles/place_api/icons/generic_business-71.png", "id": "7ffa3a01aa33e791f3a84392176d2406cbeca6a6", "name": "Dudley Station", "place_id": "ChIJYzWjBMF744kRC71jzFPP_Yg", "plus_code": {"compound_code": "8W2F+H6 Boston, Massachusetts, United States", "global_code": "87JC8W2F+H6"}, "rating": 5, "reference": "ChIJYzWjBMF744kRC71jzFPP_Yg", "scope": "GOOGLE", "types": ["point_of_interest", "establishment"], "user_ratings_total": 1, "vicinity": "247 Washington Street, Dorchester"}, "ChIJddRKud9h44kRSDm6nS0PxQU": {"geometry": {"location": {"lat": 42.3021096, "lng": -71.077578}, "viewport": {"northeast": {"lat": 42.30346848029149, "lng": -71.0762113697085}, "southwest": {"lat": 42.30077051970849, "lng": -71.07890933029151}}}, "icon": "https://maps.gstatic.com/mapfiles/place_api/icons/generic_business-71.png", "id": "e6afe3cf9c88b915f3a6c5131f454a6ae85c3133", "name": "Dr. Paul Fugazzotto, DDS", "opening_hours": {"open_now": true}, "place_id": "ChIJddRKud9h44kRSDm6nS0PxQU", "plus_code": {"compound_code": "8W2C+RX Boston, Massachusetts, United States", "global_code": "87JC8W2C+RX"}, "reference": "ChIJddRKud9h44kRSDm6nS0PxQU", "scope": "GOOGLE", "types": ["dentist", "health", "point_of_interest", "establishment"], "vicinity": "80 Washington Street 9 & 10, Norwell"}, "ChIJW60448B744kRFkkbwKTlr64": {"geometry": {"location": {"lat": 42.301377, "lng": -71.07624299999999}, "viewport": {"northeast": {"lat": 42.3026370802915, "lng": -71.07501961970848}, "southwest": {"lat": 42.2999391197085, "lng": -71.0777175802915}}}, "icon": "https://maps.gstatic.com/mapfiles/place_api/icons/generic_business-71.png", "id": "e5d75cd44cf63e845b5c8a3b9dfed8038af565d1", "name": "Columbus Auto Body Inc", "photos": [{"height": 4160, "html_attributions": ["<a href=\"https://maps.google.com/maps/contrib/102834704852322664428/photos\">Kimberly Chan-Hernandez</a>"], "photo_reference": "CmRaAAAAciX0bTTOufZXkJ8OdEYxWs_w93wL0RHh9I320vugqfpKibkpE-2lYabi1wycIrHvtrUxF85q42Ai6H0eB52oRKnDAyFYVYvSIbCucRarnQhnS2HP2sYKfibvhaD_TvoTEhCYQfrCYGT3aumQhJxg83WSGhTHHKc1KnNtrkfq6NPGgOYLdtOkLQ", "width": 3120}], "place_id": "ChIJW60448B744kRFkkbwKTlr64", "plus_code": {"compound_code": "8W2F+HG Boston, Massachusetts, United States", "global_code": "87JC8W2F+HG"}, "rating": 3.9, "reference": "ChIJW60448B744kRFkkbwKTlr64", "scope": "GOOGLE", "types": ["car_repair", "point_of_interest", "establishment"], "user_ratings_total": 14, "vicinity": "268 Washington Street, Dorchester"}, "ChIJyUhrFsF744kRlYKdhkTYjIk": {"geometry": {"location": {"lat": 42.30215500000001, "lng": -71.077908}, "viewport": {"northeast": {"lat": 42.3035475302915, "lng": -71.07645911970849}, "southwest": {"lat": 42.3008495697085, "lng": -71.07915708029151}}}, "icon": "https://maps.gstatic.com/mapfiles/place_api/icons/shopping-71.png", "id": "73cf2b1185fa1cc1168e8dbfa41b7557e1c2717b", "name": "Resto Meat Market", "opening_hours": {"open_now": true}, "photos": [{"height": 5312, "html_attributions": ["<a href=\"https://maps.google.com/maps/contrib/109951706269929572926/photos\">Fatboii El Controvercial</a>"], "photo_reference": "CmRaAAAAjMfryRi-E1-yRqUzo2Ng893msZpWce_QkIEneTg8gDzLCT9w66wZ06XPdZ_xCbZE0Qvabp-7J-yCL7IRNEvEc0tbm24p7DBmRvvtMJ2bDSBm1mNvEXZ8GO2t4eAiRpUREhDf81TivqCP9jBHjaeK-zmYGhQUkdZRd1H6t54JH-kom4cf3jJ7BA", "width": 2988}], "place_id": "ChIJyUhrFsF744kRlYKdhkTYjIk", "plus_code": {"compound_code": "8W2C+VR Boston, Massachusetts, United States", "global_code": "87JC8W2C+VR"}, "rating": 4.7, "reference": "ChIJyUhrFsF744kRlYKdhkTYjIk", "scope": "GOOGLE", "types": ["store", "point_of_interest", "food", "establishment"], "user_ratings_total": 11, "vicinity": "213 Washington Street, Dorchester"}, "ChIJUR3qPsF744kRvTvMNP0f9t0": {"geometry": {"location": {"lat": 42.302414, "lng": -71.0777123}, "viewport": {"northeast": {"lat": 42.3037437802915, "lng": -71.0764118197085}, "southwest": {"lat": 42.3010458197085, "lng": -71.0791097802915}}}, "icon": "https://maps.gstatic.com/mapfiles/place_api/icons/generic_business-71.png", "id": "8a79e06e6d6320723edd557513da8ec9a5a0710d", "name": "Jaciah's Hair Design", "place_id": "ChIJUR3qPsF744kRvTvMNP0f9t0", "plus_code": {"compound_code": "8W2C+XW Boston, Massachusetts, United States", "global_code": "87JC8W2C+XW"}, "reference": "ChIJUR3qPsF744kRvTvMNP0f9t0", "scope": "GOOGLE", "types": ["beauty_salon", "point_of_interest", "establishment"], "vicinity": "214 Washington Street, Dorchester"}, "ChIJc33P_cB744kRqJG9Zmr2pZI": {"geometry": {"location": {"lat": 42.3010957, "lng": -71.07637919999999}, "viewport": {"northeast": {"lat": 42.3024301302915, "lng": -71.0750502697085}, "southwest": {"lat": 42.29973216970851, "lng": -71.0777482302915}}}, "icon": "https://maps.gstatic.com/mapfiles/place_api/icons/generic_business-71.png", "id": "e396428f8fa19dbf1a7e1c9101dbb60a225aabe6", "name": "Columbus Towing", "opening_hours": {"open_now": true}, "photos": [{"height": 500, "html_attributions": ["<a href=\"https://maps.google.com/maps/contrib/109006185017842378651/photos\">Columbus Towing</a>"], "photo_reference": "CmRaAAAA6zT5tD6myHp5_MrHXWvOUA_pDDzcrlZ4vguhlvXP3sb48VozTBWwDVIhwXBl7L6OYbPujws_bByuh-6-ylvso_Y3OXdTY1TCj3DwPl4F1XnZqLewHOq66kKmq8O1jaq6EhBSW5Mgv7UdfrLRcYLHNQUcGhRG53Qv5bapO1gJTUdXS3_emJbaKw", "width": 502}], "place_id": "ChIJc33P_cB744kRqJG9Zmr2pZI", "plus_code": {"compound_code": "8W2F+CC Boston, Massachusetts, United States", "global_code": "87JC8W2F+CC"}, "rating": 5, "reference": "ChIJc33P_cB744kRqJG9Zmr2pZI", "scope": "GOOGLE", "types": ["point_of_interest", "establishment"], "user_ratings_total": 1, "vicinity": "267 Washington Street, Dorchester"}, "ChIJs4veGkl644kROEK8ix2v_oY": {"geometry": {"location": {"lat": 42.30163049999999, "lng": -71.067605}, "viewport": {"northeast": {"lat": 42.3358969, "lng": -71.0325551}, "southwest": {"lat": 42.267598, "lng": -71.0800369}}}, "icon": "https://maps.gstatic.com/mapfiles/place_api/icons/geocode-71.png", "id": "9e12301fdeebf54c1266b9986602466425a9c326", "name": "Dorchester", "photos": [{"height": 1944, "html_attributions": ["<a href=\"https://maps.google.com/maps/contrib/118366960396286562471/photos\">Michael Laferriere</a>"], "photo_reference": "CmRaAAAAjz7BPkiUBkAzWX6_G_s5yEMIx6fKsuzmsx5cA5R4KWFKJCNG39CKWfxgxVpCUx6sQL4Tket5gbld0dDCbnOz2w7De9C6EiyOXkr7PAHFbH7e3329L6J3UuFgc0GD2IPBEhCZ1ah0vyuba2aF0iDqbRbGGhTXGZDgWmxPO5D4FwPOZF8lMZnKcA", "width": 2592}], "place_id": "ChIJs4veGkl644kROEK8ix2v_oY", "reference": "ChIJs4veGkl644kROEK8ix2v_oY", "scope": "GOOGLE", "types": ["neighborhood", "political"], "vicinity": "Dorchester Center"}, "ChIJ703aOMF744kRrhPijDmJ7ME": {"geometry": {"location": {"lat": 42.3025186, "lng": -71.07776969999999}, "viewport": {"northeast": {"lat": 42.30384553029149, "lng": -71.07647636970849}, "southwest": {"lat": 42.3011475697085, "lng": -71.0791743302915}}}, "icon": "https://maps.gstatic.com/mapfiles/place_api/icons/generic_business-71.png", "id": "92d1556d9d3241bac3146cfc17379ae538d15e10", "name": "Sandmans Auto Body & Repair", "place_id": "ChIJ703aOMF744kRrhPijDmJ7ME", "plus_code": {"compound_code": "8W3C+2V Boston, Massachusetts, United States", "global_code": "87JC8W3C+2V"}, "rating": 4.5, "reference": "ChIJ703aOMF744kRrhPijDmJ7ME", "scope": "GOOGLE", "types": ["car_repair", "point_of_interest", "establishment"], "user_ratings_total": 4, "vicinity": "210 Washington Street, Dorchester"}, "ChIJa0GZ_sB744kRvC0j0Z8zhDA": {"geometry": {"location": {"lat": 42.3009091, "lng": -71.07672029999999}, "viewport": {"northeast": {"lat": 42.3023704802915, "lng": -71.0752159197085}, "southwest": {"lat": 42.2996725197085, "lng": -71.0779138802915}}}, "icon": "https://maps.gstatic.com/mapfiles/place_api/icons/generic_business-71.png", "id": "93bec07ee3cba61b58aaa12d68b7dcb539e7ec5c", "name": "Columbus Auto", "photos": [{"height": 2322, "html_attributions": ["<a href=\"https://maps.google.com/maps/contrib/101155931280556237910/photos\">belton ramos</a>"], "photo_reference": "CmRaAAAAPEHaNbQi5lRQvjWN2MxuvehRtm5aVKwztYZdbyG771oKxC4iJklwOQK8G-oFfVrH786KnQg4TBLXfgY7RZOXLLc21DidKjO3C8K47YeVMCpj_iP0UZAH9drTsfU8mrfwEhApy8I--8Do6NMFBABDZV2YGhSmt0Flv-nzm3JUPG4dD14yEsQV7Q", "width": 4128}], "place_id": "ChIJa0GZ_sB744kRvC0j0Z8zhDA", "plus_code": {"compound_code": "8W2F+98 Boston, Massachusetts, United States", "global_code": "87JC8W2F+98"}, "rating": 4.7, "reference": "ChIJa0GZ_sB744kRvC0j0Z8zhDA", "scope": "GOOGLE", "types": ["car_repair", "point_of_interest", "establishment"], "user_ratings_total": 7, "vicinity": "269 Washington Street, Dorchester"}, "ChIJ_wvJOcF744kRJxBry06Hwwk": {"geometry": {"location": {"lat": 42.3027103, "lng": -71.0777883}, "viewport": {"northeast": {"lat": 42.3040187302915, "lng": -71.07654166970849}, "southwest": {"lat": 42.3013207697085, "lng": -71.0792396302915}}}, "icon": "https://maps.gstatic.com/mapfiles/place_api/icons/generic_business-71.png", "id": "41cadaa3c4b1c30022bdaf0098048360b02a26b0", "name": "Polished Hair Lounge", "opening_hours": {"open_now": true}, "place_id": "ChIJ_wvJOcF744kRJxBry06Hwwk", "plus_code": {"compound_code": "8W3C+3V Boston, Massachusetts, United States", "global_code": "87JC8W3C+3V"}, "rating": 4.8, "reference": "ChIJ_wvJOcF744kRJxBry06Hwwk", "scope": "GOOGLE", "types": ["hair_care", "point_of_interest", "establishment"], "user_ratings_total": 5, "vicinity": "208A Washington Street, Dorchester"}, "ChIJCSI8-MB744kRxgx6p9euCi8": {"geometry": {"location": {"lat": 42.3009134, "lng": -71.0761672}, "viewport": {"northeast": {"lat": 42.3022721302915, "lng": -71.07480821970849}, "southwest": {"lat": 42.2995741697085, "lng": -71.07750618029151}}}, "icon": "https://maps.gstatic.com/mapfiles/place_api/icons/bus-71.png", "id": "ace9c4278ab33c1980dda7879a0e403592e51f70", "name": "Washington St @ Vassar St", "photos": [{"height": 4160, "html_attributions": ["<a href=\"https://maps.google.com/maps/contrib/115375992758243567356/photos\">Nelissa Timothee</a>"], "photo_reference": "CmRaAAAAjQYXsuhdOo9mis8izN9OyH5G9RlB8JxR1-xefPeW2n_I2K04PVeZ74xWNQCQLfXOJXXvCXChauFGxQpDWLZIcnembH89-gNltj3CHxTyU__gAf9cfEQlXOhsMX2qGEOMEhCzxkbmgOX_tJi81GM3umVrGhS5gO3f5qZujxi2T3lxNeNjOBo5EQ", "width": 2340}], "place_id": "ChIJCSI8-MB744kRxgx6p9euCi8", "plus_code": {"compound_code": "8W2F+9G Boston, Massachusetts, United States", "global_code": "87JC8W2F+9G"}, "rating": 5, "reference": "ChIJCSI8-MB744kRxgx6p9euCi8", "scope": "GOOGLE", "types": ["bus_station", "transit_station", "point_of_interest", "establishment"], "user_ratings_total": 1, "vicinity": "United States"}, "ChIJgUv-OMF744kRi6XMsSAihrI": {"geometry": {"location": {"lat": 42.3027174, "lng": -71.0778703}, "viewport": {"northeast": {"lat": 42.3040376802915, "lng": -71.07659381970849}, "southwest": {"lat": 42.3013397197085, "lng": -71.0792917802915}}}, "icon": "https://maps.gstatic.com/mapfiles/place_api/icons/cafe-71.png", "id": "dc03ef9b746d34630b5d49195ae47783786b6b57", "name": "Botanica Altagracia", "place_id": "ChIJgUv-OMF744kRi6XMsSAihrI", "plus_code": {"compound_code": "8W3C+3V Boston, Massachusetts, United States", "global_code": "87JC8W3C+3V"}, "reference": "ChIJgUv-OMF744kRi6XMsSAihrI", "scope": "GOOGLE", "types": ["cafe", "point_of_interest", "food", "establishment"], "vicinity": "206 Washington Street, Dorchester"}, "ChIJkUgSOMF744kRHqMIMr6Q39I": {"geometry": {"location": {"lat": 42.3027405, "lng": -71.0779491}, "viewport": {"northeast": {"lat": 42.3040704302915, "lng": -71.0766485197085}, "southwest": {"lat": 42.30137246970851, "lng": -71.0793464802915}}}, "icon": "https://maps.gstatic.com/mapfiles/place_api/icons/generic_business-71.png", "id": "d1ababfaae0eaeaf0dc523068301f69f1d9690e4", "name": "Liberty Chiropractic, Inc.", "opening_hours": {"open_now": true}, "photos": [{"height": 338, "html_attributions": ["<a href=\"https://maps.google.com/maps/contrib/106914601013814486685/photos\">Liberty Chiropractic, Inc.</a>"], "photo_reference": "CmRaAAAAQJVXGlP-y3ezRsLKLHnnq6TaabIWRvH71D4yxEML0iQSjeyKBg4jcoD27B_xEiikl7AvhCXHQrDNv47Yg315KJfHwm_asduMgz-jyY7c4ORnkq_qwPR5oIfLGIAjihpkEhCq0iijUEi77nsXiW95DiuNGhQENURw_Kxsp1ALQ0bfRKGe1-qQ0w", "width": 603}], "place_id": "ChIJkUgSOMF744kRHqMIMr6Q39I", "plus_code": {"compound_code": "8W3C+3R Boston, Massachusetts, United States", "global_code": "87JC8W3C+3R"}, "rating": 5, "reference": "ChIJkUgSOMF744kRHqMIMr6Q39I", "scope": "GOOGLE", "types": ["health", "point_of_interest", "establishment"], "user_ratings_total": 3, "vicinity": "204 Washington Street a, Dorchester"}, "ChIJr0ZdOMF744kRRHmc8flGudE": {"geometry": {"location": {"lat": 42.3027405, "lng": -71.0779491}, "viewport": {"northeast": {"lat": 42.3040704302915, "lng": -71.0766485197085}, "southwest": {"lat": 42.30137246970851, "lng": -71.0793464802915}}}, "icon": "https://maps.gstatic.com/mapfiles/place_api/icons/shopping-71.png", "id": "13723859459753075b048d873f1b0e40046a23a1", "name": "Systems Exterminating", "place_id": "ChIJr0ZdOMF744kRRHmc8flGudE", "plus_code": {"compound_code": "8W3C+3R Boston, Massachusetts, United States", "global_code": "87JC8W3C+3R"}, "reference": "ChIJr0ZdOMF744kRRHmc8flGudE", "scope": "GOOGLE", "types": ["home_goods_store", "store", "point_of_interest", "establishment"], "vicinity": "204 Washington Street, Dorchester"}, "ChIJBbKX-cB744kR9VmWxo9sw-0": {"geometry": {"location": {"lat": 42.3009137, "lng": -71.0759102}, "viewport": {"northeast": {"lat": 42.30223358029151, "lng": -71.0745874197085}, "southwest": {"lat": 42.29953561970851, "lng": -71.0772853802915}}}, "icon": "https://maps.gstatic.com/mapfiles/place_api/icons/bus-71.png", "id": "f8e0c0dfe8da0f713ff6b21b1125396a6db2ce54", "name": "Washington St @ Vassar St.", "place_id": "ChIJBbKX-cB744kR9VmWxo9sw-0", "plus_code": {"compound_code": "8W2F+9J Boston, Massachusetts, United States", "global_code": "87JC8W2F+9J"}, "rating": 5, "reference": "ChIJBbKX-cB744kR9VmWxo9sw-0", "scope": "GOOGLE", "types": ["bus_station", "transit_station", "point_of_interest", "establishment"], "user_ratings_total": 2, "vicinity": "United States"}, "ChIJTVf8N8F744kRvrnOizMyEdQ": {"geometry": {"location": {"lat": 42.3028354, "lng": -71.0779902}, "viewport": {"northeast": {"lat": 42.3041611802915, "lng": -71.07670016970849}, "southwest": {"lat": 42.3014632197085, "lng": -71.07939813029151}}}, "icon": "https://maps.gstatic.com/mapfiles/place_api/icons/shopping-71.png", "id": "890b882a3cc756042438d3ea42f963b5ebd673f6", "name": "Star Fashion", "place_id": "ChIJTVf8N8F744kRvrnOizMyEdQ", "plus_code": {"compound_code": "8W3C+4R Boston, Massachusetts, United States", "global_code": "87JC8W3C+4R"}, "reference": "ChIJTVf8N8F744kRvrnOizMyEdQ", "scope": "GOOGLE", "types": ["clothing_store", "store", "point_of_interest", "establishment"], "vicinity": "202 Washington Street, Boston"}, "ChIJywybUgt744kRvD5jUZv5-Zs": {"geometry": {"location": {"lat": 42.3028389, "lng": -71.0780029}, "viewport": {"northeast": {"lat": 42.30416623029149, "lng": -71.0767089197085}, "southwest": {"lat": 42.3014682697085, "lng": -71.0794068802915}}}, "icon": "https://maps.gstatic.com/mapfiles/place_api/icons/shopping-71.png", "id": "2510baae6ec19f25aa40135802351a5ad509c797", "name": "Soranlly Boutique", "photos": [{"height": 4032, "html_attributions": ["<a href=\"https://maps.google.com/maps/contrib/103717097956343033610/photos\">Soranlly Boutique</a>"], "photo_reference": "CmRaAAAAsSTKCtbIgJSWq5sPUPe7qzWAd5XGV_Je1dHPIRF2RB-wA6cvny8VU8zh2BCl98MEJt06M01Zj3vxysVzd8hxmnQp-jCu7X5IqVTDM4n_Dke3D7f5BcnkofcipheCJrHLEhBBP-AQPWJtkKanhcI8koUdGhRvzNi7bx1BVQCjUgiti2ctgEEK8A", "width": 2268}], "place_id": "ChIJywybUgt744kRvD5jUZv5-Zs", "plus_code": {"compound_code": "8W3C+4Q Boston, Massachusetts, United States", "global_code": "87JC8W3C+4Q"}, "reference": "ChIJywybUgt744kRvD5jUZv5-Zs", "scope": "GOOGLE", "types": ["clothing_store", "store", "point_of_interest", "establishment"], "vicinity": "3905, 202 Washington Street, Dorchester"}, "ChIJJSkpSMF744kRnzzV6kIxeGs": {"geometry": {"location": {"lat": 42.3028932, "lng": -71.07799849999999}, "viewport": {"northeast": {"lat": 42.30421388029151, "lng": -71.07672146970847}, "southwest": {"lat": 42.30151591970851, "lng": -71.0794194302915}}}, "icon": "https://maps.gstatic.com/mapfiles/place_api/icons/generic_business-71.png", "id": "7ad877267c45c79a95c11729ad601e2a4e8bc6dc", "name": "Soranlly Beauty Salon", "opening_hours": {"open_now": true}, "photos": [{"height": 1536, "html_attributions": ["<a href=\"https://maps.google.com/maps/contrib/106678825946671877741/photos\">Soranlly Beauty Salon</a>"], "photo_reference": "CmRaAAAAnHDDHqpqzqrmllZpqVhd5YW-wOKLWRneh96lFfzpEUV0uo5m7nwPKJtr22zglcPyVEWZ18xi9wmUT10ClaGnIMSgqh-I3lIAXrYArL75ZH4a6bEKVa0X3HVSQPrY0SczEhCxvVmTZXHF5ddeCpNnbsawGhQeFVumkEg_K4AD5_C8LVt3jW5Hvw", "width": 2048}], "place_id": "ChIJJSkpSMF744kRnzzV6kIxeGs", "plus_code": {"compound_code": "8W3C+5R Boston, Massachusetts, United States", "global_code": "87JC8W3C+5R"}, "rating": 3.3, "reference": "ChIJJSkpSMF744kRnzzV6kIxeGs", "scope": "GOOGLE", "types": ["beauty_salon", "point_of_interest", "establishment"], "user_ratings_total": 3, "vicinity": "200 Washington Street, Dorchester"}, "ChIJbf9zSMF744kRYDXl4v9fxAE": {"geometry": {"location": {"lat": 42.30289979999999, "lng": -71.0779946}, "viewport": {"northeast": {"lat": 42.30421918029149, "lng": -71.07672091970849}, "southwest": {"lat": 42.30152121970849, "lng": -71.0794188802915}}}, "icon": "https://maps.gstatic.com/mapfiles/place_api/icons/generic_business-71.png", "id": "cfe763fda63bc6c2e161963884c0eb0dee369fa8", "name": "Symone's Beauty Salon", "photos": [{"height": 3264, "html_attributions": ["<a href=\"https://maps.google.com/maps/contrib/107979360922939160653/photos\">claudia crespo</a>"], "photo_reference": "CmRaAAAAPndL4fnzsMt0uskiaWRUuoB7SwjmiVVVcnaDIJJzj_56QORB3f23GbK-oGWSWwdoME4PhhOARSYK4I8nsWo8lL8AQWZT3_UaJlK3gzVrBlYcBve6-6tNTx_mHPallvyHEhATDR7EKhqhSOZ3ETndVKc4GhTtZoc1Q-_uQxD4r2qlsdZAVEomYA", "width": 1836}], "place_id": "ChIJbf9zSMF744kRYDXl4v9fxAE", "plus_code": {"compound_code": "8W3C+5R Boston, Massachusetts, United States", "global_code": "87JC8W3C+5R"}, "rating": 3.5, "reference": "ChIJbf9zSMF744kRYDXl4v9fxAE", "scope": "GOOGLE", "types": ["beauty_salon", "point_of_interest", "establishment"], "user_ratings_total": 6, "vicinity": "200 Washington Street, Dorchester"}, "ChIJq6p6x8B744kRu95k82kKOJ4": {"geometry": {"location": {"lat": 42.30227049999999, "lng": -71.0751598}, "viewport": {"northeast": {"lat": 42.3036001802915, "lng": -71.0738000697085}, "southwest": {"lat": 42.3009022197085, "lng": -71.0764980302915}}}, "icon": "https://maps.gstatic.com/mapfiles/place_api/icons/generic_business-71.png", "id": "41fc4a75d13dd233f72d25673c0cea4484cdd65e", "name": "Premier Paint Finishes", "place_id": "ChIJq6p6x8B744kRu95k82kKOJ4", "plus_code": {"compound_code": "8W2F+WW Boston, Massachusetts, United States", "global_code": "87JC8W2F+WW"}, "reference": "ChIJq6p6x8B744kRu95k82kKOJ4", "scope": "GOOGLE", "types": ["point_of_interest", "establishment"], "vicinity": "34 Mallon Road, Boston"}, "ChIJr1eL2cB744kR68rk8QBl2_M": {"geometry": {"location": {"lat": 42.302404, "lng": -71.07605459999999}, "viewport": {"northeast": {"lat": 42.3037708302915, "lng": -71.0748210197085}, "southwest": {"lat": 42.30107286970851, "lng": -71.0775189802915}}}, "icon": "https://maps.gstatic.com/mapfiles/place_api/icons/generic_recreational-71.png", "id": "6e830b7ab53696b6457c46f9efd1690b70f34f5b", "name": "Mount Bowdoin Green", "place_id": "ChIJr1eL2cB744kR68rk8QBl2_M", "reference": "ChIJr1eL2cB744kR68rk8QBl2_M", "scope": "GOOGLE", "types": ["park", "premise", "point_of_interest", "establishment"], "vicinity": "Boston"}}