{"ChIJm2ZF5nB544kRZ4pqMZrbsVI": {"geometry": {"location": {"lat": 42.31727190000001, "lng": -71.1115384}, "viewport": {"northeast": {"lat": 42.3186168302915, "lng": -71.10982255000002}, "southwest": {"lat": 42.3159188697085, "lng": -71.11326195}}}, "icon": "https://maps.gstatic.com/mapfiles/place_api/icons/geocode-71.png", "id": "79dd1eba687d675dc2288712be676fba26865813", "name": "5-33 Spring Park Ave", "place_id": "ChIJm2ZF5nB544kRZ4pqMZrbsVI", "reference": "ChIJm2ZF5nB544kRZ4pqMZrbsVI", "scope": "GOOGLE", "types": ["route"], "vicinity": "Boston"}, "ChIJGeilJnF544kRwfonvFy_9U0": {"geometry": {"location": {"lat": 42.3179642, "lng": -71.1125119}, "viewport": {"northeast": {"lat": 42.3193472302915, "lng": -71.1112475697085}, "southwest": {"lat": 42.3166492697085, "lng": -71.1139455302915}}}, "icon": "https://maps.gstatic.com/mapfiles/place_api/icons/generic_business-71.png", "id": "a480a882329c79d3db0a9631cfc582c24ae56ba2", "name": "Zipcar", "opening_hours": {"open_now": true}, "photos": [{"height": 499, "html_attributions": ["<a href=\"https://maps.google.com/maps/contrib/108884262126543963828/photos\">Zipcar</a>"], "photo_reference": "CmRaAAAA5orTmHoVmxbYFb3HCHD7DQ-KZSOGKaYvXSkbFxyZrmPpmb1zgJ-wWAyy4zkfYxYDuxBw5AkuxhGiZPB21q6D2tTuuHlyTXHWzw1as3S4Q6kTctlZ8FC7wWqPDwh6vdl9EhDWhEHaYAw8rRAjfXO8r9m6GhRKti4SA16iCMT10raCni_BQbryMA", "width": 499}], "place_id": "ChIJGeilJnF544kRwfonvFy_9U0", "plus_code": {"compound_code": "8V9P+5X Boston, Massachusetts, United States", "global_code": "87JC8V9P+5X"}, "rating": 3.5, "reference": "ChIJGeilJnF544kRwfonvFy_9U0", "scope": "GOOGLE", "types": ["car_rental", "point_of_interest", "establishment"], "user_ratings_total": 2, "vicinity": "490 Centre Street, Boston"}, "ChIJW0rT03B544kRTcHUduhRuaM": {"geometry": {"location": {"lat": 42.318373, "lng": -71.111616}, "viewport": {"northeast": {"lat": 42.3196348302915, "lng": -71.11033276970849}, "southwest": {"lat": 42.31693686970851, "lng": -71.1130307302915}}}, "icon": "https://maps.gstatic.com/mapfiles/place_api/icons/worship_general-71.png", "id": "f55f1653f2f41531016511fcaa065619f81a65d5", "name": "Iglesia Bautista Hispana", "photos": [{"height": 4128, "html_attributions": ["<a href=\"https://maps.google.com/maps/contrib/101578657701343066111/photos\">S Moreno</a>"], "photo_reference": "CmRaAAAATSFkY-EIegjKMCGAzC31vIS0PZ6f6jnV-6I8AM1Ap67nBSNU1OMU5wJ0PUp6-CFdIv0qcv__wQaVaTyvvaj8zCfIrVnGy6KV63PeGTusAxNHXH0ZYZpOfhnUH3xNx4inEhBVdc9H7BwsAZv99Lu2SbN7GhRzudXP53hV6hYkcgCfS9x5Dl1vQQ", "width": 2322}], "place_id": "ChIJW0rT03B544kRTcHUduhRuaM", "plus_code": {"compound_code": "8V9Q+89 Boston, Massachusetts, United States", "global_code": "87JC8V9Q+89"}, "rating": 4.7, "reference": "ChIJW0rT03B544kRTcHUduhRuaM", "scope": "GOOGLE", "types": ["church", "place_of_worship", "point_of_interest", "establishment"], "user_ratings_total": 3, "vicinity": "Jamaica Plain"}, "ChIJ6zBBznB544kR7fV_NVhixyA": {"geometry": {"location": {"lat": 42.31820570000001, "lng": -71.1113134}, "viewport": {"northeast": {"lat": 42.3194844802915, "lng": -71.11002566970849}, "southwest": {"lat": 42.3167865197085, "lng": -71.11272363029151}}}, "icon": "https://maps.gstatic.com/mapfiles/place_api/icons/generic_business-71.png", "id": "dd7a0974cd9b9c514c92d35e22424960e3e065ec", "name": "Erin Hagengruber, BSN", "place_id": "ChIJ6zBBznB544kR7fV_NVhixyA", "plus_code": {"compound_code": "8V9Q+7F Boston, Massachusetts, United States", "global_code": "87JC8V9Q+7F"}, "reference": "ChIJ6zBBznB544kR7fV_NVhixyA", "scope": "GOOGLE", "types": ["doctor", "health", "point_of_interest", "establishment"], "vicinity": "16 Kingsboro Parks, Jamaica Plain, MA 02130, Jamaica Plain"}, "ChIJYwzF03B544kRTcv_N9KifSc": {"geometry": {"location": {"lat": 42.3184041, "lng": -71.1116681}, "viewport": {"northeast": {"lat": 42.3196622802915, "lng": -71.11038766970849}, "southwest": {"lat": 42.3169643197085, "lng": -71.11308563029151}}}, "icon": "https://maps.gstatic.com/mapfiles/place_api/icons/worship_general-71.png", "id": "f2ed0ad55b71ffb055648a6ffe5ec4080cd83803", "name": "First Hispanic Baptist Church", "photos": [{"height": 4128, "html_attributions": ["<a href=\"https://maps.google.com/maps/contrib/101578657701343066111/photos\">S Moreno</a>"], "photo_reference": "CmRaAAAATHgpOB-rTaN5_bPB20p718eyXHBfgal4nPrMfs0bTEh8crGjaDBuvgMKr1Vu3YJSehy-Qh7BWxv7sUJ5xjvyDBM51LFVxx8joBA4-oAcRR7d7isWg-GcbuAskssTmSVwEhCzeXPD4G19abqKy090q2ZDGhTZApj-uYQQdYkE_GIp00aXaT_XCw", "width": 3096}], "place_id": "ChIJYwzF03B544kRTcv_N9KifSc", "plus_code": {"compound_code": "8V9Q+98 Boston, Massachusetts, United States", "global_code": "87JC8V9Q+98"}, "reference": "ChIJYwzF03B544kRTcv_N9KifSc", "scope": "GOOGLE", "types": ["church", "place_of_worship", "point_of_interest", "establishment"], "vicinity": "10 Kingsboro Park, Jamaica Plain"}, "ChIJ63DexXB544kRv3tixfxIE8E": {"geometry": {"location": {"lat": 42.3178806, "lng": -71.1110794}, "viewport": {"northeast": {"lat": 42.3192134302915, "lng": -71.1097445197085}, "southwest": {"lat": 42.3165154697085, "lng": -71.1124424802915}}}, "icon": "https://maps.gstatic.com/mapfiles/place_api/icons/school-71.png", "id": "b67bc44e20a5e514eedcba5859ca41f20a997ee6", "name": "Innovate Dance", "place_id": "ChIJ63DexXB544kRv3tixfxIE8E", "plus_code": {"compound_code": "8V9Q+5H Boston, Massachusetts, United States", "global_code": "87JC8V9Q+5H"}, "reference": "ChIJ63DexXB544kRv3tixfxIE8E", "scope": "GOOGLE", "types": ["point_of_interest", "establishment"], "vicinity": "21 Kingsboro Park, Boston"}, "ChIJGzE9DS1l44kRoOhiASS_fHg": {"geometry": {"location": {"lat": 42.3600825, "lng": -71.0588801}, "viewport": {"northeast": {"lat": 42.40081989999999, "lng": -70.749455}, "southwest": {"lat": 42.22788, "lng": -71.191113}}}, "icon": "https://maps.gstatic.com/mapfiles/place_api/icons/geocode-71.png", "id": "06755c25d2b34d13942a4713971756a55b870ced", "name": "Boston", "photos": [{"height": 3024, "html_attributions": ["<a href=\"https://maps.google.com/maps/contrib/104670289779338733432/photos\">Natalia Zalucean</a>"], "photo_reference": "CmRaAAAAhZzTUTgXdex3QBaVIpRqU8fdzy_wDexZK-m5aXCtFo2BZ9NqDcAsso-0PJNgiyxBz_EybqtymrIieyydB4diJYsTXO4mo2-jaVRl6SCxDx_RE63GLnd5rUNUyvlRvgQqEhC_EtRjGbLz5l9lEEEEEysTGhQE0I5rpJ4MGkra_6ei68c5cX9RoQ", "width": 4032}], "place_id": "ChIJGzE9DS1l44kRoOhiASS_fHg", "reference": "ChIJGzE9DS1l44kRoOhiASS_fHg", "scope": "GOOGLE", "types": ["locality", "political"], "vicinity": "Boston"}}