{"ChIJC7Q8kEF544kRxZ8lmv42Q6I": {"geometry": {"location": {"lat": 42.3035098, "lng": -71.1157707}, "viewport": {"northeast": {"lat": 42.3047807302915, "lng": -71.1145839197085}, "southwest": {"lat": 42.3020827697085, "lng": -71.1172818802915}}}, "icon": "https://maps.gstatic.com/mapfiles/place_api/icons/geocode-71.png", "id": "a569972ce2fa4286f997b6f1edea57c94e46ed56", "name": "36-16 Hampstead Rd", "place_id": "ChIJC7Q8kEF544kRxZ8lmv42Q6I", "reference": "ChIJC7Q8kEF544kRxZ8lmv42Q6I", "scope": "GOOGLE", "types": ["route"], "vicinity": "Boston"}, "ChIJ5donkEF544kRZiIDH1rzjiU": {"geometry": {"location": {"lat": 42.3034109, "lng": -71.115912}, "viewport": {"northeast": {"lat": 42.3047867302915, "lng": -71.1144768697085}, "southwest": {"lat": 42.3020887697085, "lng": -71.1171748302915}}}, "icon": "https://maps.gstatic.com/mapfiles/place_api/icons/generic_business-71.png", "id": "271f4393bc6075e979efade3d8fa1975674673fc", "name": "Gravity Arts Inc", "place_id": "ChIJ5donkEF544kRZiIDH1rzjiU", "plus_code": {"compound_code": "8V3M+9J Boston, Massachusetts, United States", "global_code": "87JC8V3M+9J"}, "rating": 4, "reference": "ChIJ5donkEF544kRZiIDH1rzjiU", "scope": "GOOGLE", "types": ["point_of_interest", "establishment"], "user_ratings_total": 1, "vicinity": "24 Hampstead Road, Jamaica Plain"}, "ChIJLTroIEJ544kR1zYxwsRcqmI": {"geometry": {"location": {"lat": 42.3035489, "lng": -71.1150119}, "viewport": {"northeast": {"lat": 42.30490563029149, "lng": -71.1134990697085}, "southwest": {"lat": 42.3022076697085, "lng": -71.1161970302915}}}, "icon": "https://maps.gstatic.com/mapfiles/place_api/icons/generic_business-71.png", "id": "d38d230c60987cbf607434c0d1b34631cb471af4", "name": "JOSH LUKE", "place_id": "ChIJLTroIEJ544kR1zYxwsRcqmI", "plus_code": {"compound_code": "8V3M+CX Boston, Massachusetts, United States", "global_code": "87JC8V3M+CX"}, "reference": "ChIJLTroIEJ544kR1zYxwsRcqmI", "scope": "GOOGLE", "types": ["point_of_interest", "establishment"], "vicinity": "185 South Street #5, Jamaica Plain"}, "ChIJjcGa13J544kRipiVFShGQJU": {"geometry": {"location": {"lat": 42.3033571, "lng": -71.11544400000001}, "viewport": {"northeast": {"lat": 42.3046893302915, "lng": -71.11421796970849}, "southwest": {"lat": 42.3019913697085, "lng": -71.1169159302915}}}, "icon": "https://maps.gstatic.com/mapfiles/place_api/icons/school-71.png", "id": "eb62a2063a9ff411695ce2b492395eefad0f7772", "name": "Rachel\u2019s Space offering- all level yoga, yin, restore, gentle yoga & yoga as therapy.", "opening_hours": {"open_now": true}, "photos": [{"height": 2048, "html_attributions": ["<a href=\"https://maps.google.com/maps/contrib/102048236281223669409/photos\">Rachel\u2019s Space - all level yoga, yin, restore, gentle yoga &amp; yoga as therapy.</a>"], "photo_reference": "CmRaAAAAqLPWi8YEYRkTNgR1T_mHoL_G1pyzHYVY1AF84QxIDujFQfZb6p8nX1EscM_5AnhYO31ehxfA7PpYPE33jDqnBRuMFGxkN1dboacSkd9BhTb52jL3N7VUGLeoLskd1_n8EhB8dgW67e9o8cFi-ZzuH-oAGhTg45KsV0QDMoeeD0-9Y_o5G61hIA", "width": 1536}], "place_id": "ChIJjcGa13J544kRipiVFShGQJU", "plus_code": {"compound_code": "8V3M+8R Boston, Massachusetts, United States", "global_code": "87JC8V3M+8R"}, "reference": "ChIJjcGa13J544kRipiVFShGQJU", "scope": "GOOGLE", "types": ["gym", "health", "point_of_interest", "establishment"], "vicinity": "15 Hampstead Rd #1 Jamaica Plain MA 02130 ( studio located in the basement walk down the drive way and through the white gate) please book on- line or contact Rachel at rackstar@gmail.com, 15 Hampstead Road, Boston"}, "ChIJm8nK7EF544kRUpqwhAsVCY8": {"geometry": {"location": {"lat": 42.303965, "lng": -71.116158}, "viewport": {"northeast": {"lat": 42.3052138802915, "lng": -71.1148529697085}, "southwest": {"lat": 42.3025159197085, "lng": -71.1175509302915}}}, "icon": "https://maps.gstatic.com/mapfiles/place_api/icons/generic_business-71.png", "id": "88d20c13c38235eb5f018926dd324fe40bee2ead", "name": "A V Design Build", "place_id": "ChIJm8nK7EF544kRUpqwhAsVCY8", "plus_code": {"compound_code": "8V3M+HG Boston, Massachusetts, United States", "global_code": "87JC8V3M+HG"}, "reference": "ChIJm8nK7EF544kRUpqwhAsVCY8", "scope": "GOOGLE", "types": ["point_of_interest", "establishment"], "vicinity": "43 Hampstead Road, Jamaica Plain"}, "ChIJGzE9DS1l44kRoOhiASS_fHg": {"geometry": {"location": {"lat": 42.3600825, "lng": -71.0588801}, "viewport": {"northeast": {"lat": 42.40081989999999, "lng": -70.749455}, "southwest": {"lat": 42.22788, "lng": -71.191113}}}, "icon": "https://maps.gstatic.com/mapfiles/place_api/icons/geocode-71.png", "id": "06755c25d2b34d13942a4713971756a55b870ced", "name": "Boston", "photos": [{"height": 3024, "html_attributions": ["<a href=\"https://maps.google.com/maps/contrib/104670289779338733432/photos\">Natalia Zalucean</a>"], "photo_reference": "CmRaAAAA6pK5JKqvhbfMC-iolXioA856AkOB65F8zVtsbIchi2Eyfdgm6fxnOKirmAWleHpeOg0BHoeibMG2Arsw_KSU3BO2Eu0x3rIAOv5HFZTmAdpujgT3gR19tcA4L-Z8BTtBEhCq2-OmtGGZwXG-QpQvMyrGGhRkoAqVK906qUAbQBZIsfTa5OoUKQ", "width": 4032}], "place_id": "ChIJGzE9DS1l44kRoOhiASS_fHg", "reference": "ChIJGzE9DS1l44kRoOhiASS_fHg", "scope": "GOOGLE", "types": ["locality", "political"], "vicinity": "Boston"}}