{"ChIJ4xGOa5N744kRKR7cTr7olUw": {"geometry": {"location": {"lat": 42.2918326, "lng": -71.07173639999999}, "viewport": {"northeast": {"lat": 42.2931815302915, "lng": -71.07038741970848}, "southwest": {"lat": 42.29048356970851, "lng": -71.0730853802915}}}, "icon": "https://maps.gstatic.com/mapfiles/place_api/icons/geocode-71.png", "id": "5a329088b295dc7a770071d8296271a620b4e87a", "name": "572-562 Washington St", "place_id": "ChIJ4xGOa5N744kRKR7cTr7olUw", "reference": "ChIJ4xGOa5N744kRKR7cTr7olUw", "scope": "GOOGLE", "types": ["route"], "vicinity": "Boston"}, "ChIJKYVmaJN744kRVYPslJQfXXk": {"geometry": {"location": {"lat": 42.2920993, "lng": -71.07198620000001}, "viewport": {"northeast": {"lat": 42.29345248029149, "lng": -71.0705218697085}, "southwest": {"lat": 42.29075451970849, "lng": -71.0732198302915}}}, "icon": "https://maps.gstatic.com/mapfiles/place_api/icons/generic_business-71.png", "id": "cf5357d71f5fec67b80d127c442b73eb13265498", "name": "Spots Cleaners & Tailoring", "opening_hours": {"open_now": true}, "place_id": "ChIJKYVmaJN744kRVYPslJQfXXk", "plus_code": {"compound_code": "7WRH+R6 Boston, Massachusetts, United States", "global_code": "87JC7WRH+R6"}, "rating": 3.7, "reference": "ChIJKYVmaJN744kRVYPslJQfXXk", "scope": "GOOGLE", "types": ["laundry", "point_of_interest", "establishment"], "user_ratings_total": 7, "vicinity": "563 Washington Street, Boston"}, "ChIJXTrWbpN744kRJVXS_7PgJFg": {"geometry": {"location": {"lat": 42.292085, "lng": -71.0715513}, "viewport": {"northeast": {"lat": 42.2934302802915, "lng": -71.0703034197085}, "southwest": {"lat": 42.2907323197085, "lng": -71.07300138029152}}}, "icon": "https://maps.gstatic.com/mapfiles/place_api/icons/restaurant-71.png", "id": "f5143a93d29f71dd19d83a2da02b8e851fb5f4e5", "name": "Oriental House Restaurant", "opening_hours": {"open_now": true}, "photos": [{"height": 680, "html_attributions": ["<a href=\"https://maps.google.com/maps/contrib/107566973627028950619/photos\">Gogo Jojo</a>"], "photo_reference": "CmRaAAAAXE59AJrjxttfdyKPNs8hrMLgZPXdTRB_Sa0ciwSvNbCzrLjdJz-jTWPfCFUVoDp_TQ9-pM8_e3j7e_l8dK3VHK9p6VhbIYW8b2SoQcuUw9B_Yh9iWVNOq2zMSzpC_oQUEhBq4qjGYJOyYgerbt2JorPeGhTv5RYMc0fg0cLH1QtfaQwShIhOLg", "width": 1024}], "place_id": "ChIJXTrWbpN744kRJVXS_7PgJFg", "plus_code": {"compound_code": "7WRH+R9 Boston, Massachusetts, United States", "global_code": "87JC7WRH+R9"}, "price_level": 2, "rating": 3.3, "reference": "ChIJXTrWbpN744kRJVXS_7PgJFg", "scope": "GOOGLE", "types": ["restaurant", "point_of_interest", "food", "establishment"], "user_ratings_total": 115, "vicinity": "560 Washington Street, Dorchester Center"}, "ChIJbcnQaJN744kRrch31Cp00Fc": {"geometry": {"location": {"lat": 42.29209669999999, "lng": -71.0716111}, "viewport": {"northeast": {"lat": 42.29344308029149, "lng": -71.0703337697085}, "southwest": {"lat": 42.29074511970849, "lng": -71.0730317302915}}}, "icon": "https://maps.gstatic.com/mapfiles/place_api/icons/shopping-71.png", "id": "e566d31a69bf10948630db45aae875a1c18d611f", "name": "Caribbean", "photos": [{"height": 3088, "html_attributions": ["<a href=\"https://maps.google.com/maps/contrib/116064085111432583613/photos\">pupilillo martinez</a>"], "photo_reference": "CmRaAAAAc3ICM5MJWB1xhNHlPAlGXcRzW0eBhLhbtrpDrkoKn5I4eElgxNv6OgLSy1wq5J4A5oFJk-Q2S2ZJt3QE6hCayr4GBrkrc6PRBHwnTTamXJKhnohC_J7Wg_TgPaiNDlDREhC4B8X4I7-OlVU8csAYFft7GhTBZwZEMi6myw35x9ECHcjl3qGPOg", "width": 2320}], "place_id": "ChIJbcnQaJN744kRrch31Cp00Fc", "plus_code": {"compound_code": "7WRH+R9 Boston, Massachusetts, United States", "global_code": "87JC7WRH+R9"}, "rating": 2, "reference": "ChIJbcnQaJN744kRrch31Cp00Fc", "scope": "GOOGLE", "types": ["grocery_or_supermarket", "store", "point_of_interest", "food", "establishment"], "user_ratings_total": 2, "vicinity": "558 Washington Street, Dorchester Center"}, "ChIJ6RVQfH5544kRT8L4Yw3IEeA": {"geometry": {"location": {"lat": 42.29175370000001, "lng": -71.0720547}, "viewport": {"northeast": {"lat": 42.2930956302915, "lng": -71.07087006970848}, "southwest": {"lat": 42.2903976697085, "lng": -71.0735680302915}}}, "icon": "https://maps.gstatic.com/mapfiles/place_api/icons/bank_dollar-71.png", "id": "c9568bdcf15cedcc0d0a2b984ca05259c91f3ed9", "name": "Citizens Bank", "opening_hours": {"open_now": true}, "photos": [{"height": 800, "html_attributions": ["<a href=\"https://maps.google.com/maps/contrib/106913027294238084648/photos\">Citizens Bank</a>"], "photo_reference": "CmRaAAAAUXcy6gNrC0JTMEp21sg0HCuWkNFhOxaJgf4p8ed92Hjz5BiqKl5S9jVBUeUV22nFqjCG51yFC3ZnBVADY4KiQRZwkilA6C8gEFm-dDl5ZuuzorHfeuR3I1UMEueZmvL4EhDwjbYyiChTpAYcDAn_FNuqGhTHD8bEQBIdDQZaa1h8lJyAVTiLkg", "width": 600}], "place_id": "ChIJ6RVQfH5544kRT8L4Yw3IEeA", "plus_code": {"compound_code": "7WRH+P5 Boston, Massachusetts, United States", "global_code": "87JC7WRH+P5"}, "rating": 1.6, "reference": "ChIJ6RVQfH5544kRT8L4Yw3IEeA", "scope": "GOOGLE", "types": ["bank", "atm", "finance", "point_of_interest", "establishment"], "user_ratings_total": 7, "vicinity": "569-571 Washington Street, Dorchester"}, "ChIJnXZuE5N744kRPWrrJfsHdHY": {"geometry": {"location": {"lat": 42.2914983, "lng": -71.0713794}, "viewport": {"northeast": {"lat": 42.2928398802915, "lng": -71.0701954197085}, "southwest": {"lat": 42.2901419197085, "lng": -71.0728933802915}}}, "icon": "https://maps.gstatic.com/mapfiles/place_api/icons/shopping-71.png", "id": "3111bb77b68ee80e209dd1c580d153702dd62e66", "name": "America's Food Basket", "opening_hours": {"open_now": true}, "photos": [{"height": 2988, "html_attributions": ["<a href=\"https://maps.google.com/maps/contrib/113275571822599125262/photos\">Ambiorix Rodriguez</a>"], "photo_reference": "CmRaAAAAplx_P5bz8C4Y5SZmk4GF-vJ8m7bndRilBObAIgCD8O9AThVniuw69l1YC0yYzvyuAS43KVFLg1fJlV7J4gXDQFhQfrdzCZLhOYsNHTSNVpS-oiVQpP2TzC186HOiB-R_EhCvUOM0SqaXsHQRuOw1IEyXGhSOLT5uZI0wewPRAA-p2oDn3dqcag", "width": 5312}], "place_id": "ChIJnXZuE5N744kRPWrrJfsHdHY", "plus_code": {"compound_code": "7WRH+HC Boston, Massachusetts, United States", "global_code": "87JC7WRH+HC"}, "rating": 4.1, "reference": "ChIJnXZuE5N744kRPWrrJfsHdHY", "scope": "GOOGLE", "types": ["supermarket", "grocery_or_supermarket", "store", "point_of_interest", "food", "establishment"], "user_ratings_total": 170, "vicinity": "576 Washington Street, Dorchester"}, "ChIJ9-kCbJN744kR1gH6wbFV01o": {"geometry": {"location": {"lat": 42.291923, "lng": -71.0715508}, "viewport": {"northeast": {"lat": 42.2932682302915, "lng": -71.0702975697085}, "southwest": {"lat": 42.2905702697085, "lng": -71.07299553029151}}}, "icon": "https://maps.gstatic.com/mapfiles/place_api/icons/generic_business-71.png", "id": "f3c1870492200181d938c94a69f2c04fb28441d8", "name": "AIR", "place_id": "ChIJ9-kCbJN744kR1gH6wbFV01o", "plus_code": {"compound_code": "7WRH+Q9 Boston, Massachusetts, United States", "global_code": "87JC7WRH+Q9"}, "reference": "ChIJ9-kCbJN744kR1gH6wbFV01o", "scope": "GOOGLE", "types": ["point_of_interest", "establishment"], "vicinity": "564 Washington Street, Boston"}, "ChIJE2LRaJN744kRR_whmZ0NhS4": {"geometry": {"location": {"lat": 42.2921738, "lng": -71.0715348}, "viewport": {"northeast": {"lat": 42.2935909802915, "lng": -71.0701959697085}, "southwest": {"lat": 42.2908930197085, "lng": -71.0728939302915}}}, "icon": "https://maps.gstatic.com/mapfiles/place_api/icons/post_office-71.png", "id": "3eceaf124c68f9bf8e9a17a071f15218ae4438f5", "name": "United States Postal Service", "opening_hours": {"open_now": true}, "photos": [{"height": 1025, "html_attributions": ["<a href=\"https://maps.google.com/maps/contrib/101752073498756974296/photos\">United States Postal Service</a>"], "photo_reference": "CmRaAAAA4h4Iq2R0uDpEBoTbkk8oDJSe6wjQQ7gLdB5mAd25RQExIE9mR0R3G33Fz8w2t-RVaDTSKsP1o0YVYjFvhdZ8uhje63K6pq2t-cS9WWXFbjXRiy3A1Hyhnpe_H1acK85WEhAAZ3q3Q7AjxfdgcA1OCsNgGhSCWG3W01qwWBPpsInVDe6SEXIt3g", "width": 1025}], "place_id": "ChIJE2LRaJN744kRR_whmZ0NhS4", "plus_code": {"compound_code": "7WRH+V9 Boston, Massachusetts, United States", "global_code": "87JC7WRH+V9"}, "rating": 1.6, "reference": "ChIJE2LRaJN744kRR_whmZ0NhS4", "scope": "GOOGLE", "types": ["post_office", "local_government_office", "finance", "point_of_interest", "establishment"], "user_ratings_total": 54, "vicinity": "554 Washington St, Dorchester Center"}, "ChIJSSM-QJN744kRj90Z1w8XkWw": {"geometry": {"location": {"lat": 42.2917658, "lng": -71.07188839999999}, "viewport": {"northeast": {"lat": 42.29311783029149, "lng": -71.07046126970849}, "southwest": {"lat": 42.2904198697085, "lng": -71.0731592302915}}}, "icon": "https://maps.gstatic.com/mapfiles/place_api/icons/atm-71.png", "id": "d2cab8fee0271d327e4321f6a0bbaafb1fd72e76", "name": "Citizens Bank ATM", "opening_hours": {"open_now": true}, "place_id": "ChIJSSM-QJN744kRj90Z1w8XkWw", "plus_code": {"compound_code": "7WRH+P6 Boston, Massachusetts, United States", "global_code": "87JC7WRH+P6"}, "reference": "ChIJSSM-QJN744kRj90Z1w8XkWw", "scope": "GOOGLE", "types": ["atm", "finance", "point_of_interest", "establishment"], "vicinity": "Boston"}, "ChIJOaOAE5N744kRF9tX8GuKa5s": {"geometry": {"location": {"lat": 42.291498, "lng": -71.071379}, "viewport": {"northeast": {"lat": 42.2928395802915, "lng": -71.07019521970848}, "southwest": {"lat": 42.2901416197085, "lng": -71.07289318029149}}}, "icon": "https://maps.gstatic.com/mapfiles/place_api/icons/generic_business-71.png", "id": "c73b469664c530608585d9733d871c7b5b54431e", "name": "Western Union", "opening_hours": {"open_now": true}, "photos": [{"height": 1000, "html_attributions": ["<a href=\"https://maps.google.com/maps/contrib/110754743274408729135/photos\">Western Union</a>"], "photo_reference": "CmRaAAAAt2U4--zhbOxzw_fyOmjeH4ASE8d4PsC9Z_JNkUNMbrUoXJGDLxQsuGjf5dxnJ6SSMq-cwUUmKWWXUzzroKpL1MwkZbmTsnOJhydgQ1QT3KzHJ1LnTmUXXM-CbTYVFSfpEhAuR1fPttP9r_8JN8b3164vGhTr01ZglMG9n6FOu6vYOxDxl5IC2A", "width": 1000}], "place_id": "ChIJOaOAE5N744kRF9tX8GuKa5s", "plus_code": {"compound_code": "7WRH+HC Boston, Massachusetts, United States", "global_code": "87JC7WRH+HC"}, "rating": 4, "reference": "ChIJOaOAE5N744kRF9tX8GuKa5s", "scope": "GOOGLE", "types": ["finance", "point_of_interest", "establishment"], "user_ratings_total": 1, "vicinity": "576 Washington Street, Dorchester"}, "ChIJeTM9ZpN744kRNnUSIK0XDpA": {"geometry": {"location": {"lat": 42.2922825, "lng": -71.0719459}, "viewport": {"northeast": {"lat": 42.29363473029149, "lng": -71.0705078197085}, "southwest": {"lat": 42.29093676970849, "lng": -71.0732057802915}}}, "icon": "https://maps.gstatic.com/mapfiles/place_api/icons/shopping-71.png", "id": "3b1917e0fabff65e4c2af06ba6fe5dca8767d342", "name": "Essential Body Herbs", "opening_hours": {"open_now": false}, "place_id": "ChIJeTM9ZpN744kRNnUSIK0XDpA", "plus_code": {"compound_code": "7WRH+W6 Boston, Massachusetts, United States", "global_code": "87JC7WRH+W6"}, "reference": "ChIJeTM9ZpN744kRNnUSIK0XDpA", "scope": "GOOGLE", "types": ["store", "point_of_interest", "establishment"], "vicinity": "555 Washington Street # C, Dorchester Center"}, "ChIJy8gTbJN744kRCRISmRQeBCg": {"geometry": {"location": {"lat": 42.2918879, "lng": -71.0715396}, "viewport": {"northeast": {"lat": 42.2932329802915, "lng": -71.0702907197085}, "southwest": {"lat": 42.29053501970851, "lng": -71.0729886802915}}}, "icon": "https://maps.gstatic.com/mapfiles/place_api/icons/generic_business-71.png", "id": "fc9d9f96b0a6818b09217c9d26d177585ba11b07", "name": "Anna's Nail Design", "opening_hours": {"open_now": true}, "photos": [{"height": 2425, "html_attributions": ["<a href=\"https://maps.google.com/maps/contrib/111212776946879279291/photos\">Bootz22ful</a>"], "photo_reference": "CmRaAAAAViWkE9hrH5qJnJevU0gEQXoAxTPvSkG8t5Xcq0DhORw7KOA5lGQXAEyWPAoA4IVn2akmnEWcr--zYPMNbw-bJZN3yN1IF43LRC339EAGgnLQGKjeT274vHkTeFQ-1T08EhCQ2gbaWlP--cW9kOqgJLC2GhTkDtotyT-aSbRwwpFd_Zk95Efoug", "width": 1754}], "place_id": "ChIJy8gTbJN744kRCRISmRQeBCg", "plus_code": {"compound_code": "7WRH+Q9 Boston, Massachusetts, United States", "global_code": "87JC7WRH+Q9"}, "rating": 4.2, "reference": "ChIJy8gTbJN744kRCRISmRQeBCg", "scope": "GOOGLE", "types": ["beauty_salon", "point_of_interest", "establishment"], "user_ratings_total": 26, "vicinity": "566 Washington Street, Dorchester Center"}, "ChIJhSgEbJN744kRZgWPGJIYx6o": {"geometry": {"location": {"lat": 42.291925, "lng": -71.071535}, "viewport": {"northeast": {"lat": 42.29326993029149, "lng": -71.07028971970848}, "southwest": {"lat": 42.2905719697085, "lng": -71.0729876802915}}}, "icon": "https://maps.gstatic.com/mapfiles/place_api/icons/generic_business-71.png", "id": "416400c0c546785c0deda9c7e3c99fa63c4ff65c", "name": "Janet's Hair Braiding", "opening_hours": {"open_now": true}, "photos": [{"height": 1600, "html_attributions": ["<a href=\"https://maps.google.com/maps/contrib/100147970227764110600/photos\">Janet&#39;s Hair Braiding</a>"], "photo_reference": "CmRaAAAACu7KmEqi7HDAcOlUWzK9mI0Pswmf3an9eKkivt7zsqiEcg1BXEp28--FvymWt7uzNylsbuGqgXxOpmA8LRQN7E2zvR8F1uR_fQawa6jZHxztcNXTMyeb8tqcAO7sYhq2EhBkHyP5RD0UvhGqL9tGbcRPGhTc6Q1KTHohdHx_MQXhkz9nl-zT0g", "width": 1200}], "place_id": "ChIJhSgEbJN744kRZgWPGJIYx6o", "plus_code": {"compound_code": "7WRH+Q9 Boston, Massachusetts, United States", "global_code": "87JC7WRH+Q9"}, "rating": 3.8, "reference": "ChIJhSgEbJN744kRZgWPGJIYx6o", "scope": "GOOGLE", "types": ["hair_care", "pharmacy", "store", "health", "point_of_interest", "establishment"], "user_ratings_total": 24, "vicinity": "564 Washington Street, Dorchester Center"}, "ChIJx8gnSM5744kRc--Ph1waW4w": {"geometry": {"location": {"lat": 42.29186199999999, "lng": -71.0715513}, "viewport": {"northeast": {"lat": 42.29320733029149, "lng": -71.07029566970849}, "southwest": {"lat": 42.2905093697085, "lng": -71.07299363029149}}}, "icon": "https://maps.gstatic.com/mapfiles/place_api/icons/generic_business-71.png", "id": "0e936aa22e1b63cd700b09173ccfa3ed1c35f9ea", "name": "Janet African hair braiding", "opening_hours": {"open_now": true}, "photos": [{"height": 673, "html_attributions": ["<a href=\"https://maps.google.com/maps/contrib/104714173459077767025/photos\">Janet African hair braiding</a>"], "photo_reference": "CmRaAAAA3imkto8rfm19Btf0YnuY3ksCJjiuft4SuGbn9k18fgOBnZpx7gF4b6KMOyFJsZTrAj8aWfSVNj4BG-X76mshhIlm4EZHU3uX-1cXXvCKvHWBIEzyv4_Wp_kHC5z6oT6JEhDBetfTdUTouQDIL3D8U4ojGhT5IsBnmwWZB8fHMvcPCS-izLdgvQ", "width": 1200}], "place_id": "ChIJx8gnSM5744kRc--Ph1waW4w", "plus_code": {"compound_code": "7WRH+P9 Boston, Massachusetts, United States", "global_code": "87JC7WRH+P9"}, "reference": "ChIJx8gnSM5744kRc--Ph1waW4w", "scope": "GOOGLE", "types": ["hair_care", "point_of_interest", "establishment"], "vicinity": "564 Washington Street, Dorchester"}, "ChIJVxWvbpN744kRkr_tEV0eQcE": {"geometry": {"location": {"lat": 42.2919647, "lng": -71.07153629999999}, "viewport": {"northeast": {"lat": 42.2933095802915, "lng": -71.07029181970849}, "southwest": {"lat": 42.2906116197085, "lng": -71.07298978029151}}}, "icon": "https://maps.gstatic.com/mapfiles/place_api/icons/shopping-71.png", "id": "011317be6127de11c464ce81bdb12595f22991d6", "name": "Anh Sang Jewlery", "place_id": "ChIJVxWvbpN744kRkr_tEV0eQcE", "plus_code": {"compound_code": "7WRH+Q9 Boston, Massachusetts, United States", "global_code": "87JC7WRH+Q9"}, "rating": 5, "reference": "ChIJVxWvbpN744kRkr_tEV0eQcE", "scope": "GOOGLE", "types": ["jewelry_store", "store", "point_of_interest", "establishment"], "user_ratings_total": 1, "vicinity": "562 Washington Street, Dorchester Center"}, "ChIJyROJbJN744kR9dEVWPfa0oI": {"geometry": {"location": {"lat": 42.29179589999999, "lng": -71.0716147}, "viewport": {"northeast": {"lat": 42.2931425302915, "lng": -71.07032506970849}, "southwest": {"lat": 42.29044456970851, "lng": -71.0730230302915}}}, "icon": "https://maps.gstatic.com/mapfiles/place_api/icons/generic_business-71.png", "id": "e53500f98809020c6c56c04deaede8ee39776ac1", "name": "Floras Beauty Supply", "opening_hours": {"open_now": true}, "photos": [{"height": 4032, "html_attributions": ["<a href=\"https://maps.google.com/maps/contrib/110311687118206697813/photos\">Victor Aduayi</a>"], "photo_reference": "CmRaAAAAR1tmrgP06iLTsN8aZ5MrfmfhCakl7YaLirmtNHLtHrRo12e7Evlq_XAB5XUPDPzlxByHVP4sWj7hL2mRJdN56qPqXUWbzIqb3astxDGq0VS-bmr95Lf-MukSZRuAPi6IEhBtb0FjKFxk9Rbgp2fFMMTFGhTMfMOizBn3_A_4ayREe9yqtMR4rA", "width": 3024}], "place_id": "ChIJyROJbJN744kR9dEVWPfa0oI", "plus_code": {"compound_code": "7WRH+P9 Boston, Massachusetts, United States", "global_code": "87JC7WRH+P9"}, "rating": 4, "reference": "ChIJyROJbJN744kR9dEVWPfa0oI", "scope": "GOOGLE", "types": ["point_of_interest", "establishment"], "user_ratings_total": 13, "vicinity": "570 Washington Street, Boston"}, "ChIJxRCIbJN744kRxt9v9mt-neA": {"geometry": {"location": {"lat": 42.291764, "lng": -71.07164100000001}, "viewport": {"northeast": {"lat": 42.2931112302915, "lng": -71.0703371197085}, "southwest": {"lat": 42.2904132697085, "lng": -71.0730350802915}}}, "icon": "https://maps.gstatic.com/mapfiles/place_api/icons/bus-71.png", "id": "e844a752c7cf931da5595680be0d887ced57bd34", "name": "Washington St @ Kenwood St", "place_id": "ChIJxRCIbJN744kRxt9v9mt-neA", "plus_code": {"compound_code": "7WRH+P8 Boston, Massachusetts, United States", "global_code": "87JC7WRH+P8"}, "reference": "ChIJxRCIbJN744kRxt9v9mt-neA", "scope": "GOOGLE", "types": ["bus_station", "transit_station", "point_of_interest", "establishment"], "vicinity": "United States"}, "ChIJNW3SvsF744kRoksWceMPLhk": {"geometry": {"location": {"lat": 42.2916151, "lng": -71.0715263}, "viewport": {"northeast": {"lat": 42.2929597802915, "lng": -71.0702738697085}, "southwest": {"lat": 42.2902618197085, "lng": -71.07297183029151}}}, "icon": "https://maps.gstatic.com/mapfiles/place_api/icons/restaurant-71.png", "id": "22c2bd0de0098849f83d263ef2ec3f371914a224", "name": "Popeye's", "place_id": "ChIJNW3SvsF744kRoksWceMPLhk", "plus_code": {"compound_code": "7WRH+J9 Boston, Massachusetts, United States", "global_code": "87JC7WRH+J9"}, "reference": "ChIJNW3SvsF744kRoksWceMPLhk", "scope": "GOOGLE", "types": ["restaurant", "point_of_interest", "food", "establishment"], "vicinity": "572 Washington Street, Boston"}, "ChIJzRgia5N744kRhyDzo8eNvuM": {"geometry": {"location": {"lat": 42.2917232, "lng": -71.0718516}, "viewport": {"northeast": {"lat": 42.2930745802915, "lng": -71.07044126970848}, "southwest": {"lat": 42.2903766197085, "lng": -71.0731392302915}}}, "icon": "https://maps.gstatic.com/mapfiles/place_api/icons/restaurant-71.png", "id": "c8f7da836aeb94a406b40b7e6c805b82af32b5c9", "name": "X.O Restaurant", "photos": [{"height": 1616, "html_attributions": ["<a href=\"https://maps.google.com/maps/contrib/103134861911911845832/photos\">Max Newman</a>"], "photo_reference": "CmRaAAAA1Cf-qfMHt4Karo-k66AfKub3jXMpY9eKdFwMkefEucbSjd3bO4JeWsrpTUm4Vi2Cw8vlMdIG8I2jFVxKUVzKAZSwdiz0iSYfEu6lAyy8_Y0fxKgM7cyfFkz1fow0iGigEhDExJ8s6XPYsjJBv70dwnQWGhQNw8-Qle7PcwFY29RDZ1L7EptaQg", "width": 1323}], "place_id": "ChIJzRgia5N744kRhyDzo8eNvuM", "plus_code": {"compound_code": "7WRH+M7 Boston, Massachusetts, United States", "global_code": "87JC7WRH+M7"}, "reference": "ChIJzRgia5N744kRhyDzo8eNvuM", "scope": "GOOGLE", "types": ["store", "restaurant", "point_of_interest", "food", "establishment"], "vicinity": "571B Washington Street, Boston"}, "ChIJGzE9DS1l44kRoOhiASS_fHg": {"geometry": {"location": {"lat": 42.3600825, "lng": -71.0588801}, "viewport": {"northeast": {"lat": 42.40081989999999, "lng": -70.749455}, "southwest": {"lat": 42.22788, "lng": -71.191113}}}, "icon": "https://maps.gstatic.com/mapfiles/place_api/icons/geocode-71.png", "id": "06755c25d2b34d13942a4713971756a55b870ced", "name": "Boston", "photos": [{"height": 3024, "html_attributions": ["<a href=\"https://maps.google.com/maps/contrib/104670289779338733432/photos\">Natalia Zalucean</a>"], "photo_reference": "CmRaAAAAw3ZA2YUOknN6FI6Hztw3T-t0UgUTsMfzh6zmrsu_RH1Zh4jlchf6HQQ7TtOmLpO2zO-vsmbISBebj1h8dcZT1TFzT-ZQloG9ObKZiZDnoY7v2Q4vXtFk1fO9b_y1wRqHEhCnZ_ilr4zkKxX1UzQXML17GhRGgsmO8gkgT575GvrM1qcLDfZJtw", "width": 4032}], "place_id": "ChIJGzE9DS1l44kRoOhiASS_fHg", "reference": "ChIJGzE9DS1l44kRoOhiASS_fHg", "scope": "GOOGLE", "types": ["locality", "political"], "vicinity": "Boston"}, "ChIJj2EAUJ1w44kRTegW3Gb33Ks": {"geometry": {"location": {"lat": 42.2920522, "lng": -71.0719575}, "viewport": {"northeast": {"lat": 42.29340493029149, "lng": -71.0705059197085}, "southwest": {"lat": 42.2907069697085, "lng": -71.0732038802915}}}, "icon": "https://maps.gstatic.com/mapfiles/place_api/icons/generic_business-71.png", "id": "8ed817b8945f420af5f1530c636952e1389f243d", "name": "Nadia's", "place_id": "ChIJj2EAUJ1w44kRTegW3Gb33Ks", "plus_code": {"compound_code": "7WRH+R6 Boston, Massachusetts, United States", "global_code": "87JC7WRH+R6"}, "rating": 4, "reference": "ChIJj2EAUJ1w44kRTegW3Gb33Ks", "scope": "GOOGLE", "types": ["point_of_interest", "establishment"], "user_ratings_total": 1, "vicinity": "565 Washington Street, Dorchester Center"}, "ChIJPerdaJN744kRh7XeCD29WaA": {"geometry": {"location": {"lat": 42.2920522, "lng": -71.0719575}, "viewport": {"northeast": {"lat": 42.29340493029149, "lng": -71.0705059197085}, "southwest": {"lat": 42.2907069697085, "lng": -71.0732038802915}}}, "icon": "https://maps.gstatic.com/mapfiles/place_api/icons/shopping-71.png", "id": "e9e40e57a22eee91314fd3413adea58b8907f046", "name": "Naser Fashions", "place_id": "ChIJPerdaJN744kRh7XeCD29WaA", "plus_code": {"compound_code": "7WRH+R6 Boston, Massachusetts, United States", "global_code": "87JC7WRH+R6"}, "reference": "ChIJPerdaJN744kRh7XeCD29WaA", "scope": "GOOGLE", "types": ["clothing_store", "store", "point_of_interest", "establishment"], "vicinity": "565 Washington Street, Dorchester Center"}, "ChIJmXDma5N744kRpM8LVtQ7w3I": {"geometry": {"location": {"lat": 42.29177620000001, "lng": -71.07206049999999}, "viewport": {"northeast": {"lat": 42.29313158029151, "lng": -71.07054791970849}, "southwest": {"lat": 42.29043361970851, "lng": -71.0732458802915}}}, "icon": "https://maps.gstatic.com/mapfiles/place_api/icons/generic_business-71.png", "id": "f1c3d34692eeacbc10a55de70b1d58643798836f", "name": "Codman Square Retail Security", "place_id": "ChIJmXDma5N744kRpM8LVtQ7w3I", "plus_code": {"compound_code": "7WRH+P5 Boston, Massachusetts, United States", "global_code": "87JC7WRH+P5"}, "reference": "ChIJmXDma5N744kRpM8LVtQ7w3I", "scope": "GOOGLE", "types": ["point_of_interest", "establishment"], "vicinity": "569 Washington Street, Dorchester Center"}, "ChIJvcloFJN744kRfu6aZozaGos": {"geometry": {"location": {"lat": 42.291446, "lng": -71.07176199999999}, "viewport": {"northeast": {"lat": 42.2927955802915, "lng": -71.07040001970849}, "southwest": {"lat": 42.2900976197085, "lng": -71.0730979802915}}}, "icon": "https://maps.gstatic.com/mapfiles/place_api/icons/bus-71.png", "id": "74122ec3fe6b8eb0faa083bac76f13f87e9e920f", "name": "Washington St @ Southern Ave", "place_id": "ChIJvcloFJN744kRfu6aZozaGos", "plus_code": {"compound_code": "7WRH+H7 Boston, Massachusetts, United States", "global_code": "87JC7WRH+H7"}, "reference": "ChIJvcloFJN744kRfu6aZozaGos", "scope": "GOOGLE", "types": ["bus_station", "transit_station", "point_of_interest", "establishment"], "vicinity": "United States"}, "ChIJk2rJaZN744kRjpwAig3imNI": {"geometry": {"location": {"lat": 42.29221320000001, "lng": -71.0719888}, "viewport": {"northeast": {"lat": 42.2935663302915, "lng": -71.07052696970851}, "southwest": {"lat": 42.29086836970851, "lng": -71.07322493029152}}}, "icon": "https://maps.gstatic.com/mapfiles/place_api/icons/restaurant-71.png", "id": "7e1fe98da4645f8ca990945e88f9abce53fc8375", "name": "Caribe Restaurant", "opening_hours": {"open_now": true}, "photos": [{"height": 960, "html_attributions": ["<a href=\"https://maps.google.com/maps/contrib/102148030758890614434/photos\">Marinito Cuevas</a>"], "photo_reference": "CmRaAAAAWOlDpnjfa_hSML3EISV3SKOKMUcXzl1taI3UUvK5ON7eiYE5s79AU1txRyQ9S2jwqR91XTdnuySIXzUAOD5fGPDdFnQKjMyJ31L7XSshYjf8o8swddJB-2RvWnNu0Hu8EhBPQ0EbZc4g3tzDlJBf_Pz3GhQ4ydYffZzXvU31GyDmtm2ajrXFcw", "width": 576}], "place_id": "ChIJk2rJaZN744kRjpwAig3imNI", "plus_code": {"compound_code": "7WRH+V6 Boston, Massachusetts, United States", "global_code": "87JC7WRH+V6"}, "rating": 4.2, "reference": "ChIJk2rJaZN744kRjpwAig3imNI", "scope": "GOOGLE", "types": ["restaurant", "point_of_interest", "food", "establishment"], "user_ratings_total": 13, "vicinity": "559 Washington Street, Boston"}, "ChIJcZkpEZN744kRjSYzi2wbDvM": {"geometry": {"location": {"lat": 42.29131929999999, "lng": -71.0714887}, "viewport": {"northeast": {"lat": 42.29266368029149, "lng": -71.0702429697085}, "southwest": {"lat": 42.28996571970849, "lng": -71.07294093029151}}}, "icon": "https://maps.gstatic.com/mapfiles/place_api/icons/shopping-71.png", "id": "988f8167ff9eb75d76b4dd7d18609d756914434a", "name": "Long Tran Jewelry", "place_id": "ChIJcZkpEZN744kRjSYzi2wbDvM", "plus_code": {"compound_code": "7WRH+GC Boston, Massachusetts, United States", "global_code": "87JC7WRH+GC"}, "rating": 2.5, "reference": "ChIJcZkpEZN744kRjSYzi2wbDvM", "scope": "GOOGLE", "types": ["jewelry_store", "store", "point_of_interest", "establishment"], "user_ratings_total": 6, "vicinity": "580 Washington Street, Dorchester Center"}}