{"ChIJ0cEQzPZ544kRQhyxjaqELOE": {"geometry": {"location": {"lat": 42.34719399999999, "lng": -71.10291959999999}, "viewport": {"northeast": {"lat": 42.34854298029149, "lng": -71.10157056970849}, "southwest": {"lat": 42.34584501970849, "lng": -71.1042685302915}}}, "icon": "https://maps.gstatic.com/mapfiles/place_api/icons/geocode-71.png", "id": "9a4ca9633713eef31c0994bc02c1c22e0255a150", "name": "843-827 MA-2", "place_id": "ChIJ0cEQzPZ544kRQhyxjaqELOE", "reference": "ChIJ0cEQzPZ544kRQhyxjaqELOE", "scope": "GOOGLE", "types": ["route"], "vicinity": "Boston"}, "ChIJI94HSvF544kRzLh8rsjKO3Q": {"geometry": {"location": {"lat": 42.34679599999999, "lng": -71.1034785}, "viewport": {"northeast": {"lat": 42.3482581802915, "lng": -71.10218091970849}, "southwest": {"lat": 42.3455602197085, "lng": -71.1048788802915}}}, "icon": "https://maps.gstatic.com/mapfiles/place_api/icons/generic_business-71.png", "id": "4035fbbb3eefdce048ce8456028dee2924b9eb63", "name": "Twilight Hair Salon", "opening_hours": {"open_now": true}, "photos": [{"height": 864, "html_attributions": ["<a href=\"https://maps.google.com/maps/contrib/111125447159022244441/photos\">Custom Sharpening By Hand</a>"], "photo_reference": "CmRaAAAAk2OXw3-eqphGTIMB_1woXVluksW1lXOLX1qPZktJwSyIhTqXuxMGFFSQMl9DqcIg4Q5GdFVE_wrWhN__k0k2EvjUBBwdsIIoSt9JQjBoSEFtTLg0sEaL8bz9uZFLizppEhCJY0Zqd2QO3JhaIsrpVD2ZGhRqEdNRSPIRKOI982fDVyyo1ZC6QQ", "width": 640}], "place_id": "ChIJI94HSvF544kRzLh8rsjKO3Q", "plus_code": {"compound_code": "8VWW+PJ Boston, Massachusetts, United States", "global_code": "87JC8VWW+PJ"}, "rating": 4.8, "reference": "ChIJI94HSvF544kRzLh8rsjKO3Q", "scope": "GOOGLE", "types": ["beauty_salon", "hair_care", "point_of_interest", "establishment"], "user_ratings_total": 28, "vicinity": "849 Beacon Street, Boston"}, "ChIJP4O3NPF544kRBl06DKlUNoI": {"geometry": {"location": {"lat": 42.3474284, "lng": -71.10331769999999}, "viewport": {"northeast": {"lat": 42.3487510302915, "lng": -71.10203006970849}, "southwest": {"lat": 42.3460530697085, "lng": -71.1047280302915}}}, "icon": "https://maps.gstatic.com/mapfiles/place_api/icons/generic_business-71.png", "id": "5ba6f9d846e397fa6ea5a848aaf39a1b8761dc51", "name": "City Central Realty LLC", "opening_hours": {"open_now": true}, "photos": [{"height": 520, "html_attributions": ["<a href=\"https://maps.google.com/maps/contrib/116763547278320841166/photos\">City Central Realty LLC</a>"], "photo_reference": "CmRaAAAAifiEoUhtwEsO1dx6OcokKtc0vWGAvEuZXerbs97M_M5oU0jOpkhQ-_ZwqeTSZyYcMpxnfO7J-iJmPzLOGoyGdqgy4QTS4NS4YUiHh8Gtypec2zhS9jpuSytDn28fSpuMEhBpKqtmWDUueZamYeIhbzmuGhTRzehfzpx1_tXiDW9RZ9Y8WqthIQ", "width": 800}], "place_id": "ChIJP4O3NPF544kRBl06DKlUNoI", "plus_code": {"compound_code": "8VWW+XM Boston, Massachusetts, United States", "global_code": "87JC8VWW+XM"}, "rating": 2.1, "reference": "ChIJP4O3NPF544kRBl06DKlUNoI", "scope": "GOOGLE", "types": ["real_estate_agency", "point_of_interest", "establishment"], "user_ratings_total": 12, "vicinity": "842 Beacon Street # B, Boston"}, "ChIJY0xPM_F544kR9GAEBUeIRXo": {"geometry": {"location": {"lat": 42.34731089999999, "lng": -71.1032783}, "viewport": {"northeast": {"lat": 42.3486042302915, "lng": -71.1019029197085}, "southwest": {"lat": 42.3459062697085, "lng": -71.10460088029151}}}, "icon": "https://maps.gstatic.com/mapfiles/place_api/icons/shopping-71.png", "id": "af959f9e91a57a527a1b03504b97b8a72aa0fe1d", "name": "Shippy's Warehouse", "opening_hours": {"open_now": true}, "photos": [{"height": 1150, "html_attributions": ["<a href=\"https://maps.google.com/maps/contrib/100430883867818787682/photos\">Shippy&#39;s Warehouse</a>"], "photo_reference": "CmRaAAAAC6w2k2Fni-yoEBU3pWfU-2gqWDIg4YL4wB7gW40v2lexjH4NKkV4xBahlMZiWDba3phrS0sSnAR-LNjkzJyorx-BexBnudSVG84OLBAV-P38mpQKWAccwhYOnK40xrynEhDMsMFqc4IUJuvNZT9VmLszGhS4XJiheNXUf4BF_D8FBs-RVzZFUw", "width": 2048}], "place_id": "ChIJY0xPM_F544kR9GAEBUeIRXo", "plus_code": {"compound_code": "8VWW+WM Boston, Massachusetts, United States", "global_code": "87JC8VWW+WM"}, "rating": 4.2, "reference": "ChIJY0xPM_F544kR9GAEBUeIRXo", "scope": "GOOGLE", "types": ["liquor_store", "store", "point_of_interest", "establishment"], "user_ratings_total": 13, "vicinity": "842 Beacon Street, Boston"}, "ChIJY18dz_Z544kRxZKg224XGG8": {"geometry": {"location": {"lat": 42.3470775, "lng": -71.1025628}, "viewport": {"northeast": {"lat": 42.3485169802915, "lng": -71.1012733197085}, "southwest": {"lat": 42.3458190197085, "lng": -71.1039712802915}}}, "icon": "https://maps.gstatic.com/mapfiles/place_api/icons/generic_business-71.png", "id": "f5f982548304f5a4e51d1ed4a0858f3be54f5776", "name": "Boston Tax Attorney", "opening_hours": {"open_now": true}, "photos": [{"height": 487, "html_attributions": ["<a href=\"https://maps.google.com/maps/contrib/100605572886715290765/photos\">Boston Tax Attorney</a>"], "photo_reference": "CmRaAAAAuDCf0zvLJ9Ec9MbC1xA5FJV0NSLQz4yR9jMupJRiFwr9wRFS1BRut73TavgjmK2q09uOGNizfO47DtQu6euO9NJePFWSQ5VxZDC7LDadNn07D1vrmdEAFW4jeCaOGEtsEhAlPAFalAzqlj_So0AuBpkdGhQ0MA6NL6IspuVNP6nNHMz0-j7Ixg", "width": 1416}], "place_id": "ChIJY18dz_Z544kRxZKg224XGG8", "plus_code": {"compound_code": "8VWW+RX Boston, Massachusetts, United States", "global_code": "87JC8VWW+RX"}, "reference": "ChIJY18dz_Z544kRxZKg224XGG8", "scope": "GOOGLE", "types": ["accounting", "lawyer", "finance", "point_of_interest", "establishment"], "vicinity": "831 Beacon Street # 250, Boston"}, "ChIJDaJJzfZ544kRnon1_FQE2cg": {"geometry": {"location": {"lat": 42.3474079, "lng": -71.1031816}, "viewport": {"northeast": {"lat": 42.3486699802915, "lng": -71.1017891697085}, "southwest": {"lat": 42.3459720197085, "lng": -71.10448713029152}}}, "icon": "https://maps.gstatic.com/mapfiles/place_api/icons/restaurant-71.png", "id": "e78a6726d1aba0b0beedf830b39fb8dfcc11cd4f", "name": "Audubon", "opening_hours": {"open_now": true}, "photos": [{"height": 600, "html_attributions": ["<a href=\"https://maps.google.com/maps/contrib/110118655663546093835/photos\">Audubon</a>"], "photo_reference": "CmRaAAAAti-yg5Ic-3xojcYuURbTeuHEPoB_8nrRDVNSuddKbwWqsCQ631xJeJ_pl73b3_qhsayFR2n9H0Fb4l788TMLMruej_w542005Cm7dVa-3f_f7OBcyqlo94cKJue7AxN_EhBFUGryl2WxUV8i6iv50bzkGhS53JX7u1IzzJB16aiojP5E6vBciQ", "width": 899}], "place_id": "ChIJDaJJzfZ544kRnon1_FQE2cg", "plus_code": {"compound_code": "8VWW+XP Boston, Massachusetts, United States", "global_code": "87JC8VWW+XP"}, "price_level": 2, "rating": 4.5, "reference": "ChIJDaJJzfZ544kRnon1_FQE2cg", "scope": "GOOGLE", "types": ["bar", "restaurant", "point_of_interest", "food", "establishment"], "user_ratings_total": 292, "vicinity": "838 Beacon Street, Boston"}, "ChIJV7QvyfZ544kRoOxdZSSiyz8": {"geometry": {"location": {"lat": 42.3470174, "lng": -71.1025397}, "viewport": {"northeast": {"lat": 42.34838818029149, "lng": -71.10112091970848}, "southwest": {"lat": 42.3456902197085, "lng": -71.1038188802915}}}, "icon": "https://maps.gstatic.com/mapfiles/place_api/icons/generic_business-71.png", "id": "9521af5401a17d82e2d4035fbebbdb413b119e82", "name": "Octagon Properties", "place_id": "ChIJV7QvyfZ544kRoOxdZSSiyz8", "plus_code": {"compound_code": "8VWW+RX Boston, Massachusetts, United States", "global_code": "87JC8VWW+RX"}, "rating": 3.5, "reference": "ChIJV7QvyfZ544kRoOxdZSSiyz8", "scope": "GOOGLE", "types": ["point_of_interest", "establishment"], "user_ratings_total": 4, "vicinity": "829 Beacon Street B, Boston"}, "ChIJCfEcM_F544kRghbnV3d03fM": {"geometry": {"location": {"lat": 42.3474284, "lng": -71.10331769999999}, "viewport": {"northeast": {"lat": 42.3487508802915, "lng": -71.1020299697085}, "southwest": {"lat": 42.34605291970851, "lng": -71.1047279302915}}}, "icon": "https://maps.gstatic.com/mapfiles/place_api/icons/generic_business-71.png", "id": "a30d0ce31d40e86697ae7a5cc978abdee8aca699", "name": "Boston General", "place_id": "ChIJCfEcM_F544kRghbnV3d03fM", "plus_code": {"compound_code": "8VWW+XM Boston, Massachusetts, United States", "global_code": "87JC8VWW+XM"}, "reference": "ChIJCfEcM_F544kRghbnV3d03fM", "scope": "GOOGLE", "types": ["dentist", "health", "point_of_interest", "establishment"], "vicinity": "842 Beacon Street # 100, Boston"}, "ChIJwZlUM_F544kRXKVuw-KOseY": {"geometry": {"location": {"lat": 42.3474284, "lng": -71.10331769999999}, "viewport": {"northeast": {"lat": 42.34866488029149, "lng": -71.10191536970848}, "southwest": {"lat": 42.34596691970849, "lng": -71.1046133302915}}}, "icon": "https://maps.gstatic.com/mapfiles/place_api/icons/generic_business-71.png", "id": "0c37ae78349b2208c7c56377e45db30277cb13ca", "name": "Bernard G Berkman Associates Inc", "photos": [{"height": 3024, "html_attributions": ["<a href=\"https://maps.google.com/maps/contrib/106859502598729032090/photos\">Theodor Weinberg</a>"], "photo_reference": "CmRaAAAAZjvFygxfP_0mLYnzrssS9woN3Px6AkN_kD6gkVFWoe_up4RuNnw1jjZMwPjyxZTJ9YqUhXi0WpTnsTpPzOd4wm4lS5nguBuvUmKj8VI8pkeCc6QUQVZ1Wi55fEaKCVS4EhDcBX67BPSldSZzJo4rFG-gGhTTkIryLF8TgboeX54KVTv7Czg8Hg", "width": 3024}], "place_id": "ChIJwZlUM_F544kRXKVuw-KOseY", "plus_code": {"compound_code": "8VWW+XM Boston, Massachusetts, United States", "global_code": "87JC8VWW+XM"}, "reference": "ChIJwZlUM_F544kRXKVuw-KOseY", "scope": "GOOGLE", "types": ["real_estate_agency", "point_of_interest", "establishment"], "vicinity": "842 Beacon Street, Boston"}, "ChIJi4lvyvZ544kRm3cyA-_K4-A": {"geometry": {"location": {"lat": 42.3470028, "lng": -71.1031167}, "viewport": {"northeast": {"lat": 42.3484129802915, "lng": -71.1017977197085}, "southwest": {"lat": 42.3457150197085, "lng": -71.1044956802915}}}, "icon": "https://maps.gstatic.com/mapfiles/place_api/icons/generic_business-71.png", "id": "b230cd671736038699e2aea099132a656c9a926c", "name": "Security Insurance Agency Inc", "opening_hours": {"open_now": true}, "place_id": "ChIJi4lvyvZ544kRm3cyA-_K4-A", "plus_code": {"compound_code": "8VWW+RQ Boston, Massachusetts, United States", "global_code": "87JC8VWW+RQ"}, "reference": "ChIJi4lvyvZ544kRm3cyA-_K4-A", "scope": "GOOGLE", "types": ["lawyer", "point_of_interest", "establishment"], "vicinity": "843 Beacon Street, Boston"}, "ChIJCfEcM_F544kRPRrtagi7h9o": {"geometry": {"location": {"lat": 42.3474284, "lng": -71.10331769999999}, "viewport": {"northeast": {"lat": 42.3487510302915, "lng": -71.10203006970849}, "southwest": {"lat": 42.3460530697085, "lng": -71.1047280302915}}}, "icon": "https://maps.gstatic.com/mapfiles/place_api/icons/generic_business-71.png", "id": "2a70dde701e04fb9350859164bf7572cac01e260", "name": "M & S Investments", "place_id": "ChIJCfEcM_F544kRPRrtagi7h9o", "plus_code": {"compound_code": "8VWW+XM Boston, Massachusetts, United States", "global_code": "87JC8VWW+XM"}, "reference": "ChIJCfEcM_F544kRPRrtagi7h9o", "scope": "GOOGLE", "types": ["finance", "point_of_interest", "establishment"], "vicinity": "842 Beacon Street, Boston"}, "ChIJtwavS_F544kRqfRYFBLjKpI": {"geometry": {"location": {"lat": 42.34679599999999, "lng": -71.1034785}, "viewport": {"northeast": {"lat": 42.3482581802915, "lng": -71.10218091970849}, "southwest": {"lat": 42.3455602197085, "lng": -71.1048788802915}}}, "icon": "https://maps.gstatic.com/mapfiles/place_api/icons/generic_business-71.png", "id": "b4c0a03681563aabe522c9eb5d25c3a5bed773ec", "name": "Sarah Miller Hairdresser", "opening_hours": {"open_now": true}, "place_id": "ChIJtwavS_F544kRqfRYFBLjKpI", "plus_code": {"compound_code": "8VWW+PJ Boston, Massachusetts, United States", "global_code": "87JC8VWW+PJ"}, "reference": "ChIJtwavS_F544kRqfRYFBLjKpI", "scope": "GOOGLE", "types": ["hair_care", "point_of_interest", "establishment"], "vicinity": "849 Beacon Street, Boston"}, "ChIJGzE9DS1l44kRoOhiASS_fHg": {"geometry": {"location": {"lat": 42.3600825, "lng": -71.0588801}, "viewport": {"northeast": {"lat": 42.40081989999999, "lng": -70.749455}, "southwest": {"lat": 42.22788, "lng": -71.191113}}}, "icon": "https://maps.gstatic.com/mapfiles/place_api/icons/geocode-71.png", "id": "06755c25d2b34d13942a4713971756a55b870ced", "name": "Boston", "photos": [{"height": 3024, "html_attributions": ["<a href=\"https://maps.google.com/maps/contrib/104670289779338733432/photos\">Natalia Zalucean</a>"], "photo_reference": "CmRaAAAAXtgx-Yb8ZuD54f6IXMrPKQIN_jQzyOAuLuR-ifrqaHlbrymW8Hh9IR3axq2J4QpopMDnLtq3KBtLJHo2h6L40y3CFRBGs7sK2eliSxLTrCJ1sC096tUIt9T3ZYPVNhaLEhDoKE9C2QhynwvFYa50wRLMGhTJSVhsSOPS-2-nhdQOzyoA0GyHXw", "width": 4032}], "place_id": "ChIJGzE9DS1l44kRoOhiASS_fHg", "reference": "ChIJGzE9DS1l44kRoOhiASS_fHg", "scope": "GOOGLE", "types": ["locality", "political"], "vicinity": "Boston"}}