{"ChIJZ-_j0HB644kRWftXswmQsSs": {"geometry": {"location": {"lat": 42.34811300000001, "lng": -71.064159}, "viewport": {"northeast": {"lat": 42.3494619802915, "lng": -71.0628100197085}, "southwest": {"lat": 42.3467640197085, "lng": -71.06550798029151}}}, "icon": "https://maps.gstatic.com/mapfiles/place_api/icons/geocode-71.png", "id": "8bdce06da7c5eaa7b7d69651b802ebfe747ba43e", "name": "898-878 Washington St", "place_id": "ChIJZ-_j0HB644kRWftXswmQsSs", "reference": "ChIJZ-_j0HB644kRWftXswmQsSs", "scope": "GOOGLE", "types": ["route"], "vicinity": "Boston"}, "ChIJn3swy3B644kRJd-c5H75v2Y": {"geometry": {"location": {"lat": 42.3484241, "lng": -71.0633936}, "viewport": {"northeast": {"lat": 42.3497848302915, "lng": -71.06211851970849}, "southwest": {"lat": 42.3470868697085, "lng": -71.06481648029151}}}, "icon": "https://maps.gstatic.com/mapfiles/place_api/icons/generic_business-71.png", "id": "26965f67e71d12356a980b52b69118dca8011d65", "name": "Boston Chinatown Neighborhood Center", "photos": [{"height": 4032, "html_attributions": ["<a href=\"https://maps.google.com/maps/contrib/110558512197578282050/photos\">Sovanna Pouv</a>"], "photo_reference": "CmRaAAAAXn_EJCHxUSkAyJmwifDNcDTe712k614yOjlSUmqznf28xelkOiPdT7ZnkNeuzKDuz77k2gum-I-zRsHKveZcUiJ0Qp8S_qsc9Ckk-xrjXuBDe-er35ITJqeOiYeZK8jnEhC__MreXQ_SGiqY0A58c5n4GhTW3hyJZW023SWZSV1B4QKBt84IyQ", "width": 3024}], "place_id": "ChIJn3swy3B644kRJd-c5H75v2Y", "plus_code": {"compound_code": "8WXP+9J Boston, Massachusetts, United States", "global_code": "87JC8WXP+9J"}, "rating": 4.8, "reference": "ChIJn3swy3B644kRJd-c5H75v2Y", "scope": "GOOGLE", "types": ["point_of_interest", "establishment"], "user_ratings_total": 29, "vicinity": "38 Ash Street, Boston"}, "ChIJxwS0S3d644kRNBzDpNg3EKY": {"geometry": {"location": {"lat": 42.34884599999999, "lng": -71.06335899999999}, "viewport": {"northeast": {"lat": 42.35014528029149, "lng": -71.06205646970848}, "southwest": {"lat": 42.3474473197085, "lng": -71.06475443029149}}}, "icon": "https://maps.gstatic.com/mapfiles/place_api/icons/generic_business-71.png", "id": "b12939b174d2f8c50a61a15c9ad1a3dee1252479", "name": "B and B Parking", "opening_hours": {"open_now": true}, "photos": [{"height": 552, "html_attributions": ["<a href=\"https://maps.google.com/maps/contrib/114177678785138606711/photos\">B and B Parking</a>"], "photo_reference": "CmRaAAAA4foOuAb0GW8DKyltAdP5IQ7Pda-N-vk_gliFrUBzqArTQlROVRTFxJrwusynxJFlff3MulC67V4F9EBdxKrvatusyG_IcsXVtuSTmDJYi2DpInm8-sCq0SXhv-C67YGZEhAeSvx_X6N1WpLKW7BmENDGGhRiI6Z0QOBe9KfCqvcL59L5QPcPDw", "width": 1186}], "place_id": "ChIJxwS0S3d644kRNBzDpNg3EKY", "plus_code": {"compound_code": "8WXP+GM Boston, Massachusetts, United States", "global_code": "87JC8WXP+GM"}, "rating": 3.7, "reference": "ChIJxwS0S3d644kRNBzDpNg3EKY", "scope": "GOOGLE", "types": ["parking", "point_of_interest", "establishment"], "user_ratings_total": 10, "vicinity": "1 Nassau Street, Boston"}, "ChIJeQ06LXd644kRve1JONibT5s": {"geometry": {"location": {"lat": 42.3486588, "lng": -71.06375820000001}, "viewport": {"northeast": {"lat": 42.3500257802915, "lng": -71.0625291197085}, "southwest": {"lat": 42.3473278197085, "lng": -71.0652270802915}}}, "icon": "https://maps.gstatic.com/mapfiles/place_api/icons/generic_business-71.png", "id": "f215d676dc539f2f4c3a2bc74f5134d00d2ac1a4", "name": "Dr. Kevin C. Conlon, MD", "place_id": "ChIJeQ06LXd644kRve1JONibT5s", "plus_code": {"compound_code": "8WXP+FF Boston, Massachusetts, United States", "global_code": "87JC8WXP+FF"}, "reference": "ChIJeQ06LXd644kRve1JONibT5s", "scope": "GOOGLE", "types": ["doctor", "health", "point_of_interest", "establishment"], "vicinity": "860 Washington Street, Boston"}, "ChIJYwhLDYt744kRtvbqpo4tLk0": {"geometry": {"location": {"lat": 42.3486588, "lng": -71.06375820000001}, "viewport": {"northeast": {"lat": 42.3500257802915, "lng": -71.0625291197085}, "southwest": {"lat": 42.3473278197085, "lng": -71.0652270802915}}}, "icon": "https://maps.gstatic.com/mapfiles/place_api/icons/generic_business-71.png", "id": "58105a233acb11dd91c7d049bc7482b5f8da7ff0", "name": "Dr. Therese Fuchs, MD", "place_id": "ChIJYwhLDYt744kRtvbqpo4tLk0", "plus_code": {"compound_code": "8WXP+FF Boston, Massachusetts, United States", "global_code": "87JC8WXP+FF"}, "reference": "ChIJYwhLDYt744kRtvbqpo4tLk0", "scope": "GOOGLE", "types": ["doctor", "health", "point_of_interest", "establishment"], "vicinity": "860 Washington Street, Boston"}, "ChIJl0y8E3d644kRXsS96RgROOk": {"geometry": {"location": {"lat": 42.3486588, "lng": -71.06375820000001}, "viewport": {"northeast": {"lat": 42.3500257802915, "lng": -71.0625291197085}, "southwest": {"lat": 42.3473278197085, "lng": -71.0652270802915}}}, "icon": "https://maps.gstatic.com/mapfiles/place_api/icons/generic_business-71.png", "id": "b9816408f2c8139bd8f16d6bf352b81a5c50edb7", "name": "Tufts New England Medical Center: Rodriquez Elisa MD", "place_id": "ChIJl0y8E3d644kRXsS96RgROOk", "plus_code": {"compound_code": "8WXP+FF Boston, Massachusetts, United States", "global_code": "87JC8WXP+FF"}, "reference": "ChIJl0y8E3d644kRXsS96RgROOk", "scope": "GOOGLE", "types": ["doctor", "health", "point_of_interest", "establishment"], "vicinity": "860 Washington Street # 2, Boston"}, "ChIJaQOuP3d644kRxYMGgQWwU54": {"geometry": {"location": {"lat": 42.3486588, "lng": -71.06375820000001}, "viewport": {"northeast": {"lat": 42.3500257802915, "lng": -71.0625291197085}, "southwest": {"lat": 42.3473278197085, "lng": -71.0652270802915}}}, "icon": "https://maps.gstatic.com/mapfiles/place_api/icons/generic_business-71.png", "id": "e489fe9a5f1bdb2f364fd56f9e48b1ab5343e99d", "name": "Dr. Andrew R. Scott, MD", "place_id": "ChIJaQOuP3d644kRxYMGgQWwU54", "plus_code": {"compound_code": "8WXP+FF Boston, Massachusetts, United States", "global_code": "87JC8WXP+FF"}, "rating": 5, "reference": "ChIJaQOuP3d644kRxYMGgQWwU54", "scope": "GOOGLE", "types": ["doctor", "health", "point_of_interest", "establishment"], "user_ratings_total": 1, "vicinity": "860 Washington Street, Boston"}, "ChIJKUtcMnd644kRmbMmVL7lkOw": {"geometry": {"location": {"lat": 42.34866299999999, "lng": -71.06376}, "viewport": {"northeast": {"lat": 42.3500297802915, "lng": -71.0625294697085}, "southwest": {"lat": 42.3473318197085, "lng": -71.0652274302915}}}, "icon": "https://maps.gstatic.com/mapfiles/place_api/icons/generic_business-71.png", "id": "fc7014e1baf736321a2887778f46b33ab4323fd9", "name": "Tufts Medical Center Otolaryngology", "opening_hours": {"open_now": true}, "photos": [{"height": 1068, "html_attributions": ["<a href=\"https://maps.google.com/maps/contrib/116242675326288151129/photos\">Tufts Medical Center Otolaryngology</a>"], "photo_reference": "CmRaAAAAKYeqaCV9af3p1d75fjmFt7JDi8B8ao-nfafe9HCCem9XgwJUrgl8EfR4jJ32qyFPftzEHLZOvVc8k1nOz6Ih_8cE3AdiPt7wtISn7okouKkSwFl0z1FHvpNtfIwgDcFrEhCYbw6DdNc96BwCnaTMTGVRGhTGnoka7nCHdP69tn8C-VT-_EFH9g", "width": 1900}], "place_id": "ChIJKUtcMnd644kRmbMmVL7lkOw", "plus_code": {"compound_code": "8WXP+FF Boston, Massachusetts, United States", "global_code": "87JC8WXP+FF"}, "reference": "ChIJKUtcMnd644kRmbMmVL7lkOw", "scope": "GOOGLE", "types": ["doctor", "health", "point_of_interest", "establishment"], "vicinity": "860 Washington Street South, Building, 1st Floor, Boston"}, "ChIJxwS0S3d644kRmvECKMCOVFw": {"geometry": {"location": {"lat": 42.348613, "lng": -71.06324}, "viewport": {"northeast": {"lat": 42.3499814802915, "lng": -71.0620118197085}, "southwest": {"lat": 42.3472835197085, "lng": -71.06470978029151}}}, "icon": "https://maps.gstatic.com/mapfiles/place_api/icons/generic_business-71.png", "id": "4358f5261a048bf3a38702620589d62aa83fbd11", "name": "Chinese Progressive Association", "opening_hours": {"open_now": false}, "photos": [{"height": 461, "html_attributions": ["<a href=\"https://maps.google.com/maps/contrib/103001045032902084672/photos\">Chinese Progressive Association</a>"], "photo_reference": "CmRaAAAAsCMDVwM8JkmuG3p-84U36vYV-MafuQ-CDGKPIh6Cfonhn2klG_coVXxEMdjdney7BXUIbJma6Wpd9viJ-Zav4NbhwvIukXV2_0MARtPOdRKE8BwF96Pj9EFx1d2V7RfSEhDns-6jr9Rg4rv3wWNHr7x-GhR0GA517JJi-JcoCSgSTTZ1rJyeWw", "width": 654}], "place_id": "ChIJxwS0S3d644kRmvECKMCOVFw", "plus_code": {"compound_code": "8WXP+CP Boston, Massachusetts, United States", "global_code": "87JC8WXP+CP"}, "rating": 4.5, "reference": "ChIJxwS0S3d644kRmvECKMCOVFw", "scope": "GOOGLE", "types": ["point_of_interest", "establishment"], "user_ratings_total": 4, "vicinity": "28 Ash Street, Boston"}, "ChIJZ3Zis3B644kRgIRnI47tTi4": {"geometry": {"location": {"lat": 42.34845800000001, "lng": -71.06295999999999}, "viewport": {"northeast": {"lat": 42.3497134802915, "lng": -71.06163641970849}, "southwest": {"lat": 42.3470155197085, "lng": -71.0643343802915}}}, "icon": "https://maps.gstatic.com/mapfiles/place_api/icons/generic_business-71.png", "id": "99938a8094e303f38cd3c79cbae319f68d2f65a6", "name": "Asian Community Development Corporation", "opening_hours": {"open_now": false}, "photos": [{"height": 1360, "html_attributions": ["<a href=\"https://maps.google.com/maps/contrib/110442996608129347563/photos\">Asian Community Development Corporation</a>"], "photo_reference": "CmRZAAAAuPPCDMwRKDjQmlqkEZlGVxg9l1x3Xn5QfUFo7pmhupzS2opJ062lyq_dAkn0n2GDtMZyPmyp6zcUlRiX8RKf9GiIpivSFgAd1kzLTntngx5c7CUiLrn0aeRxPitALLnjEhBucoNh92rFinAECPZplYmEGhRTgLeQ_gRKhzBkWAvEy2WTU_VAdQ", "width": 2048}], "place_id": "ChIJZ3Zis3B644kRgIRnI47tTi4", "plus_code": {"compound_code": "8WXP+9R Boston, Massachusetts, United States", "global_code": "87JC8WXP+9R"}, "rating": 4.9, "reference": "ChIJZ3Zis3B644kRgIRnI47tTi4", "scope": "GOOGLE", "types": ["general_contractor", "point_of_interest", "establishment"], "user_ratings_total": 8, "vicinity": "38 Oak Street, Boston"}, "ChIJaQOuP3d644kR-AZTwH9H_fk": {"geometry": {"location": {"lat": 42.3486588, "lng": -71.06375820000001}, "viewport": {"northeast": {"lat": 42.3500257802915, "lng": -71.0625291197085}, "southwest": {"lat": 42.3473278197085, "lng": -71.0652270802915}}}, "icon": "https://maps.gstatic.com/mapfiles/place_api/icons/generic_business-71.png", "id": "51c472fb428903502b0b19a692057a0090c02daa", "name": "Tufts Medical Center Surgical Oncology", "opening_hours": {"open_now": true}, "photos": [{"height": 1068, "html_attributions": ["<a href=\"https://maps.google.com/maps/contrib/107115591800166822379/photos\">Tufts Medical Center Surgical Oncology</a>"], "photo_reference": "CmRaAAAArKO0mMdq0bdba3Err9pA2dWIJm-7EwLbN_nTiRiiX0OBX1Iw_z1Gmh-tTeOpQzQGe8JFlPYHVvHPB5kKZymJsxtpVR0qgTtNWutoKoZL6rGi5Z0IUNevt0SA6dCqMtP-EhBa0mnJl5cj_OiQno6TxI9eGhS5YnUOmx-M_PhBDCRfCw4w4d7fVg", "width": 1900}], "place_id": "ChIJaQOuP3d644kR-AZTwH9H_fk", "plus_code": {"compound_code": "8WXP+FF Boston, Massachusetts, United States", "global_code": "87JC8WXP+FF"}, "reference": "ChIJaQOuP3d644kR-AZTwH9H_fk", "scope": "GOOGLE", "types": ["doctor", "health", "point_of_interest", "establishment"], "vicinity": "860 Washington Street South, Building, 4th Floor, Boston"}, "ChIJxwS0S3d644kRsDB3OQ0L3uU": {"geometry": {"location": {"lat": 42.34858000000001, "lng": -71.062941}, "viewport": {"northeast": {"lat": 42.3500287802915, "lng": -71.06154131970848}, "southwest": {"lat": 42.34733081970851, "lng": -71.0642392802915}}}, "icon": "https://maps.gstatic.com/mapfiles/place_api/icons/generic_business-71.png", "id": "d5d89e0ebf0dfd1122e08220ba1c38362076d369", "name": "Mirpuri Tarun MD", "place_id": "ChIJxwS0S3d644kRsDB3OQ0L3uU", "plus_code": {"compound_code": "8WXP+CR Boston, Massachusetts, United States", "global_code": "87JC8WXP+CR"}, "reference": "ChIJxwS0S3d644kRsDB3OQ0L3uU", "scope": "GOOGLE", "types": ["doctor", "health", "point_of_interest", "establishment"], "vicinity": "1 Nassau Street # 416, Boston"}, "ChIJjeVcDXd644kRnPTY5FXBqRs": {"geometry": {"location": {"lat": 42.3486588, "lng": -71.06375820000001}, "viewport": {"northeast": {"lat": 42.3500257802915, "lng": -71.0625291197085}, "southwest": {"lat": 42.3473278197085, "lng": -71.0652270802915}}}, "icon": "https://maps.gstatic.com/mapfiles/place_api/icons/generic_business-71.png", "id": "602693db116dce372b07058f6e18839e71a00d12", "name": "Dr. Francine M. Foss, MD", "place_id": "ChIJjeVcDXd644kRnPTY5FXBqRs", "plus_code": {"compound_code": "8WXP+FF Boston, Massachusetts, United States", "global_code": "87JC8WXP+FF"}, "reference": "ChIJjeVcDXd644kRnPTY5FXBqRs", "scope": "GOOGLE", "types": ["doctor", "health", "point_of_interest", "establishment"], "vicinity": "860 Washington Street, Boston"}, "ChIJYwhLDYt744kR6xadf-qJbJU": {"geometry": {"location": {"lat": 42.3486588, "lng": -71.06375820000001}, "viewport": {"northeast": {"lat": 42.3500257802915, "lng": -71.0625291197085}, "southwest": {"lat": 42.3473278197085, "lng": -71.0652270802915}}}, "icon": "https://maps.gstatic.com/mapfiles/place_api/icons/generic_business-71.png", "id": "eb7ba5a79326b78196dbc7072dc28df70f2efe39", "name": "Dr. Paul J. Wang, MD", "place_id": "ChIJYwhLDYt744kR6xadf-qJbJU", "plus_code": {"compound_code": "8WXP+FF Boston, Massachusetts, United States", "global_code": "87JC8WXP+FF"}, "reference": "ChIJYwhLDYt744kR6xadf-qJbJU", "scope": "GOOGLE", "types": ["doctor", "health", "point_of_interest", "establishment"], "vicinity": "860 Washington Street, Boston"}, "ChIJaQOuP3d644kR1satLz3FRo8": {"geometry": {"location": {"lat": 42.3486588, "lng": -71.06375820000001}, "viewport": {"northeast": {"lat": 42.3500257802915, "lng": -71.0625291197085}, "southwest": {"lat": 42.3473278197085, "lng": -71.0652270802915}}}, "icon": "https://maps.gstatic.com/mapfiles/place_api/icons/generic_business-71.png", "id": "c52fcf5c306f089fb8a31beede318443a1d2a7e2", "name": "Dr. Balaji N. Reddy, MD", "place_id": "ChIJaQOuP3d644kR1satLz3FRo8", "plus_code": {"compound_code": "8WXP+FF Boston, Massachusetts, United States", "global_code": "87JC8WXP+FF"}, "reference": "ChIJaQOuP3d644kR1satLz3FRo8", "scope": "GOOGLE", "types": ["doctor", "health", "point_of_interest", "establishment"], "vicinity": "860 Washington Street, Boston"}, "ChIJYwhLDYt744kRJqwgf65SRfA": {"geometry": {"location": {"lat": 42.3486588, "lng": -71.06375820000001}, "viewport": {"northeast": {"lat": 42.3500257802915, "lng": -71.0625291197085}, "southwest": {"lat": 42.3473278197085, "lng": -71.0652270802915}}}, "icon": "https://maps.gstatic.com/mapfiles/place_api/icons/generic_business-71.png", "id": "b69f6462c1eea94620a6d0e52be872774d68b710", "name": "Dr. Mina L. Xu, MD", "place_id": "ChIJYwhLDYt744kRJqwgf65SRfA", "plus_code": {"compound_code": "8WXP+FF Boston, Massachusetts, United States", "global_code": "87JC8WXP+FF"}, "reference": "ChIJYwhLDYt744kRJqwgf65SRfA", "scope": "GOOGLE", "types": ["doctor", "health", "point_of_interest", "establishment"], "vicinity": "860 Washington Street, Boston"}, "ChIJaQOuP3d644kRCwXfBfkUFVc": {"geometry": {"location": {"lat": 42.3486588, "lng": -71.06375820000001}, "viewport": {"northeast": {"lat": 42.3500257802915, "lng": -71.0625291197085}, "southwest": {"lat": 42.3473278197085, "lng": -71.0652270802915}}}, "icon": "https://maps.gstatic.com/mapfiles/place_api/icons/generic_business-71.png", "id": "4e884364c974cb5fe03da0d9536569afb5b0db21", "name": "Dr. Thomas L. Carroll, MD", "place_id": "ChIJaQOuP3d644kRCwXfBfkUFVc", "plus_code": {"compound_code": "8WXP+FF Boston, Massachusetts, United States", "global_code": "87JC8WXP+FF"}, "reference": "ChIJaQOuP3d644kRCwXfBfkUFVc", "scope": "GOOGLE", "types": ["doctor", "health", "point_of_interest", "establishment"], "vicinity": "860 Washington Street, Boston"}, "ChIJxwS0S3d644kRUqI3ATVKS5s": {"geometry": {"location": {"lat": 42.3485842, "lng": -71.06286949999999}, "viewport": {"northeast": {"lat": 42.3500227802915, "lng": -71.0614764197085}, "southwest": {"lat": 42.3473248197085, "lng": -71.0641743802915}}}, "icon": "https://maps.gstatic.com/mapfiles/place_api/icons/generic_business-71.png", "id": "3413cc89483822bd211490a6d88f122634c572fa", "name": "Dr. Jenna Khoury, DMD", "place_id": "ChIJxwS0S3d644kRUqI3ATVKS5s", "plus_code": {"compound_code": "8WXP+CV Boston, Massachusetts, United States", "global_code": "87JC8WXP+CV"}, "reference": "ChIJxwS0S3d644kRUqI3ATVKS5s", "scope": "GOOGLE", "types": ["dentist", "health", "point_of_interest", "establishment"], "vicinity": "1 Nassau Street, Boston"}, "ChIJxwS0S3d644kRgLfQVoRHlK8": {"geometry": {"location": {"lat": 42.3485842, "lng": -71.06286949999999}, "viewport": {"northeast": {"lat": 42.3500227802915, "lng": -71.0614764197085}, "southwest": {"lat": 42.3473248197085, "lng": -71.0641743802915}}}, "icon": "https://maps.gstatic.com/mapfiles/place_api/icons/generic_business-71.png", "id": "9302385afacfe9e170fcd8c993aca4c5d2c33aa0", "name": "Dr. Christopher D. Lawson, MD", "place_id": "ChIJxwS0S3d644kRgLfQVoRHlK8", "plus_code": {"compound_code": "8WXP+CV Boston, Massachusetts, United States", "global_code": "87JC8WXP+CV"}, "reference": "ChIJxwS0S3d644kRgLfQVoRHlK8", "scope": "GOOGLE", "types": ["doctor", "health", "point_of_interest", "establishment"], "vicinity": "1 Nassau Street, Boston"}, "ChIJGzE9DS1l44kRoOhiASS_fHg": {"geometry": {"location": {"lat": 42.3600825, "lng": -71.0588801}, "viewport": {"northeast": {"lat": 42.40081989999999, "lng": -70.749455}, "southwest": {"lat": 42.22788, "lng": -71.191113}}}, "icon": "https://maps.gstatic.com/mapfiles/place_api/icons/geocode-71.png", "id": "06755c25d2b34d13942a4713971756a55b870ced", "name": "Boston", "photos": [{"height": 3024, "html_attributions": ["<a href=\"https://maps.google.com/maps/contrib/104670289779338733432/photos\">Natalia Zalucean</a>"], "photo_reference": "CmRaAAAA3wXtydwfQEvZmw-eVxMmda-ZWzaor-wrbzH2fB0lIBQrmjc9kfGeNVMyBfOzO2IYClFIArlo_qS8Vn1ImZhhJZcqEBgdWdYG9STqvqGxNX_QuQ2Xg8ycfsMACcx-GReVEhCgj-YfJ_hP12Jg21N6dowlGhTU6eg1c2FSiYNw_dGaEgAnvW_NJQ", "width": 4032}], "place_id": "ChIJGzE9DS1l44kRoOhiASS_fHg", "reference": "ChIJGzE9DS1l44kRoOhiASS_fHg", "scope": "GOOGLE", "types": ["locality", "political"], "vicinity": "Boston"}, "ChIJxwS0S3d644kRnFxv3rjUF1E": {"geometry": {"location": {"lat": 42.3485842, "lng": -71.06286949999999}, "viewport": {"northeast": {"lat": 42.3500227802915, "lng": -71.0614764197085}, "southwest": {"lat": 42.3473248197085, "lng": -71.0641743802915}}}, "icon": "https://maps.gstatic.com/mapfiles/place_api/icons/generic_business-71.png", "id": "db2bd158b19c9a2a0c4defca51a8e60a0159eacf", "name": "Dr. Alireza Ashrafi, DDS", "place_id": "ChIJxwS0S3d644kRnFxv3rjUF1E", "plus_code": {"compound_code": "8WXP+CV Boston, Massachusetts, United States", "global_code": "87JC8WXP+CV"}, "reference": "ChIJxwS0S3d644kRnFxv3rjUF1E", "scope": "GOOGLE", "types": ["dentist", "health", "point_of_interest", "establishment"], "vicinity": "1 Nassau Street, Boston"}, "ChIJRyHbP3d644kRDDYxpt6XokM": {"geometry": {"location": {"lat": 42.3486588, "lng": -71.06375820000001}, "viewport": {"northeast": {"lat": 42.3500257802915, "lng": -71.0625291197085}, "southwest": {"lat": 42.3473278197085, "lng": -71.0652270802915}}}, "icon": "https://maps.gstatic.com/mapfiles/place_api/icons/generic_business-71.png", "id": "81555b9d4c246f49ad91162cad2b1dccb7b76496", "name": "Tufts Medical Center Urology", "opening_hours": {"open_now": true}, "photos": [{"height": 1068, "html_attributions": ["<a href=\"https://maps.google.com/maps/contrib/101345171907753152397/photos\">Tufts Medical Center Urology</a>"], "photo_reference": "CmRaAAAAAAha71xqW-EsU-N33GMbFPWOjracWbZqrVQuqemlQb-qIpYvesOuR-rS-nqZO42f3s3H4vqrWN2JWBuZfZ_aVI1TTeuho1IPI9kNGpItVTEMFxUp949wLm-3UQcTJIsqEhBG9sO7AxJ-lGZ9n1Q7R4XcGhTMUimYk_5j7GmScmhH-jVRt9aCug", "width": 1900}], "place_id": "ChIJRyHbP3d644kRDDYxpt6XokM", "plus_code": {"compound_code": "8WXP+FF Boston, Massachusetts, United States", "global_code": "87JC8WXP+FF"}, "rating": 3, "reference": "ChIJRyHbP3d644kRDDYxpt6XokM", "scope": "GOOGLE", "types": ["doctor", "health", "point_of_interest", "establishment"], "user_ratings_total": 2, "vicinity": "860 Washington Street South Building, Mezzanine Level, Boston"}, "ChIJxwS0S3d644kRP-92QRmgoMY": {"geometry": {"location": {"lat": 42.3485842, "lng": -71.06286949999999}, "viewport": {"northeast": {"lat": 42.3500227802915, "lng": -71.0614764197085}, "southwest": {"lat": 42.3473248197085, "lng": -71.0641743802915}}}, "icon": "https://maps.gstatic.com/mapfiles/place_api/icons/generic_business-71.png", "id": "0405ca24a0d2670694059d721d50c508d77bc1a1", "name": "Dr. Abigail Shatkin-Margolis, MD", "place_id": "ChIJxwS0S3d644kRP-92QRmgoMY", "plus_code": {"compound_code": "8WXP+CV Boston, Massachusetts, United States", "global_code": "87JC8WXP+CV"}, "reference": "ChIJxwS0S3d644kRP-92QRmgoMY", "scope": "GOOGLE", "types": ["doctor", "health", "point_of_interest", "establishment"], "vicinity": "1 Nassau Street, Boston"}, "ChIJ_x2dsXB644kR9deFC6oKTC0": {"geometry": {"location": {"lat": 42.348424, "lng": -71.0633935}, "viewport": {"northeast": {"lat": 42.3495861802915, "lng": -71.06157071970848}, "southwest": {"lat": 42.3468882197085, "lng": -71.0642686802915}}}, "icon": "https://maps.gstatic.com/mapfiles/place_api/icons/school-71.png", "id": "fad8caf72d7a59f6ac26a6f84ae1f3b3051e3b98", "name": "Acorn Child Care Center", "place_id": "ChIJ_x2dsXB644kR9deFC6oKTC0", "plus_code": {"compound_code": "8WXQ+54 Boston, Massachusetts, United States", "global_code": "87JC8WXQ+54"}, "rating": 2, "reference": "ChIJ_x2dsXB644kR9deFC6oKTC0", "scope": "GOOGLE", "types": ["point_of_interest", "school", "establishment"], "user_ratings_total": 1, "vicinity": "38 Ash Street, Boston"}, "ChIJ97URqot744kRX2QUXWtmn_k": {"geometry": {"location": {"lat": 42.3480693, "lng": -71.0640023}, "viewport": {"northeast": {"lat": 42.3494306302915, "lng": -71.0627343197085}, "southwest": {"lat": 42.3467326697085, "lng": -71.0654322802915}}}, "icon": "https://maps.gstatic.com/mapfiles/place_api/icons/generic_business-71.png", "id": "19fe245fe8b8003449dd9b36e09cad1b8baed730", "name": "Oak Terrace Apartments", "photos": [{"height": 480, "html_attributions": ["<a href=\"https://maps.google.com/maps/contrib/108982805201778167576/photos\">Zoe Shih</a>"], "photo_reference": "CmRaAAAAfrxIajMW_SplNkXn4_QtbH69HGSuiNtYalkYAIyJnNSMItosp_UrpT_TFV22jwti2a8K7c1F8T06gbUYaD4NZ2LKJVo9G6an0ZWY3DfkQYXXiNZL929QSAr3misxbhVeEhDVxpaMw2dXhG1F639DgOafGhS48_hl3c4XkWCRGe2GpECB5QcI_A", "width": 640}], "place_id": "ChIJ97URqot744kRX2QUXWtmn_k", "plus_code": {"compound_code": "8WXP+69 Boston, Massachusetts, United States", "global_code": "87JC8WXP+69"}, "rating": 4, "reference": "ChIJ97URqot744kRX2QUXWtmn_k", "scope": "GOOGLE", "types": ["point_of_interest", "establishment"], "user_ratings_total": 1, "vicinity": "888 Washington Street, Boston"}, "ChIJl0y8E3d644kRkWafTZ-kssA": {"geometry": {"location": {"lat": 42.3486588, "lng": -71.06375820000001}, "viewport": {"northeast": {"lat": 42.3500257802915, "lng": -71.0625291197085}, "southwest": {"lat": 42.3473278197085, "lng": -71.0652270802915}}}, "icon": "https://maps.gstatic.com/mapfiles/place_api/icons/generic_business-71.png", "id": "4d6f5c6e368dec8ca3029dbe49749e4d75a4809c", "name": "Dr. Andrea L. Zuckerman, MD", "place_id": "ChIJl0y8E3d644kRkWafTZ-kssA", "plus_code": {"compound_code": "8WXP+FF Boston, Massachusetts, United States", "global_code": "87JC8WXP+FF"}, "reference": "ChIJl0y8E3d644kRkWafTZ-kssA", "scope": "GOOGLE", "types": ["doctor", "health", "point_of_interest", "establishment"], "vicinity": "860 Washington Street, Boston"}, "ChIJF0AYbXd644kROi0RHEilmhM": {"geometry": {"location": {"lat": 42.34863509999999, "lng": -71.063717}, "viewport": {"northeast": {"lat": 42.34996633029149, "lng": -71.06225801970851}, "southwest": {"lat": 42.34726836970849, "lng": -71.06495598029151}}}, "icon": "https://maps.gstatic.com/mapfiles/place_api/icons/generic_business-71.png", "id": "24db41442a0aacb61970a808992b281aa84f1d4a", "name": "Tufts Medical Center Cardiac Surgery", "opening_hours": {"open_now": true}, "photos": [{"height": 1068, "html_attributions": ["<a href=\"https://maps.google.com/maps/contrib/107772424334535972055/photos\">Tufts Medical Center Cardiac Surgery</a>"], "photo_reference": "CmRaAAAAVXyHPEmif8BSM7L7uog5HV1zB0FSC1EJH_RgukEjQt93lopx_icw_R6k46QpuqXAAy5pMIMCtaOADvqlxcVVvk7aD7ZrQZ9-GApNp6ZF8ex_tRzMV3VA-FF2qqbCCkJnEhA4BsMBedGJjHAkRn1GI2ekGhSUsZ_WgDF8cLIDsFPsJKrSiY5LyQ", "width": 1900}], "place_id": "ChIJF0AYbXd644kROi0RHEilmhM", "plus_code": {"compound_code": "8WXP+FG Boston, Massachusetts, United States", "global_code": "87JC8WXP+FG"}, "rating": 5, "reference": "ChIJF0AYbXd644kROi0RHEilmhM", "scope": "GOOGLE", "types": ["doctor", "health", "point_of_interest", "establishment"], "user_ratings_total": 1, "vicinity": "860 Washington Street South, Building, 6th Floor, Boston"}, "ChIJF0AYbXd644kRXbmhxIeqgBo": {"geometry": {"location": {"lat": 42.348643, "lng": -71.0637626}, "viewport": {"northeast": {"lat": 42.3500099802915, "lng": -71.06253346970848}, "southwest": {"lat": 42.3473120197085, "lng": -71.06523143029149}}}, "icon": "https://maps.gstatic.com/mapfiles/place_api/icons/generic_business-71.png", "id": "0995a242609049478f19d22c04c641f2b4157c95", "name": "Tufts Medical Center Palliative and Supportive Care", "opening_hours": {"open_now": true}, "photos": [{"height": 1068, "html_attributions": ["<a href=\"https://maps.google.com/maps/contrib/109226492746310690060/photos\">Tufts Medical Center Palliative and Supportive Care</a>"], "photo_reference": "CmRaAAAAf081dtra3ra4MwpUNvZbP0VDZEV_WODbQLfur6VVzfrVQJDUTl4oAm3al2Php_5Er4PFs1R_iaFAuj-AdsH8czTX_Nzy5GgFly849zCopGQ7ZFYCpMaaK1rLUvLiEoShEhB-kDmOap-I1RPPDILQ7DQwGhRL-Mh3hs8hmpPGlkcQJnvAetW6EQ", "width": 1900}], "place_id": "ChIJF0AYbXd644kRXbmhxIeqgBo", "plus_code": {"compound_code": "8WXP+FF Boston, Massachusetts, United States", "global_code": "87JC8WXP+FF"}, "reference": "ChIJF0AYbXd644kRXbmhxIeqgBo", "scope": "GOOGLE", "types": ["health", "point_of_interest", "establishment"], "vicinity": "830 Washington Street South, Building, 7th Floor, Boston"}, "ChIJF0AYbXd644kRFHf1EFoDXFo": {"geometry": {"location": {"lat": 42.3486588, "lng": -71.06375820000001}, "viewport": {"northeast": {"lat": 42.3500257802915, "lng": -71.0625291197085}, "southwest": {"lat": 42.3473278197085, "lng": -71.0652270802915}}}, "icon": "https://maps.gstatic.com/mapfiles/place_api/icons/generic_business-71.png", "id": "760b5bb59af8cac6daa4fc60656f47b6ceb9e4b0", "name": "Tufts Medical Center - Colon and Rectal Surgery", "opening_hours": {"open_now": true}, "photos": [{"height": 1068, "html_attributions": ["<a href=\"https://maps.google.com/maps/contrib/114359082673711952061/photos\">Tufts Medical Center - Colon and Rectal Surgery</a>"], "photo_reference": "CmRaAAAAizFAWkVO-AZkiAdwQ4whWKQy0m5bxVRf1UwiP1HMbo-vzmOew5pf0TP4gyG0SCaQsf5-CxByVIX7U3004hnCM3ewBA6aO9CrejZ9CClA0QV9m4axk6OIg06kbnrtjUudEhD3_mQte5HJYASuBc0QKrXWGhSvNBjdW6iS4Mc-eBgEleEQiN1vrQ", "width": 1900}], "place_id": "ChIJF0AYbXd644kRFHf1EFoDXFo", "plus_code": {"compound_code": "8WXP+FF Boston, Massachusetts, United States", "global_code": "87JC8WXP+FF"}, "reference": "ChIJF0AYbXd644kRFHf1EFoDXFo", "scope": "GOOGLE", "types": ["doctor", "health", "point_of_interest", "establishment"], "vicinity": "860 Washington Street South, Building, 4th Floor, Boston"}, "ChIJRyHbP3d644kRZ5G_x7DbZSk": {"geometry": {"location": {"lat": 42.3486588, "lng": -71.06375820000001}, "viewport": {"northeast": {"lat": 42.3500257802915, "lng": -71.0625291197085}, "southwest": {"lat": 42.3473278197085, "lng": -71.0652270802915}}}, "icon": "https://maps.gstatic.com/mapfiles/place_api/icons/generic_business-71.png", "id": "8b14a1fb49784815d69f254124d7de87230c30dd", "name": "Tufts Medical Center Nutrition", "opening_hours": {"open_now": true}, "photos": [{"height": 1068, "html_attributions": ["<a href=\"https://maps.google.com/maps/contrib/101320416516926880689/photos\">Tufts Medical Center Nutrition</a>"], "photo_reference": "CmRaAAAABmKm-0IMSGqmHrh2x6G-7e1-wfbabs8fr36EjtonCywPthIXE55R9ohowpZBlJ63zXadQZ9iKlc4qNJj778DbRccqyK2yQ7s-MZ3HjejilHyM1IYRWEp9o69_zVqtuOOEhA5ewrFkRXYRlPhZXx_ouqUGhScNYmL0qr0KpTW50MrNwkGE8W8bg", "width": 1900}], "place_id": "ChIJRyHbP3d644kRZ5G_x7DbZSk", "plus_code": {"compound_code": "8WXP+FF Boston, Massachusetts, United States", "global_code": "87JC8WXP+FF"}, "reference": "ChIJRyHbP3d644kRZ5G_x7DbZSk", "scope": "GOOGLE", "types": ["health", "point_of_interest", "establishment"], "vicinity": "860 Washington Street Biewend, Building, 5th Floor, Boston"}, "ChIJF0AYbXd644kRE9W0PXc_y28": {"geometry": {"location": {"lat": 42.3486588, "lng": -71.06375820000001}, "viewport": {"northeast": {"lat": 42.3500257802915, "lng": -71.0625291197085}, "southwest": {"lat": 42.3473278197085, "lng": -71.0652270802915}}}, "icon": "https://maps.gstatic.com/mapfiles/place_api/icons/generic_business-71.png", "id": "a06d55dbccc92fe0417980634a121d2e3f2cae96", "name": "Tufts Medical Center Thoracic Surgery", "opening_hours": {"open_now": true}, "photos": [{"height": 1068, "html_attributions": ["<a href=\"https://maps.google.com/maps/contrib/109036871742168422208/photos\">Tufts Medical Center Thoracic Surgery</a>"], "photo_reference": "CmRaAAAAm3hcEsw5NTASyFYf01LzZEw0m8uhp8KuydsGChb0lawc-80c-W_RdkPL0QKw7Wo1H4qj0UDxFByZAuBxuN2gVbFyjwHWS_ELc6KHhWgkOVIlavpVK_9sKW3Tw6Vp2gVBEhAl46tsieTORRtx6wg-WRleGhSxXjOkMLZxUPaVB5dk7wUSBTgQ7Q", "width": 1900}], "place_id": "ChIJF0AYbXd644kRE9W0PXc_y28", "plus_code": {"compound_code": "8WXP+FF Boston, Massachusetts, United States", "global_code": "87JC8WXP+FF"}, "reference": "ChIJF0AYbXd644kRE9W0PXc_y28", "scope": "GOOGLE", "types": ["health", "point_of_interest", "establishment"], "vicinity": "860 Washington Street South, Building, 4th Floor, Boston"}, "ChIJRyHbP3d644kR_TzEh8MAu4o": {"geometry": {"location": {"lat": 42.3486588, "lng": -71.06375820000001}, "viewport": {"northeast": {"lat": 42.3500257802915, "lng": -71.0625291197085}, "southwest": {"lat": 42.3473278197085, "lng": -71.0652270802915}}}, "icon": "https://maps.gstatic.com/mapfiles/place_api/icons/generic_business-71.png", "id": "8fe9a1daa2a3894bb5e6081c4f59691ef6e6b293", "name": "Tufts Medical Center Obstetrics and Gynecology", "opening_hours": {"open_now": true}, "photos": [{"height": 1068, "html_attributions": ["<a href=\"https://maps.google.com/maps/contrib/109822939645099171933/photos\">Tufts Medical Center Obstetrics and Gynecology</a>"], "photo_reference": "CmRaAAAAEcJJWFhSOaa4SxFHvQPXGLZ1XdyX1juyBpnxJQoZBSfGjMULovOCYjr8Zmdf6JS7Ye4WQpP5n44Uz2y-bhJ0Cfju_-Yo1GZcq4i3osKyWB8k5997MFU2nGHDa1e6EEbEEhA0iEwKszeGm_CiwDt7qG8hGhTPam772sgCf5u8fEZ9z0Yzz7NCTQ", "width": 1900}], "place_id": "ChIJRyHbP3d644kR_TzEh8MAu4o", "plus_code": {"compound_code": "8WXP+FF Boston, Massachusetts, United States", "global_code": "87JC8WXP+FF"}, "rating": 5, "reference": "ChIJRyHbP3d644kR_TzEh8MAu4o", "scope": "GOOGLE", "types": ["health", "point_of_interest", "establishment"], "user_ratings_total": 1, "vicinity": "North Building, Mezzanine, 860 Washington Street, Boston"}, "ChIJF0AYbXd644kRGuGng3pr1XE": {"geometry": {"location": {"lat": 42.3486588, "lng": -71.06375820000001}, "viewport": {"northeast": {"lat": 42.3500257802915, "lng": -71.0625291197085}, "southwest": {"lat": 42.3473278197085, "lng": -71.0652270802915}}}, "icon": "https://maps.gstatic.com/mapfiles/place_api/icons/generic_business-71.png", "id": "3f0ba598c6d522ba4c48440097804bc9ad29ff62", "name": "Tufts Medical Center Cancer Center", "opening_hours": {"open_now": false}, "photos": [{"height": 1068, "html_attributions": ["<a href=\"https://maps.google.com/maps/contrib/103910229202783116111/photos\">Tufts Medical Center Cancer Center</a>"], "photo_reference": "CmRaAAAASNRcDP-jA40gfHi4tib3GlMssP9WaKm0bMuZMDY2dZHrzOJ3hNTvV8wDjLwanXhyOiZ-DUKsEITRLrmfHzJwHh61irP6YepX2Udt78jf4KFcMcrONSNTifBgQqnu8AWDEhA35TraUlVrWYDdXwG2fBkbGhTNiX-bVSpbINFbtXk907QC1zsnJg", "width": 1900}], "place_id": "ChIJF0AYbXd644kRGuGng3pr1XE", "plus_code": {"compound_code": "8WXP+FF Boston, Massachusetts, United States", "global_code": "87JC8WXP+FF"}, "reference": "ChIJF0AYbXd644kRGuGng3pr1XE", "scope": "GOOGLE", "types": ["health", "point_of_interest", "establishment"], "vicinity": "860 Washington Street North, Building, 7th Floor, Boston"}, "ChIJ4xsv0YJw44kR9IpyK6iGQxA": {"geometry": {"location": {"lat": 42.3487736, "lng": -71.0635254}, "viewport": {"northeast": {"lat": 42.3501546802915, "lng": -71.0623932197085}, "southwest": {"lat": 42.3474567197085, "lng": -71.0650911802915}}}, "icon": "https://maps.gstatic.com/mapfiles/place_api/icons/generic_business-71.png", "id": "52a306e3e400d8cc40d21631c31d79d4536238d2", "name": "Fertitta Luisa", "place_id": "ChIJ4xsv0YJw44kR9IpyK6iGQxA", "plus_code": {"compound_code": "8WXP+GH Boston, Massachusetts, United States", "global_code": "87JC8WXP+GH"}, "reference": "ChIJ4xsv0YJw44kR9IpyK6iGQxA", "scope": "GOOGLE", "types": ["doctor", "health", "point_of_interest", "establishment"], "vicinity": "860 Washington Street # 2, Boston"}, "ChIJO8IbAYt744kRpfa3d0JFq-w": {"geometry": {"location": {"lat": 42.3481981, "lng": -71.063946}, "viewport": {"northeast": {"lat": 42.3495608802915, "lng": -71.06268781970849}, "southwest": {"lat": 42.3468629197085, "lng": -71.0653857802915}}}, "icon": "https://maps.gstatic.com/mapfiles/place_api/icons/generic_business-71.png", "id": "8166c3e8ff17c4e00873cfd82ed19760d6baaf14", "name": "Chin Terry L OD", "place_id": "ChIJO8IbAYt744kRpfa3d0JFq-w", "plus_code": {"compound_code": "8WXP+7C Boston, Massachusetts, United States", "global_code": "87JC8WXP+7C"}, "rating": 1, "reference": "ChIJO8IbAYt744kRpfa3d0JFq-w", "scope": "GOOGLE", "types": ["health", "point_of_interest", "establishment"], "user_ratings_total": 1, "vicinity": "886 Washington Street, Boston"}, "ChIJO8IbAYt744kRFYsltkS75aU": {"geometry": {"location": {"lat": 42.3481981, "lng": -71.063946}, "viewport": {"northeast": {"lat": 42.3495608802915, "lng": -71.06268781970849}, "southwest": {"lat": 42.3468629197085, "lng": -71.0653857802915}}}, "icon": "https://maps.gstatic.com/mapfiles/place_api/icons/generic_business-71.png", "id": "bf595f0a9b5654df4292c562070927498d11ab8e", "name": "Chan William B DDS", "place_id": "ChIJO8IbAYt744kRFYsltkS75aU", "plus_code": {"compound_code": "8WXP+7C Boston, Massachusetts, United States", "global_code": "87JC8WXP+7C"}, "reference": "ChIJO8IbAYt744kRFYsltkS75aU", "scope": "GOOGLE", "types": ["dentist", "health", "point_of_interest", "establishment"], "vicinity": "886 Washington Street, Boston"}, "ChIJF5DANXd644kRCoRUCLl_3QM": {"geometry": {"location": {"lat": 42.3486528, "lng": -71.06325559999999}, "viewport": {"northeast": {"lat": 42.3500463302915, "lng": -71.06200631970849}, "southwest": {"lat": 42.3473483697085, "lng": -71.06470428029151}}}, "icon": "https://maps.gstatic.com/mapfiles/place_api/icons/generic_business-71.png", "id": "d5ede91757709e080fa6e0b6ffc699480c3f1bd3", "name": "The Metropolitan", "opening_hours": {"open_now": true}, "place_id": "ChIJF5DANXd644kRCoRUCLl_3QM", "plus_code": {"compound_code": "8WXP+FM Boston, Massachusetts, United States", "global_code": "87JC8WXP+FM"}, "rating": 4, "reference": "ChIJF5DANXd644kRCoRUCLl_3QM", "scope": "GOOGLE", "types": ["parking", "point_of_interest", "establishment"], "user_ratings_total": 4, "vicinity": "28 Ash Street, Boston"}, "ChIJRw1HAIt744kREEZqO2aA7PA": {"geometry": {"location": {"lat": 42.3480613, "lng": -71.06393729999999}, "viewport": {"northeast": {"lat": 42.34942753029149, "lng": -71.06270156970848}, "southwest": {"lat": 42.34672956970849, "lng": -71.0653995302915}}}, "icon": "https://maps.gstatic.com/mapfiles/place_api/icons/generic_business-71.png", "id": "0c900ac47eba98feacaf4ab2a8f56b8b3075e77e", "name": "Sheng Zhuang Chiu, LIC", "place_id": "ChIJRw1HAIt744kREEZqO2aA7PA", "plus_code": {"compound_code": "8WXP+6C Boston, Massachusetts, United States", "global_code": "87JC8WXP+6C"}, "rating": 5, "reference": "ChIJRw1HAIt744kREEZqO2aA7PA", "scope": "GOOGLE", "types": ["doctor", "health", "point_of_interest", "establishment"], "user_ratings_total": 1, "vicinity": "890 Washington St, Boston, MA 021111418, Boston"}, "ChIJDUVA0HB644kR_dwR3Z5_lKk": {"geometry": {"location": {"lat": 42.3480148, "lng": -71.0639181}, "viewport": {"northeast": {"lat": 42.3494029802915, "lng": -71.06269231970847}, "southwest": {"lat": 42.3467050197085, "lng": -71.0653902802915}}}, "icon": "https://maps.gstatic.com/mapfiles/place_api/icons/generic_business-71.png", "id": "cfd6fa5312f2de1d3c1b667b4a92e54bf49e2646", "name": "Shour Yi Hong Inc", "opening_hours": {"open_now": true}, "photos": [{"height": 3968, "html_attributions": ["<a href=\"https://maps.google.com/maps/contrib/108102565093974945500/photos\">Miki Janusz</a>"], "photo_reference": "CmRaAAAAtTdb0EEcQ1JvWKGFv37yrpXRQbnl2E6HknWPq_nA9gAtSLUKqV1sjiyGlHq5z-0a2plCtcniIgjQVPC-WXTS2hT1PhOHbV-zTLdF594DJmk6iBfsGBvhpND0dvz3-TKCEhDOJZ6R-ONahh-Ba_g_OwXJGhTLi3DQdY-dMvNP-VMcCKMBBYLDPg", "width": 2976}], "place_id": "ChIJDUVA0HB644kR_dwR3Z5_lKk", "plus_code": {"compound_code": "8WXP+6C Boston, Massachusetts, United States", "global_code": "87JC8WXP+6C"}, "rating": 5, "reference": "ChIJDUVA0HB644kR_dwR3Z5_lKk", "scope": "GOOGLE", "types": ["health", "point_of_interest", "establishment"], "user_ratings_total": 1, "vicinity": "890 Washington Street, Boston"}, "ChIJxwS0S3d644kRc4vX7yd2Lx8": {"geometry": {"location": {"lat": 42.34858000000001, "lng": -71.062941}, "viewport": {"northeast": {"lat": 42.3500287802915, "lng": -71.06154131970848}, "southwest": {"lat": 42.34733081970851, "lng": -71.0642392802915}}}, "icon": "https://maps.gstatic.com/mapfiles/place_api/icons/generic_business-71.png", "id": "334abd645aac3a2610cfa3f98f3a98209910afa6", "name": "Smith Graphic", "place_id": "ChIJxwS0S3d644kRc4vX7yd2Lx8", "plus_code": {"compound_code": "8WXP+CR Boston, Massachusetts, United States", "global_code": "87JC8WXP+CR"}, "reference": "ChIJxwS0S3d644kRc4vX7yd2Lx8", "scope": "GOOGLE", "types": ["point_of_interest", "establishment"], "vicinity": "1 Nassau Street, Boston"}, "ChIJxwS0S3d644kRfG9OZXwim5o": {"geometry": {"location": {"lat": 42.34858000000001, "lng": -71.062941}, "viewport": {"northeast": {"lat": 42.3500287802915, "lng": -71.06154131970848}, "southwest": {"lat": 42.34733081970851, "lng": -71.0642392802915}}}, "icon": "https://maps.gstatic.com/mapfiles/place_api/icons/generic_business-71.png", "id": "91c209601362f44c2d6704fefb06c5dcac5918d4", "name": "The Metropolitan Condos", "photos": [{"height": 3000, "html_attributions": ["<a href=\"https://maps.google.com/maps/contrib/110812883761168411668/photos\">thomas salley</a>"], "photo_reference": "CmRaAAAAWmlRBDeftqQ_WKjun2yfbT8C7sr5RseUCIQeuTtxSgeII_BeCmwDLAVN03XxyzvJuXhdlwee_ydlGiuJS_5s3cpUrIttnUNGcRAIyBJzIDf8lkL3QUj97l62rqMCFUmoEhDj3PjQCg7XerbInIJA_86YGhTzDTlpJ-7MPKyN0r1C_Dh0yTzewA", "width": 4000}], "place_id": "ChIJxwS0S3d644kRfG9OZXwim5o", "plus_code": {"compound_code": "8WXP+CR Boston, Massachusetts, United States", "global_code": "87JC8WXP+CR"}, "rating": 4.1, "reference": "ChIJxwS0S3d644kRfG9OZXwim5o", "scope": "GOOGLE", "types": ["point_of_interest", "establishment"], "user_ratings_total": 7, "vicinity": "1 Nassau Street, Boston"}, "ChIJaxxJMXd644kRGCqavXpA3DE": {"geometry": {"location": {"lat": 42.3488371, "lng": -71.0635531}, "viewport": {"northeast": {"lat": 42.35020353029149, "lng": -71.06219961970848}, "southwest": {"lat": 42.3475055697085, "lng": -71.0648975802915}}}, "icon": "https://maps.gstatic.com/mapfiles/place_api/icons/doctor-71.png", "id": "eca6113bbe29683199472cab4fefe3d462bafea2", "name": "NEMC ED", "place_id": "ChIJaxxJMXd644kRGCqavXpA3DE", "plus_code": {"compound_code": "8WXP+GH Boston, Massachusetts, United States", "global_code": "87JC8WXP+GH"}, "reference": "ChIJaxxJMXd644kRGCqavXpA3DE", "scope": "GOOGLE", "types": ["hospital", "point_of_interest", "establishment"], "vicinity": "1005 Nassau Street, Boston"}, "ChIJxwS0S3d644kR1X6KqPszwDc": {"geometry": {"location": {"lat": 42.3485842, "lng": -71.06286949999999}, "viewport": {"northeast": {"lat": 42.3500227802915, "lng": -71.0614764197085}, "southwest": {"lat": 42.3473248197085, "lng": -71.0641743802915}}}, "icon": "https://maps.gstatic.com/mapfiles/place_api/icons/generic_business-71.png", "id": "81af023c73849f5d66a7b55eabc54c026bbfcca5", "name": "Dr. Swetal R. Patel, MD", "place_id": "ChIJxwS0S3d644kR1X6KqPszwDc", "plus_code": {"compound_code": "8WXP+CV Boston, Massachusetts, United States", "global_code": "87JC8WXP+CV"}, "reference": "ChIJxwS0S3d644kR1X6KqPszwDc", "scope": "GOOGLE", "types": ["doctor", "health", "point_of_interest", "establishment"], "vicinity": "1 Nassau Street, Boston"}}