{"ChIJV4bjLd1744kRvbxobFA_EmE": {"geometry": {"location": {"lat": 42.30180799999999, "lng": -71.0857815}, "viewport": {"northeast": {"lat": 42.3031569302915, "lng": -71.08443251970849}, "southwest": {"lat": 42.3004589697085, "lng": -71.08713048029149}}}, "icon": "https://maps.gstatic.com/mapfiles/place_api/icons/geocode-71.png", "id": "9e9cd00d87f9701081fb6a8b6772fe6aa2e655ab", "name": "Blue Hill Avenue", "place_id": "ChIJV4bjLd1744kRvbxobFA_EmE", "reference": "ChIJV4bjLd1744kRvbxobFA_EmE", "scope": "GOOGLE", "types": ["route"], "vicinity": "Boston"}, "ChIJj8pk1cJ744kRZnvVS3vNnTo": {"geometry": {"location": {"lat": 42.30215949999999, "lng": -71.0852932}, "viewport": {"northeast": {"lat": 42.30352353029149, "lng": -71.08403031970849}, "southwest": {"lat": 42.30082556970849, "lng": -71.0867282802915}}}, "icon": "https://maps.gstatic.com/mapfiles/place_api/icons/shopping-71.png", "id": "fe8fc4f1f8dc57201ed7fa660958e2207d7a42c4", "name": "Metro by T-Mobile", "opening_hours": {"open_now": true}, "photos": [{"height": 500, "html_attributions": ["<a href=\"https://maps.google.com/maps/contrib/103180663631726087893/photos\">Metro by T-Mobile</a>"], "photo_reference": "CmRaAAAA2RrGGHaLQ0m4eZKr7ljnMh7tBwUjqJbsmLilmOS12D-3yutQlp7KSbiJjHjOrC3L_baXKNSayHzgUDLrQ04wRriXFJJLcF2OhfnWlR-PMjOc2uKoejgQgrdgmUVRBUE-EhAPz9XiESs7FQX_GXO0rMSIGhSepRBn-t25w4cfNYZeauyCnwfmFQ", "width": 500}], "place_id": "ChIJj8pk1cJ744kRZnvVS3vNnTo", "plus_code": {"compound_code": "8W27+VV Boston, Massachusetts, United States", "global_code": "87JC8W27+VV"}, "price_level": 1, "rating": 2.6, "reference": "ChIJj8pk1cJ744kRZnvVS3vNnTo", "scope": "GOOGLE", "types": ["electronics_store", "store", "point_of_interest", "establishment"], "user_ratings_total": 5, "vicinity": "646 Blue Hill Avenue, Dorchester"}, "ChIJDa8WLt1744kRYq-xEUbqsIc": {"geometry": {"location": {"lat": 42.30182900000001, "lng": -71.085877}, "viewport": {"northeast": {"lat": 42.3031689802915, "lng": -71.0844797697085}, "southwest": {"lat": 42.3004710197085, "lng": -71.0871777302915}}}, "icon": "https://maps.gstatic.com/mapfiles/place_api/icons/bus-71.png", "id": "d85d29ba024c01ced0fd38c5298d61f96dc69870", "name": "Blue Hill Ave opp Glenway St", "place_id": "ChIJDa8WLt1744kRYq-xEUbqsIc", "plus_code": {"compound_code": "8W27+PJ Boston, Massachusetts, United States", "global_code": "87JC8W27+PJ"}, "reference": "ChIJDa8WLt1744kRYq-xEUbqsIc", "scope": "GOOGLE", "types": ["bus_station", "transit_station", "point_of_interest", "establishment"], "vicinity": "United States"}, "ChIJP6da9xh744kRX4DD9CvjZuk": {"geometry": {"location": {"lat": 42.3021109, "lng": -71.0853802}, "viewport": {"northeast": {"lat": 42.30346838029149, "lng": -71.08408326970849}, "southwest": {"lat": 42.3007704197085, "lng": -71.08678123029149}}}, "icon": "https://maps.gstatic.com/mapfiles/place_api/icons/generic_business-71.png", "id": "b2dd89c7493fa7fe49ebcf2a9ac78f947e72383e", "name": "3Jhookah Mega Store & wholesale Distribution", "opening_hours": {"open_now": true}, "photos": [{"height": 2269, "html_attributions": ["<a href=\"https://maps.google.com/maps/contrib/112407634440397637933/photos\">3Jhookah Mega Store &amp; wholesale Distribution</a>"], "photo_reference": "CmRaAAAAufECd8LeB1VN0UJzpTerSfHne2Fy7rVUv8JV5-cT9lEUrLRcEkhsCE83-qNEvuOOdGnA-Cc2t25l2jfv299Yz_zybWaGBQbwYdiLRPPJcc0IQ36Xsn0hbpT-lvZegCvfEhDC66i2Y56ob2xf7D7Tu-o2GhTeuKhR977nDD93FbnGxLnis5JEKw", "width": 4032}], "place_id": "ChIJP6da9xh744kRX4DD9CvjZuk", "plus_code": {"compound_code": "8W27+RR Boston, Massachusetts, United States", "global_code": "87JC8W27+RR"}, "rating": 5, "reference": "ChIJP6da9xh744kRX4DD9CvjZuk", "scope": "GOOGLE", "types": ["store", "point_of_interest", "establishment"], "user_ratings_total": 16, "vicinity": "646 Blue Hill Avenue #4, Boston"}, "ChIJB6ZW1cJ744kRxy2O17F9Bow": {"geometry": {"location": {"lat": 42.3022477, "lng": -71.0852938}, "viewport": {"northeast": {"lat": 42.3036093802915, "lng": -71.08401726970851}, "southwest": {"lat": 42.3009114197085, "lng": -71.08671523029152}}}, "icon": "https://maps.gstatic.com/mapfiles/place_api/icons/shopping-71.png", "id": "f361eb46f74cbaf266221d789acede97397e7a0e", "name": "Dollar Avenue", "place_id": "ChIJB6ZW1cJ744kRxy2O17F9Bow", "plus_code": {"compound_code": "8W27+VV Boston, Massachusetts, United States", "global_code": "87JC8W27+VV"}, "reference": "ChIJB6ZW1cJ744kRxy2O17F9Bow", "scope": "GOOGLE", "types": ["store", "point_of_interest", "establishment"], "vicinity": "646 Blue Hill Avenue, Dorchester"}, "ChIJMTDNKt1744kR0WKdUHNx7MA": {"geometry": {"location": {"lat": 42.3022477, "lng": -71.0852938}, "viewport": {"northeast": {"lat": 42.3036093802915, "lng": -71.08401726970851}, "southwest": {"lat": 42.3009114197085, "lng": -71.08671523029152}}}, "icon": "https://maps.gstatic.com/mapfiles/place_api/icons/shopping-71.png", "id": "e721c8d00837ab5797b1eda96019d282ef6f660c", "name": "Ujamaa Tees", "place_id": "ChIJMTDNKt1744kR0WKdUHNx7MA", "plus_code": {"compound_code": "8W27+VV Boston, Massachusetts, United States", "global_code": "87JC8W27+VV"}, "reference": "ChIJMTDNKt1744kR0WKdUHNx7MA", "scope": "GOOGLE", "types": ["clothing_store", "store", "point_of_interest", "establishment"], "vicinity": "646 Blue Hill Avenue, Dorchester"}, "ChIJGzE9DS1l44kRoOhiASS_fHg": {"geometry": {"location": {"lat": 42.3600825, "lng": -71.0588801}, "viewport": {"northeast": {"lat": 42.40081989999999, "lng": -70.749455}, "southwest": {"lat": 42.22788, "lng": -71.191113}}}, "icon": "https://maps.gstatic.com/mapfiles/place_api/icons/geocode-71.png", "id": "06755c25d2b34d13942a4713971756a55b870ced", "name": "Boston", "photos": [{"height": 3024, "html_attributions": ["<a href=\"https://maps.google.com/maps/contrib/104670289779338733432/photos\">Natalia Zalucean</a>"], "photo_reference": "CmRaAAAA4Y3qJJNX1dNQD2VVDENxfl9D3CiOPiayxMHaomUDez527659nfyivwp-SPcIyzcoWiHeQ2DPN393is5x1L43Z6KtrpBTNJkbFuIDemu1y7Wx979Nps_uGdXPxeH2P1hzEhCytkZrSREpAjZbZzdeADp4GhSOZ-U60tuEWraCESqnJqoUZkloYg", "width": 4032}], "place_id": "ChIJGzE9DS1l44kRoOhiASS_fHg", "reference": "ChIJGzE9DS1l44kRoOhiASS_fHg", "scope": "GOOGLE", "types": ["locality", "political"], "vicinity": "Boston"}}