{"ChIJJfCywpBw44kRnY43cH_ffUw": {"geometry": {"location": {"lat": 42.3649267, "lng": -71.06615409999999}, "viewport": {"northeast": {"lat": 42.3662885802915, "lng": -71.0648031697085}, "southwest": {"lat": 42.3635906197085, "lng": -71.0675011302915}}}, "icon": "https://maps.gstatic.com/mapfiles/place_api/icons/geocode-71.png", "id": "9a4a348c74a120a13fcf46c2f76b149e791919e0", "name": "Thoreau Path", "place_id": "ChIJJfCywpBw44kRnY43cH_ffUw", "reference": "ChIJJfCywpBw44kRnY43cH_ffUw", "scope": "GOOGLE", "types": ["route"], "vicinity": "Boston"}, "ChIJe0nlyZBw44kRSZSg12xSnWo": {"geometry": {"location": {"lat": 42.3649199, "lng": -71.06681379999999}, "viewport": {"northeast": {"lat": 42.36616843029149, "lng": -71.06558816970849}, "southwest": {"lat": 42.3634704697085, "lng": -71.0682861302915}}}, "icon": "https://maps.gstatic.com/mapfiles/place_api/icons/shopping-71.png", "id": "411215ae2583a171c19826cff4633f47849d15df", "name": "J. Pace & Son", "opening_hours": {"open_now": true}, "photos": [{"height": 4032, "html_attributions": ["<a href=\"https://maps.google.com/maps/contrib/105844663297189575990/photos\">Fernando Astudillo</a>"], "photo_reference": "CmRaAAAAoqZQKtX-tBaiPn7RxR3jKWt5MEPuJkzP0OYHxvtqzlKujMPnG0TV--uT5jz-y7gmEpBAWedHJEwz55-L-vNhoJeHKdG0QaoCuJ8TI2FMFt9R-WXfVXwNVug_-beTfLonEhA7szOyqTGuErUkyDRzUgFhGhQky9e0U3JLeQfCbSMQKoVLzawDUQ", "width": 3024}], "place_id": "ChIJe0nlyZBw44kRSZSg12xSnWo", "plus_code": {"compound_code": "9W7M+X7 Boston, Massachusetts, United States", "global_code": "87JC9W7M+X7"}, "rating": 4.3, "reference": "ChIJe0nlyZBw44kRSZSg12xSnWo", "scope": "GOOGLE", "types": ["grocery_or_supermarket", "store", "point_of_interest", "food", "establishment"], "user_ratings_total": 84, "vicinity": "75 Blossom Court, Boston"}, "ChIJca-xLZFw44kRsIoAiHoKSdQ": {"geometry": {"location": {"lat": 42.3653802, "lng": -71.0667093}, "viewport": {"northeast": {"lat": 42.3668599302915, "lng": -71.06551716970849}, "southwest": {"lat": 42.3641619697085, "lng": -71.06821513029149}}}, "icon": "https://maps.gstatic.com/mapfiles/place_api/icons/generic_business-71.png", "id": "cd4165281856a25880a74c1bc99ca1b856e8715d", "name": "Boston Chinese Acupuncture Center", "opening_hours": {"open_now": true}, "photos": [{"height": 3036, "html_attributions": ["<a href=\"https://maps.google.com/maps/contrib/115120902233553565992/photos\">David Ambio</a>"], "photo_reference": "CmRaAAAAXVTSI5PAq8X44jrmRnLRmK-2cewNbFXyREcW2hw489JFKeuMTt8HbWzNZohIgkXT_as8bg4R2qNxOwUClIjz-gqrX0S8Az24-ohHXiKm0BYRX9zv2qF_r1hFoRfkARtAEhBcm6JdLBH0DWt8MAbGtW5JGhRLKEKjY5KRVGSY-2rolA-GJT4gaw", "width": 4048}], "place_id": "ChIJca-xLZFw44kRsIoAiHoKSdQ", "plus_code": {"compound_code": "9W8M+58 Boston, Massachusetts, United States", "global_code": "87JC9W8M+58"}, "rating": 4.3, "reference": "ChIJca-xLZFw44kRsIoAiHoKSdQ", "scope": "GOOGLE", "types": ["health", "point_of_interest", "establishment"], "user_ratings_total": 12, "vicinity": "7 Whittier Place MGH), Suite 111, Boston"}, "ChIJUxZd3pBw44kRaarV4Khsv3A": {"geometry": {"location": {"lat": 42.3653257, "lng": -71.0662554}, "viewport": {"northeast": {"lat": 42.3668257302915, "lng": -71.06485256970849}, "southwest": {"lat": 42.3641277697085, "lng": -71.0675505302915}}}, "icon": "https://maps.gstatic.com/mapfiles/place_api/icons/worship_jewish-71.png", "id": "6262a1371e69526c47826fc600f4e475f8ffabea", "name": "Boston Synagogue", "photos": [{"height": 2988, "html_attributions": ["<a href=\"https://maps.google.com/maps/contrib/110518120536916800885/photos\">Berk USTA</a>"], "photo_reference": "CmRZAAAAwxO5386jNEG1Kj5Xt7wud1xDozalGNaIUW9cuBTL1bl_4WPcUxRioHaPVpoEWlRssbJruuSGGPpeIqwYH-mHeBwonaCJZthwWdDYi6zCbBUcvhJtUXxVehH1fOGbba3uEhCpdMZCSWzg_0C3vFChbhv5GhSkLHzgPOlisxRWmrA2iTTfVfrUmg", "width": 4706}], "place_id": "ChIJUxZd3pBw44kRaarV4Khsv3A", "plus_code": {"compound_code": "9W8M+4F Boston, Massachusetts, United States", "global_code": "87JC9W8M+4F"}, "rating": 4, "reference": "ChIJUxZd3pBw44kRaarV4Khsv3A", "scope": "GOOGLE", "types": ["synagogue", "place_of_worship", "point_of_interest", "establishment"], "user_ratings_total": 2, "vicinity": "55 Martha Road, Boston"}, "ChIJe0nlyZBw44kRI4bhZ5NFf-Q": {"geometry": {"location": {"lat": 42.3649199, "lng": -71.06681379999999}, "viewport": {"northeast": {"lat": 42.36616843029149, "lng": -71.06558816970849}, "southwest": {"lat": 42.3634704697085, "lng": -71.0682861302915}}}, "icon": "https://maps.gstatic.com/mapfiles/place_api/icons/generic_business-71.png", "id": "c65e3ab4040483a2b3962462e74d669903584d6f", "name": "Park Cleaners", "opening_hours": {"open_now": true}, "photos": [{"height": 3120, "html_attributions": ["<a href=\"https://maps.google.com/maps/contrib/112956682134553317959/photos\">Chris Ferry</a>"], "photo_reference": "CmRaAAAAeQpT7To0ANpnykLGZQA3KvZAS05Z-sd-z-56Pr92wAKfTZyGt-tk2vzololebtwRUmzAIusZmdGudgsixlvu37eHKS3wopDnXutWwqngln6nZzgacufvg2gcgywMTmxjEhB1nRVEU6hFdYaS0gcWBwAIGhRPoThWnLNDjerDMpHbXum-Z55vjw", "width": 4160}], "place_id": "ChIJe0nlyZBw44kRI4bhZ5NFf-Q", "plus_code": {"compound_code": "9W7M+X7 Boston, Massachusetts, United States", "global_code": "87JC9W7M+X7"}, "rating": 4, "reference": "ChIJe0nlyZBw44kRI4bhZ5NFf-Q", "scope": "GOOGLE", "types": ["laundry", "point_of_interest", "establishment"], "user_ratings_total": 4, "vicinity": "75 Blossom Court # 200, Boston"}, "ChIJVwcKHpFw44kR6nyiWnQ37nE": {"geometry": {"location": {"lat": 42.365539, "lng": -71.065748}, "viewport": {"northeast": {"lat": 42.36688798029149, "lng": -71.06439901970849}, "southwest": {"lat": 42.3641900197085, "lng": -71.06709698029151}}}, "icon": "https://maps.gstatic.com/mapfiles/place_api/icons/generic_business-71.png", "id": "09734acf25c09d223edcc0bc6b0b8c98d7bdab19", "name": "Vicki Morgenstern - Professional Makeup Artist", "photos": [{"height": 512, "html_attributions": ["<a href=\"https://maps.google.com/maps/contrib/102897925371075732072/photos\">Vicki Morgenstern - Professional Makeup Artist</a>"], "photo_reference": "CmRaAAAAB1LpYPs7hl9jyU45k1tZ0zqT10mVfkvOVI9ePYsxOGxV4r2jhlPqOK1Q07kp7pGKRXGVaKS55EXWMD2GWuzWL-1Wg5mJhiVZsvZozHfDYilH3DACDh1jiVr2xtJU4cqnEhBkouIFa4QRrkG5-avOrUenGhTFOIwVjPpkhlfJgEsGENV61-kVNQ", "width": 384}], "place_id": "ChIJVwcKHpFw44kR6nyiWnQ37nE", "plus_code": {"compound_code": "9W8M+6P Boston, Massachusetts, United States", "global_code": "87JC9W8M+6P"}, "rating": 5, "reference": "ChIJVwcKHpFw44kR6nyiWnQ37nE", "scope": "GOOGLE", "types": ["point_of_interest", "establishment"], "user_ratings_total": 2, "vicinity": "65 Martha Road, Boston"}, "ChIJe0nlyZBw44kRPTKZQLtJgws": {"geometry": {"location": {"lat": 42.364882, "lng": -71.06687300000002}, "viewport": {"northeast": {"lat": 42.3661494802915, "lng": -71.0656177697085}, "southwest": {"lat": 42.3634515197085, "lng": -71.06831573029152}}}, "icon": "https://maps.gstatic.com/mapfiles/place_api/icons/generic_business-71.png", "id": "0c7f8ba15a16d058df9c43c015a1d438954c5abc", "name": "Bea's Nail Salon", "opening_hours": {"open_now": true}, "photos": [{"height": 3120, "html_attributions": ["<a href=\"https://maps.google.com/maps/contrib/112956682134553317959/photos\">Chris Ferry</a>"], "photo_reference": "CmRaAAAAUP33GEq1Rah2p8ZufQWU0t1JHtKjt9KsEhKEtAAirFUpuC3zyuWVCrFhCzN8WSLcWDA2QDDueXBEaCTmeSZKTueu5Fitw2SfNqc7qXVXrbGTNmz0EAKKgBuAFY0tMKO-EhDP64VE-Xu4e5dAmzFSBWAVGhSiWEDW_sxjBDB147LZ4T7SoOc_Rg", "width": 4160}], "place_id": "ChIJe0nlyZBw44kRPTKZQLtJgws", "plus_code": {"compound_code": "9W7M+X7 Boston, Massachusetts, United States", "global_code": "87JC9W7M+X7"}, "rating": 3.9, "reference": "ChIJe0nlyZBw44kRPTKZQLtJgws", "scope": "GOOGLE", "types": ["beauty_salon", "point_of_interest", "establishment"], "user_ratings_total": 8, "vicinity": "75 Blossom Court, Boston"}, "ChIJ8QgLwZBw44kRuD8g7weqdu8": {"geometry": {"location": {"lat": 42.3647715, "lng": -71.0659336}, "viewport": {"northeast": {"lat": 42.3660343, "lng": -71.06500249999999}, "southwest": {"lat": 42.3631783, "lng": -71.0691343}}}, "icon": "https://maps.gstatic.com/mapfiles/place_api/icons/generic_recreational-71.png", "id": "77ee83b4bcad1203c14d8d5bb8e636ee5b7b883e", "name": "Thoreau Path", "place_id": "ChIJ8QgLwZBw44kRuD8g7weqdu8", "reference": "ChIJ8QgLwZBw44kRuD8g7weqdu8", "scope": "GOOGLE", "types": ["park", "premise", "point_of_interest", "establishment"], "vicinity": "Boston"}, "ChIJVRk0uJBw44kRDAWNhDgP9tE": {"geometry": {"location": {"lat": 42.3643629, "lng": -71.0665836}, "viewport": {"northeast": {"lat": 42.36567513029149, "lng": -71.06533181970849}, "southwest": {"lat": 42.36297716970849, "lng": -71.0680297802915}}}, "icon": "https://maps.gstatic.com/mapfiles/place_api/icons/generic_business-71.png", "id": "3f69af40622b74e7626df0c308063598747198a2", "name": "Blossom Parking Lot", "place_id": "ChIJVRk0uJBw44kRDAWNhDgP9tE", "reference": "ChIJVRk0uJBw44kRDAWNhDgP9tE", "scope": "GOOGLE", "types": ["premise", "parking", "point_of_interest", "establishment"], "vicinity": "Boston"}, "ChIJGzE9DS1l44kRoOhiASS_fHg": {"geometry": {"location": {"lat": 42.3600825, "lng": -71.0588801}, "viewport": {"northeast": {"lat": 42.40081989999999, "lng": -70.749455}, "southwest": {"lat": 42.22788, "lng": -71.191113}}}, "icon": "https://maps.gstatic.com/mapfiles/place_api/icons/geocode-71.png", "id": "06755c25d2b34d13942a4713971756a55b870ced", "name": "Boston", "photos": [{"height": 3024, "html_attributions": ["<a href=\"https://maps.google.com/maps/contrib/104670289779338733432/photos\">Natalia Zalucean</a>"], "photo_reference": "CmRaAAAArgRYLZr0FF08f5r_Op0TFXvc5ip3koeuX6wDM3QZIFvfXoYTN2jzQb56vYWoAGgTSslrD32KaGH5IPIuCnsDASmCxrAowmiHItYwSXBMRE_HJ-t7ekYnaa9cUoVo3GwaEhCKvPrKqNq5hSV8DmT5cucfGhQgUpKWvmd8Wlx8ldwmKSCNn7Ty0w", "width": 4032}], "place_id": "ChIJGzE9DS1l44kRoOhiASS_fHg", "reference": "ChIJGzE9DS1l44kRoOhiASS_fHg", "scope": "GOOGLE", "types": ["locality", "political"], "vicinity": "Boston"}}