{"ChIJ7WC3s75w44kR54F1SOp6e8s": {"geometry": {"location": {"lat": 42.3709398, "lng": -71.07922649999999}, "viewport": {"northeast": {"lat": 42.37228948029149, "lng": -71.0778773197085}, "southwest": {"lat": 42.36959151970849, "lng": -71.08057528029151}}}, "icon": "https://maps.gstatic.com/mapfiles/place_api/icons/geocode-71.png", "id": "4b602ce523a8a6a7150757fcb89ea1682ae3810e", "name": "242-160 Cambridge St", "place_id": "ChIJ7WC3s75w44kR54F1SOp6e8s", "reference": "ChIJ7WC3s75w44kR54F1SOp6e8s", "scope": "GOOGLE", "types": ["route"], "vicinity": "Cambridge"}, "ChIJPXT5tL5w44kREdYgyWICu6Q": {"geometry": {"location": {"lat": 42.3710535, "lng": -71.07933919999999}, "viewport": {"northeast": {"lat": 42.3723544302915, "lng": -71.0780016697085}, "southwest": {"lat": 42.3696564697085, "lng": -71.0806996302915}}}, "icon": "https://maps.gstatic.com/mapfiles/place_api/icons/generic_business-71.png", "id": "7e9104c6c74e0496a5844fe01ed7ef9184a55e2b", "name": "Constable Services", "opening_hours": {"open_now": true}, "photos": [{"height": 4160, "html_attributions": ["<a href=\"https://maps.google.com/maps/contrib/100751529647459121710/photos\">Tslil Ast</a>"], "photo_reference": "CmRaAAAAFL_MIQXBKyFgAsgC2t6-fEV8gBREw9AG6Bx8bkEjPLcCQSIa8xL-e8ew7dasCAeQHtzBVx5DzRRIUnzQf4Rdvw-JdXzZ_x_mSDUkiy70OZU0dB5kBDdlfvbbnRXs7ezkEhDHAsln32x7ptKtCHPZUMzvGhQ3D82pi-D_XqldzzfmGC6ZzyOscQ", "width": 3120}], "place_id": "ChIJPXT5tL5w44kREdYgyWICu6Q", "plus_code": {"compound_code": "9WCC+C7 Cambridge, Massachusetts, United States", "global_code": "87JC9WCC+C7"}, "rating": 3.4, "reference": "ChIJPXT5tL5w44kREdYgyWICu6Q", "scope": "GOOGLE", "types": ["finance", "point_of_interest", "establishment"], "user_ratings_total": 5, "vicinity": "149 Cambridge Street, Cambridge"}, "ChIJEx1YrL5w44kR7zTAYziZDZs": {"geometry": {"location": {"lat": 42.3706147, "lng": -71.0793801}, "viewport": {"northeast": {"lat": 42.37213103029151, "lng": -71.07799131970849}, "southwest": {"lat": 42.36943306970851, "lng": -71.08068928029151}}}, "icon": "https://maps.gstatic.com/mapfiles/place_api/icons/civic_building-71.png", "id": "08a01b32ffb67e28dd1e1e4ca89cb2ae664ff750", "name": "Middlesex South Registry Of Deeds", "opening_hours": {"open_now": true}, "photos": [{"height": 3024, "html_attributions": ["<a href=\"https://maps.google.com/maps/contrib/108165955110408038160/photos\">Neal Robert</a>"], "photo_reference": "CmRaAAAAO-I5dvvmBJJk_Tro37F610YjWTGaKCM0CUBO8OhCeJtPgcY1KSyJx2g7gcfsi4_NAWHktJGcF5hBJ8gA9B3rQDOxqrkBe2ct6kI2DQMCdkZdrfDREg4fGZyIQd9-1ij9EhAW6CuYThkK-16BHy5bKsNaGhStXQEF5uG87xnSP7y-qGUXoRtNEw", "width": 4032}], "place_id": "ChIJEx1YrL5w44kR7zTAYziZDZs", "plus_code": {"compound_code": "9WCC+66 Cambridge, Massachusetts, United States", "global_code": "87JC9WCC+66"}, "rating": 5, "reference": "ChIJEx1YrL5w44kR7zTAYziZDZs", "scope": "GOOGLE", "types": ["point_of_interest", "establishment"], "user_ratings_total": 1, "vicinity": "2nd, 208 Cambridge Street, Cambridge"}, "ChIJA6H_rL5w44kRrRjXI4f8iD8": {"geometry": {"location": {"lat": 42.370595, "lng": -71.0793001}, "viewport": {"northeast": {"lat": 42.37210598029151, "lng": -71.0778337197085}, "southwest": {"lat": 42.36940801970851, "lng": -71.0805316802915}}}, "icon": "https://maps.gstatic.com/mapfiles/place_api/icons/civic_building-71.png", "id": "8b1f3cabcd1ee5de0eb07276520f5e3c904bd499", "name": "Middlesex Probate and Family Court", "opening_hours": {"open_now": true}, "photos": [{"height": 2856, "html_attributions": ["<a href=\"https://maps.google.com/maps/contrib/105197586527327597613/photos\">Jason Tiu</a>"], "photo_reference": "CmRaAAAAchD7YsCpDW4ZrSpl3KymxKRvHhHP__THtSv_mBmNg8NweogaaqfOhAzlO-bP3Kmm3lbalieCX8m2MEAJO88TeUEPCjecakFnSDn0vMIxqTNewKFuJTEtvc4izOsRVmb1EhDSnqyMSpbBxJdNJN0if1zGGhQ7dkgS3Qljo1H13ulyX9XQla11CA", "width": 4272}], "place_id": "ChIJA6H_rL5w44kRrRjXI4f8iD8", "plus_code": {"compound_code": "9WCC+67 Cambridge, Massachusetts, United States", "global_code": "87JC9WCC+67"}, "rating": 3.4, "reference": "ChIJA6H_rL5w44kRrRjXI4f8iD8", "scope": "GOOGLE", "types": ["courthouse", "local_government_office", "point_of_interest", "establishment"], "user_ratings_total": 23, "vicinity": "208 Cambridge Street, Cambridge"}, "ChIJd4cWsb5w44kRGhZE9_6-ZSI": {"geometry": {"location": {"lat": 42.3710027, "lng": -71.0789886}, "viewport": {"northeast": {"lat": 42.3723064802915, "lng": -71.07764946970849}, "southwest": {"lat": 42.3696085197085, "lng": -71.0803474302915}}}, "icon": "https://maps.gstatic.com/mapfiles/place_api/icons/generic_business-71.png", "id": "f9b8597ad58b1d39516db2676d09e7fe7f4d00c0", "name": "Healy Fiske Richmond & Matthew, LLP: Richmond, Barbara", "place_id": "ChIJd4cWsb5w44kRGhZE9_6-ZSI", "plus_code": {"compound_code": "9WCC+CC Cambridge, Massachusetts, United States", "global_code": "87JC9WCC+CC"}, "reference": "ChIJd4cWsb5w44kRGhZE9_6-ZSI", "scope": "GOOGLE", "types": ["lawyer", "point_of_interest", "establishment"], "vicinity": "43 Thorndike Street, Cambridge"}, "ChIJKUq6tr5w44kRSi-0I55S1q8": {"geometry": {"location": {"lat": 42.3710651, "lng": -71.0790554}, "viewport": {"northeast": {"lat": 42.3723425302915, "lng": -71.0777234197085}, "southwest": {"lat": 42.3696445697085, "lng": -71.08042138029151}}}, "icon": "https://maps.gstatic.com/mapfiles/place_api/icons/generic_business-71.png", "id": "97348cb7ce20a54f51d33f40dcd534cb367aee8c", "name": "Law Office of Rachel Benedict", "opening_hours": {"open_now": true}, "photos": [{"height": 1279, "html_attributions": ["<a href=\"https://maps.google.com/maps/contrib/117461111291240884086/photos\">Law Office of Rachel Benedict</a>"], "photo_reference": "CmRaAAAAVtxUFWOqNgrmNUM1cpCb0qlVcMLZdvtwvoVXV_MARPOsMLbuopW2z0hgYGHioVMup2rYbamjedSvwewja3oqocamVTqVGa0gtPMg4z3SKtTEUsmTHOyB--XcGdKIReB6EhDlLL7SXrLw8scOruhJsvxaGhReQukza0NoG7tohJPDUxa7Ir54Cw", "width": 1920}], "place_id": "ChIJKUq6tr5w44kRSi-0I55S1q8", "plus_code": {"compound_code": "9WCC+C9 Cambridge, Massachusetts, United States", "global_code": "87JC9WCC+C9"}, "rating": 4.5, "reference": "ChIJKUq6tr5w44kRSi-0I55S1q8", "scope": "GOOGLE", "types": ["point_of_interest", "establishment"], "user_ratings_total": 4, "vicinity": "189 Cambridge Street, Cambridge"}, "ChIJ5YYWsb5w44kRdczAreEX46E": {"geometry": {"location": {"lat": 42.3710823, "lng": -71.0790542}, "viewport": {"northeast": {"lat": 42.3723513302915, "lng": -71.07772421970849}, "southwest": {"lat": 42.3696533697085, "lng": -71.08042218029149}}}, "icon": "https://maps.gstatic.com/mapfiles/place_api/icons/generic_business-71.png", "id": "f16cdbf4043ea0d11624710266a7e154b189c64c", "name": "Adolescent Consultation Services, Inc.", "opening_hours": {"open_now": true}, "photos": [{"height": 3024, "html_attributions": ["<a href=\"https://maps.google.com/maps/contrib/105612344898698182949/photos\">Refael Ackermann</a>"], "photo_reference": "CmRaAAAA3SaCvmobvZYFJnz5VqrJtsOQpPYsnyqrIMiC_WvbTcZrs-2s4z_iSIKc609vssorjzCV2i0ceBgfQ2btKP9IOlJN09sYxYOncwgiFYY0HqkjaqFspSXwVTXt0YBVpmHvEhCvU9YyGOrAHM7Lw4KtFptFGhQB17VzvsvwfXaGsU2ZgLK3m4kpkA", "width": 4032}], "place_id": "ChIJ5YYWsb5w44kRdczAreEX46E", "plus_code": {"compound_code": "9WCC+C9 Cambridge, Massachusetts, United States", "global_code": "87JC9WCC+C9"}, "reference": "ChIJ5YYWsb5w44kRdczAreEX46E", "scope": "GOOGLE", "types": ["health", "point_of_interest", "establishment"], "vicinity": "189 Cambridge Street, Cambridge"}, "ChIJMcoVsb5w44kR6gNDhx5kE_0": {"geometry": {"location": {"lat": 42.3710823, "lng": -71.0790542}, "viewport": {"northeast": {"lat": 42.3723513302915, "lng": -71.07772421970849}, "southwest": {"lat": 42.3696533697085, "lng": -71.08042218029149}}}, "icon": "https://maps.gstatic.com/mapfiles/place_api/icons/generic_business-71.png", "id": "be7c7fd050a60f6e2b32cf8801f699bb0aa5561a", "name": "Mill Run Tours", "opening_hours": {"open_now": true}, "photos": [{"height": 713, "html_attributions": ["<a href=\"https://maps.google.com/maps/contrib/102814115721454754922/photos\">Mill Run Tours</a>"], "photo_reference": "CmRaAAAAmnbpnw8AgDSF0yG0htwFVHSo3pK77ExoUkxFVrxOVg5uWaX9_3hIQ8ydmfIZJOT5RgAQfRyKTHAGt7Wmni38-vM3_VgegRLUO7Z9nknVCIjPtTc6qrY2ZUp3CeQlvaiEEhADD9rVm5r3GUpdsVbhEW5zGhQelBHXF5xYO3oqHrilT6h28MLSIg", "width": 713}], "place_id": "ChIJMcoVsb5w44kR6gNDhx5kE_0", "plus_code": {"compound_code": "9WCC+C9 Cambridge, Massachusetts, United States", "global_code": "87JC9WCC+C9"}, "reference": "ChIJMcoVsb5w44kR6gNDhx5kE_0", "scope": "GOOGLE", "types": ["travel_agency", "point_of_interest", "establishment"], "vicinity": "189 Cambridge Street #2a, Cambridge"}, "ChIJhze8tr5w44kR2EnMerVMT_M": {"geometry": {"location": {"lat": 42.3710823, "lng": -71.0790542}, "viewport": {"northeast": {"lat": 42.3723513302915, "lng": -71.07772421970849}, "southwest": {"lat": 42.3696533697085, "lng": -71.08042218029149}}}, "icon": "https://maps.gstatic.com/mapfiles/place_api/icons/generic_business-71.png", "id": "6dc5a1d42ed09001db57f5b75d95a1a3825e4f81", "name": "ReversingLabs", "opening_hours": {"open_now": true}, "photos": [{"height": 500, "html_attributions": ["<a href=\"https://maps.google.com/maps/contrib/108410703298927044131/photos\">ReversingLabs</a>"], "photo_reference": "CmRaAAAAefCzlCt5ooC0EgC6tzT1cWyumZBzSc_LUZ7VhMrswrh9S7Dyra7MqVR6vO8H3xprFaIvPNBTfzuDNg8BEFCUbk6cA-e-hVcj9Ui4SNasC22HC01gd2ph2yGqcTYX3kmAEhAqf5kJ5ULXuyYI_fTGRKhkGhSrhD4WVAc4fNwWESVmGUJinSvIvA", "width": 500}], "place_id": "ChIJhze8tr5w44kR2EnMerVMT_M", "plus_code": {"compound_code": "9WCC+C9 Cambridge, Massachusetts, United States", "global_code": "87JC9WCC+C9"}, "rating": 5, "reference": "ChIJhze8tr5w44kR2EnMerVMT_M", "scope": "GOOGLE", "types": ["point_of_interest", "establishment"], "user_ratings_total": 1, "vicinity": "189 Cambridge Street #4, Cambridge"}, "ChIJSfEMpb5w44kRHYwPx-7rLt8": {"geometry": {"location": {"lat": 42.3704778, "lng": -71.078649}, "viewport": {"northeast": {"lat": 42.3718255802915, "lng": -71.0772891697085}, "southwest": {"lat": 42.36912761970851, "lng": -71.0799871302915}}}, "icon": "https://maps.gstatic.com/mapfiles/place_api/icons/generic_business-71.png", "id": "adb744f4c6df54e80ca644d6f7099e47cd63c2d7", "name": "Malis Law", "opening_hours": {"open_now": true}, "photos": [{"height": 2048, "html_attributions": ["<a href=\"https://maps.google.com/maps/contrib/100932297604505582995/photos\">MALIS|LAW</a>"], "photo_reference": "CmRaAAAA6zt1MpVCuLLp7iSTKv3b0W7kK-QUIdPOtPakKYSqzHWTrgSWhMSc4axVODOkP_s-Agk0d9Eqxdj92Y2rlo3xutvkhW3l87oyleyK8bvVIPYmn9lFIc0jmnVsLVrpiconEhAJ5bqniCz9d7mmNFB7CBixGhQ194K7tsoBAosuFR0W3y93z3CEdA", "width": 1536}], "place_id": "ChIJSfEMpb5w44kRHYwPx-7rLt8", "plus_code": {"compound_code": "9WCC+5G Cambridge, Massachusetts, United States", "global_code": "87JC9WCC+5G"}, "reference": "ChIJSfEMpb5w44kRHYwPx-7rLt8", "scope": "GOOGLE", "types": ["lawyer", "point_of_interest", "establishment"], "vicinity": "30 Second Street, Cambridge"}, "ChIJW0sFJo-f44kRgw5gQag5Moo": {"geometry": {"location": {"lat": 42.3700416, "lng": -71.0796293}, "viewport": {"northeast": {"lat": 42.3711648802915, "lng": -71.07833891970849}, "southwest": {"lat": 42.3684669197085, "lng": -71.0810368802915}}}, "icon": "https://maps.gstatic.com/mapfiles/place_api/icons/generic_business-71.png", "id": "db04f154ad0b5c8c83e253d4d9bf5c2ff08ae625", "name": "Healy, Fiske, Richmond & Matthew, LLP", "opening_hours": {"open_now": true}, "photos": [{"height": 2821, "html_attributions": ["<a href=\"https://maps.google.com/maps/contrib/104310332931943369377/photos\">Healy, Fiske, Richmond &amp; Matthew, LLP</a>"], "photo_reference": "CmRaAAAA-O58EnGK8Y9Dy3yin44Khx3JFYNOyVDPT15lHjqjsSgxxdM-Huj6sdjSDVRT5wQ3EW8mcDSuHC9CxYMghDVxGpOSHgwfQPbXPyZJYj_5Jffq3wwTyXFYf9pdb82TqQmXEhAfDl_5crsOi6fjdNYFCtNuGhQK_YWKcRBYjyZGdkli4xU92nd5yQ", "width": 2828}], "place_id": "ChIJW0sFJo-f44kRgw5gQag5Moo", "plus_code": {"compound_code": "9WCC+24 Cambridge, Massachusetts, United States", "global_code": "87JC9WCC+24"}, "rating": 4.6, "reference": "ChIJW0sFJo-f44kRgw5gQag5Moo", "scope": "GOOGLE", "types": ["lawyer", "point_of_interest", "establishment"], "user_ratings_total": 7, "vicinity": "43 Thorndike Street, East Cambridge"}, "ChIJjxFWrL5w44kRfu8WtV_CS0Y": {"geometry": {"location": {"lat": 42.370595, "lng": -71.0793001}, "viewport": {"northeast": {"lat": 42.3721158802915, "lng": -71.0779102197085}, "southwest": {"lat": 42.3694179197085, "lng": -71.0806081802915}}}, "icon": "https://maps.gstatic.com/mapfiles/place_api/icons/generic_business-71.png", "id": "84a9a815d7c145442914f7af2470ee1a41ec6345", "name": "Nippy Express", "place_id": "ChIJjxFWrL5w44kRfu8WtV_CS0Y", "plus_code": {"compound_code": "9WCC+67 Cambridge, Massachusetts, United States", "global_code": "87JC9WCC+67"}, "reference": "ChIJjxFWrL5w44kRfu8WtV_CS0Y", "scope": "GOOGLE", "types": ["point_of_interest", "establishment"], "vicinity": "4146 Levy Court, Cambridge"}, "ChIJEx1YrL5w44kRkLHE36cFZOk": {"geometry": {"location": {"lat": 42.370579, "lng": -71.079301}, "viewport": {"northeast": {"lat": 42.3721076802915, "lng": -71.0779092697085}, "southwest": {"lat": 42.3694097197085, "lng": -71.0806072302915}}}, "icon": "https://maps.gstatic.com/mapfiles/place_api/icons/generic_business-71.png", "id": "dea4da2d8b1c93fed8c283da7a801790cb5ba769", "name": "Lou's Place", "place_id": "ChIJEx1YrL5w44kRkLHE36cFZOk", "plus_code": {"compound_code": "9WCC+67 Cambridge, Massachusetts, United States", "global_code": "87JC9WCC+67"}, "reference": "ChIJEx1YrL5w44kRkLHE36cFZOk", "scope": "GOOGLE", "types": ["restaurant", "point_of_interest", "food", "establishment"], "vicinity": "208 Cambridge Street, Cambridge"}, "ChIJ8T3qALxw44kRjXmsMhMk14Q": {"geometry": {"location": {"lat": 42.3702167, "lng": -71.0793508}, "viewport": {"northeast": {"lat": 42.3712714802915, "lng": -71.0780350197085}, "southwest": {"lat": 42.3685735197085, "lng": -71.0807329802915}}}, "icon": "https://maps.gstatic.com/mapfiles/place_api/icons/generic_recreational-71.png", "id": "8de05896796333523078265220c8a14fb3b66d5c", "name": "Centanni Park", "photos": [{"height": 3456, "html_attributions": ["<a href=\"https://maps.google.com/maps/contrib/107947330762699743834/photos\">Jay MacIntyre</a>"], "photo_reference": "CmRaAAAAU8f6hMHCFg414_nBrYpO5Ichi2Fi6nvfIHsFwc60sJV0QwMKfx6KpwryfUdam9E1U6to6q7_0RWxTSzArUyYVuNju50CrDyx5DmLO5qiT_w9AxB8pWKTPChupy4o5KiDEhBr0vmd7VU5m3E2TV-cm3-4GhQyTW5wy1TdkFtX_z8HX2WnPnNHnQ", "width": 4608}], "place_id": "ChIJ8T3qALxw44kRjXmsMhMk14Q", "plus_code": {"compound_code": "9WCC+37 Cambridge, Massachusetts, United States", "global_code": "87JC9WCC+37"}, "rating": 5, "reference": "ChIJ8T3qALxw44kRjXmsMhMk14Q", "scope": "GOOGLE", "types": ["park", "point_of_interest", "establishment"], "user_ratings_total": 8, "vicinity": "Cambridge"}, "ChIJF7PSEbxw44kRBrYRJXQ-IjU": {"geometry": {"location": {"lat": 42.3710191, "lng": -71.07953619999999}, "viewport": {"northeast": {"lat": 42.37236103029151, "lng": -71.0781889197085}, "southwest": {"lat": 42.36966306970851, "lng": -71.0808868802915}}}, "icon": "https://maps.gstatic.com/mapfiles/place_api/icons/generic_business-71.png", "id": "a70b39decbc843745a5d252e52f8622d34602685", "name": "Beth E. Simon", "place_id": "ChIJF7PSEbxw44kRBrYRJXQ-IjU", "plus_code": {"compound_code": "9WCC+C5 Cambridge, Massachusetts, United States", "global_code": "87JC9WCC+C5"}, "reference": "ChIJF7PSEbxw44kRBrYRJXQ-IjU", "scope": "GOOGLE", "types": ["point_of_interest", "establishment"], "vicinity": "189 Cambridge Street Suite 3A (2nd Flr, Cambridge"}, "ChIJnahxWLlw44kReom4AuGQMbs": {"geometry": {"location": {"lat": 42.37054440000001, "lng": -71.0801058}, "viewport": {"northeast": {"lat": 42.37179203029149, "lng": -71.07878056970848}, "southwest": {"lat": 42.3690940697085, "lng": -71.0814785302915}}}, "icon": "https://maps.gstatic.com/mapfiles/place_api/icons/generic_business-71.png", "id": "18bcafb97053c4689279b244723bcccd9361aa94", "name": "Saccoccio Marie", "place_id": "ChIJnahxWLlw44kReom4AuGQMbs", "plus_code": {"compound_code": "9WC9+6X Cambridge, Massachusetts, United States", "global_code": "87JC9WC9+6X"}, "reference": "ChIJnahxWLlw44kReom4AuGQMbs", "scope": "GOOGLE", "types": ["lawyer", "point_of_interest", "establishment"], "vicinity": "55 Otis Street, Cambridge"}, "ChIJ_f8P_7tw44kRPVtMOVB1gq8": {"geometry": {"location": {"lat": 42.3700416, "lng": -71.0796292}, "viewport": {"northeast": {"lat": 42.3711648802915, "lng": -71.07833881970849}, "southwest": {"lat": 42.3684669197085, "lng": -71.0810367802915}}}, "icon": "https://maps.gstatic.com/mapfiles/place_api/icons/generic_business-71.png", "id": "4ca7d61bcc3142e2102d63f9d8a372ec31a04b2d", "name": "Manta Devices LLC.", "place_id": "ChIJ_f8P_7tw44kRPVtMOVB1gq8", "plus_code": {"compound_code": "9WCC+24 Cambridge, Massachusetts, United States", "global_code": "87JC9WCC+24"}, "reference": "ChIJ_f8P_7tw44kRPVtMOVB1gq8", "scope": "GOOGLE", "types": ["point_of_interest", "establishment"], "vicinity": "43 Thorndike Street, Cambridge"}, "ChIJX8wwy6Vw44kRh2xoiWSOOsU": {"geometry": {"location": {"lat": 42.3736158, "lng": -71.10973349999999}, "viewport": {"northeast": {"lat": 42.4043839, "lng": -71.06548719999999}, "southwest": {"lat": 42.3523968, "lng": -71.16033209999999}}}, "icon": "https://maps.gstatic.com/mapfiles/place_api/icons/geocode-71.png", "id": "6d2faadca7159347cc68b047055a94b00fec6032", "name": "Cambridge", "photos": [{"height": 2000, "html_attributions": ["<a href=\"https://maps.google.com/maps/contrib/115519834423791060860/photos\">Luca Raggi</a>"], "photo_reference": "CmRaAAAAdJCboZ87XGLl_g4rMMoF_4ESXB1mXPTz5mKnxO395aVW8ocYwQkMTxMUS1ha7TNXo1CzVQftqcqFG4KpgwddfWvenHCQNBJLKir5C7-e9EMC3_TSyn3tF4OGxA_z9p38EhBFeqEbsFQ15oUgjXOJUGhIGhStEjnRVMafwfkbfy5O7tRaoDlttg", "width": 3008}], "place_id": "ChIJX8wwy6Vw44kRh2xoiWSOOsU", "reference": "ChIJX8wwy6Vw44kRh2xoiWSOOsU", "scope": "GOOGLE", "types": ["locality", "political"], "vicinity": "Cambridge"}}