{"ChIJt_-Ej5p644kRJMGPz-OOh2o": {"geometry": {"location": {"lat": 42.3395312, "lng": -71.03553959999999}, "viewport": {"northeast": {"lat": 42.3408801802915, "lng": -71.0341906197085}, "southwest": {"lat": 42.3381822197085, "lng": -71.0368885802915}}}, "icon": "https://maps.gstatic.com/mapfiles/place_api/icons/geocode-71.png", "id": "c94c554fbcb73f320b8f4eb7f14684c24d7cd39c", "name": "760-716 Summer St", "place_id": "ChIJt_-Ej5p644kRJMGPz-OOh2o", "reference": "ChIJt_-Ej5p644kRJMGPz-OOh2o", "scope": "GOOGLE", "types": ["route"], "vicinity": "Boston"}, "ChIJsesvim5644kRA-uLe1g9pjA": {"geometry": {"location": {"lat": 42.3395264, "lng": -71.0361388}, "viewport": {"northeast": {"lat": 42.3410373802915, "lng": -71.03479346970849}, "southwest": {"lat": 42.3383394197085, "lng": -71.03749143029151}}}, "icon": "https://maps.gstatic.com/mapfiles/place_api/icons/generic_business-71.png", "id": "ead1947d6aece1a63bdbb0ab93befe27246b4135", "name": "Duffy Design Group", "opening_hours": {"open_now": true}, "place_id": "ChIJsesvim5644kRA-uLe1g9pjA", "plus_code": {"compound_code": "8XQ7+RG Boston, Massachusetts, United States", "global_code": "87JC8XQ7+RG"}, "rating": 1, "reference": "ChIJsesvim5644kRA-uLe1g9pjA", "scope": "GOOGLE", "types": ["general_contractor", "point_of_interest", "establishment"], "user_ratings_total": 1, "vicinity": "455 East 1st Street, Boston"}, "ChIJ73ogCJB644kRkqJj9huEhPs": {"geometry": {"location": {"lat": 42.3395366, "lng": -71.0357681}, "viewport": {"northeast": {"lat": 42.3407180802915, "lng": -71.03441521970849}, "southwest": {"lat": 42.3380201197085, "lng": -71.0371131802915}}}, "icon": "https://maps.gstatic.com/mapfiles/place_api/icons/generic_business-71.png", "id": "52a6b37f93f87527908a210b0d85a1e2af314b6e", "name": "Integra LifeSciences", "place_id": "ChIJ73ogCJB644kRkqJj9huEhPs", "plus_code": {"compound_code": "8XQ7+RM Boston, Massachusetts, United States", "global_code": "87JC8XQ7+RM"}, "reference": "ChIJ73ogCJB644kRkqJj9huEhPs", "scope": "GOOGLE", "types": ["storage", "point_of_interest", "establishment"], "vicinity": "7 Elkins Street, South Boston"}, "ChIJJ5Punpp644kRaQ9KV8K_5S0": {"geometry": {"location": {"lat": 42.339172, "lng": -71.036744}, "viewport": {"northeast": {"lat": 42.34050653029151, "lng": -71.0353946697085}, "southwest": {"lat": 42.33780856970851, "lng": -71.03809263029152}}}, "icon": "https://maps.gstatic.com/mapfiles/place_api/icons/generic_business-71.png", "id": "178832ec68ec886bb844775cdc6a588f09d11685", "name": "Getabl, Inc", "photos": [{"height": 1440, "html_attributions": ["<a href=\"https://maps.google.com/maps/contrib/116349748575658628366/photos\">Pingup</a>"], "photo_reference": "CmRaAAAAY8W9-GBW1eKEFlRZoAIfBdQh6xDfMFExhN2TCkUiRCV7R-v2HR2Bg1o4QWDraRNJ02Vh38Kxl9oi9cXo2Z1Yi_HgyPojcuwdFqtKrYA48gN1g8YdFJsh7oo1XDVifAtFEhA8e-tsGGy4H8RzRzFLXy4vGhRyGJiJKVfQK2B2op_MZWtePS0KXw", "width": 1920}], "place_id": "ChIJJ5Punpp644kRaQ9KV8K_5S0", "plus_code": {"compound_code": "8XQ7+M8 Boston, Massachusetts, United States", "global_code": "87JC8XQ7+M8"}, "rating": 3, "reference": "ChIJJ5Punpp644kRaQ9KV8K_5S0", "scope": "GOOGLE", "types": ["point_of_interest", "establishment"], "user_ratings_total": 16, "vicinity": "11 Elkins Street, Boston"}, "ChIJqVeuoJp644kRy9yunqs7JAM": {"geometry": {"location": {"lat": 42.33952649999999, "lng": -71.0361388}, "viewport": {"northeast": {"lat": 42.34071068029149, "lng": -71.0347859697085}, "southwest": {"lat": 42.33801271970849, "lng": -71.0374839302915}}}, "icon": "https://maps.gstatic.com/mapfiles/place_api/icons/shopping-71.png", "id": "2b8a154fe38afaa767230571f9326a8146891ad8", "name": "D Scale", "place_id": "ChIJqVeuoJp644kRy9yunqs7JAM", "plus_code": {"compound_code": "8XQ7+RG Boston, Massachusetts, United States", "global_code": "87JC8XQ7+RG"}, "reference": "ChIJqVeuoJp644kRy9yunqs7JAM", "scope": "GOOGLE", "types": ["furniture_store", "home_goods_store", "store", "point_of_interest", "establishment"], "vicinity": "11 Elkins Street, Boston"}, "ChIJCakVj-UE5IkRY_Tet9RhwB4": {"geometry": {"location": {"lat": 42.33952649999999, "lng": -71.0361388}, "viewport": {"northeast": {"lat": 42.34071068029149, "lng": -71.0347859697085}, "southwest": {"lat": 42.33801271970849, "lng": -71.0374839302915}}}, "icon": "https://maps.gstatic.com/mapfiles/place_api/icons/generic_business-71.png", "id": "3b53e48673233414ac275d34716ce4b64469b8a2", "name": "Weld Power Generator Inc.", "opening_hours": {"open_now": true}, "photos": [{"height": 681, "html_attributions": ["<a href=\"https://maps.google.com/maps/contrib/115374417728175264159/photos\">Weld Power Generator Inc.</a>"], "photo_reference": "CmRaAAAAZHIQ1JeattweHrbWedojD65mV_UmPhRMyxfdiw9CHQRt99MUq7rXexZJUhjtpVR-VYI9OZv5tIFTvVhKADCwoQeDLNyc9LbtJ8ShmalmAfolt51ybdvCTxYU0JHgAGHlEhAmxJJ5NGD9ntSxkOzb4d6KGhTNZXFrSPk1ZKqG0Ysq7G4EpO9CpA", "width": 1024}], "place_id": "ChIJCakVj-UE5IkRY_Tet9RhwB4", "plus_code": {"compound_code": "8XQ7+RG Boston, Massachusetts, United States", "global_code": "87JC8XQ7+RG"}, "reference": "ChIJCakVj-UE5IkRY_Tet9RhwB4", "scope": "GOOGLE", "types": ["point_of_interest", "establishment"], "vicinity": "11 Elkins Street #210, Boston"}, "ChIJlZsYoJp644kRh7Ws3RByjVU": {"geometry": {"location": {"lat": 42.3394161, "lng": -71.0364955}, "viewport": {"northeast": {"lat": 42.3406531802915, "lng": -71.03514391970849}, "southwest": {"lat": 42.3379552197085, "lng": -71.03784188029151}}}, "icon": "https://maps.gstatic.com/mapfiles/place_api/icons/generic_business-71.png", "id": "f247351613edaa613b4c3eebc68fc91c2132ca4f", "name": "Veolia Energy", "place_id": "ChIJlZsYoJp644kRh7Ws3RByjVU", "plus_code": {"compound_code": "8XQ7+QC Boston, Massachusetts, United States", "global_code": "87JC8XQ7+QC"}, "rating": 3, "reference": "ChIJlZsYoJp644kRh7Ws3RByjVU", "scope": "GOOGLE", "types": ["point_of_interest", "establishment"], "user_ratings_total": 1, "vicinity": "15 Elkins Street # 2, Boston"}, "ChIJFy4omJp644kRaSgQ81qXeS0": {"geometry": {"location": {"lat": 42.339652, "lng": -71.036256}, "viewport": {"northeast": {"lat": 42.3410994802915, "lng": -71.03490926970849}, "southwest": {"lat": 42.3384015197085, "lng": -71.03760723029151}}}, "icon": "https://maps.gstatic.com/mapfiles/place_api/icons/generic_business-71.png", "id": "fb028d729aeaa3285c26dfc421defd156b551aee", "name": "Eastern Sling and Supply", "opening_hours": {"open_now": true}, "place_id": "ChIJFy4omJp644kRaSgQ81qXeS0", "plus_code": {"compound_code": "8XQ7+VF Boston, Massachusetts, United States", "global_code": "87JC8XQ7+VF"}, "rating": 4.7, "reference": "ChIJFy4omJp644kRaSgQ81qXeS0", "scope": "GOOGLE", "types": ["point_of_interest", "establishment"], "user_ratings_total": 3, "vicinity": "17 Power House Street, Boston"}, "ChIJfQMY8pp644kRIwXeOABa2xc": {"geometry": {"location": {"lat": 42.33952649999999, "lng": -71.0361388}, "viewport": {"northeast": {"lat": 42.34071068029149, "lng": -71.0347859697085}, "southwest": {"lat": 42.33801271970849, "lng": -71.0374839302915}}}, "icon": "https://maps.gstatic.com/mapfiles/place_api/icons/generic_business-71.png", "id": "0517a90e343c96b9e98d7808f728cd564a709523", "name": "Kate Coughlin Interiors", "photos": [{"height": 548, "html_attributions": ["<a href=\"https://maps.google.com/maps/contrib/106348908220259876059/photos\">Kate Coughlin Interiors</a>"], "photo_reference": "CmRaAAAApVbmlnvbwcsptshLD463IPp0_lOnIleA14DoLhk9LsmYAPpxNuYJVt4DlIVe-2PeWBhEp7Txx0X5RIbNCOX_BK8U4OXnQPenus3egX60ZdEwviBkvblvRer1L7BAHvqhEhAXeltlMWt2C0k5nlEqYGQqGhSIzPtJ7FRQGFw1mJ6dXzi0FaSCIQ", "width": 528}], "place_id": "ChIJfQMY8pp644kRIwXeOABa2xc", "plus_code": {"compound_code": "8XQ7+RG Boston, Massachusetts, United States", "global_code": "87JC8XQ7+RG"}, "reference": "ChIJfQMY8pp644kRIwXeOABa2xc", "scope": "GOOGLE", "types": ["general_contractor", "point_of_interest", "establishment"], "vicinity": "11 Elkins Street, Boston"}, "ChIJN7WbmYN644kRMb8cVJv8YYk": {"geometry": {"location": {"lat": 42.33952649999999, "lng": -71.0361388}, "viewport": {"northeast": {"lat": 42.34071068029149, "lng": -71.0347859697085}, "southwest": {"lat": 42.33801271970849, "lng": -71.0374839302915}}}, "icon": "https://maps.gstatic.com/mapfiles/place_api/icons/civic_building-71.png", "id": "db923d088826b9f2b02a373929716f4d34e71cdf", "name": "Boston Army Recruiting Company HQ", "place_id": "ChIJN7WbmYN644kRMb8cVJv8YYk", "plus_code": {"compound_code": "8XQ7+RG Boston, Massachusetts, United States", "global_code": "87JC8XQ7+RG"}, "rating": 2, "reference": "ChIJN7WbmYN644kRMb8cVJv8YYk", "scope": "GOOGLE", "types": ["point_of_interest", "establishment"], "user_ratings_total": 1, "vicinity": "11 Elkins Street #220, Boston"}, "ChIJqVeuoJp644kRK5i5uGH1jbQ": {"geometry": {"location": {"lat": 42.33952649999999, "lng": -71.0361388}, "viewport": {"northeast": {"lat": 42.34071068029149, "lng": -71.0347859697085}, "southwest": {"lat": 42.33801271970849, "lng": -71.0374839302915}}}, "icon": "https://maps.gstatic.com/mapfiles/place_api/icons/civic_building-71.png", "id": "e436d6da2f3868cd37360cccc02ed363dfc6fdf5", "name": "Boston Common Partners LLC", "place_id": "ChIJqVeuoJp644kRK5i5uGH1jbQ", "plus_code": {"compound_code": "8XQ7+RG Boston, Massachusetts, United States", "global_code": "87JC8XQ7+RG"}, "reference": "ChIJqVeuoJp644kRK5i5uGH1jbQ", "scope": "GOOGLE", "types": ["point_of_interest", "establishment"], "vicinity": "11 Elkins Street, Boston"}, "ChIJy4euoJp644kR2NP3KK33Elk": {"geometry": {"location": {"lat": 42.33925910000001, "lng": -71.0363252}, "viewport": {"northeast": {"lat": 42.3405757302915, "lng": -71.03497546970848}, "southwest": {"lat": 42.3378777697085, "lng": -71.03767343029149}}}, "icon": "https://maps.gstatic.com/mapfiles/place_api/icons/cafe-71.png", "id": "30d536c4a8f758d8a0a2571151fd7fb2de465ebb", "name": "Rick's 11a Cafe", "opening_hours": {"open_now": true}, "photos": [{"height": 3036, "html_attributions": ["<a href=\"https://maps.google.com/maps/contrib/116918794099825270152/photos\">Joseph McLauchlan</a>"], "photo_reference": "CmRaAAAANrndqOAv_YhVYcj7xbt6tksSpAZ_gWyIlVai67sKGL2RHkRvWi-8BOAFCdOdoehk8u_kR5Akopt4B6RisXKvoCgTAErm3PZNfQSNrfZiutIW_PzKxrqovVyHGzTmmkwuEhDWf4mU1Zmo7a5Zmd2FV8hMGhSxpEfh9kQfg5v8rUEznAkBKbEpOQ", "width": 4048}], "place_id": "ChIJy4euoJp644kR2NP3KK33Elk", "plus_code": {"compound_code": "8XQ7+PF Boston, Massachusetts, United States", "global_code": "87JC8XQ7+PF"}, "rating": 4.7, "reference": "ChIJy4euoJp644kR2NP3KK33Elk", "scope": "GOOGLE", "types": ["cafe", "point_of_interest", "food", "establishment"], "user_ratings_total": 28, "vicinity": "11 Elkins Street, Boston"}, "ChIJiWm07Zp644kRWdeUczbqT_Q": {"geometry": {"location": {"lat": 42.33996, "lng": -71.03585199999999}, "viewport": {"northeast": {"lat": 42.3413099302915, "lng": -71.0343564197085}, "southwest": {"lat": 42.3386119697085, "lng": -71.03705438029151}}}, "icon": "https://maps.gstatic.com/mapfiles/place_api/icons/generic_business-71.png", "id": "12c26d167fb598e3c225ce970c1e37e8378d0561", "name": "Boston HelpDesk", "opening_hours": {"open_now": true}, "place_id": "ChIJiWm07Zp644kRWdeUczbqT_Q", "plus_code": {"compound_code": "8XQ7+XM Boston, Massachusetts, United States", "global_code": "87JC8XQ7+XM"}, "rating": 5, "reference": "ChIJiWm07Zp644kRWdeUczbqT_Q", "scope": "GOOGLE", "types": ["point_of_interest", "establishment"], "user_ratings_total": 1, "vicinity": "1st Floor, 803 Summer Street, Boston"}, "ChIJqVeuoJp644kRpT4iunjn2sc": {"geometry": {"location": {"lat": 42.339172, "lng": -71.036744}, "viewport": {"northeast": {"lat": 42.34050653029151, "lng": -71.0353946697085}, "southwest": {"lat": 42.33780856970851, "lng": -71.03809263029152}}}, "icon": "https://maps.gstatic.com/mapfiles/place_api/icons/generic_business-71.png", "id": "fb61fa947fe633c8d5733c7b7bc5a526337d0336", "name": "Elizabeth Swartz Interiors", "photos": [{"height": 789, "html_attributions": ["<a href=\"https://maps.google.com/maps/contrib/107559676902717585173/photos\">Elizabeth Swartz Interiors</a>"], "photo_reference": "CmRaAAAAlhSNTlWpx3FdcxOZYHoBM_64kOGTw1PZWPGRKEnYLKDptQBWQ8_EG96wWt9PkIpxlMSELb0rxsAotRsPApOG74HrIDY30GHCqVGqbQE7swpvgmCj210l_xKs6jTCDOebEhA_r1x46fzUPqGDK-9kcf52GhRoOMOiL03xWQyp8xGvNfgBTY0z_g", "width": 1188}], "place_id": "ChIJqVeuoJp644kRpT4iunjn2sc", "plus_code": {"compound_code": "8XQ7+M8 Boston, Massachusetts, United States", "global_code": "87JC8XQ7+M8"}, "rating": 5, "reference": "ChIJqVeuoJp644kRpT4iunjn2sc", "scope": "GOOGLE", "types": ["general_contractor", "point_of_interest", "establishment"], "user_ratings_total": 1, "vicinity": "11 Elkins Street #440, Boston"}, "ChIJVVWVmZp644kRmyfXX917dZI": {"geometry": {"location": {"lat": 42.33955769999999, "lng": -71.0361265}, "viewport": {"northeast": {"lat": 42.3407263802915, "lng": -71.03477331970849}, "southwest": {"lat": 42.3380284197085, "lng": -71.0374712802915}}}, "icon": "https://maps.gstatic.com/mapfiles/place_api/icons/generic_business-71.png", "id": "fea1c6d144528cd428c4d9b2ac41a46ece02fbbf", "name": "PowerHydrant", "place_id": "ChIJVVWVmZp644kRmyfXX917dZI", "plus_code": {"compound_code": "8XQ7+RG Boston, Massachusetts, United States", "global_code": "87JC8XQ7+RG"}, "reference": "ChIJVVWVmZp644kRmyfXX917dZI", "scope": "GOOGLE", "types": ["point_of_interest", "establishment"], "vicinity": "11 Elkins Street, Boston"}, "ChIJG9SMCZB644kRlfzTccznfR0": {"geometry": {"location": {"lat": 42.3391062, "lng": -71.0368103}, "viewport": {"northeast": {"lat": 42.3404961802915, "lng": -71.03546226970849}, "southwest": {"lat": 42.3377982197085, "lng": -71.03816023029151}}}, "icon": "https://maps.gstatic.com/mapfiles/place_api/icons/generic_business-71.png", "id": "fa9f6006d7cdad30819dc2c6dac8192a42d69dbc", "name": "Eagle Elevator Co Inc", "place_id": "ChIJG9SMCZB644kRlfzTccznfR0", "plus_code": {"compound_code": "8XQ7+J7 Boston, Massachusetts, United States", "global_code": "87JC8XQ7+J7"}, "reference": "ChIJG9SMCZB644kRlfzTccznfR0", "scope": "GOOGLE", "types": ["general_contractor", "point_of_interest", "establishment"], "vicinity": "22 Elkins Street, Boston"}, "ChIJEW3wCZB644kR_4qn03edFcA": {"geometry": {"location": {"lat": 42.3391062, "lng": -71.0368103}, "viewport": {"northeast": {"lat": 42.3404961802915, "lng": -71.03546226970849}, "southwest": {"lat": 42.3377982197085, "lng": -71.03816023029151}}}, "icon": "https://maps.gstatic.com/mapfiles/place_api/icons/generic_business-71.png", "id": "3868dd03a5aae82ca8711be631d01bb44af7786b", "name": "Klausen Gestby Co", "place_id": "ChIJEW3wCZB644kR_4qn03edFcA", "plus_code": {"compound_code": "8XQ7+J7 Boston, Massachusetts, United States", "global_code": "87JC8XQ7+J7"}, "reference": "ChIJEW3wCZB644kR_4qn03edFcA", "scope": "GOOGLE", "types": ["point_of_interest", "establishment"], "vicinity": "22 Elkins Street # 1, South Boston"}, "ChIJST19H5B644kR1Ma1UCmB9Go": {"geometry": {"location": {"lat": 42.3390974, "lng": -71.0368038}, "viewport": {"northeast": {"lat": 42.3399571802915, "lng": -71.0354456197085}, "southwest": {"lat": 42.3372592197085, "lng": -71.0381435802915}}}, "icon": "https://maps.gstatic.com/mapfiles/place_api/icons/generic_business-71.png", "id": "92d0bfe3843b6422b7db68852c0f76e62661056a", "name": "King Terminal Studios", "place_id": "ChIJST19H5B644kR1Ma1UCmB9Go", "plus_code": {"compound_code": "8XQ7+J7 Boston, Massachusetts, United States", "global_code": "87JC8XQ7+J7"}, "reference": "ChIJST19H5B644kR1Ma1UCmB9Go", "scope": "GOOGLE", "types": ["point_of_interest", "establishment"], "vicinity": "570 East 1st Street #2, Boston"}, "ChIJJ8QUmZp644kR2Osz7i4oFX0": {"geometry": {"location": {"lat": 42.339527, "lng": -71.03613899999999}, "viewport": {"northeast": {"lat": 42.3407109302915, "lng": -71.0347861697085}, "southwest": {"lat": 42.33801296970851, "lng": -71.0374841302915}}}, "icon": "https://maps.gstatic.com/mapfiles/place_api/icons/generic_business-71.png", "id": "f2158916e32eff0197de12d2aca37a67d27d81a5", "name": "78th Element Salon", "opening_hours": {"open_now": false}, "photos": [{"height": 3024, "html_attributions": ["<a href=\"https://maps.google.com/maps/contrib/106652901712247782221/photos\">Matt Gross</a>"], "photo_reference": "CmRaAAAAZtQDhaQWdqc5Q3pfrjp8uYQWN5j8p618Kdbq7OfZchW7mXP8_WF-kR9kArQ8vFCDLZHzO7HCgPoKCu4CtsFo51XB0aGJ25mSb5hR4HJHOS_Up8gT8GsKxMYOBvtP22NXEhACtjX7a94BRT5y5hOcqDhPGhQJdsPMcuulETDwdTSJbJreibf5Cg", "width": 4032}], "place_id": "ChIJJ8QUmZp644kR2Osz7i4oFX0", "plus_code": {"compound_code": "8XQ7+RG Boston, Massachusetts, United States", "global_code": "87JC8XQ7+RG"}, "rating": 4.5, "reference": "ChIJJ8QUmZp644kR2Osz7i4oFX0", "scope": "GOOGLE", "types": ["hair_care", "point_of_interest", "establishment"], "user_ratings_total": 2, "vicinity": "11 Elkins Street, Boston"}, "ChIJGzE9DS1l44kRoOhiASS_fHg": {"geometry": {"location": {"lat": 42.3600825, "lng": -71.0588801}, "viewport": {"northeast": {"lat": 42.40081989999999, "lng": -70.749455}, "southwest": {"lat": 42.22788, "lng": -71.191113}}}, "icon": "https://maps.gstatic.com/mapfiles/place_api/icons/geocode-71.png", "id": "06755c25d2b34d13942a4713971756a55b870ced", "name": "Boston", "photos": [{"height": 3024, "html_attributions": ["<a href=\"https://maps.google.com/maps/contrib/104670289779338733432/photos\">Natalia Zalucean</a>"], "photo_reference": "CmRaAAAA65qlHcTMH0bR6qTm3vTjduwg8k4tx6row-hvzYHQBzh-v4qbi2XsT9C2kjuxXEdlrvarbyb7wk_bPzwVGOBNe4YJjTDmrh2jHNmdAMsShFOhDmWc_0hdmgiO0GhWff96EhCmexJOy91SbDN43JHLTADrGhRCLd3O_06dcMYY4_BqyRaL_V2ECw", "width": 4032}], "place_id": "ChIJGzE9DS1l44kRoOhiASS_fHg", "reference": "ChIJGzE9DS1l44kRoOhiASS_fHg", "scope": "GOOGLE", "types": ["locality", "political"], "vicinity": "Boston"}, "ChIJZbILDpB644kRoeLygUghEt4": {"geometry": {"location": {"lat": 42.33952649999999, "lng": -71.0361388}, "viewport": {"northeast": {"lat": 42.34071068029149, "lng": -71.0347859697085}, "southwest": {"lat": 42.33801271970849, "lng": -71.0374839302915}}}, "icon": "https://maps.gstatic.com/mapfiles/place_api/icons/generic_business-71.png", "id": "5b7bf507c746e3203ccc1d87aadfb8190bbfd77e", "name": "Elkwood Advertising", "opening_hours": {"open_now": true}, "place_id": "ChIJZbILDpB644kRoeLygUghEt4", "plus_code": {"compound_code": "8XQ7+RG Boston, Massachusetts, United States", "global_code": "87JC8XQ7+RG"}, "reference": "ChIJZbILDpB644kRoeLygUghEt4", "scope": "GOOGLE", "types": ["point_of_interest", "establishment"], "vicinity": "11 Elkins Street, Boston"}, "ChIJqzAQU-p744kRPlzks0Xkcto": {"geometry": {"location": {"lat": 42.33955769999999, "lng": -71.0361265}, "viewport": {"northeast": {"lat": 42.3407263802915, "lng": -71.03477331970849}, "southwest": {"lat": 42.3380284197085, "lng": -71.0374712802915}}}, "icon": "https://maps.gstatic.com/mapfiles/place_api/icons/generic_business-71.png", "id": "085bc7a25e1590fda28f497b5b1ee39bd6ecfde2", "name": "Peri Formwork Systems Inc.", "photos": [{"height": 3840, "html_attributions": ["<a href=\"https://maps.google.com/maps/contrib/108209670371743214876/photos\">Peri Formwork Systems Inc.</a>"], "photo_reference": "CmRaAAAALOn4OBt7FndQ42BkHKBxZCifXK1_0p1GJTI3QYiuCn774RM5TPeP45nEhJaHq6i6TCcJ18sbKZIl45caYbyHHMUfGJakHYcAhq3QWGS8ZD2WufSMkAsOy4b0uXqdAIsAEhCJB7YyEUBu1IdQJ2fVZkv6GhQD-EATIrdnb5pytbkSvzGn2QzUuw", "width": 3839}], "place_id": "ChIJqzAQU-p744kRPlzks0Xkcto", "plus_code": {"compound_code": "8XQ7+RG Boston, Massachusetts, United States", "global_code": "87JC8XQ7+RG"}, "reference": "ChIJqzAQU-p744kRPlzks0Xkcto", "scope": "GOOGLE", "types": ["general_contractor", "point_of_interest", "establishment"], "vicinity": "11 Elkins Street, South Boston"}, "ChIJzdwqJ19744kRhLKBcsMPct8": {"geometry": {"location": {"lat": 42.33955769999999, "lng": -71.0361265}, "viewport": {"northeast": {"lat": 42.3407263802915, "lng": -71.03477331970849}, "southwest": {"lat": 42.3380284197085, "lng": -71.0374712802915}}}, "icon": "https://maps.gstatic.com/mapfiles/place_api/icons/civic_building-71.png", "id": "34737722a7a2f97bd5eb48238f2279f657fdec00", "name": "US Army Boston Metro CO HQ", "opening_hours": {"open_now": true}, "place_id": "ChIJzdwqJ19744kRhLKBcsMPct8", "plus_code": {"compound_code": "8XQ7+RG Boston, Massachusetts, United States", "global_code": "87JC8XQ7+RG"}, "reference": "ChIJzdwqJ19744kRhLKBcsMPct8", "scope": "GOOGLE", "types": ["point_of_interest", "establishment"], "vicinity": "King Terminal, 11 Elkins Street #220, Boston"}, "ChIJEf0lZoV744kRROzaBhzulEY": {"geometry": {"location": {"lat": 42.33955769999999, "lng": -71.0361265}, "viewport": {"northeast": {"lat": 42.3407263802915, "lng": -71.03477331970849}, "southwest": {"lat": 42.3380284197085, "lng": -71.0374712802915}}}, "icon": "https://maps.gstatic.com/mapfiles/place_api/icons/generic_business-71.png", "id": "10b5b9a58b75ee794202858b3966ce91422c6a10", "name": "Highrise Consolidated Services", "place_id": "ChIJEf0lZoV744kRROzaBhzulEY", "plus_code": {"compound_code": "8XQ7+RG Boston, Massachusetts, United States", "global_code": "87JC8XQ7+RG"}, "reference": "ChIJEf0lZoV744kRROzaBhzulEY", "scope": "GOOGLE", "types": ["point_of_interest", "establishment"], "vicinity": "11 Elkins Street, Boston"}, "ChIJZVDtlpp644kRpWJ5eSnizKU": {"geometry": {"location": {"lat": 42.33980560000001, "lng": -71.0362533}, "viewport": {"northeast": {"lat": 42.3411665802915, "lng": -71.0349046197085}, "southwest": {"lat": 42.3384686197085, "lng": -71.0376025802915}}}, "icon": "https://maps.gstatic.com/mapfiles/place_api/icons/generic_business-71.png", "id": "f336e94f260a8d88a8ce4cc17d1224af31102a40", "name": "Sling Tech", "place_id": "ChIJZVDtlpp644kRpWJ5eSnizKU", "plus_code": {"compound_code": "8XQ7+WF Boston, Massachusetts, United States", "global_code": "87JC8XQ7+WF"}, "reference": "ChIJZVDtlpp644kRpWJ5eSnizKU", "scope": "GOOGLE", "types": ["point_of_interest", "establishment"], "vicinity": "17 Power House Street, South Boston"}, "ChIJr1Htlpp644kR_m4ZmAHLYws": {"geometry": {"location": {"lat": 42.33980560000001, "lng": -71.0362533}, "viewport": {"northeast": {"lat": 42.3411665802915, "lng": -71.0349046197085}, "southwest": {"lat": 42.3384686197085, "lng": -71.0376025802915}}}, "icon": "https://maps.gstatic.com/mapfiles/place_api/icons/generic_business-71.png", "id": "80d71aa250e54d61ddb85bd73ddb548c0043f0d3", "name": "John Coletti Photography King", "place_id": "ChIJr1Htlpp644kR_m4ZmAHLYws", "plus_code": {"compound_code": "8XQ7+WF Boston, Massachusetts, United States", "global_code": "87JC8XQ7+WF"}, "reference": "ChIJr1Htlpp644kR_m4ZmAHLYws", "scope": "GOOGLE", "types": ["point_of_interest", "establishment"], "vicinity": "17 Power House Street, South Boston"}}