{"ChIJZ5_mxwp644kRaKih_DkcjGc": {"geometry": {"location": {"lat": 42.3538281, "lng": -71.0743188}, "viewport": {"northeast": {"lat": 42.3551770802915, "lng": -71.07296981970849}, "southwest": {"lat": 42.3524791197085, "lng": -71.07566778029151}}}, "icon": "https://maps.gstatic.com/mapfiles/place_api/icons/geocode-71.png", "id": "30b8af634ae1d1aa95f1591acccfab0c29b868ca", "name": "287-299 Berkeley St", "place_id": "ChIJZ5_mxwp644kRaKih_DkcjGc", "reference": "ChIJZ5_mxwp644kRaKih_DkcjGc", "scope": "GOOGLE", "types": ["route"], "vicinity": "Boston"}, "ChIJ7ffMyQp644kRfOrvMl5tBtU": {"geometry": {"location": {"lat": 42.353899, "lng": -71.0739509}, "viewport": {"northeast": {"lat": 42.3551998302915, "lng": -71.07277956970849}, "southwest": {"lat": 42.3525018697085, "lng": -71.0754775302915}}}, "icon": "https://maps.gstatic.com/mapfiles/place_api/icons/worship_general-71.png", "id": "34d69987e27ff807a9623adbb7d7977895985193", "name": "First Lutheran Church", "photos": [{"height": 3024, "html_attributions": ["<a href=\"https://maps.google.com/maps/contrib/106480533064971424838/photos\">Elisha Doerr</a>"], "photo_reference": "CmRaAAAAz4chX0F5MNIozZE3Q4RagDd7bQT43sHvqh-ShM6VNT71EaWwVNGjtDYhBl1X7I153SUOFYIMeD_vEyePdobbwqzB6hqEtdFs4DOH66DfPRd1UOMokpIb8eBXCnAcF5uWEhALHFSXMmTXf-ItuTWQiV0PGhSekyNSeRa8H0lNiHHrb4zipGJkiw", "width": 4032}], "place_id": "ChIJ7ffMyQp644kRfOrvMl5tBtU", "plus_code": {"compound_code": "9W3G+HC Boston, Massachusetts, United States", "global_code": "87JC9W3G+HC"}, "rating": 4.8, "reference": "ChIJ7ffMyQp644kRfOrvMl5tBtU", "scope": "GOOGLE", "types": ["church", "place_of_worship", "point_of_interest", "establishment"], "user_ratings_total": 5, "vicinity": "299 Berkeley Street, Boston"}, "ChIJNdpQS3V644kRe0z0iN1j_0s": {"geometry": {"location": {"lat": 42.354032, "lng": -71.0735194}, "viewport": {"northeast": {"lat": 42.35548328029149, "lng": -71.0722207697085}, "southwest": {"lat": 42.3527853197085, "lng": -71.0749187302915}}}, "icon": "https://maps.gstatic.com/mapfiles/place_api/icons/generic_business-71.png", "id": "4624dc9faf1c107c445ac6dfe88a15f6a4cf5e1d", "name": "Dental Arts of Boston", "opening_hours": {"open_now": true}, "photos": [{"height": 368, "html_attributions": ["<a href=\"https://maps.google.com/maps/contrib/107643912073348102779/photos\">Dental Arts of Boston</a>"], "photo_reference": "CmRaAAAAUmZ3ONNTxF-x54lfisyiALLo9Xe2nv5hz0jwHHV8wRLNIpbQb3RwXnRBUyBz8KFJrRISqDb5Tsn22F8rdMbsCbTBFSa3jDhMRW-z3fKnmzLn-rn_IQXbKkeJeh9XjHTuEhDnTbzXW7mx2e23o8L7iVBcGhQR-mNih8uA9BdM8Atg4xzGCsSaJg", "width": 500}], "place_id": "ChIJNdpQS3V644kRe0z0iN1j_0s", "plus_code": {"compound_code": "9W3G+JH Boston, Massachusetts, United States", "global_code": "87JC9W3G+JH"}, "rating": 5, "reference": "ChIJNdpQS3V644kRe0z0iN1j_0s", "scope": "GOOGLE", "types": ["dentist", "health", "point_of_interest", "establishment"], "user_ratings_total": 91, "vicinity": "26 Marlborough Street, Boston"}, "ChIJ3544S3V644kRoAAHnXfcO3w": {"geometry": {"location": {"lat": 42.354018, "lng": -71.073511}, "viewport": {"northeast": {"lat": 42.35547648029149, "lng": -71.07221586970849}, "southwest": {"lat": 42.3527785197085, "lng": -71.07491383029151}}}, "icon": "https://maps.gstatic.com/mapfiles/place_api/icons/generic_business-71.png", "id": "a238da0fd1e297d411ec4dfc87c2ea9ef6ab970e", "name": "Dental Arts of Boston", "opening_hours": {"open_now": true}, "place_id": "ChIJ3544S3V644kRoAAHnXfcO3w", "plus_code": {"compound_code": "9W3G+JH Boston, Massachusetts, United States", "global_code": "87JC9W3G+JH"}, "rating": 3, "reference": "ChIJ3544S3V644kRoAAHnXfcO3w", "scope": "GOOGLE", "types": ["dentist", "health", "point_of_interest", "establishment"], "user_ratings_total": 2, "vicinity": "26 Marlborough Street, Boston"}, "ChIJjZpZywp644kR4Y0su0biVwk": {"geometry": {"location": {"lat": 42.3536136, "lng": -71.0734083}, "viewport": {"northeast": {"lat": 42.3548532302915, "lng": -71.07200531970848}, "southwest": {"lat": 42.3521552697085, "lng": -71.0747032802915}}}, "icon": "https://maps.gstatic.com/mapfiles/place_api/icons/generic_business-71.png", "id": "c7ade3453690cbbb03d3bb58ba614528651aab88", "name": "United States Adjusters, Inc. - Public Insurance Adjusters", "place_id": "ChIJjZpZywp644kR4Y0su0biVwk", "plus_code": {"compound_code": "9W3G+CJ Boston, Massachusetts, United States", "global_code": "87JC9W3G+CJ"}, "rating": 3, "reference": "ChIJjZpZywp644kR4Y0su0biVwk", "scope": "GOOGLE", "types": ["point_of_interest", "establishment"], "user_ratings_total": 2, "vicinity": "23 Commonwealth Avenue, Boston"}, "ChIJkUBfsQp644kRAYFaFrblXhI": {"geometry": {"location": {"lat": 42.3541696, "lng": -71.0739246}, "viewport": {"northeast": {"lat": 42.3555350802915, "lng": -71.0725837697085}, "southwest": {"lat": 42.3528371197085, "lng": -71.07528173029151}}}, "icon": "https://maps.gstatic.com/mapfiles/place_api/icons/shopping-71.png", "id": "a093e91c77a8b07e2b09261ff640649e9ef8d1f9", "name": "Pourer Fedora", "place_id": "ChIJkUBfsQp644kRAYFaFrblXhI", "plus_code": {"compound_code": "9W3G+MC Boston, Massachusetts, United States", "global_code": "87JC9W3G+MC"}, "reference": "ChIJkUBfsQp644kRAYFaFrblXhI", "scope": "GOOGLE", "types": ["liquor_store", "store", "point_of_interest", "establishment"], "vicinity": "35 Marlborough Street #7, Boston"}, "ChIJ7Zpysgp644kRAP94EPbT2fA": {"geometry": {"location": {"lat": 42.3543537, "lng": -71.0738179}, "viewport": {"northeast": {"lat": 42.35562753029149, "lng": -71.07243191970849}, "southwest": {"lat": 42.35292956970849, "lng": -71.0751298802915}}}, "icon": "https://maps.gstatic.com/mapfiles/place_api/icons/generic_business-71.png", "id": "91329032fd93c8b7be022ae06f5577aab99e72d5", "name": "31 Marlborough Street Apartments", "place_id": "ChIJ7Zpysgp644kRAP94EPbT2fA", "plus_code": {"compound_code": "9W3G+PF Boston, Massachusetts, United States", "global_code": "87JC9W3G+PF"}, "reference": "ChIJ7Zpysgp644kRAP94EPbT2fA", "scope": "GOOGLE", "types": ["point_of_interest", "establishment"], "vicinity": "31 Marlborough Street, Boston"}, "ChIJAQBwtgp644kRnVgFK0JYKjo": {"geometry": {"location": {"lat": 42.353793, "lng": -71.07409299999999}, "viewport": {"northeast": {"lat": 42.35511708029149, "lng": -71.0728358697085}, "southwest": {"lat": 42.35241911970849, "lng": -71.0755338302915}}}, "icon": "https://maps.gstatic.com/mapfiles/place_api/icons/generic_business-71.png", "id": "cda0b8827fa41442dc811c45b78e511adbda3a75", "name": "boston campus connections", "place_id": "ChIJAQBwtgp644kRnVgFK0JYKjo", "plus_code": {"compound_code": "9W3G+G9 Boston, Massachusetts, United States", "global_code": "87JC9W3G+G9"}, "reference": "ChIJAQBwtgp644kRnVgFK0JYKjo", "scope": "GOOGLE", "types": ["point_of_interest", "establishment"], "vicinity": "299 Berkeley Street, Boston"}, "ChIJGzE9DS1l44kRoOhiASS_fHg": {"geometry": {"location": {"lat": 42.3600825, "lng": -71.0588801}, "viewport": {"northeast": {"lat": 42.40081989999999, "lng": -70.749455}, "southwest": {"lat": 42.22788, "lng": -71.191113}}}, "icon": "https://maps.gstatic.com/mapfiles/place_api/icons/geocode-71.png", "id": "06755c25d2b34d13942a4713971756a55b870ced", "name": "Boston", "photos": [{"height": 3024, "html_attributions": ["<a href=\"https://maps.google.com/maps/contrib/104670289779338733432/photos\">Natalia Zalucean</a>"], "photo_reference": "CmRaAAAAXXatvhfAxg8xP61Ms4x3xztJxjApJTNvTCi3SF3Nn69fqspP-jHLpBco36KKKboaaDJdZltziKZSVQYjJ9mX4_0zvDaikbHd7W1n0tlBjZQiN1rS_3SbeWv3vACFHAqEEhDT1rXagAmZyfIIA-s_tAYCGhS2MCwNCMkV55zeIj0Ib8DjFwWIDw", "width": 4032}], "place_id": "ChIJGzE9DS1l44kRoOhiASS_fHg", "reference": "ChIJGzE9DS1l44kRoOhiASS_fHg", "scope": "GOOGLE", "types": ["locality", "political"], "vicinity": "Boston"}}