{"ChIJR0F78LN544kRObvD9fOlQ84": {"geometry": {"location": {"lat": 42.3419676, "lng": -71.13970760000001}, "viewport": {"northeast": {"lat": 42.3433165302915, "lng": -71.13835861970848}, "southwest": {"lat": 42.3406185697085, "lng": -71.14105658029149}}}, "icon": "https://maps.gstatic.com/mapfiles/place_api/icons/geocode-71.png", "id": "c07d488ddb20ab93c2743b8c1cb75206576d2160", "name": "821-825 Washington St", "place_id": "ChIJR0F78LN544kRObvD9fOlQ84", "reference": "ChIJR0F78LN544kRObvD9fOlQ84", "scope": "GOOGLE", "types": ["route"], "vicinity": "Brookline"}, "ChIJZSG59LN544kRbM60cjv4kE0": {"geometry": {"location": {"lat": 42.3423195, "lng": -71.14033069999999}, "viewport": {"northeast": {"lat": 42.34366373029149, "lng": -71.13898681970849}, "southwest": {"lat": 42.3409657697085, "lng": -71.1416847802915}}}, "icon": "https://maps.gstatic.com/mapfiles/place_api/icons/school-71.png", "id": "3aa9c8d1bad1092e2634c290aa4670f21aeacc97", "name": "Harriet A Baldwin School", "place_id": "ChIJZSG59LN544kRbM60cjv4kE0", "plus_code": {"compound_code": "8VR5+WV Boston, Massachusetts, United States", "global_code": "87JC8VR5+WV"}, "reference": "ChIJZSG59LN544kRbM60cjv4kE0", "scope": "GOOGLE", "types": ["school", "point_of_interest", "establishment"], "vicinity": "Boston"}, "ChIJi3KJkrN544kRrY8Zc5YzJAg": {"geometry": {"location": {"lat": 42.3420888, "lng": -71.1404419}, "viewport": {"northeast": {"lat": 42.3435131302915, "lng": -71.1391999697085}, "southwest": {"lat": 42.3408151697085, "lng": -71.1418979302915}}}, "icon": "https://maps.gstatic.com/mapfiles/place_api/icons/school-71.png", "id": "320f69ac71f4d80b4a8388d88151fc57433dd8ff", "name": "Baldwin Early Learning Center", "place_id": "ChIJi3KJkrN544kRrY8Zc5YzJAg", "plus_code": {"compound_code": "8VR5+RR Boston, Massachusetts, United States", "global_code": "87JC8VR5+RR"}, "rating": 5, "reference": "ChIJi3KJkrN544kRrY8Zc5YzJAg", "scope": "GOOGLE", "types": ["point_of_interest", "school", "establishment"], "user_ratings_total": 3, "vicinity": "121 Corey Road, Brighton"}, "ChIJRQ9hBbR544kRThhuFmtbKSg": {"geometry": {"location": {"lat": 42.34247610000001, "lng": -71.1393968}, "viewport": {"northeast": {"lat": 42.3437869302915, "lng": -71.1381118697085}, "southwest": {"lat": 42.34108896970851, "lng": -71.1408098302915}}}, "icon": "https://maps.gstatic.com/mapfiles/place_api/icons/generic_business-71.png", "id": "643ac75f4c2353b8a532c633ebe1e555c60e4763", "name": "IMS 2000 Building Maintenance", "opening_hours": {"open_now": true}, "place_id": "ChIJRQ9hBbR544kRThhuFmtbKSg", "plus_code": {"compound_code": "8VR6+X6 Brookline, Massachusetts, United States", "global_code": "87JC8VR6+X6"}, "reference": "ChIJRQ9hBbR544kRThhuFmtbKSg", "scope": "GOOGLE", "types": ["general_contractor", "point_of_interest", "establishment"], "vicinity": "45 Bartlett Crescent, Brookline"}, "ChIJkxUqrcB544kRn6lojIWj6q0": {"geometry": {"location": {"lat": 42.3424761, "lng": -71.13939669999999}, "viewport": {"northeast": {"lat": 42.34378693029149, "lng": -71.1381118197085}, "southwest": {"lat": 42.3410889697085, "lng": -71.1408097802915}}}, "icon": "https://maps.gstatic.com/mapfiles/place_api/icons/generic_business-71.png", "id": "9bddbd501b73aa8f1461d71f08ee255127333ed5", "name": "BLER Travel", "opening_hours": {"open_now": true}, "photos": [{"height": 1944, "html_attributions": ["<a href=\"https://maps.google.com/maps/contrib/115886015912867585967/photos\">BLER Travel</a>"], "photo_reference": "CmRaAAAAATZBjfRYHVwWDw3nz4sxfU7kk8S5yyeujpnVFt8RwydmkeCNyOnqULHBCsu61S2Z6lnGtikyNt_6GwUmHRDWoTyt4E5fWaRuNAaKHtIMDSeSIM0-yAHUVzTCz0jOgCX4EhAI-dH6ZNdolw8RPJSOkrkwGhRlzfkqhQYTPColYUtKJvOiyDFxLg", "width": 2592}], "place_id": "ChIJkxUqrcB544kRn6lojIWj6q0", "plus_code": {"compound_code": "8VR6+X6 Brookline, Massachusetts, United States", "global_code": "87JC8VR6+X6"}, "rating": 4, "reference": "ChIJkxUqrcB544kRn6lojIWj6q0", "scope": "GOOGLE", "types": ["travel_agency", "point_of_interest", "establishment"], "user_ratings_total": 1, "vicinity": "45 Bartlett Crescent, Brookline"}, "ChIJ3YzoTb5544kR52IrwwouyIo": {"geometry": {"location": {"lat": 42.342464, "lng": -71.139436}, "viewport": {"northeast": {"lat": 42.34378088029149, "lng": -71.1381314697085}, "southwest": {"lat": 42.3410829197085, "lng": -71.1408294302915}}}, "icon": "https://maps.gstatic.com/mapfiles/place_api/icons/generic_business-71.png", "id": "5da2bb0baeb586a3c102bb83c3e11dd4f6b30b8d", "name": "Sirry Berndsen - Certified Medium - Spirit Of Light", "photos": [{"height": 846, "html_attributions": ["<a href=\"https://maps.google.com/maps/contrib/101078092590993850380/photos\">Sirry Berndsen - Certified Medium - Spirit Of Light</a>"], "photo_reference": "CmRaAAAAhQ5Y0WOdk5gWg5P33Kb32gG3ReDuo8ngJzjspSIpCjNIpDFNh36ZnujX_d_IkfEdCJJcZa2MvcoPewSXFHALX1rS8GWRxOZh8J-a5vr5xzhZZMRfK9LnVgawz9dW5jxREhBFJfToQ_t0PPPX5vuN8FJcGhRHTkh-4g7N6oPBAOoMtz903ZKEfQ", "width": 1500}], "place_id": "ChIJ3YzoTb5544kR52IrwwouyIo", "plus_code": {"compound_code": "8VR6+X6 Brookline, Massachusetts, United States", "global_code": "87JC8VR6+X6"}, "rating": 4.4, "reference": "ChIJ3YzoTb5544kR52IrwwouyIo", "scope": "GOOGLE", "types": ["point_of_interest", "establishment"], "user_ratings_total": 7, "vicinity": "45 Bartlett Crescent #4, Brookline"}, "ChIJge3m9bN544kR2VfSV1PvBQM": {"geometry": {"location": {"lat": 42.342445, "lng": -71.140056}, "viewport": {"northeast": {"lat": 42.3438135802915, "lng": -71.13868451970849}, "southwest": {"lat": 42.3411156197085, "lng": -71.1413824802915}}}, "icon": "https://maps.gstatic.com/mapfiles/place_api/icons/generic_business-71.png", "id": "f0f0c3dd9febcbc7225370ada60dd586e053f704", "name": "Five Washington Street Apartments", "opening_hours": {"open_now": true}, "place_id": "ChIJge3m9bN544kR2VfSV1PvBQM", "plus_code": {"compound_code": "8VR5+XX Boston, Massachusetts, United States", "global_code": "87JC8VR5+XX"}, "reference": "ChIJge3m9bN544kR2VfSV1PvBQM", "scope": "GOOGLE", "types": ["point_of_interest", "establishment"], "vicinity": "5 Washington Street, Brookline"}, "ChIJU2JujbN544kRGuid17ed7S0": {"geometry": {"location": {"lat": 42.342044, "lng": -71.1405238}, "viewport": {"northeast": {"lat": 42.3434638802915, "lng": -71.1392755697085}, "southwest": {"lat": 42.3407659197085, "lng": -71.14197353029151}}}, "icon": "https://maps.gstatic.com/mapfiles/place_api/icons/school-71.png", "id": "b5a79c4170fa7beced844154ed77f6b3aca45dba", "name": "Baldwin Pilot Academy", "place_id": "ChIJU2JujbN544kRGuid17ed7S0", "plus_code": {"compound_code": "8VR5+RQ Boston, Massachusetts, United States", "global_code": "87JC8VR5+RQ"}, "rating": 5, "reference": "ChIJU2JujbN544kRGuid17ed7S0", "scope": "GOOGLE", "types": ["point_of_interest", "school", "establishment"], "user_ratings_total": 1, "vicinity": "02108, 121 Corey Road, Brighton"}, "ChIJGSbXP7N544kRT6OIOfQb1QI": {"geometry": {"location": {"lat": 42.3420369, "lng": -71.1405292}, "viewport": {"northeast": {"lat": 42.3434574802915, "lng": -71.1392819197085}, "southwest": {"lat": 42.3407595197085, "lng": -71.1419798802915}}}, "icon": "https://maps.gstatic.com/mapfiles/place_api/icons/school-71.png", "id": "f34cffffec8e2557ef9bcfe9c9609e7ee495a124", "name": "Baldwin School", "place_id": "ChIJGSbXP7N544kRT6OIOfQb1QI", "plus_code": {"compound_code": "8VR5+RQ Boston, Massachusetts, United States", "global_code": "87JC8VR5+RQ"}, "reference": "ChIJGSbXP7N544kRT6OIOfQb1QI", "scope": "GOOGLE", "types": ["school", "point_of_interest", "establishment"], "vicinity": "121 Corey Road, Brighton"}, "ChIJS6RzB7R544kRYvp5LD8bkmM": {"geometry": {"location": {"lat": 42.342464, "lng": -71.139436}, "viewport": {"northeast": {"lat": 42.34378088029149, "lng": -71.1381314697085}, "southwest": {"lat": 42.3410829197085, "lng": -71.1408294302915}}}, "icon": "https://maps.gstatic.com/mapfiles/place_api/icons/generic_business-71.png", "id": "5b9e0194ef6e41ae031c6e0d9568850430ef9fc1", "name": "Spirit Of Light - Sirry Berndsen - Certified Medium", "place_id": "ChIJS6RzB7R544kRYvp5LD8bkmM", "plus_code": {"compound_code": "8VR6+X6 Brookline, Massachusetts, United States", "global_code": "87JC8VR6+X6"}, "reference": "ChIJS6RzB7R544kRYvp5LD8bkmM", "scope": "GOOGLE", "types": ["health", "point_of_interest", "establishment"], "vicinity": "45 Bartlett Crescent, Brookline"}, "ChIJS6RzB7R544kRqv8FI1eaauU": {"geometry": {"location": {"lat": 42.342464, "lng": -71.139436}, "viewport": {"northeast": {"lat": 42.34378088029149, "lng": -71.1381314697085}, "southwest": {"lat": 42.3410829197085, "lng": -71.1408294302915}}}, "icon": "https://maps.gstatic.com/mapfiles/place_api/icons/generic_business-71.png", "id": "cc5135985db09fc09860bb5c508fb0a1c7c7f2bb", "name": "Edward Gelber, M.D.", "opening_hours": {"open_now": true}, "place_id": "ChIJS6RzB7R544kRqv8FI1eaauU", "plus_code": {"compound_code": "8VR6+X6 Brookline, Massachusetts, United States", "global_code": "87JC8VR6+X6"}, "rating": 5, "reference": "ChIJS6RzB7R544kRqv8FI1eaauU", "scope": "GOOGLE", "types": ["doctor", "health", "point_of_interest", "establishment"], "user_ratings_total": 1, "vicinity": "45 Bartlett Crescent, Brookline"}, "ChIJ1QXIVsd544kRF-Cm0lzKPCI": {"geometry": {"location": {"lat": 42.342476, "lng": -71.13939700000002}, "viewport": {"northeast": {"lat": 42.3437868802915, "lng": -71.13811196970849}, "southwest": {"lat": 42.3410889197085, "lng": -71.1408099302915}}}, "icon": "https://maps.gstatic.com/mapfiles/place_api/icons/generic_business-71.png", "id": "1256e6a8186ee57dc0cd330ca0487b9c6beb0ef0", "name": "Dan Gorfinkle, Realtor", "opening_hours": {"open_now": true}, "place_id": "ChIJ1QXIVsd544kRF-Cm0lzKPCI", "plus_code": {"compound_code": "8VR6+X6 Brookline, Massachusetts, United States", "global_code": "87JC8VR6+X6"}, "reference": "ChIJ1QXIVsd544kRF-Cm0lzKPCI", "scope": "GOOGLE", "types": ["real_estate_agency", "point_of_interest", "establishment"], "vicinity": "45 Bartlett Crescent #1, Brookline"}, "ChIJS6RzB7R544kRVXLrs3xzdXg": {"geometry": {"location": {"lat": 42.34248679999999, "lng": -71.1393975}, "viewport": {"northeast": {"lat": 42.34379228029149, "lng": -71.13811221970849}, "southwest": {"lat": 42.34109431970849, "lng": -71.1408101802915}}}, "icon": "https://maps.gstatic.com/mapfiles/place_api/icons/generic_business-71.png", "id": "daef68e2cc41be19f74fc2100488e1457ed7f5c8", "name": "Parents In A Pinch", "opening_hours": {"open_now": true}, "photos": [{"height": 268, "html_attributions": ["<a href=\"https://maps.google.com/maps/contrib/101585118481206783850/photos\">Parents In A Pinch</a>"], "photo_reference": "CmRaAAAA5c8aIHKGYIvKy1v4C-ubgbr7BtH9qy1ifu2Au6g-7X1kVkIjYhgMTy0IS1HHb6bc6jwjjq_V8FQkQ6H6-9BHeq2Q0w7yAUbs6TED5_6tjsigdkX4jv-1QZUxXS4PBvQGEhDxyoR8C7tDAIyjnsgY4m0ZGhSqSzb2khbbIgvaLQsEQuEr4p_SvQ", "width": 400}], "place_id": "ChIJS6RzB7R544kRVXLrs3xzdXg", "plus_code": {"compound_code": "8VR6+X6 Brookline, Massachusetts, United States", "global_code": "87JC8VR6+X6"}, "reference": "ChIJS6RzB7R544kRVXLrs3xzdXg", "scope": "GOOGLE", "types": ["health", "point_of_interest", "establishment"], "vicinity": "45 Bartlett Crescent, Brookline"}, "ChIJmz0qrcB544kRNs-dCtzM9fA": {"geometry": {"location": {"lat": 42.34248679999999, "lng": -71.1393975}, "viewport": {"northeast": {"lat": 42.34379228029149, "lng": -71.13811221970849}, "southwest": {"lat": 42.34109431970849, "lng": -71.1408101802915}}}, "icon": "https://maps.gstatic.com/mapfiles/place_api/icons/generic_business-71.png", "id": "2661077ba25db460f8038a470f843bea9ac14613", "name": "MyBostonRealtorKarina", "photos": [{"height": 562, "html_attributions": ["<a href=\"https://maps.google.com/maps/contrib/113728175011199603368/photos\">MyBostonRealtorKarina</a>"], "photo_reference": "CmRaAAAAKodF6To1qrmilo28BS1ZYSUPm6mnPwG6IVXbKNmgIMbJRKkuSpf61_Zrub2Rqthxjwjcr4tZ12cObhTUBrwbAcyxR5ppUMAj1Ksfp_fzPsr945scO2OSoKD7wNKEyyG4EhBI1ILz9fX-AhAKyNPB1ZzcGhTWbM4WNefhCfTw3W1Tg-c_EFx4GA", "width": 1000}], "place_id": "ChIJmz0qrcB544kRNs-dCtzM9fA", "plus_code": {"compound_code": "8VR6+X6 Brookline, Massachusetts, United States", "global_code": "87JC8VR6+X6"}, "rating": 5, "reference": "ChIJmz0qrcB544kRNs-dCtzM9fA", "scope": "GOOGLE", "types": ["real_estate_agency", "point_of_interest", "establishment"], "user_ratings_total": 5, "vicinity": "45 Crescent, Bartlett Crescent Unit 1, Brookline"}, "ChIJge3m9bN544kRBYmy23rOwGk": {"geometry": {"location": {"lat": 42.342102, "lng": -71.1395367}, "viewport": {"northeast": {"lat": 42.3433809802915, "lng": -71.13826876970847}, "southwest": {"lat": 42.3406830197085, "lng": -71.1409667302915}}}, "icon": "https://maps.gstatic.com/mapfiles/place_api/icons/generic_business-71.png", "id": "ff3a66dcd453b27bcf99615795f679463290acf8", "name": "Brookline Automobile Repair", "place_id": "ChIJge3m9bN544kRBYmy23rOwGk", "plus_code": {"compound_code": "8VR6+R5 Brookline, Massachusetts, United States", "global_code": "87JC8VR6+R5"}, "reference": "ChIJge3m9bN544kRBYmy23rOwGk", "scope": "GOOGLE", "types": ["car_repair", "point_of_interest", "establishment"], "vicinity": "5 Washington Street, Brighton"}, "ChIJ90FaAgN544kRkWGECwTb9EU": {"geometry": {"location": {"lat": 42.34239039999999, "lng": -71.13989699999999}, "viewport": {"northeast": {"lat": 42.34375718029149, "lng": -71.13858521970849}, "southwest": {"lat": 42.3410592197085, "lng": -71.1412831802915}}}, "icon": "https://maps.gstatic.com/mapfiles/place_api/icons/generic_business-71.png", "id": "4312c2fca789697cb2aa51243e94fbce91977a05", "name": "Maven Car Sharing", "opening_hours": {"open_now": true}, "photos": [{"height": 499, "html_attributions": ["<a href=\"https://maps.google.com/maps/contrib/101138828481438771434/photos\">Maven Car Sharing</a>"], "photo_reference": "CmRaAAAAKeoo6axcj7ubScD0JghmDOCI6Z9RNdpePaUVjoyFB2nFgFXG0QnzQMqVF03ZyC4Ha-YNzRa6VUDp9cYaQPI10X-HySyvrjXILjyUF7cImrPctKhdBCD_w7xlgywIuMv9EhDPfl_ZLu3n0KT37k7bWXD9GhQCJTMltVsS2OLWCTO4i-i8N87DCQ", "width": 499}], "place_id": "ChIJ90FaAgN544kRkWGECwTb9EU", "plus_code": {"compound_code": "8VR6+X2 Brookline, Massachusetts, United States", "global_code": "87JC8VR6+X2"}, "reference": "ChIJ90FaAgN544kRkWGECwTb9EU", "scope": "GOOGLE", "types": ["car_rental", "point_of_interest", "establishment"], "vicinity": "3 Washington Street, Brighton"}, "ChIJkTEwi7N544kRFwaKCXrNN8Q": {"geometry": {"location": {"lat": 42.34238149999999, "lng": -71.14043199999999}, "viewport": {"northeast": {"lat": 42.34371518029149, "lng": -71.13906726970849}, "southwest": {"lat": 42.3410172197085, "lng": -71.14176523029151}}}, "icon": "https://maps.gstatic.com/mapfiles/place_api/icons/generic_business-71.png", "id": "d1efcfccfc658da054a9b47c910f0bfe12664153", "name": "Washington St @ Corey Rd", "place_id": "ChIJkTEwi7N544kRFwaKCXrNN8Q", "plus_code": {"compound_code": "8VR5+XR Boston, Massachusetts, United States", "global_code": "87JC8VR5+XR"}, "reference": "ChIJkTEwi7N544kRFwaKCXrNN8Q", "scope": "GOOGLE", "types": ["transit_station", "point_of_interest", "establishment"], "vicinity": "United States"}, "ChIJS6RzB7R544kRlaC-IDVjTDE": {"geometry": {"location": {"lat": 42.34247610000001, "lng": -71.1393968}, "viewport": {"northeast": {"lat": 42.3437869302915, "lng": -71.1381118697085}, "southwest": {"lat": 42.34108896970851, "lng": -71.1408098302915}}}, "icon": "https://maps.gstatic.com/mapfiles/place_api/icons/generic_business-71.png", "id": "bb9b8b356f9d0de7d86a8ba7f2a3be55d1f63e24", "name": "Judy A. Starr, LICSW", "place_id": "ChIJS6RzB7R544kRlaC-IDVjTDE", "plus_code": {"compound_code": "8VR6+X6 Brookline, Massachusetts, United States", "global_code": "87JC8VR6+X6"}, "reference": "ChIJS6RzB7R544kRlaC-IDVjTDE", "scope": "GOOGLE", "types": ["doctor", "health", "point_of_interest", "establishment"], "vicinity": "45 Bartlett Crescent, Brookline"}, "ChIJS6RzB7R544kRPAo3ooIW_y0": {"geometry": {"location": {"lat": 42.34248679999999, "lng": -71.1393975}, "viewport": {"northeast": {"lat": 42.34379228029149, "lng": -71.13811221970849}, "southwest": {"lat": 42.34109431970849, "lng": -71.1408101802915}}}, "icon": "https://maps.gstatic.com/mapfiles/place_api/icons/generic_business-71.png", "id": "0cbbb864c54a280b70af37c52b384bac120e1a56", "name": "Charles W. Clark, MSSS", "place_id": "ChIJS6RzB7R544kRPAo3ooIW_y0", "plus_code": {"compound_code": "8VR6+X6 Brookline, Massachusetts, United States", "global_code": "87JC8VR6+X6"}, "reference": "ChIJS6RzB7R544kRPAo3ooIW_y0", "scope": "GOOGLE", "types": ["doctor", "health", "point_of_interest", "establishment"], "vicinity": "45 Bartlett Crescent, Brookline, MA 02446, Brookline"}, "ChIJGzE9DS1l44kRoOhiASS_fHg": {"geometry": {"location": {"lat": 42.3600825, "lng": -71.0588801}, "viewport": {"northeast": {"lat": 42.40081989999999, "lng": -70.749455}, "southwest": {"lat": 42.22788, "lng": -71.191113}}}, "icon": "https://maps.gstatic.com/mapfiles/place_api/icons/geocode-71.png", "id": "06755c25d2b34d13942a4713971756a55b870ced", "name": "Boston", "photos": [{"height": 3024, "html_attributions": ["<a href=\"https://maps.google.com/maps/contrib/104670289779338733432/photos\">Natalia Zalucean</a>"], "photo_reference": "CmRaAAAAcHjdacPZwJZkQHD6wsrMp8koWZGhDeRqwTuFeIOUpEf-Cz4nKbhOklquFVqENzu0vVVmaMpYzonjp4LEHG--Ql1WDNhWZMVhhH-W_JR-SohxDphqMTdJWPrNXei5WHyKEhCkYehuktgDfLUjz_vyBbSRGhTP3N2IWkVQCwHS4c9Dm5Q0UcI3Qg", "width": 4032}], "place_id": "ChIJGzE9DS1l44kRoOhiASS_fHg", "reference": "ChIJGzE9DS1l44kRoOhiASS_fHg", "scope": "GOOGLE", "types": ["locality", "political"], "vicinity": "Boston"}, "ChIJuxgJi7N544kR8SQ5pDKvHig": {"geometry": {"location": {"lat": 42.342394, "lng": -71.14056699999999}, "viewport": {"northeast": {"lat": 42.3437218802915, "lng": -71.1391964697085}, "southwest": {"lat": 42.3410239197085, "lng": -71.1418944302915}}}, "icon": "https://maps.gstatic.com/mapfiles/place_api/icons/bus-71.png", "id": "907f556ce1f2df8958e382f6af462c5db31b5bc6", "name": "Washington St @ Corey Rd", "place_id": "ChIJuxgJi7N544kR8SQ5pDKvHig", "plus_code": {"compound_code": "8VR5+XQ Boston, Massachusetts, United States", "global_code": "87JC8VR5+XQ"}, "reference": "ChIJuxgJi7N544kR8SQ5pDKvHig", "scope": "GOOGLE", "types": ["bus_station", "transit_station", "point_of_interest", "establishment"], "vicinity": "United States"}, "ChIJm5jn9LN544kRDh39GxFtFa8": {"geometry": {"location": {"lat": 42.34246599999999, "lng": -71.140502}, "viewport": {"northeast": {"lat": 42.34382093029151, "lng": -71.13914796970849}, "southwest": {"lat": 42.34112296970851, "lng": -71.1418459302915}}}, "icon": "https://maps.gstatic.com/mapfiles/place_api/icons/bus-71.png", "id": "f09cc0a0a152e9451ea8b3e6417771c72664d362", "name": "Washington St @ Corey Rd", "place_id": "ChIJm5jn9LN544kRDh39GxFtFa8", "plus_code": {"compound_code": "8VR5+XQ Boston, Massachusetts, United States", "global_code": "87JC8VR5+XQ"}, "reference": "ChIJm5jn9LN544kRDh39GxFtFa8", "scope": "GOOGLE", "types": ["bus_station", "transit_station", "point_of_interest", "establishment"], "vicinity": "United States"}, "ChIJS6RzB7R544kRyPSodu3uBGM": {"geometry": {"location": {"lat": 42.342464, "lng": -71.139436}, "viewport": {"northeast": {"lat": 42.34378088029149, "lng": -71.1381314697085}, "southwest": {"lat": 42.3410829197085, "lng": -71.1408294302915}}}, "icon": "https://maps.gstatic.com/mapfiles/place_api/icons/generic_business-71.png", "id": "0a6bedad4652cd289bec06be4cb207899f5c2bb3", "name": "MRC Financial Services", "place_id": "ChIJS6RzB7R544kRyPSodu3uBGM", "plus_code": {"compound_code": "8VR6+X6 Brookline, Massachusetts, United States", "global_code": "87JC8VR6+X6"}, "reference": "ChIJS6RzB7R544kRyPSodu3uBGM", "scope": "GOOGLE", "types": ["insurance_agency", "point_of_interest", "establishment"], "vicinity": "45 Bartlett Crescent, Brookline"}, "ChIJS6RzB7R544kRWfOzZi80gk0": {"geometry": {"location": {"lat": 42.342464, "lng": -71.139436}, "viewport": {"northeast": {"lat": 42.34378088029149, "lng": -71.1381314697085}, "southwest": {"lat": 42.3410829197085, "lng": -71.1408294302915}}}, "icon": "https://maps.gstatic.com/mapfiles/place_api/icons/generic_business-71.png", "id": "4c37c05147f0ca63f2a2fdfbb82dd31911f6017d", "name": "Wendy Caplan LICSW", "opening_hours": {"open_now": false}, "place_id": "ChIJS6RzB7R544kRWfOzZi80gk0", "plus_code": {"compound_code": "8VR6+X6 Brookline, Massachusetts, United States", "global_code": "87JC8VR6+X6"}, "reference": "ChIJS6RzB7R544kRWfOzZi80gk0", "scope": "GOOGLE", "types": ["health", "point_of_interest", "establishment"], "vicinity": "45 Bartlett Crescent, Brookline"}, "ChIJIUHFVsd544kRCoZLdeDXrLw": {"geometry": {"location": {"lat": 42.342476, "lng": -71.13939700000002}, "viewport": {"northeast": {"lat": 42.3437868802915, "lng": -71.13811196970849}, "southwest": {"lat": 42.3410889197085, "lng": -71.1408099302915}}}, "icon": "https://maps.gstatic.com/mapfiles/place_api/icons/generic_business-71.png", "id": "1110449c7b1b7a7a0f806061d4d96c0c623fb90d", "name": "REMAX Unlimited Massachusetts", "opening_hours": {"open_now": true}, "photos": [{"height": 3000, "html_attributions": ["<a href=\"https://maps.google.com/maps/contrib/114355511048766984749/photos\">REMAX Unlimited Massachusetts</a>"], "photo_reference": "CmRaAAAAnstv8MHloNRF9Ym2gW24GtzQlYOOvZ7J44DnB4LqvRUK9DkJPdWcTsGfaIvdEr2JuTS8U6BerDBQXEieOKFUZVCVXWkUe0T4mtkRJ2hjVa30mVe5yl59tmbUGMlMGfcZEhDt_gxMwr6LW6O3GHR1xVePGhTGMD6KqSeZbZUHfLus9n6WJfkpDA", "width": 4000}], "place_id": "ChIJIUHFVsd544kRCoZLdeDXrLw", "plus_code": {"compound_code": "8VR6+X6 Brookline, Massachusetts, United States", "global_code": "87JC8VR6+X6"}, "reference": "ChIJIUHFVsd544kRCoZLdeDXrLw", "scope": "GOOGLE", "types": ["real_estate_agency", "point_of_interest", "establishment"], "vicinity": "45 Bartlett Crescent, Brookline"}, "ChIJNRDcFTF544kRgBOqsXSFrRQ": {"geometry": {"location": {"lat": 42.34248679999999, "lng": -71.1393975}, "viewport": {"northeast": {"lat": 42.34379228029149, "lng": -71.13811221970849}, "southwest": {"lat": 42.34109431970849, "lng": -71.1408101802915}}}, "icon": "https://maps.gstatic.com/mapfiles/place_api/icons/generic_business-71.png", "id": "ec54b1fcc495f1ebe0049e79609894cebbc7f8cc", "name": "Erica Lee Medium", "photos": [{"height": 315, "html_attributions": ["<a href=\"https://maps.google.com/maps/contrib/101561574492884391289/photos\">Erica Lee Medium</a>"], "photo_reference": "CmRaAAAADpJ9XhwaXhG-t2cvRNQI4m_wLJlMh3JH1iPC9hOXw0XPUo-iSIrjDzwMSXNFFesIng3h_WBCKLn5PSpdIZE9K88CUb2VJnozcX3-_eDnT02VnFHayi4zY4uF6wdwU7PbEhAtDJE0GMY9iL5ltxAyq80eGhQicq543Hvb2vDG_8g2KCTFyVFoFw", "width": 851}], "place_id": "ChIJNRDcFTF544kRgBOqsXSFrRQ", "plus_code": {"compound_code": "8VR6+X6 Brookline, Massachusetts, United States", "global_code": "87JC8VR6+X6"}, "reference": "ChIJNRDcFTF544kRgBOqsXSFrRQ", "scope": "GOOGLE", "types": ["point_of_interest", "establishment"], "vicinity": "45 Bartlett Crescent #4, Brookline"}, "ChIJ__8TB7R544kRd7ekpTN1b9o": {"geometry": {"location": {"lat": 42.34248679999999, "lng": -71.1393975}, "viewport": {"northeast": {"lat": 42.34379228029149, "lng": -71.13811221970849}, "southwest": {"lat": 42.34109431970849, "lng": -71.1408101802915}}}, "icon": "https://maps.gstatic.com/mapfiles/place_api/icons/generic_business-71.png", "id": "4dd42b78aa66ba828246b7d54741c737c0c32baf", "name": "American Friends of LIBI", "place_id": "ChIJ__8TB7R544kRd7ekpTN1b9o", "plus_code": {"compound_code": "8VR6+X6 Brookline, Massachusetts, United States", "global_code": "87JC8VR6+X6"}, "reference": "ChIJ__8TB7R544kRd7ekpTN1b9o", "scope": "GOOGLE", "types": ["point_of_interest", "establishment"], "vicinity": "45 Bartlett Crescent, Brookline"}, "ChIJraoWB7R544kR_PzOiYQ_aY8": {"geometry": {"location": {"lat": 42.3424869, "lng": -71.1393974}, "viewport": {"northeast": {"lat": 42.34379233029149, "lng": -71.13811216970849}, "southwest": {"lat": 42.3410943697085, "lng": -71.1408101302915}}}, "icon": "https://maps.gstatic.com/mapfiles/place_api/icons/generic_business-71.png", "id": "274f9825808819a4bd90c8e70347946610fe6fed", "name": "RE/MAX Unlimited CALEB CORSE", "place_id": "ChIJraoWB7R544kR_PzOiYQ_aY8", "plus_code": {"compound_code": "8VR6+X6 Brookline, Massachusetts, United States", "global_code": "87JC8VR6+X6"}, "reference": "ChIJraoWB7R544kR_PzOiYQ_aY8", "scope": "GOOGLE", "types": ["point_of_interest", "establishment"], "vicinity": "45 Bartlett Crescent #1, Brookline"}}