{"ChIJZ844wO9544kRoytHoGaQKhc": {"geometry": {"location": {"lat": 42.3494459, "lng": -71.10831710000001}, "viewport": {"northeast": {"lat": 42.35133340000005, "lng": -71.10330725}, "southwest": {"lat": 42.34802979999996, "lng": -71.11302944999998}}}, "icon": "https://maps.gstatic.com/mapfiles/place_api/icons/geocode-71.png", "id": "d19aa9b024f1b74515d00904ffbe175a421a4459", "name": "Massachusetts Turnpike", "place_id": "ChIJZ844wO9544kRoytHoGaQKhc", "reference": "ChIJZ844wO9544kRoytHoGaQKhc", "scope": "GOOGLE", "types": ["route"], "vicinity": "Boston"}, "ChIJMXbgPvB544kRI3AOa9moxWQ": {"geometry": {"location": {"lat": 42.3498824, "lng": -71.1079092}, "viewport": {"northeast": {"lat": 42.3513221302915, "lng": -71.10653976970849}, "southwest": {"lat": 42.3486241697085, "lng": -71.1092377302915}}}, "icon": "https://maps.gstatic.com/mapfiles/place_api/icons/generic_business-71.png", "id": "c14694a2f16b8e026f8376108186d661da4921d7", "name": "Engineering Product Innovation Center", "opening_hours": {"open_now": true}, "place_id": "ChIJMXbgPvB544kRI3AOa9moxWQ", "plus_code": {"compound_code": "8VXR+XR Brookline, Massachusetts, United States", "global_code": "87JC8VXR+XR"}, "rating": 4.8, "reference": "ChIJMXbgPvB544kRI3AOa9moxWQ", "scope": "GOOGLE", "types": ["point_of_interest", "establishment"], "user_ratings_total": 12, "vicinity": "750 Commonwealth Avenue, Brookline"}, "ChIJU7iIOfB544kRyeMYjtZrLMk": {"geometry": {"location": {"lat": 42.3496451, "lng": -71.1080673}, "viewport": {"northeast": {"lat": 42.3511009302915, "lng": -71.1068692697085}, "southwest": {"lat": 42.3484029697085, "lng": -71.1095672302915}}}, "icon": "https://maps.gstatic.com/mapfiles/place_api/icons/school-71.png", "id": "99f8f1897c1920d0c50db81f4a57f629837a55fb", "name": "BU Robotics Lab", "place_id": "ChIJU7iIOfB544kRyeMYjtZrLMk", "plus_code": {"compound_code": "8VXR+VQ Brookline, Massachusetts, United States", "global_code": "87JC8VXR+VQ"}, "reference": "ChIJU7iIOfB544kRyeMYjtZrLMk", "scope": "GOOGLE", "types": ["university", "point_of_interest", "establishment"], "vicinity": "Rooms B25/B29, 750 Commonwealth Avenue, Brookline"}, "ChIJbTUAR_B544kRCc_lkMKWpCU": {"geometry": {"location": {"lat": 42.3496046, "lng": -71.10753550000001}, "viewport": {"northeast": {"lat": 42.35115713029149, "lng": -71.1061406697085}, "southwest": {"lat": 42.3484591697085, "lng": -71.1088386302915}}}, "icon": "https://maps.gstatic.com/mapfiles/place_api/icons/generic_business-71.png", "id": "1e9eaa53530960d01dfa3828bb38682029ebe00a", "name": "Baja Workspace", "place_id": "ChIJbTUAR_B544kRCc_lkMKWpCU", "plus_code": {"compound_code": "8VXR+RX Brookline, Massachusetts, United States", "global_code": "87JC8VXR+RX"}, "reference": "ChIJbTUAR_B544kRCc_lkMKWpCU", "scope": "GOOGLE", "types": ["point_of_interest", "establishment"], "vicinity": "750 Commonwealth Avenue, Brookline"}, "ChIJbTUAR_B544kR7IqSC0nCsV8": {"geometry": {"location": {"lat": 42.3496046, "lng": -71.10753550000001}, "viewport": {"northeast": {"lat": 42.35115713029149, "lng": -71.1061406697085}, "southwest": {"lat": 42.3484591697085, "lng": -71.1088386302915}}}, "icon": "https://maps.gstatic.com/mapfiles/place_api/icons/generic_business-71.png", "id": "09a192b3e454583fcd3fd85f32f7e0a0109c8efe", "name": "BU Racing", "place_id": "ChIJbTUAR_B544kR7IqSC0nCsV8", "plus_code": {"compound_code": "8VXR+RX Brookline, Massachusetts, United States", "global_code": "87JC8VXR+RX"}, "reference": "ChIJbTUAR_B544kR7IqSC0nCsV8", "scope": "GOOGLE", "types": ["point_of_interest", "establishment"], "vicinity": "750 Commonwealth Avenue, Brookline"}, "ChIJhZirQQB544kRB9LbXEfedZQ": {"geometry": {"location": {"lat": 42.33176419999999, "lng": -71.1211635}, "viewport": {"northeast": {"lat": 42.3518109, "lng": -71.1056969}, "southwest": {"lat": 42.29459689999999, "lng": -71.1789959}}}, "icon": "https://maps.gstatic.com/mapfiles/place_api/icons/geocode-71.png", "id": "92986b2d1f69af2f2a7e29d34ced8adfa8573beb", "name": "Brookline", "photos": [{"height": 651, "html_attributions": ["<a href=\"https://maps.google.com/maps/contrib/114772942214832951419/photos\">Michael Ahn</a>"], "photo_reference": "CmRaAAAAzsh24NU8k6LIob5SroHk78McCIqRo-04cSYDgrbdAwzlENcN_v5RJFAmDz1xIxgIqlB2T_Ao_OODVdG8cuxfEcHZAGl5Duix4n5GSZLP2_QsPJhv92xRsVht50cTNeAwEhDC3N_Es6MsS406kPf_ePe6GhQRLzcicfiKV4UBVNHUyzzGe32fNw", "width": 1608}], "place_id": "ChIJhZirQQB544kRB9LbXEfedZQ", "reference": "ChIJhZirQQB544kRB9LbXEfedZQ", "scope": "GOOGLE", "types": ["locality", "political"], "vicinity": "Brookline"}}