{"ChIJZfGh3y9_44kRMQI3CZYw0zc": {"geometry": {"location": {"lat": 42.2848279, "lng": -71.15665589999999}, "viewport": {"northeast": {"lat": 42.28616673029149, "lng": -71.15526846970849}, "southwest": {"lat": 42.2834687697085, "lng": -71.15796643029151}}}, "icon": "https://maps.gstatic.com/mapfiles/place_api/icons/geocode-71.png", "id": "957306c6fc6446f52c84c726108af6eaf4a329d6", "name": "1903-1917 Centre St", "place_id": "ChIJZfGh3y9_44kRMQI3CZYw0zc", "reference": "ChIJZfGh3y9_44kRMQI3CZYw0zc", "scope": "GOOGLE", "types": ["route"], "vicinity": "Boston"}, "ChIJEzBxhtp-44kR0ZuynoOy0Lc": {"geometry": {"location": {"lat": 42.28464890000001, "lng": -71.15633059999999}, "viewport": {"northeast": {"lat": 42.2860335302915, "lng": -71.1551661197085}, "southwest": {"lat": 42.28333556970851, "lng": -71.1578640802915}}}, "icon": "https://maps.gstatic.com/mapfiles/place_api/icons/generic_business-71.png", "id": "5d03aaede23c61da08de5320737024ff25cd0615", "name": "Bay State Physical Therapy-West Roxbury", "opening_hours": {"open_now": true}, "place_id": "ChIJEzBxhtp-44kR0ZuynoOy0Lc", "plus_code": {"compound_code": "7RMV+VF Boston, Massachusetts, United States", "global_code": "87JC7RMV+VF"}, "rating": 4.7, "reference": "ChIJEzBxhtp-44kR0ZuynoOy0Lc", "scope": "GOOGLE", "types": ["health", "point_of_interest", "establishment"], "user_ratings_total": 15, "vicinity": "1914 Centre Street, West Roxbury"}, "ChIJn7AwjSl_44kRKHnzTjQhF9A": {"geometry": {"location": {"lat": 42.284147, "lng": -71.15581}, "viewport": {"northeast": {"lat": 42.28540598029149, "lng": -71.15452301970849}, "southwest": {"lat": 42.28270801970849, "lng": -71.15722098029151}}}, "icon": "https://maps.gstatic.com/mapfiles/place_api/icons/school-71.png", "id": "109996f85331c8ddaa1909145333379903e47136", "name": "Julianne's Dance Workshop", "photos": [{"height": 1067, "html_attributions": ["<a href=\"https://maps.google.com/maps/contrib/102245987923840436034/photos\">Julianne&#39;s Dance Workshop</a>"], "photo_reference": "CmRaAAAA4cBzGGAV1kQqZ0tEhXEJg03z6HvwxlB-aSeP7TJT90Hg2c-kkvBjF0aMytlw4xHp0bRWRG47q7olQtGbUkGXdIUDBpbSutTgjKX3EsIAd2dCGiQnv5iMjgeWVFVxlNRCEhAIPGr1YRPMFk1JtuguhWYwGhS7T7aJkleJTCtoHJEVE89XF_O5zw", "width": 1067}], "place_id": "ChIJn7AwjSl_44kRKHnzTjQhF9A", "plus_code": {"compound_code": "7RMV+MM Boston, Massachusetts, United States", "global_code": "87JC7RMV+MM"}, "rating": 5, "reference": "ChIJn7AwjSl_44kRKHnzTjQhF9A", "scope": "GOOGLE", "types": ["point_of_interest", "establishment"], "user_ratings_total": 1, "vicinity": "20 McKenna Terrace, West Roxbury"}, "ChIJPySdpSh_44kRWtFaOUY1PCk": {"geometry": {"location": {"lat": 42.2847374, "lng": -71.1563117}, "viewport": {"northeast": {"lat": 42.28612828029149, "lng": -71.15513626970849}, "southwest": {"lat": 42.28343031970849, "lng": -71.15783423029151}}}, "icon": "https://maps.gstatic.com/mapfiles/place_api/icons/generic_business-71.png", "id": "072ce7d544e89bac43dd86140a6074b00e12cf41", "name": "Re/Max Achievers", "opening_hours": {"open_now": true}, "place_id": "ChIJPySdpSh_44kRWtFaOUY1PCk", "plus_code": {"compound_code": "7RMV+VF Boston, Massachusetts, United States", "global_code": "87JC7RMV+VF"}, "rating": 5, "reference": "ChIJPySdpSh_44kRWtFaOUY1PCk", "scope": "GOOGLE", "types": ["real_estate_agency", "finance", "general_contractor", "point_of_interest", "establishment"], "user_ratings_total": 2, "vicinity": "1910 Centre Street, West Roxbury"}, "ChIJm4wB5y9_44kRah75xpi0KOI": {"geometry": {"location": {"lat": 42.2845512, "lng": -71.1562436}, "viewport": {"northeast": {"lat": 42.2859320802915, "lng": -71.15513891970849}, "southwest": {"lat": 42.2832341197085, "lng": -71.1578368802915}}}, "icon": "https://maps.gstatic.com/mapfiles/place_api/icons/bank_dollar-71.png", "id": "659dc9f772469d360d40720a20773271f3a806f4", "name": "Blue Hills Bank", "opening_hours": {"open_now": true}, "photos": [{"height": 607, "html_attributions": ["<a href=\"https://maps.google.com/maps/contrib/107262679328845272740/photos\">Blue Hills Bank</a>"], "photo_reference": "CmRaAAAA4fFviK4UwpzlXZ0kCI066TmGZCzIXjPoWi62_v5V0urYXMorX3vriBB5q7XK2K8sq1HOkKwtDuAAEIc5_M8cllM3wWu_d_0v6JWu_5PMBGMtBw02ZBuKm4KukTsAIXt0EhAEhj9VWozUWphFGJrnO7UxGhRNLiyyRwRn9Y2l55AwaBu5V8cdGw", "width": 1080}], "place_id": "ChIJm4wB5y9_44kRah75xpi0KOI", "plus_code": {"compound_code": "7RMV+RG Boston, Massachusetts, United States", "global_code": "87JC7RMV+RG"}, "rating": 5, "reference": "ChIJm4wB5y9_44kRah75xpi0KOI", "scope": "GOOGLE", "types": ["bank", "atm", "finance", "point_of_interest", "establishment"], "user_ratings_total": 2, "vicinity": "1920 Centre Street, West Roxbury"}, "ChIJH6w1wC9_44kRJ7iytzG6rlw": {"geometry": {"location": {"lat": 42.2844253, "lng": -71.15568999999999}, "viewport": {"northeast": {"lat": 42.2858682802915, "lng": -71.1542577197085}, "southwest": {"lat": 42.2831703197085, "lng": -71.1569556802915}}}, "icon": "https://maps.gstatic.com/mapfiles/place_api/icons/generic_business-71.png", "id": "cfbdb4a61ce1f2e932e12effadb531ba2eac25c3", "name": "Irish Social Club of Boston", "photos": [{"height": 3120, "html_attributions": ["<a href=\"https://maps.google.com/maps/contrib/107127111325392511981/photos\">Michele Patriquin</a>"], "photo_reference": "CmRaAAAAasselJn1zreEE3emVRNo5B7tWe7aBnnf3Xuy8b2Yf6JmP7pXN8AMEcJPtD7LvL7HHq3XVlaBWTv494la_JU53VbnospnkTy8nUud0KAVquvYwRXvXelsMa4684iCWq9EEhDyJ2HayK--EikPKsm9exg8GhRvh3dFFXKpZg2oiCi90V7-gSWtCg", "width": 4160}], "place_id": "ChIJH6w1wC9_44kRJ7iytzG6rlw", "plus_code": {"compound_code": "7RMV+QP Boston, Massachusetts, United States", "global_code": "87JC7RMV+QP"}, "rating": 4.3, "reference": "ChIJH6w1wC9_44kRJ7iytzG6rlw", "scope": "GOOGLE", "types": ["point_of_interest", "establishment"], "user_ratings_total": 36, "vicinity": "119 Park Street, West Roxbury"}, "ChIJEzBxhtp-44kRW79YBdchuPA": {"geometry": {"location": {"lat": 42.284752, "lng": -71.1564095}, "viewport": {"northeast": {"lat": 42.2861315302915, "lng": -71.1551869697085}, "southwest": {"lat": 42.2834335697085, "lng": -71.15788493029152}}}, "icon": "https://maps.gstatic.com/mapfiles/place_api/icons/generic_business-71.png", "id": "25fc2e4cd0a61f9e29d901fa754d006548c45c85", "name": "Milton Chiropractic & Rehab", "opening_hours": {"open_now": false}, "place_id": "ChIJEzBxhtp-44kRW79YBdchuPA", "plus_code": {"compound_code": "7RMV+WC Boston, Massachusetts, United States", "global_code": "87JC7RMV+WC"}, "rating": 4.3, "reference": "ChIJEzBxhtp-44kRW79YBdchuPA", "scope": "GOOGLE", "types": ["health", "point_of_interest", "establishment"], "user_ratings_total": 6, "vicinity": "1914 Centre Street, Boston"}, "ChIJBY6HUxZ_44kRx6_8aiuywu8": {"geometry": {"location": {"lat": 42.284948, "lng": -71.1563223}, "viewport": {"northeast": {"lat": 42.28633903029149, "lng": -71.15507596970849}, "southwest": {"lat": 42.28364106970849, "lng": -71.15777393029151}}}, "icon": "https://maps.gstatic.com/mapfiles/place_api/icons/shopping-71.png", "id": "c1718b221e944371791c95461edc78b27fb03ed9", "name": "Marino's Market & Deli", "opening_hours": {"open_now": true}, "photos": [{"height": 1050, "html_attributions": ["<a href=\"https://maps.google.com/maps/contrib/105445475307290701668/photos\">Marino&#39;s Market &amp; Deli</a>"], "photo_reference": "CmRaAAAA16frNheBeWMDppAn0FLNdQFARZq458Po_AsN6pf7h_AobTON9fORs5ncvStXauGAB7kJX1n1I9bxLr87srQukHxLlvmP2e4vUMGdYF-n1wEZOnCrDpN-8tFWYJQs8Q2MEhB9UzegDXnXcpqtEVI5uGL8GhRBDlw8rMKYATS512Uf9QIjRzdJuA", "width": 750}], "place_id": "ChIJBY6HUxZ_44kRx6_8aiuywu8", "plus_code": {"compound_code": "7RMV+XF Boston, Massachusetts, United States", "global_code": "87JC7RMV+XF"}, "rating": 4.4, "reference": "ChIJBY6HUxZ_44kRx6_8aiuywu8", "scope": "GOOGLE", "types": ["grocery_or_supermarket", "store", "point_of_interest", "food", "establishment"], "user_ratings_total": 14, "vicinity": "1906 Centre Street, West Roxbury"}, "ChIJlWlzldF544kRsGRn5PoqvD4": {"geometry": {"location": {"lat": 42.284147, "lng": -71.15581}, "viewport": {"northeast": {"lat": 42.28540598029149, "lng": -71.15452301970849}, "southwest": {"lat": 42.28270801970849, "lng": -71.15722098029151}}}, "icon": "https://maps.gstatic.com/mapfiles/place_api/icons/generic_business-71.png", "id": "9df87412b43e03cc77c9b5d8c6fb5c165cab51b1", "name": "DiNatale Services Inc", "photos": [{"height": 691, "html_attributions": ["<a href=\"https://maps.google.com/maps/contrib/100159860863049562154/photos\">DiNatale Services Inc</a>"], "photo_reference": "CmRaAAAANXxLiaf5L5fjLHHY_p64a9AqpFZwwZcUOe6jnOcUyD29qrPVp4_6BE1BjzQlXAZ87xxNOzOEkIYUYfKhoPAFF0Q5lMrrK31zgz91jlmK2LVTaj-apyvZZnA_vM1ygTcoEhDxWIGTgzbYzSUTOeDQivYIGhTalrXlccAnAwgW-z2PXpXcuqR9PQ", "width": 691}], "place_id": "ChIJlWlzldF544kRsGRn5PoqvD4", "plus_code": {"compound_code": "7RMV+MM Boston, Massachusetts, United States", "global_code": "87JC7RMV+MM"}, "reference": "ChIJlWlzldF544kRsGRn5PoqvD4", "scope": "GOOGLE", "types": ["point_of_interest", "establishment"], "vicinity": "20 McKenna Terrace #301, West Roxbury"}, "ChIJv3Dd_C9_44kRfB5RNy9jiVI": {"geometry": {"location": {"lat": 42.2839912, "lng": -71.1565121}, "viewport": {"northeast": {"lat": 42.2853643302915, "lng": -71.15534396970848}, "southwest": {"lat": 42.2826663697085, "lng": -71.1580419302915}}}, "icon": "https://maps.gstatic.com/mapfiles/place_api/icons/civic_building-71.png", "id": "25dbb8eaf759c445dc0fd33a17cdc6837103348f", "name": "Boston Fire Department Engine 30/Ladder 25", "place_id": "ChIJv3Dd_C9_44kRfB5RNy9jiVI", "plus_code": {"compound_code": "7RMV+H9 Boston, Massachusetts, United States", "global_code": "87JC7RMV+H9"}, "rating": 4, "reference": "ChIJv3Dd_C9_44kRfB5RNy9jiVI", "scope": "GOOGLE", "types": ["fire_station", "point_of_interest", "establishment"], "user_ratings_total": 4, "vicinity": "1940 Centre Street, Boston"}, "ChIJdeQd7y9_44kR_jYZHXHH0ug": {"geometry": {"location": {"lat": 42.284147, "lng": -71.15581}, "viewport": {"northeast": {"lat": 42.28540598029149, "lng": -71.15452301970849}, "southwest": {"lat": 42.28270801970849, "lng": -71.15722098029151}}}, "icon": "https://maps.gstatic.com/mapfiles/place_api/icons/generic_business-71.png", "id": "912501c5c115614ba4c1cf7514c373142d98ede9", "name": "Gilbert | Schaab Investment Management", "opening_hours": {"open_now": true}, "place_id": "ChIJdeQd7y9_44kR_jYZHXHH0ug", "plus_code": {"compound_code": "7RMV+MM Boston, Massachusetts, United States", "global_code": "87JC7RMV+MM"}, "reference": "ChIJdeQd7y9_44kR_jYZHXHH0ug", "scope": "GOOGLE", "types": ["finance", "point_of_interest", "establishment"], "vicinity": "20 McKenna Terrace #304, West Roxbury"}, "ChIJKaEC4C9_44kRACPq0a9ItAc": {"geometry": {"location": {"lat": 42.28478689999999, "lng": -71.15694320000001}, "viewport": {"northeast": {"lat": 42.28611173029149, "lng": -71.1554691697085}, "southwest": {"lat": 42.2834137697085, "lng": -71.1581671302915}}}, "icon": "https://maps.gstatic.com/mapfiles/place_api/icons/generic_business-71.png", "id": "7e5d2474cb3f2d0020b42af9abc09d5a9c72a9da", "name": "James W. Hennigan Insurance Agency", "opening_hours": {"open_now": true}, "place_id": "ChIJKaEC4C9_44kRACPq0a9ItAc", "plus_code": {"compound_code": "7RMV+W6 Boston, Massachusetts, United States", "global_code": "87JC7RMV+W6"}, "reference": "ChIJKaEC4C9_44kRACPq0a9ItAc", "scope": "GOOGLE", "types": ["insurance_agency", "point_of_interest", "establishment"], "vicinity": "1915 Centre Street, West Roxbury"}, "ChIJXfLP3S9_44kRq22WS4PUmow": {"geometry": {"location": {"lat": 42.2847374, "lng": -71.1563117}, "viewport": {"northeast": {"lat": 42.28612828029149, "lng": -71.15513626970849}, "southwest": {"lat": 42.28343031970849, "lng": -71.15783423029151}}}, "icon": "https://maps.gstatic.com/mapfiles/place_api/icons/generic_business-71.png", "id": "a55bd73cfc724d9987a200810f834f2160f1aeea", "name": "Diane Capodilupo", "place_id": "ChIJXfLP3S9_44kRq22WS4PUmow", "plus_code": {"compound_code": "7RMV+VF Boston, Massachusetts, United States", "global_code": "87JC7RMV+VF"}, "reference": "ChIJXfLP3S9_44kRq22WS4PUmow", "scope": "GOOGLE", "types": ["real_estate_agency", "point_of_interest", "establishment"], "vicinity": "1910 Centre Street, Boston"}, "ChIJ___LITB_44kRvZAZH8uWNTo": {"geometry": {"location": {"lat": 42.28478689999999, "lng": -71.15694320000001}, "viewport": {"northeast": {"lat": 42.28611173029149, "lng": -71.1554691697085}, "southwest": {"lat": 42.2834137697085, "lng": -71.1581671302915}}}, "icon": "https://maps.gstatic.com/mapfiles/place_api/icons/generic_business-71.png", "id": "20f92c16498d0002dec83b6eabc1d0fdb1d267fb", "name": "Hennigan Insurance", "place_id": "ChIJ___LITB_44kRvZAZH8uWNTo", "plus_code": {"compound_code": "7RMV+W6 Boston, Massachusetts, United States", "global_code": "87JC7RMV+W6"}, "reference": "ChIJ___LITB_44kRvZAZH8uWNTo", "scope": "GOOGLE", "types": ["insurance_agency", "point_of_interest", "establishment"], "vicinity": "1915 Centre Street, Boston"}, "ChIJR4a1wy9_44kRWHqqR23ryGU": {"geometry": {"location": {"lat": 42.2846444, "lng": -71.15573359999999}, "viewport": {"northeast": {"lat": 42.2860166302915, "lng": -71.1543640697085}, "southwest": {"lat": 42.2833186697085, "lng": -71.15706203029151}}}, "icon": "https://maps.gstatic.com/mapfiles/place_api/icons/shopping-71.png", "id": "af1fea8a78a2a2573585b96d48226aebda544e00", "name": "Reliable Trading Post", "opening_hours": {"open_now": true}, "photos": [{"height": 4032, "html_attributions": ["<a href=\"https://maps.google.com/maps/contrib/101430372496553702019/photos\">Chai Kosol</a>"], "photo_reference": "CmRaAAAANTPbdq_qi1lFaeXVJ_VKCktWP8CGcpUtVNZsSwQbHtOltpm5hNLgoEgz8wd8eLUOzD27dNfr2SthrVtkqE-fa62_1z8StyPP6uyhgjRUYhlKwimVlC1vnxGrxm4_0-XQEhAxz1mvFv6lZChjlb9ULfm6GhQRt5G0YNqNFwmhyEb5Jfmiq0xiKg", "width": 3024}], "place_id": "ChIJR4a1wy9_44kRWHqqR23ryGU", "plus_code": {"compound_code": "7RMV+VP Boston, Massachusetts, United States", "global_code": "87JC7RMV+VP"}, "rating": 3, "reference": "ChIJR4a1wy9_44kRWHqqR23ryGU", "scope": "GOOGLE", "types": ["home_goods_store", "store", "point_of_interest", "establishment"], "user_ratings_total": 2, "vicinity": "115 Park Street, West Roxbury"}, "ChIJR4a1wy9_44kRJzB7rg4ia9k": {"geometry": {"location": {"lat": 42.2846444, "lng": -71.15573359999999}, "viewport": {"northeast": {"lat": 42.2860166302915, "lng": -71.1543640697085}, "southwest": {"lat": 42.2833186697085, "lng": -71.15706203029151}}}, "icon": "https://maps.gstatic.com/mapfiles/place_api/icons/shopping-71.png", "id": "89355d051ee0b3554ba1df52b57e9d7a64f1f051", "name": "Rogers Pest Control Indoor", "place_id": "ChIJR4a1wy9_44kRJzB7rg4ia9k", "plus_code": {"compound_code": "7RMV+VP Boston, Massachusetts, United States", "global_code": "87JC7RMV+VP"}, "reference": "ChIJR4a1wy9_44kRJzB7rg4ia9k", "scope": "GOOGLE", "types": ["home_goods_store", "store", "point_of_interest", "establishment"], "vicinity": "115 Park Street, West Roxbury"}, "ChIJJcU_2S9_44kRBlPHRy6QVMo": {"geometry": {"location": {"lat": 42.285017, "lng": -71.156466}, "viewport": {"northeast": {"lat": 42.2863736302915, "lng": -71.15513556970849}, "southwest": {"lat": 42.2836756697085, "lng": -71.1578335302915}}}, "icon": "https://maps.gstatic.com/mapfiles/place_api/icons/bus-71.png", "id": "51feffd915c485094d8b0295b3265a00a3328133", "name": "Centre St @ Park St", "place_id": "ChIJJcU_2S9_44kRBlPHRy6QVMo", "plus_code": {"compound_code": "7RPV+2C Boston, Massachusetts, United States", "global_code": "87JC7RPV+2C"}, "reference": "ChIJJcU_2S9_44kRBlPHRy6QVMo", "scope": "GOOGLE", "types": ["bus_station", "transit_station", "point_of_interest", "establishment"], "vicinity": "United States"}, "ChIJJYF72S9_44kRLM0tnGVblkE": {"geometry": {"location": {"lat": 42.2850251, "lng": -71.15639569999999}, "viewport": {"northeast": {"lat": 42.2863591802915, "lng": -71.1550601197085}, "southwest": {"lat": 42.2836612197085, "lng": -71.1577580802915}}}, "icon": "https://maps.gstatic.com/mapfiles/place_api/icons/generic_business-71.png", "id": "49ea1052169df7fad3f5f152cd8d0c87b580bf4a", "name": "Capone Brothers & Inc", "place_id": "ChIJJYF72S9_44kRLM0tnGVblkE", "plus_code": {"compound_code": "7RPV+2C Boston, Massachusetts, United States", "global_code": "87JC7RPV+2C"}, "reference": "ChIJJYF72S9_44kRLM0tnGVblkE", "scope": "GOOGLE", "types": ["general_contractor", "point_of_interest", "establishment"], "vicinity": "111 Park Street, West Roxbury"}, "ChIJdeQd7y9_44kRcz9beBa1jho": {"geometry": {"location": {"lat": 42.284147, "lng": -71.15581}, "viewport": {"northeast": {"lat": 42.28540598029149, "lng": -71.15452301970849}, "southwest": {"lat": 42.28270801970849, "lng": -71.15722098029151}}}, "icon": "https://maps.gstatic.com/mapfiles/place_api/icons/generic_business-71.png", "id": "f3fefeb58edcadff674de6225ae93c192229252a", "name": "Club Run Studio", "opening_hours": {"open_now": true}, "photos": [{"height": 1229, "html_attributions": ["<a href=\"https://maps.google.com/maps/contrib/112942669049831669915/photos\">Club Run Studio</a>"], "photo_reference": "CmRaAAAA4X73OKsgKEB90Ur5uJFflHFHyedrSVYJEvObM_OazGQ1Enwu3pwQTQH-ax2XBYl_YLQ7PqUTngFw_rtRQs_JLyEI3GfkUWYGWw8P5DQyFexHl0cYTwkTmWv-nDON7zWMEhA9dvwuiu4BOQzTsckk_R_TGhQroT9BcSPFlxC_CohdQDZcC-P40A", "width": 1232}], "place_id": "ChIJdeQd7y9_44kRcz9beBa1jho", "plus_code": {"compound_code": "7RMV+MM Boston, Massachusetts, United States", "global_code": "87JC7RMV+MM"}, "rating": 5, "reference": "ChIJdeQd7y9_44kRcz9beBa1jho", "scope": "GOOGLE", "types": ["gym", "health", "point_of_interest", "establishment"], "user_ratings_total": 3, "vicinity": "20 McKenna Terrace, West Roxbury"}, "ChIJGzE9DS1l44kRoOhiASS_fHg": {"geometry": {"location": {"lat": 42.3600825, "lng": -71.0588801}, "viewport": {"northeast": {"lat": 42.40081989999999, "lng": -70.749455}, "southwest": {"lat": 42.22788, "lng": -71.191113}}}, "icon": "https://maps.gstatic.com/mapfiles/place_api/icons/geocode-71.png", "id": "06755c25d2b34d13942a4713971756a55b870ced", "name": "Boston", "photos": [{"height": 3024, "html_attributions": ["<a href=\"https://maps.google.com/maps/contrib/104670289779338733432/photos\">Natalia Zalucean</a>"], "photo_reference": "CmRaAAAA_fQ88Ed_b_1z-gyRetnPF2cKnk4hE3_SAWSTYHLJzEF6MiR9AQADpCfUPfkEV57CogID5g62vYSjTF2tkcTjrcvh6ctFGMxrc51qEK7z2nW5j_t76j8Gl3aSdfHb5vnhEhAEcdrzKw733HmRxmlwrEA9GhTyeNtcblFoUN6zLx6Yb1Sq2q_2GA", "width": 4032}], "place_id": "ChIJGzE9DS1l44kRoOhiASS_fHg", "reference": "ChIJGzE9DS1l44kRoOhiASS_fHg", "scope": "GOOGLE", "types": ["locality", "political"], "vicinity": "Boston"}, "ChIJJYF72S9_44kRjgMNab2PDns": {"geometry": {"location": {"lat": 42.2850689, "lng": -71.1563379}, "viewport": {"northeast": {"lat": 42.28640533029149, "lng": -71.1550002197085}, "southwest": {"lat": 42.28370736970849, "lng": -71.1576981802915}}}, "icon": "https://maps.gstatic.com/mapfiles/place_api/icons/generic_business-71.png", "id": "1cc02123a6d1ee3454f3824fee3808ddcce0f0a0", "name": "Sutotasc", "place_id": "ChIJJYF72S9_44kRjgMNab2PDns", "plus_code": {"compound_code": "7RPV+2F Boston, Massachusetts, United States", "global_code": "87JC7RPV+2F"}, "reference": "ChIJJYF72S9_44kRjgMNab2PDns", "scope": "GOOGLE", "types": ["point_of_interest", "establishment"], "vicinity": "111 Park Street, West Roxbury"}}