{"ChIJPW5NRmt644kRo2IJarBN3Zw": {"geometry": {"location": {"lat": 42.3395013, "lng": -71.0726452}, "viewport": {"northeast": {"lat": 42.3408502302915, "lng": -71.0712961697085}, "southwest": {"lat": 42.3381522697085, "lng": -71.07399413029151}}}, "icon": "https://maps.gstatic.com/mapfiles/place_api/icons/geocode-71.png", "id": "5e49518d46b086b4611c9313f7c3db4701344c60", "name": "1524-1520 Washington St", "place_id": "ChIJPW5NRmt644kRo2IJarBN3Zw", "reference": "ChIJPW5NRmt644kRo2IJarBN3Zw", "scope": "GOOGLE", "types": ["route"], "vicinity": "Boston"}, "ChIJmYaFQ2t644kRe4mAhPg-0XE": {"geometry": {"location": {"lat": 42.33991, "lng": -71.07257290000001}, "viewport": {"northeast": {"lat": 42.3411587302915, "lng": -71.07110751970849}, "southwest": {"lat": 42.3384607697085, "lng": -71.07380548029151}}}, "icon": "https://maps.gstatic.com/mapfiles/place_api/icons/restaurant-71.png", "id": "d0febb49ba355dbbcd92cd36ea398d02305f71e3", "name": "Stella Restaurant", "opening_hours": {"open_now": true}, "photos": [{"height": 700, "html_attributions": ["<a href=\"https://maps.google.com/maps/contrib/101063237655190097141/photos\">Stella Restaurant</a>"], "photo_reference": "CmRaAAAA925Pbju0dohgIDwm9wydIVxziYpMDOCNxWE2HwoAmBruZnYVzmfEnMAp3XO237t7ygeqALsOQtjNi_q-939yGg9eOZ60mNKCcQj7SO8QRUBDlOmIjnlbJ9-3pCCn1rs5EhCTWpkOaibZjrVX41yFqtrLGhTG7eJ-vkWSaJAcKankj-QkGltZgg", "width": 1242}], "place_id": "ChIJmYaFQ2t644kRe4mAhPg-0XE", "plus_code": {"compound_code": "8WQG+XX Boston, Massachusetts, United States", "global_code": "87JC8WQG+XX"}, "price_level": 2, "rating": 4.4, "reference": "ChIJmYaFQ2t644kRe4mAhPg-0XE", "scope": "GOOGLE", "types": ["bar", "restaurant", "point_of_interest", "food", "establishment"], "user_ratings_total": 256, "vicinity": "1525 Washington Street, Boston"}, "ChIJ4W4qS2t644kRDf4Ag6gGCAI": {"geometry": {"location": {"lat": 42.339609, "lng": -71.0733619}, "viewport": {"northeast": {"lat": 42.3407957802915, "lng": -71.0718138197085}, "southwest": {"lat": 42.3380978197085, "lng": -71.0745117802915}}}, "icon": "https://maps.gstatic.com/mapfiles/place_api/icons/generic_recreational-71.png", "id": "7c4aea607db844d01f529c3cf40865e5b85c4262", "name": "Blackstone Square", "photos": [{"height": 3036, "html_attributions": ["<a href=\"https://maps.google.com/maps/contrib/108662600466226250084/photos\">Hanne Richardson</a>"], "photo_reference": "CmRaAAAAg-dYedF7KkKKXE9x-t3g9W6d8YZFKw4EtN5Ok95zcFMkvbzXWT_i9WFiYqAQe0HDEavugRiROvy3b0lO2nny9E8GDOBKg9SBg9OVwmn3iz5uhzE12nDzTPGMOXMYeDNREhAVm9nbyC6jRrHZ2myhyBr6GhTO0CXSjw1wZ4VHQM8dNJH-TyU5Kw", "width": 4048}], "place_id": "ChIJ4W4qS2t644kRDf4Ag6gGCAI", "plus_code": {"compound_code": "8WQG+RM Boston, Massachusetts, United States", "global_code": "87JC8WQG+RM"}, "rating": 4.5, "reference": "ChIJ4W4qS2t644kRDf4Ag6gGCAI", "scope": "GOOGLE", "types": ["park", "point_of_interest", "establishment"], "user_ratings_total": 49, "vicinity": "1535 Washington Street, Boston"}, "ChIJodQcgBt644kR3PUWvi33Ewo": {"geometry": {"location": {"lat": 42.34035, "lng": -71.073104}, "viewport": {"northeast": {"lat": 42.3416482302915, "lng": -71.0718321697085}, "southwest": {"lat": 42.3389502697085, "lng": -71.0745301302915}}}, "icon": "https://maps.gstatic.com/mapfiles/place_api/icons/worship_general-71.png", "id": "6bbd128129af442932dd74e562b5670397b875b8", "name": "Reunion Christian Church - South End", "opening_hours": {"open_now": true}, "place_id": "ChIJodQcgBt644kR3PUWvi33Ewo", "plus_code": {"compound_code": "8WRG+4Q Boston, Massachusetts, United States", "global_code": "87JC8WRG+4Q"}, "rating": 5, "reference": "ChIJodQcgBt644kR3PUWvi33Ewo", "scope": "GOOGLE", "types": ["church", "place_of_worship", "point_of_interest", "establishment"], "user_ratings_total": 6, "vicinity": "4004, 50 West Brookline Street, Boston"}, "ChIJD--ZZ2t644kR5In7nwwgnek": {"geometry": {"location": {"lat": 42.3398827, "lng": -71.0725726}, "viewport": {"northeast": {"lat": 42.34114168029149, "lng": -71.07111241970848}, "southwest": {"lat": 42.33844371970849, "lng": -71.0738103802915}}}, "icon": "https://maps.gstatic.com/mapfiles/place_api/icons/generic_business-71.png", "id": "41973a435e6424cafc0c836aff28c49adbb4e917", "name": "barre3 Boston - South End", "photos": [{"height": 608, "html_attributions": ["<a href=\"https://maps.google.com/maps/contrib/102978453589210380781/photos\">barre3 Boston - South End</a>"], "photo_reference": "CmRaAAAAa-6cXWetjOIa3z7Q21GGgQEYJa9g6q_tFUGJv49f_dmXHUMelb_GIrHkkJ3sPTmfq-lJRrbjWZ7bF7MPEyK3avOycHu5w_2NIOU64lGAkbfYCbIONLXSYqRyWDIytAEvEhDxxqX2spl2MeudkEgVIS_mGhRpsM4-hufUSA3lniPfqBCAHE7i2Q", "width": 1080}], "place_id": "ChIJD--ZZ2t644kR5In7nwwgnek", "plus_code": {"compound_code": "8WQG+XX Boston, Massachusetts, United States", "global_code": "87JC8WQG+XX"}, "rating": 5, "reference": "ChIJD--ZZ2t644kR5In7nwwgnek", "scope": "GOOGLE", "types": ["gym", "health", "point_of_interest", "establishment"], "user_ratings_total": 8, "vicinity": "1511 Washington Street, Boston"}, "ChIJzYREUGt644kRifGaQArMGi4": {"geometry": {"location": {"lat": 42.34035009999999, "lng": -71.0731042}, "viewport": {"northeast": {"lat": 42.3416483302915, "lng": -71.07183236970849}, "southwest": {"lat": 42.3389503697085, "lng": -71.0745303302915}}}, "icon": "https://maps.gstatic.com/mapfiles/place_api/icons/school-71.png", "id": "c49f0b31961427916afa7451cadc9b19a274875b", "name": "South End Wing Chun at Blackstone Community Center", "place_id": "ChIJzYREUGt644kRifGaQArMGi4", "plus_code": {"compound_code": "8WRG+4Q Boston, Massachusetts, United States", "global_code": "87JC8WRG+4Q"}, "reference": "ChIJzYREUGt644kRifGaQArMGi4", "scope": "GOOGLE", "types": ["health", "point_of_interest", "establishment"], "vicinity": "50 West Brookline Street, Boston"}, "ChIJ4-Yzopl544kRiqKafUySQlo": {"geometry": {"location": {"lat": 42.3396154, "lng": -71.072503}, "viewport": {"northeast": {"lat": 42.3409474802915, "lng": -71.0711783197085}, "southwest": {"lat": 42.3382495197085, "lng": -71.07387628029151}}}, "icon": "https://maps.gstatic.com/mapfiles/place_api/icons/shopping-71.png", "id": "f26026188f9c09f8908e8474b2f66e0b32c6496f", "name": "KellyAudio", "opening_hours": {"open_now": true}, "place_id": "ChIJ4-Yzopl544kRiqKafUySQlo", "plus_code": {"compound_code": "8WQG+RX Boston, Massachusetts, United States", "global_code": "87JC8WQG+RX"}, "reference": "ChIJ4-Yzopl544kRiqKafUySQlo", "scope": "GOOGLE", "types": ["electronics_store", "home_goods_store", "store", "point_of_interest", "establishment"], "vicinity": "10 West Brookline Street, Boston"}, "ChIJEd0RQ2t644kR9iEKKCvuNdI": {"geometry": {"location": {"lat": 42.3398827, "lng": -71.0725726}, "viewport": {"northeast": {"lat": 42.34114168029149, "lng": -71.07111241970848}, "southwest": {"lat": 42.33844371970849, "lng": -71.0738103802915}}}, "icon": "https://maps.gstatic.com/mapfiles/place_api/icons/generic_business-71.png", "id": "ba266e8f9c1d014a8cfaa09517b7dcaa0e9deb08", "name": "Sell Master Inc", "place_id": "ChIJEd0RQ2t644kR9iEKKCvuNdI", "plus_code": {"compound_code": "8WQG+XX Boston, Massachusetts, United States", "global_code": "87JC8WQG+XX"}, "reference": "ChIJEd0RQ2t644kR9iEKKCvuNdI", "scope": "GOOGLE", "types": ["point_of_interest", "establishment"], "vicinity": "1513 Washington Street, Boston"}, "ChIJEd0RQ2t644kRdjm8l3qy2ag": {"geometry": {"location": {"lat": 42.3398827, "lng": -71.0725726}, "viewport": {"northeast": {"lat": 42.34114168029149, "lng": -71.07111241970848}, "southwest": {"lat": 42.33844371970849, "lng": -71.0738103802915}}}, "icon": "https://maps.gstatic.com/mapfiles/place_api/icons/generic_business-71.png", "id": "2673cf2f79d15c0d28720ef4895b84aa58088b4b", "name": "Modern Day Prophets Inc", "place_id": "ChIJEd0RQ2t644kRdjm8l3qy2ag", "plus_code": {"compound_code": "8WQG+XX Boston, Massachusetts, United States", "global_code": "87JC8WQG+XX"}, "reference": "ChIJEd0RQ2t644kRdjm8l3qy2ag", "scope": "GOOGLE", "types": ["point_of_interest", "establishment"], "vicinity": "1513 Washington Street # 24, Boston"}, "ChIJ3zrVtBR644kR7Gp-k60tAyU": {"geometry": {"location": {"lat": 42.339648, "lng": -71.0735512}, "viewport": {"northeast": {"lat": 42.3408074802915, "lng": -71.07192006970848}, "southwest": {"lat": 42.3381095197085, "lng": -71.0746180302915}}}, "icon": "https://maps.gstatic.com/mapfiles/place_api/icons/civic_building-71.png", "id": "43910393d59ae1c455f6f0e428ac4bab18c647b4", "name": "ParkARTS Neighborhood Concert", "place_id": "ChIJ3zrVtBR644kR7Gp-k60tAyU", "plus_code": {"compound_code": "8WQG+VH Boston, Massachusetts, United States", "global_code": "87JC8WQG+VH"}, "reference": "ChIJ3zrVtBR644kR7Gp-k60tAyU", "scope": "GOOGLE", "types": ["point_of_interest", "establishment"], "vicinity": "1535 Washington Street, Boston"}, "ChIJQydfXWt644kRTlettI9F6wE": {"geometry": {"location": {"lat": 42.3398827, "lng": -71.0725726}, "viewport": {"northeast": {"lat": 42.34114168029149, "lng": -71.07111241970848}, "southwest": {"lat": 42.33844371970849, "lng": -71.0738103802915}}}, "icon": "https://maps.gstatic.com/mapfiles/place_api/icons/generic_business-71.png", "id": "1fc3145a0ae40ad726aa7d492667dc5591947dfd", "name": "Inside Job Inc.", "opening_hours": {"open_now": true}, "place_id": "ChIJQydfXWt644kRTlettI9F6wE", "plus_code": {"compound_code": "8WQG+XX Boston, Massachusetts, United States", "global_code": "87JC8WQG+XX"}, "reference": "ChIJQydfXWt644kRTlettI9F6wE", "scope": "GOOGLE", "types": ["finance", "point_of_interest", "establishment"], "vicinity": "1521 Washington Street, Boston"}, "ChIJff6eXGt644kRJASamS-7s9E": {"geometry": {"location": {"lat": 42.3399779, "lng": -71.0724204}, "viewport": {"northeast": {"lat": 42.34123888029151, "lng": -71.0709627697085}, "southwest": {"lat": 42.33854091970851, "lng": -71.07366073029151}}}, "icon": "https://maps.gstatic.com/mapfiles/place_api/icons/generic_business-71.png", "id": "af090173657207695bb2ef1f37fa91ab9b92de8a", "name": "KP Strategies", "place_id": "ChIJff6eXGt644kRJASamS-7s9E", "plus_code": {"compound_code": "8WQH+X2 Boston, Massachusetts, United States", "global_code": "87JC8WQH+X2"}, "reference": "ChIJff6eXGt644kRJASamS-7s9E", "scope": "GOOGLE", "types": ["point_of_interest", "establishment"], "vicinity": "1513 Washington Street, Boston"}, "ChIJNbheXWt644kRycriB-FhFp8": {"geometry": {"location": {"lat": 42.3399277, "lng": -71.0725442}, "viewport": {"northeast": {"lat": 42.34117963029149, "lng": -71.0710753197085}, "southwest": {"lat": 42.33848166970849, "lng": -71.0737732802915}}}, "icon": "https://maps.gstatic.com/mapfiles/place_api/icons/generic_business-71.png", "id": "b720b29c5d5d7ba4d9105553362f71c69e17f57c", "name": "T J Associates Geraghty", "place_id": "ChIJNbheXWt644kRycriB-FhFp8", "plus_code": {"compound_code": "8WQG+XX Boston, Massachusetts, United States", "global_code": "87JC8WQG+XX"}, "reference": "ChIJNbheXWt644kRycriB-FhFp8", "scope": "GOOGLE", "types": ["point_of_interest", "establishment"], "vicinity": "1521 Washington Street, Boston"}, "ChIJGzE9DS1l44kRoOhiASS_fHg": {"geometry": {"location": {"lat": 42.3600825, "lng": -71.0588801}, "viewport": {"northeast": {"lat": 42.40081989999999, "lng": -70.749455}, "southwest": {"lat": 42.22788, "lng": -71.191113}}}, "icon": "https://maps.gstatic.com/mapfiles/place_api/icons/geocode-71.png", "id": "06755c25d2b34d13942a4713971756a55b870ced", "name": "Boston", "photos": [{"height": 3024, "html_attributions": ["<a href=\"https://maps.google.com/maps/contrib/104670289779338733432/photos\">Natalia Zalucean</a>"], "photo_reference": "CmRaAAAAaFijrAnF0HvRpdFY7mpLwxkbY9eBsZ0jsAktDV9hU7yMN2h97JalanwwVkVIczb3SGu1JcQyhEPXsnNq0Shs6ht8JuMtKKn0DBMHmmmKiqc9aol-XIHhFPIPsL9yvWYFEhAIvSpTP2daMqFA3iiPMBedGhSb9oXi7H_DwrgrKzQJ1Bscv_-NxQ", "width": 4032}], "place_id": "ChIJGzE9DS1l44kRoOhiASS_fHg", "reference": "ChIJGzE9DS1l44kRoOhiASS_fHg", "scope": "GOOGLE", "types": ["locality", "political"], "vicinity": "Boston"}}