{"ChIJoT9WzxN644kRa2_A8fXvJ4I": {"geometry": {"location": {"lat": 42.3433155, "lng": -71.0784314}, "viewport": {"northeast": {"lat": 42.3446644302915, "lng": -71.0770824197085}, "southwest": {"lat": 42.3419664697085, "lng": -71.07978038029151}}}, "icon": "https://maps.gstatic.com/mapfiles/place_api/icons/geocode-71.png", "id": "450c81f4178331f0f7a8234afcf79a778d40c2bb", "name": "Columbus Avenue", "place_id": "ChIJoT9WzxN644kRa2_A8fXvJ4I", "reference": "ChIJoT9WzxN644kRa2_A8fXvJ4I", "scope": "GOOGLE", "types": ["route"], "vicinity": "Boston"}, "ChIJxyshwxN644kRnAj65GO5RDc": {"geometry": {"location": {"lat": 42.342838, "lng": -71.078608}, "viewport": {"northeast": {"lat": 42.3442377302915, "lng": -71.07733516970849}, "southwest": {"lat": 42.3415397697085, "lng": -71.08003313029151}}}, "icon": "https://maps.gstatic.com/mapfiles/place_api/icons/restaurant-71.png", "id": "ab156af37356591ac6921b08be1f0c9d04de7aa9", "name": "Petit Robert Bistro", "opening_hours": {"open_now": true}, "photos": [{"height": 3264, "html_attributions": ["<a href=\"https://maps.google.com/maps/contrib/106421548616728976075/photos\">Charlie Friedman</a>"], "photo_reference": "CmRaAAAAc_WMwUN6Ob5fTCwYw-b6vamWs_7_ytmw35A0V8efIffJs1ki6TdzQ1Zv6veMNHAIgfacCjFFjXLXf94MrmOZXpiPIMU8xwyHE7it6-1gurw3PJKABt_oM75bGIaDIUKhEhCqUcfXeI5sTulh2oaTDJArGhTEDqbmsr7t0WGkXh-55qgPp9e_aA", "width": 2448}], "place_id": "ChIJxyshwxN644kRnAj65GO5RDc", "plus_code": {"compound_code": "8WVC+4H Boston, Massachusetts, United States", "global_code": "87JC8WVC+4H"}, "price_level": 2, "rating": 4.3, "reference": "ChIJxyshwxN644kRnAj65GO5RDc", "scope": "GOOGLE", "types": ["bar", "restaurant", "point_of_interest", "food", "establishment"], "user_ratings_total": 202, "vicinity": "02118, 480 Columbus Avenue, Boston"}, "ChIJt9192xN644kRxDVjQ-aNKAc": {"geometry": {"location": {"lat": 42.34313499999999, "lng": -71.079137}, "viewport": {"northeast": {"lat": 42.34439603029149, "lng": -71.0776559697085}, "southwest": {"lat": 42.34169806970849, "lng": -71.08035393029151}}}, "icon": "https://maps.gstatic.com/mapfiles/place_api/icons/worship_general-71.png", "id": "4f7238a354d36f21fdab649b6796d34d1d090f97", "name": "Union Church", "opening_hours": {"open_now": false}, "photos": [{"height": 3022, "html_attributions": ["<a href=\"https://maps.google.com/maps/contrib/116636104181916442947/photos\">Morad Sitt</a>"], "photo_reference": "CmRaAAAABYJ7iU4o-NUJv7IjMxy9Srp-sYz3IRRsNWfFZ8ch8BaIjVl3cpAWs92Bn6Szvb9MUTn72HFUUU4UOZRjn2HY9tbwzhGOpoZwnOw_YwZMzn2nsUknB2hBe8lHgd6Niiz2EhCjw2rXj-9fLksBuhCNTZpQGhTsxxPtDcygfBlxoI6h5OZZWcnrFA", "width": 4032}], "place_id": "ChIJt9192xN644kRxDVjQ-aNKAc", "plus_code": {"compound_code": "8WVC+78 Boston, Massachusetts, United States", "global_code": "87JC8WVC+78"}, "rating": 4.9, "reference": "ChIJt9192xN644kRxDVjQ-aNKAc", "scope": "GOOGLE", "types": ["church", "place_of_worship", "point_of_interest", "establishment"], "user_ratings_total": 12, "vicinity": "485 Columbus Avenue, Boston"}, "ChIJM4gRxBN644kRWf2_j8t4BXQ": {"geometry": {"location": {"lat": 42.3430105, "lng": -71.07845549999999}, "viewport": {"northeast": {"lat": 42.3443997302915, "lng": -71.0771663697085}, "southwest": {"lat": 42.3417017697085, "lng": -71.0798643302915}}}, "icon": "https://maps.gstatic.com/mapfiles/place_api/icons/shopping-71.png", "id": "cc2c17ad4fb9853c7283d03ae457365bd78eb607", "name": "The Wine Emporium", "opening_hours": {"open_now": true}, "photos": [{"height": 3024, "html_attributions": ["<a href=\"https://maps.google.com/maps/contrib/114392515233572546288/photos\">Chip Huyett</a>"], "photo_reference": "CmRaAAAAdoUBQZiiBc1kc7ix6SxHLe-HrfK_dT1yrmfx0PfcDujcUNcLy0a0HIO2AgJj6IXW8TO54F0T2FVqxAMoTtt7ANQMjjm0cQlvsKWGHl4VwWWY-sMMsI1jH_X6CrQlBuzbEhDo-wJm0Ax0INpwtjorV46JGhSEvHlTfogIeIwlGpM-6zElK45h4g", "width": 4032}], "place_id": "ChIJM4gRxBN644kRWf2_j8t4BXQ", "plus_code": {"compound_code": "8WVC+6J Boston, Massachusetts, United States", "global_code": "87JC8WVC+6J"}, "rating": 4.5, "reference": "ChIJM4gRxBN644kRWf2_j8t4BXQ", "scope": "GOOGLE", "types": ["liquor_store", "store", "point_of_interest", "food", "establishment"], "user_ratings_total": 30, "vicinity": "474 Columbus Avenue, Boston"}, "ChIJzZXeyBN644kRh-VJowS3ug8": {"geometry": {"location": {"lat": 42.34372370000001, "lng": -71.0781523}, "viewport": {"northeast": {"lat": 42.3450307802915, "lng": -71.0767414197085}, "southwest": {"lat": 42.3423328197085, "lng": -71.0794393802915}}}, "icon": "https://maps.gstatic.com/mapfiles/place_api/icons/generic_business-71.png", "id": "e5050328812c0f8aaa4ce86742271e28c436c19f", "name": "Columbus Dry Cleaners", "opening_hours": {"open_now": true}, "photos": [{"height": 1536, "html_attributions": ["<a href=\"https://maps.google.com/maps/contrib/111904206396646574910/photos\">Columbus Dry Cleaners</a>"], "photo_reference": "CmRaAAAAl_sb0Nl_9gno11OV52VlblNSsjHKAaQhfex4OxqhrtEfkG_Jy5vdNVhUqbAn15qZoFZ2FfCBNDVBdDnxn2AkL8DFFJ4rQ_igabxgJlJgdzj5qFBrwMXFHikyKH6WLkEFEhCCAnd1DeUtQxZfs5KDZO2wGhTIorIPqSYiCCOSbcMwbgRV9szRzA", "width": 2048}], "place_id": "ChIJzZXeyBN644kRh-VJowS3ug8", "plus_code": {"compound_code": "8WVC+FP Boston, Massachusetts, United States", "global_code": "87JC8WVC+FP"}, "rating": 4.3, "reference": "ChIJzZXeyBN644kRh-VJowS3ug8", "scope": "GOOGLE", "types": ["laundry", "point_of_interest", "establishment"], "user_ratings_total": 11, "vicinity": "465 Columbus Avenue, Boston"}, "ChIJzZXeyBN644kR39cPY48yp2s": {"geometry": {"location": {"lat": 42.3435399, "lng": -71.0784455}, "viewport": {"northeast": {"lat": 42.3448349302915, "lng": -71.07701681970849}, "southwest": {"lat": 42.3421369697085, "lng": -71.07971478029151}}}, "icon": "https://maps.gstatic.com/mapfiles/place_api/icons/atm-71.png", "id": "288b0cdb2263ffc03b699931d14c35e77b03e3af", "name": "Bank of America ATM", "opening_hours": {"open_now": true}, "place_id": "ChIJzZXeyBN644kR39cPY48yp2s", "plus_code": {"compound_code": "8WVC+CJ Boston, Massachusetts, United States", "global_code": "87JC8WVC+CJ"}, "rating": 3, "reference": "ChIJzZXeyBN644kR39cPY48yp2s", "scope": "GOOGLE", "types": ["atm", "finance", "point_of_interest", "establishment"], "user_ratings_total": 1, "vicinity": "465 Columbus Avenue, Boston"}, "ChIJTyIjwxN644kREEvU0Gqkf8o": {"geometry": {"location": {"lat": 42.34292, "lng": -71.078467}, "viewport": {"northeast": {"lat": 42.3443272302915, "lng": -71.07720546970849}, "southwest": {"lat": 42.3416292697085, "lng": -71.0799034302915}}}, "icon": "https://maps.gstatic.com/mapfiles/place_api/icons/generic_business-71.png", "id": "df739971dbd4dfd4e05e46066eec8901e97b7213", "name": "South End Realty Group", "opening_hours": {"open_now": true}, "photos": [{"height": 1192, "html_attributions": ["<a href=\"https://maps.google.com/maps/contrib/108672107012138852452/photos\">South End Realty Group</a>"], "photo_reference": "CmRaAAAAXBgx6G1RSrE0FpgZFvlhWDKbLdio7HkMMvSzIA_Du3l_nEa66uy6c-cFmyNhQe0nNTGcmrZYpgqbrsFJYtuJIcwh4B2ya0NGW_2O5YR7Wy00DfRWzn7VdKH8nGmifj-_EhBtPtisjl6HuQnpnrlfNiIGGhRH5EidWiB9mb35CBPeJJ3dfxmEdQ", "width": 1920}], "place_id": "ChIJTyIjwxN644kREEvU0Gqkf8o", "plus_code": {"compound_code": "8WVC+5J Boston, Massachusetts, United States", "global_code": "87JC8WVC+5J"}, "rating": 2.8, "reference": "ChIJTyIjwxN644kREEvU0Gqkf8o", "scope": "GOOGLE", "types": ["real_estate_agency", "point_of_interest", "establishment"], "user_ratings_total": 10, "vicinity": "476A Columbus Avenue, Boston"}, "ChIJu5beyBN644kROttvd0-fzko": {"geometry": {"location": {"lat": 42.3435277, "lng": -71.078458}, "viewport": {"northeast": {"lat": 42.3448232302915, "lng": -71.07703001970849}, "southwest": {"lat": 42.3421252697085, "lng": -71.0797279802915}}}, "icon": "https://maps.gstatic.com/mapfiles/place_api/icons/generic_business-71.png", "id": "102d97271ebcda5ec3fafc25b749dc02c9ef12b3", "name": "Prime Realty", "place_id": "ChIJu5beyBN644kROttvd0-fzko", "plus_code": {"compound_code": "8WVC+CJ Boston, Massachusetts, United States", "global_code": "87JC8WVC+CJ"}, "rating": 3, "reference": "ChIJu5beyBN644kROttvd0-fzko", "scope": "GOOGLE", "types": ["real_estate_agency", "point_of_interest", "establishment"], "user_ratings_total": 4, "vicinity": "465 Columbus Avenue, Boston"}, "ChIJLRcSthN644kR7s4IlLIL8tU": {"geometry": {"location": {"lat": 42.3434753, "lng": -71.077958}, "viewport": {"northeast": {"lat": 42.3448486802915, "lng": -71.0766454697085}, "southwest": {"lat": 42.3421507197085, "lng": -71.0793434302915}}}, "icon": "https://maps.gstatic.com/mapfiles/place_api/icons/generic_recreational-71.png", "id": "9734d821ad4c94dc75f38e909a762df91aac0fae", "name": "Harriet Tubman Square", "opening_hours": {"open_now": true}, "photos": [{"height": 4032, "html_attributions": ["<a href=\"https://maps.google.com/maps/contrib/102496435855951705485/photos\">Alex Scott</a>"], "photo_reference": "CmRaAAAAJQVqLIwr5TcAgTF_WuLbKedvKYSJ4L-bwBUbud5NmmcZ096Pvg-8s0tBgZNwjfbHoxAEtuEweNgMP6FxHqezjEPF4-OXehJzRiuKPgc6rtOjleLecAPD9pVeoGsenxIcEhD6990hW8LmCaIZif3SQXw9GhSG1eJTlvV8-9C5O8yS0ZoLqbUX7Q", "width": 3024}], "place_id": "ChIJLRcSthN644kR7s4IlLIL8tU", "plus_code": {"compound_code": "8WVC+9R Boston, Massachusetts, United States", "global_code": "87JC8WVC+9R"}, "rating": 4.8, "reference": "ChIJLRcSthN644kR7s4IlLIL8tU", "scope": "GOOGLE", "types": ["park", "point_of_interest", "establishment"], "user_ratings_total": 28, "vicinity": "450 Columbus Avenue, Boston"}, "ChIJL-64lxF644kRIrxKFg8yCzM": {"geometry": {"location": {"lat": 42.3429268, "lng": -71.07861299999999}, "viewport": {"northeast": {"lat": 42.3443056802915, "lng": -71.0773089197085}, "southwest": {"lat": 42.3416077197085, "lng": -71.0800068802915}}}, "icon": "https://maps.gstatic.com/mapfiles/place_api/icons/generic_business-71.png", "id": "c3c248d5006cce525f663078f048390ca1dca4c4", "name": "Boston Christopher", "opening_hours": {"open_now": true}, "photos": [{"height": 805, "html_attributions": ["<a href=\"https://maps.google.com/maps/contrib/106719142337327218428/photos\">Boston Christopher</a>"], "photo_reference": "CmRaAAAAAT6KJv4N__BhqXeJRrnHwJc1jPW13NGbND7ERBxXCQhiBQEIO92eM-ICvZKWMp6IiqB77rmVTwDSPvcyfAGbCnO76BKIiSohZj0osgLf4GmVH5FyTeb94pDB4hhTbU9pEhAvrwfgNREYwgW6DjpgnMc5GhQJsRv0Q1zTmJn6veLYsFyQgRRDaQ", "width": 1440}], "place_id": "ChIJL-64lxF644kRIrxKFg8yCzM", "plus_code": {"compound_code": "8WVC+5H Boston, Massachusetts, United States", "global_code": "87JC8WVC+5H"}, "rating": 2.5, "reference": "ChIJL-64lxF644kRIrxKFg8yCzM", "scope": "GOOGLE", "types": ["real_estate_agency", "point_of_interest", "establishment"], "user_ratings_total": 4, "vicinity": "476 Columbus Avenue, Boston"}, "ChIJe1SxwhN644kR0mo9SjGkOe8": {"geometry": {"location": {"lat": 42.3428068, "lng": -71.0787227}, "viewport": {"northeast": {"lat": 42.3441924302915, "lng": -71.0774287197085}, "southwest": {"lat": 42.34149446970851, "lng": -71.08012668029151}}}, "icon": "https://maps.gstatic.com/mapfiles/place_api/icons/generic_business-71.png", "id": "d2f948eb28d6654bdb19cf7a74de0926b2e2387e", "name": "DeBord Construction", "place_id": "ChIJe1SxwhN644kR0mo9SjGkOe8", "plus_code": {"compound_code": "8WVC+4G Boston, Massachusetts, United States", "global_code": "87JC8WVC+4G"}, "rating": 5, "reference": "ChIJe1SxwhN644kR0mo9SjGkOe8", "scope": "GOOGLE", "types": ["general_contractor", "point_of_interest", "establishment"], "user_ratings_total": 1, "vicinity": "484 Columbus Avenue, Boston"}, "ChIJzZXeyBN644kRkYFm6jWEK98": {"geometry": {"location": {"lat": 42.343421, "lng": -71.078527}, "viewport": {"northeast": {"lat": 42.3447278302915, "lng": -71.0771168197085}, "southwest": {"lat": 42.3420298697085, "lng": -71.0798147802915}}}, "icon": "https://maps.gstatic.com/mapfiles/place_api/icons/shopping-71.png", "id": "af12d1d96e70b870172a51f65e5e959035f10751", "name": "South End Food Emporium", "opening_hours": {"open_now": true}, "photos": [{"height": 1836, "html_attributions": ["<a href=\"https://maps.google.com/maps/contrib/107801438321505118225/photos\">South End Food Emporium</a>"], "photo_reference": "CmRaAAAA3A_MXc5_EVT8GIi-N7t9YjVU_5Mq5FCCOFzEFfflguUlJBa6aNoUiD-eIgUILFPQQoj93sGdp1d7Pm1rWvAT2ffyJ8nuS_rWf6nc2ymgTH-hZ2qHzpqKltqApaafOQ8KEhCWApmRMJQVuk_ALUbv1vdJGhS9MFIbuPmF6OwFBFVmrbPI-Q8UjQ", "width": 3264}], "place_id": "ChIJzZXeyBN644kRkYFm6jWEK98", "plus_code": {"compound_code": "8WVC+9H Boston, Massachusetts, United States", "global_code": "87JC8WVC+9H"}, "rating": 4.4, "reference": "ChIJzZXeyBN644kRkYFm6jWEK98", "scope": "GOOGLE", "types": ["grocery_or_supermarket", "store", "point_of_interest", "food", "establishment"], "user_ratings_total": 37, "vicinity": "469 Columbus Avenue, Boston"}, "ChIJs12ncVZ744kRdDcRyU7dqbQ": {"geometry": {"location": {"lat": 42.3432702, "lng": -71.0784884}, "viewport": {"northeast": {"lat": 42.3445741802915, "lng": -71.0771670197085}, "southwest": {"lat": 42.3418762197085, "lng": -71.0798649802915}}}, "icon": "https://maps.gstatic.com/mapfiles/place_api/icons/generic_business-71.png", "id": "45f0053baf3de36389cdad577ef1e0b2f79d789b", "name": "Allied Heavy Haul", "opening_hours": {"open_now": true}, "photos": [{"height": 540, "html_attributions": ["<a href=\"https://maps.google.com/maps/contrib/111724273390921989217/photos\">Allied Heavy Haul</a>"], "photo_reference": "CmRaAAAA62YaqWbcGVD5xCCs3_ON1ORCToHPSUZxzN8ITyJW0gsN0l801ZOyi4LuUrvMyzomx5YZ-Y5kxN4lcFGR5cW2RnobeWlt_kYL7tt1Dozf9fDpwFnrE90drztwU99ziuSmEhD2qZwxwMSLMuY9ZcEU2NZTGhTfZ4m1zgdOY7_QRMfwXagLNw0Odw", "width": 541}], "place_id": "ChIJs12ncVZ744kRdDcRyU7dqbQ", "plus_code": {"compound_code": "8WVC+8J Boston, Massachusetts, United States", "global_code": "87JC8WVC+8J"}, "reference": "ChIJs12ncVZ744kRdDcRyU7dqbQ", "scope": "GOOGLE", "types": ["moving_company", "point_of_interest", "establishment"], "vicinity": "Columbus Avenue, Boston"}, "ChIJlRP1y_9744kRyH-PSeQrsqo": {"geometry": {"location": {"lat": 42.3433607, "lng": -71.0783744}, "viewport": {"northeast": {"lat": 42.3446829302915, "lng": -71.0769869197085}, "southwest": {"lat": 42.3419849697085, "lng": -71.07968488029151}}}, "icon": "https://maps.gstatic.com/mapfiles/place_api/icons/generic_business-71.png", "id": "3157fd3c6f7f7d6091bc6b7ba6be15f495dc74b9", "name": "Car Insurance Boston", "opening_hours": {"open_now": true}, "place_id": "ChIJlRP1y_9744kRyH-PSeQrsqo", "plus_code": {"compound_code": "8WVC+8M Boston, Massachusetts, United States", "global_code": "87JC8WVC+8M"}, "reference": "ChIJlRP1y_9744kRyH-PSeQrsqo", "scope": "GOOGLE", "types": ["insurance_agency", "point_of_interest", "establishment"], "vicinity": "Columbus Avenue, Boston"}, "ChIJJVp8zxN644kRnRUz11SUuf0": {"geometry": {"location": {"lat": 42.34334679999999, "lng": -71.0786066}, "viewport": {"northeast": {"lat": 42.34465678029149, "lng": -71.0771993697085}, "southwest": {"lat": 42.34195881970849, "lng": -71.0798973302915}}}, "icon": "https://maps.gstatic.com/mapfiles/place_api/icons/generic_business-71.png", "id": "2da5c40890a34363e53b2219163dccdcf08e830c", "name": "Alemu World Insurance", "place_id": "ChIJJVp8zxN644kRnRUz11SUuf0", "plus_code": {"compound_code": "8WVC+8H Boston, Massachusetts, United States", "global_code": "87JC8WVC+8H"}, "reference": "ChIJJVp8zxN644kRnRUz11SUuf0", "scope": "GOOGLE", "types": ["insurance_agency", "point_of_interest", "establishment"], "vicinity": "471 Columbus Avenue, Boston"}, "ChIJqxbCzRx744kR1Yt1DsGm_k0": {"geometry": {"location": {"lat": 42.3433488, "lng": -71.0781624}, "viewport": {"northeast": {"lat": 42.3446977802915, "lng": -71.07681341970849}, "southwest": {"lat": 42.34199981970851, "lng": -71.0795113802915}}}, "icon": "https://maps.gstatic.com/mapfiles/place_api/icons/generic_business-71.png", "id": "407470060d5445b01bd0fa6d2bc8ff6ac4b5ae14", "name": "Harriet Tubman Memorial - Step On Board", "opening_hours": {"open_now": true}, "photos": [{"height": 480, "html_attributions": ["<a href=\"https://maps.google.com/maps/contrib/109619198871676911180/photos\">Phyllis A Sears</a>"], "photo_reference": "CmRaAAAA1MYQzbUvzrwAptBKy1svRTKQbzFqNB-YpYpQaHFt0ZolpNNv8zWpgVph50J_hHvd8vB19i0SybME4HZF2Ai2L_v1IcCY7I8yBMeMN4ciUZVKjSrO7yBtmiDPTIPNUgLdEhDkQNpIneQ6PYpfVzSXL9hhGhRhc1ybO1Z61gaL4OtsW94cXDflTg", "width": 640}], "place_id": "ChIJqxbCzRx744kR1Yt1DsGm_k0", "plus_code": {"compound_code": "8WVC+8P Boston, Massachusetts, United States", "global_code": "87JC8WVC+8P"}, "reference": "ChIJqxbCzRx744kR1Yt1DsGm_k0", "scope": "GOOGLE", "types": ["point_of_interest", "establishment"], "vicinity": "Harriet Tubman Square, Boston"}, "ChIJmR_4MXR644kR3Cv_jurTM1s": {"geometry": {"location": {"lat": 42.3432875, "lng": -71.0778041}, "viewport": {"northeast": {"lat": 42.3446672802915, "lng": -71.0764693197085}, "southwest": {"lat": 42.3419693197085, "lng": -71.0791672802915}}}, "icon": "https://maps.gstatic.com/mapfiles/place_api/icons/generic_business-71.png", "id": "e3ed259d6ab3a777b3b72032a7307a62632b5e52", "name": "Dr. Gregg A. Franco, MD", "place_id": "ChIJmR_4MXR644kR3Cv_jurTM1s", "plus_code": {"compound_code": "8WVC+8V Boston, Massachusetts, United States", "global_code": "87JC8WVC+8V"}, "reference": "ChIJmR_4MXR644kR3Cv_jurTM1s", "scope": "GOOGLE", "types": ["doctor", "health", "point_of_interest", "establishment"], "vicinity": "6 Columbus Square, Boston"}, "ChIJXVhyxRN644kRh-S9_9w74Ww": {"geometry": {"location": {"lat": 42.3437096, "lng": -71.0789001}, "viewport": {"northeast": {"lat": 42.3449844302915, "lng": -71.0776443197085}, "southwest": {"lat": 42.3422864697085, "lng": -71.0803422802915}}}, "icon": "https://maps.gstatic.com/mapfiles/place_api/icons/generic_business-71.png", "id": "2a85b22c1358ab2a335ac3ff04f86775068ac575", "name": "Bryan Properties", "place_id": "ChIJXVhyxRN644kRh-S9_9w74Ww", "plus_code": {"compound_code": "8WVC+FC Boston, Massachusetts, United States", "global_code": "87JC8WVC+FC"}, "reference": "ChIJXVhyxRN644kRh-S9_9w74Ww", "scope": "GOOGLE", "types": ["point_of_interest", "establishment"], "vicinity": "195 West Newton Street, Boston"}, "ChIJY66UwRN644kRkk49BdIhf9k": {"geometry": {"location": {"lat": 42.3427915, "lng": -71.07824819999999}, "viewport": {"northeast": {"lat": 42.3441255802915, "lng": -71.07687461970849}, "southwest": {"lat": 42.3414276197085, "lng": -71.07957258029151}}}, "icon": "https://maps.gstatic.com/mapfiles/place_api/icons/generic_business-71.png", "id": "f57570dfc29ed113dfa4c4e087de7bd779d9566f", "name": "Marilyn R. Davillier, LCSW", "place_id": "ChIJY66UwRN644kRkk49BdIhf9k", "plus_code": {"compound_code": "8WVC+4P Boston, Massachusetts, United States", "global_code": "87JC8WVC+4P"}, "reference": "ChIJY66UwRN644kRkk49BdIhf9k", "scope": "GOOGLE", "types": ["doctor", "health", "point_of_interest", "establishment"], "vicinity": "170 West Newton Street, Boston, MA 02118, Boston"}, "ChIJGzE9DS1l44kRoOhiASS_fHg": {"geometry": {"location": {"lat": 42.3600825, "lng": -71.0588801}, "viewport": {"northeast": {"lat": 42.40081989999999, "lng": -70.749455}, "southwest": {"lat": 42.22788, "lng": -71.191113}}}, "icon": "https://maps.gstatic.com/mapfiles/place_api/icons/geocode-71.png", "id": "06755c25d2b34d13942a4713971756a55b870ced", "name": "Boston", "photos": [{"height": 3024, "html_attributions": ["<a href=\"https://maps.google.com/maps/contrib/104670289779338733432/photos\">Natalia Zalucean</a>"], "photo_reference": "CmRaAAAAnpAXlpl80CBxh-kkMtku-PR-xjn6TM1eLpTOk4GTNtcWvOnl70vJ_mEI4qbA2SGnMX8H4qmO1ruBLCcrfbAKbOi8TW1MojwVhKEKQ8ozzRuufrzsFbSMuVLJ6fgGnZd7EhAuHNsMgORratldv4l_c6V4GhSAzVTp1eKv2drZ8fFe-5qaysp8jw", "width": 4032}], "place_id": "ChIJGzE9DS1l44kRoOhiASS_fHg", "reference": "ChIJGzE9DS1l44kRoOhiASS_fHg", "scope": "GOOGLE", "types": ["locality", "political"], "vicinity": "Boston"}, "ChIJLXExwBN644kRZ1DEgL1wo9E": {"geometry": {"location": {"lat": 42.3427127, "lng": -71.0781669}, "viewport": {"northeast": {"lat": 42.3440528302915, "lng": -71.07681416970848}, "southwest": {"lat": 42.3413548697085, "lng": -71.07951213029149}}}, "icon": "https://maps.gstatic.com/mapfiles/place_api/icons/generic_recreational-71.png", "id": "06cb5e9a9e9305123ad5157e571b6dae6d3feee9", "name": "Hiscock Park", "place_id": "ChIJLXExwBN644kRZ1DEgL1wo9E", "reference": "ChIJLXExwBN644kRZ1DEgL1wo9E", "scope": "GOOGLE", "types": ["park", "premise", "point_of_interest", "establishment"], "vicinity": "Boston"}}