{"ChIJUfpnY15644kR7ghSZsP9E_Q": {"geometry": {"location": {"lat": 42.3306631, "lng": -71.054907}, "viewport": {"northeast": {"lat": 42.33201328029149, "lng": -71.0535590197085}, "southwest": {"lat": 42.32931531970849, "lng": -71.05625698029151}}}, "icon": "https://maps.gstatic.com/mapfiles/place_api/icons/geocode-71.png", "id": "aeee9e0707b65aa584c0477b87f6f2ac3b86663c", "name": "341-361 Dorchester St", "place_id": "ChIJUfpnY15644kR7ghSZsP9E_Q", "reference": "ChIJUfpnY15644kR7ghSZsP9E_Q", "scope": "GOOGLE", "types": ["route"], "vicinity": "Boston"}, "ChIJNQ6EaF5644kRkYH9FVpM3RA": {"geometry": {"location": {"lat": 42.3309827, "lng": -71.0544893}, "viewport": {"northeast": {"lat": 42.3322847302915, "lng": -71.05310086970849}, "southwest": {"lat": 42.3295867697085, "lng": -71.05579883029151}}}, "icon": "https://maps.gstatic.com/mapfiles/place_api/icons/generic_business-71.png", "id": "871fbd5cfb854bdc202c9def0b860c3a020c2dc0", "name": "G A Donovan Management", "place_id": "ChIJNQ6EaF5644kRkYH9FVpM3RA", "plus_code": {"compound_code": "8WJW+96 Boston, Massachusetts, United States", "global_code": "87JC8WJW+96"}, "rating": 5, "reference": "ChIJNQ6EaF5644kRkYH9FVpM3RA", "scope": "GOOGLE", "types": ["point_of_interest", "establishment"], "user_ratings_total": 1, "vicinity": "339 Dorchester Street, South Boston"}, "ChIJm3wSQV5644kRWtiLmvN4i_M": {"geometry": {"location": {"lat": 42.33100399999999, "lng": -71.0543964}, "viewport": {"northeast": {"lat": 42.3323137302915, "lng": -71.05301441970849}, "southwest": {"lat": 42.3296157697085, "lng": -71.05571238029151}}}, "icon": "https://maps.gstatic.com/mapfiles/place_api/icons/generic_business-71.png", "id": "85ca9a28a6af26f1e69f428062c24a91195f6371", "name": "Realty Assets", "place_id": "ChIJm3wSQV5644kRWtiLmvN4i_M", "plus_code": {"compound_code": "8WJW+C6 Boston, Massachusetts, United States", "global_code": "87JC8WJW+C6"}, "reference": "ChIJm3wSQV5644kRWtiLmvN4i_M", "scope": "GOOGLE", "types": ["real_estate_agency", "point_of_interest", "establishment"], "vicinity": "325 Dorchester Street, Boston"}, "ChIJN1BLaF5644kRHJZdVaKtI-M": {"geometry": {"location": {"lat": 42.3310551, "lng": -71.05431519999999}, "viewport": {"northeast": {"lat": 42.3323598802915, "lng": -71.05292906970848}, "southwest": {"lat": 42.3296619197085, "lng": -71.05562703029149}}}, "icon": "https://maps.gstatic.com/mapfiles/place_api/icons/generic_business-71.png", "id": "170a2f722e9427b2c94e34cf4efea9d62bdbc7f4", "name": "FXKSR Accounting Services", "opening_hours": {"open_now": true}, "place_id": "ChIJN1BLaF5644kRHJZdVaKtI-M", "plus_code": {"compound_code": "8WJW+C7 Boston, Massachusetts, United States", "global_code": "87JC8WJW+C7"}, "rating": 5, "reference": "ChIJN1BLaF5644kRHJZdVaKtI-M", "scope": "GOOGLE", "types": ["accounting", "finance", "point_of_interest", "establishment"], "user_ratings_total": 1, "vicinity": "339 Dorchester Street, Boston"}, "ChIJV4EhZl5644kRIYp0XX8D9wo": {"geometry": {"location": {"lat": 42.3308746, "lng": -71.0545022}, "viewport": {"northeast": {"lat": 42.3322301302915, "lng": -71.05315871970849}, "southwest": {"lat": 42.3295321697085, "lng": -71.05585668029151}}}, "icon": "https://maps.gstatic.com/mapfiles/place_api/icons/generic_business-71.png", "id": "71b85cf80332c69f039cd780a020feffd03a9dac", "name": "James O'Mara Esquire", "place_id": "ChIJV4EhZl5644kRIYp0XX8D9wo", "plus_code": {"compound_code": "8WJW+85 Boston, Massachusetts, United States", "global_code": "87JC8WJW+85"}, "reference": "ChIJV4EhZl5644kRIYp0XX8D9wo", "scope": "GOOGLE", "types": ["lawyer", "point_of_interest", "establishment"], "vicinity": "339 Dorchester Street, Boston"}, "ChIJsaUg3V1644kRAg_ZWBxcWiw": {"geometry": {"location": {"lat": 42.3309206, "lng": -71.0555521}, "viewport": {"northeast": {"lat": 42.3322464802915, "lng": -71.0542475197085}, "southwest": {"lat": 42.3295485197085, "lng": -71.0569454802915}}}, "icon": "https://maps.gstatic.com/mapfiles/place_api/icons/generic_business-71.png", "id": "91feae2c989a61c79c43da9e0c130a63bf19b414", "name": "T M & J Painting Contractors", "place_id": "ChIJsaUg3V1644kRAg_ZWBxcWiw", "plus_code": {"compound_code": "8WJV+9Q Boston, Massachusetts, United States", "global_code": "87JC8WJV+9Q"}, "reference": "ChIJsaUg3V1644kRAg_ZWBxcWiw", "scope": "GOOGLE", "types": ["painter", "point_of_interest", "establishment"], "vicinity": "66 Vine Street, Weymouth"}, "ChIJWYo0ZF5644kRtBjPfCm8usY": {"geometry": {"location": {"lat": 42.330763, "lng": -71.054677}, "viewport": {"northeast": {"lat": 42.3320876302915, "lng": -71.05330766970849}, "southwest": {"lat": 42.3293896697085, "lng": -71.0560056302915}}}, "icon": "https://maps.gstatic.com/mapfiles/place_api/icons/bus-71.png", "id": "bf370a5f2cfc836a33d81c12eacc972be0044b5a", "name": "Dorchester St @ Middle St", "place_id": "ChIJWYo0ZF5644kRtBjPfCm8usY", "plus_code": {"compound_code": "8WJW+84 Boston, Massachusetts, United States", "global_code": "87JC8WJW+84"}, "reference": "ChIJWYo0ZF5644kRtBjPfCm8usY", "scope": "GOOGLE", "types": ["bus_station", "transit_station", "point_of_interest", "establishment"], "vicinity": "United States"}, "ChIJueeRZl5644kRElTQGD55g6c": {"geometry": {"location": {"lat": 42.330711, "lng": -71.054541}, "viewport": {"northeast": {"lat": 42.33205778029149, "lng": -71.0531901697085}, "southwest": {"lat": 42.3293598197085, "lng": -71.0558881302915}}}, "icon": "https://maps.gstatic.com/mapfiles/place_api/icons/bus-71.png", "id": "a3e8e3232abe7db47c1346e4e3cd24cd4aaf6dcf", "name": "Dorchester St @ Vinton St", "place_id": "ChIJueeRZl5644kRElTQGD55g6c", "plus_code": {"compound_code": "8WJW+75 Boston, Massachusetts, United States", "global_code": "87JC8WJW+75"}, "reference": "ChIJueeRZl5644kRElTQGD55g6c", "scope": "GOOGLE", "types": ["bus_station", "transit_station", "point_of_interest", "establishment"], "vicinity": "United States"}, "ChIJux3sZl5644kR2roMweAKy8s": {"geometry": {"location": {"lat": 42.3306888, "lng": -71.0544898}, "viewport": {"northeast": {"lat": 42.33206663029149, "lng": -71.05316456970849}, "southwest": {"lat": 42.3293686697085, "lng": -71.05586253029149}}}, "icon": "https://maps.gstatic.com/mapfiles/place_api/icons/generic_business-71.png", "id": "9c100a0e93e8e1b1f507c825b776d9ce359bc20c", "name": "342 Dorchester Street Parking", "place_id": "ChIJux3sZl5644kR2roMweAKy8s", "plus_code": {"compound_code": "8WJW+76 Boston, Massachusetts, United States", "global_code": "87JC8WJW+76"}, "reference": "ChIJux3sZl5644kR2roMweAKy8s", "scope": "GOOGLE", "types": ["parking", "point_of_interest", "establishment"], "vicinity": "342 Dorchester Street, Boston"}, "ChIJv6sMQV5644kRvs8waVZ-N10": {"geometry": {"location": {"lat": 42.33103000000001, "lng": -71.054194}, "viewport": {"northeast": {"lat": 42.3323766302915, "lng": -71.05284291970848}, "southwest": {"lat": 42.3296786697085, "lng": -71.05554088029149}}}, "icon": "https://maps.gstatic.com/mapfiles/place_api/icons/generic_business-71.png", "id": "c8b717e9632428dbece699a2e00b771124ffcaf2", "name": "Relief Home Health Services", "place_id": "ChIJv6sMQV5644kRvs8waVZ-N10", "plus_code": {"compound_code": "8WJW+C8 Boston, Massachusetts, United States", "global_code": "87JC8WJW+C8"}, "reference": "ChIJv6sMQV5644kRvs8waVZ-N10", "scope": "GOOGLE", "types": ["health", "point_of_interest", "establishment"], "vicinity": "325 Dorchester Street, Boston"}, "ChIJnQQaQ15644kRlCFBbyJ8ImU": {"geometry": {"location": {"lat": 42.3309264, "lng": -71.0540977}, "viewport": {"northeast": {"lat": 42.3322638802915, "lng": -71.0527388197085}, "southwest": {"lat": 42.3295659197085, "lng": -71.05543678029152}}}, "icon": "https://maps.gstatic.com/mapfiles/place_api/icons/generic_business-71.png", "id": "9701a5fe16dfa0cd65406e974e3e19955171669b", "name": "Fast At M's", "place_id": "ChIJnQQaQ15644kRlCFBbyJ8ImU", "plus_code": {"compound_code": "8WJW+99 Boston, Massachusetts, United States", "global_code": "87JC8WJW+99"}, "reference": "ChIJnQQaQ15644kRlCFBbyJ8ImU", "scope": "GOOGLE", "types": ["finance", "point_of_interest", "establishment"], "vicinity": "334 Dorchester Street, Boston"}, "ChIJGzE9DS1l44kRoOhiASS_fHg": {"geometry": {"location": {"lat": 42.3600825, "lng": -71.0588801}, "viewport": {"northeast": {"lat": 42.40081989999999, "lng": -70.749455}, "southwest": {"lat": 42.22788, "lng": -71.191113}}}, "icon": "https://maps.gstatic.com/mapfiles/place_api/icons/geocode-71.png", "id": "06755c25d2b34d13942a4713971756a55b870ced", "name": "Boston", "photos": [{"height": 3024, "html_attributions": ["<a href=\"https://maps.google.com/maps/contrib/104670289779338733432/photos\">Natalia Zalucean</a>"], "photo_reference": "CmRaAAAAIQp3F_rwDW1z7U-qart51jQI6nq5sR3D8zfA9FxDFls2Kc_B37Tm_VpwQe2nw23NRC44-z_-Ubd3zHqGE_DWeBO5dx6JxBI2S1-5x1Ty9MHVXHm0lGfJeTSAWr2CpprjEhBFx0JPacGlnriGFf2D454RGhQsYxnpBWniFy4XM_op3v2d1o7N7w", "width": 4032}], "place_id": "ChIJGzE9DS1l44kRoOhiASS_fHg", "reference": "ChIJGzE9DS1l44kRoOhiASS_fHg", "scope": "GOOGLE", "types": ["locality", "political"], "vicinity": "Boston"}}