{"ChIJk69U_Rx644kRf6GpuIIj0tM": {"geometry": {"location": {"lat": 42.3471935, "lng": -71.0943252}, "viewport": {"northeast": {"lat": 42.34854243029149, "lng": -71.09297616970849}, "southwest": {"lat": 42.34584446970849, "lng": -71.0956741302915}}}, "icon": "https://maps.gstatic.com/mapfiles/place_api/icons/geocode-71.png", "id": "6f3f28f42f1577c25f5db109ee7b014a65f3a99c", "name": "156-152 Ipswich St", "place_id": "ChIJk69U_Rx644kRf6GpuIIj0tM", "reference": "ChIJk69U_Rx644kRf6GpuIIj0tM", "scope": "GOOGLE", "types": ["route"], "vicinity": "Boston"}, "ChIJX9gQ4hx644kRT6GRnKaqK6Y": {"geometry": {"location": {"lat": 42.34740159999999, "lng": -71.0944094}, "viewport": {"northeast": {"lat": 42.3487189302915, "lng": -71.09293701970849}, "southwest": {"lat": 42.3460209697085, "lng": -71.09563498029149}}}, "icon": "https://maps.gstatic.com/mapfiles/place_api/icons/generic_business-71.png", "id": "9d88a3400408b217c21c53a9d2ebab7490c6038b", "name": "Lucky Strike", "opening_hours": {"open_now": true}, "photos": [{"height": 2160, "html_attributions": ["<a href=\"https://maps.google.com/maps/contrib/100961700506678817415/photos\">Tom Sadler</a>"], "photo_reference": "CmRaAAAAyDzuTC8xdQGkZv1_UdEBjnRnJVobLZE2aRaYXoRyVkVY6W6e2d5ZnmgpSYlLg_Qck-1YuPe9L3XGQV_QwGtvy0XY8kcQTwInfcISdNizor7_jiQYQ5kN39tQzFZfOd8dEhAcLsMPvk4pQSxTypPp09KFGhTVLd96QlpRGrCh-pFBEq0EIk-ESA", "width": 3840}], "place_id": "ChIJX9gQ4hx644kRT6GRnKaqK6Y", "plus_code": {"compound_code": "8WW4+X6 Boston, Massachusetts, United States", "global_code": "87JC8WW4+X6"}, "rating": 4.2, "reference": "ChIJX9gQ4hx644kRT6GRnKaqK6Y", "scope": "GOOGLE", "types": ["bowling_alley", "bar", "restaurant", "point_of_interest", "food", "establishment"], "user_ratings_total": 1097, "vicinity": "145 Ipswich Street, Boston"}, "ChIJl40Z4hx644kRtE3hQnOFzA0": {"geometry": {"location": {"lat": 42.3474016, "lng": -71.0944095}, "viewport": {"northeast": {"lat": 42.3486935802915, "lng": -71.09296686970848}, "southwest": {"lat": 42.3459956197085, "lng": -71.0956648302915}}}, "icon": "https://maps.gstatic.com/mapfiles/place_api/icons/atm-71.png", "id": "5781b05b639375c83c8d9f479088147fab1c8363", "name": "Atlantic ATM", "place_id": "ChIJl40Z4hx644kRtE3hQnOFzA0", "plus_code": {"compound_code": "8WW4+X6 Boston, Massachusetts, United States", "global_code": "87JC8WW4+X6"}, "reference": "ChIJl40Z4hx644kRtE3hQnOFzA0", "scope": "GOOGLE", "types": ["atm", "finance", "point_of_interest", "establishment"], "vicinity": "145 Ipswich Street, Boston"}, "ChIJ6-mQHR1644kRcBR0gilmp0M": {"geometry": {"location": {"lat": 42.34740159999999, "lng": -71.0944094}, "viewport": {"northeast": {"lat": 42.3486935802915, "lng": -71.09296681970848}, "southwest": {"lat": 42.3459956197085, "lng": -71.0956647802915}}}, "icon": "https://maps.gstatic.com/mapfiles/place_api/icons/generic_business-71.png", "id": "ab15c33fdb7468c790cfffdb2a2f800bff06a098", "name": "Better Off Bowling", "photos": [{"height": 2848, "html_attributions": ["<a href=\"https://maps.google.com/maps/contrib/110151809488571563189/photos\">Stephen McAllister</a>"], "photo_reference": "CmRaAAAA0i2Jtb5M8QlZmxQ1UmcW0WBsT48yBeddtCIpduYlOjH3dYiWtHOTvoeCC30mjja16vDfzIuRFRiJlWjiH3evtyme_fT40BVrWrKbRVr-pP2wiXsRKMacRZO1Yy7sSbDXEhAULbQwstezpdlZ6JxWWUThGhSYHcLy6zfgETZQAdVcCVGjs5gOnA", "width": 4272}], "place_id": "ChIJ6-mQHR1644kRcBR0gilmp0M", "plus_code": {"compound_code": "8WW4+X6 Boston, Massachusetts, United States", "global_code": "87JC8WW4+X6"}, "rating": 5, "reference": "ChIJ6-mQHR1644kRcBR0gilmp0M", "scope": "GOOGLE", "types": ["point_of_interest", "establishment"], "user_ratings_total": 1, "vicinity": "145 Ipswich Street, Boston"}, "ChIJh8gXHh1644kRxPvHJnQjyzk": {"geometry": {"location": {"lat": 42.3475578, "lng": -71.09454199999999}, "viewport": {"northeast": {"lat": 42.3487965302915, "lng": -71.09300571970849}, "southwest": {"lat": 42.3460985697085, "lng": -71.09570368029149}}}, "icon": "https://maps.gstatic.com/mapfiles/place_api/icons/generic_business-71.png", "id": "a3da55ee92c85c0edb36f31d529a6da1a6d6a8ae", "name": "Intercontinental", "place_id": "ChIJh8gXHh1644kRxPvHJnQjyzk", "plus_code": {"compound_code": "8WX4+25 Boston, Massachusetts, United States", "global_code": "87JC8WX4+25"}, "rating": 1, "reference": "ChIJh8gXHh1644kRxPvHJnQjyzk", "scope": "GOOGLE", "types": ["point_of_interest", "establishment"], "user_ratings_total": 1, "vicinity": "Boston"}, "ChIJ6bV0Gx1644kRjbtygVcbOq4": {"geometry": {"location": {"lat": 42.3474124, "lng": -71.0948089}, "viewport": {"northeast": {"lat": 42.3486433802915, "lng": -71.09346031970848}, "southwest": {"lat": 42.3459454197085, "lng": -71.0961582802915}}}, "icon": "https://maps.gstatic.com/mapfiles/place_api/icons/generic_business-71.png", "id": "526424ada4e47f5f39dff2dddd708dbb7c437625", "name": "Cheeky Monkey Brewing Co.", "opening_hours": {"open_now": true}, "photos": [{"height": 3840, "html_attributions": ["<a href=\"https://maps.google.com/maps/contrib/116255320574380556412/photos\">Cheeky Monkey Brewing Co.</a>"], "photo_reference": "CmRaAAAA9v4oBo5m9whM6tCKTOViaKKY_p8K3Jl2MVvUf4T0k9b2akO5qFhlfM92kQ7iIf__UPH7M7OwScqN1sGRbWxIv4AdhfUwO4dlsSYOaC8dGxAjsgz6SE-nds_edeinIhPQEhBudhZbTFV5_hg2WTBl5R-fGhTT6Y_8EXhkBGwmqXAtEMJMVC7Khw", "width": 5760}], "place_id": "ChIJ6bV0Gx1644kRjbtygVcbOq4", "plus_code": {"compound_code": "8WW4+X3 Boston, Massachusetts, United States", "global_code": "87JC8WW4+X3"}, "price_level": 1, "rating": 4.2, "reference": "ChIJ6bV0Gx1644kRjbtygVcbOq4", "scope": "GOOGLE", "types": ["bar", "restaurant", "point_of_interest", "food", "establishment"], "user_ratings_total": 176, "vicinity": "3 Lansdowne Street, Boston"}, "ChIJe5-64hx644kR2oDU8coCnE8": {"geometry": {"location": {"lat": 42.347228, "lng": -71.09429349999999}, "viewport": {"northeast": {"lat": 42.3485946302915, "lng": -71.0929743197085}, "southwest": {"lat": 42.3458966697085, "lng": -71.09567228029151}}}, "icon": "https://maps.gstatic.com/mapfiles/place_api/icons/generic_business-71.png", "id": "f15df3bb13d575343410bf9d0a706171ae846366", "name": "Ipswich St @ Lansdowne St", "place_id": "ChIJe5-64hx644kR2oDU8coCnE8", "plus_code": {"compound_code": "8WW4+V7 Boston, Massachusetts, United States", "global_code": "87JC8WW4+V7"}, "reference": "ChIJe5-64hx644kR2oDU8coCnE8", "scope": "GOOGLE", "types": ["transit_station", "point_of_interest", "establishment"], "vicinity": "United States"}, "ChIJoxrF4hx644kRvHhmFmagkFY": {"geometry": {"location": {"lat": 42.3471011, "lng": -71.09430139999999}, "viewport": {"northeast": {"lat": 42.34847518029149, "lng": -71.09298701970849}, "southwest": {"lat": 42.3457772197085, "lng": -71.0956849802915}}}, "icon": "https://maps.gstatic.com/mapfiles/place_api/icons/bus-71.png", "id": "b4161e2fa047e9bb682a04630419016225f3942c", "name": "Ipswich St @ Lansdowne St", "photos": [{"height": 3024, "html_attributions": ["<a href=\"https://maps.google.com/maps/contrib/101525987855444152393/photos\">Andy O</a>"], "photo_reference": "CmRaAAAAo_8rmapSiWru5PJQVDM_kaaGvlkA4um1J0uda4asanBNzChgMQeYOJ1S36Q4f4oIPHo6yz8O5byhqJrDkDpwYVOeSfHsgkmvEfnkEdFoNfMDNT2kCoalP16DGBVXIyrLEhBbOVdTEis4-0Qvp23lclStGhST7qn656D7rdlUdyPtgaqNYKawfA", "width": 4032}], "place_id": "ChIJoxrF4hx644kRvHhmFmagkFY", "plus_code": {"compound_code": "8WW4+R7 Boston, Massachusetts, United States", "global_code": "87JC8WW4+R7"}, "reference": "ChIJoxrF4hx644kRvHhmFmagkFY", "scope": "GOOGLE", "types": ["bus_station", "transit_station", "point_of_interest", "establishment"], "vicinity": "United States"}, "ChIJFaXu5Bx644kRH1SmxuixDgE": {"geometry": {"location": {"lat": 42.347211, "lng": -71.0938559}, "viewport": {"northeast": {"lat": 42.3486405802915, "lng": -71.0926438697085}, "southwest": {"lat": 42.3459426197085, "lng": -71.0953418302915}}}, "icon": "https://maps.gstatic.com/mapfiles/place_api/icons/generic_business-71.png", "id": "f74f05dfc393f8f374360c010fb5aa6c81a29a63", "name": "Joel Hoffman", "place_id": "ChIJFaXu5Bx644kRH1SmxuixDgE", "plus_code": {"compound_code": "8WW4+VF Boston, Massachusetts, United States", "global_code": "87JC8WW4+VF"}, "reference": "ChIJFaXu5Bx644kRH1SmxuixDgE", "scope": "GOOGLE", "types": ["point_of_interest", "establishment"], "vicinity": "138 Ipswich Street, Boston"}, "ChIJFaXu5Bx644kRtRF7_s7p6AU": {"geometry": {"location": {"lat": 42.347211, "lng": -71.0938559}, "viewport": {"northeast": {"lat": 42.3486405802915, "lng": -71.0926438697085}, "southwest": {"lat": 42.3459426197085, "lng": -71.0953418302915}}}, "icon": "https://maps.gstatic.com/mapfiles/place_api/icons/generic_business-71.png", "id": "5b3e2d1cf706a4f73326bf700c04640e5e965c01", "name": "Joelle Wallach", "place_id": "ChIJFaXu5Bx644kRtRF7_s7p6AU", "plus_code": {"compound_code": "8WW4+VF Boston, Massachusetts, United States", "global_code": "87JC8WW4+VF"}, "reference": "ChIJFaXu5Bx644kRtRF7_s7p6AU", "scope": "GOOGLE", "types": ["point_of_interest", "establishment"], "vicinity": "138 Ipswich Street, Boston"}, "ChIJT2_j5Bx644kRU4KZYySjJdg": {"geometry": {"location": {"lat": 42.347213, "lng": -71.0938089}, "viewport": {"northeast": {"lat": 42.3486506302915, "lng": -71.09261061970851}, "southwest": {"lat": 42.3459526697085, "lng": -71.09530858029152}}}, "icon": "https://maps.gstatic.com/mapfiles/place_api/icons/generic_business-71.png", "id": "87d062a523a8b7c84f1759171dfe0731a5471fff", "name": "Pop Stick Inc", "place_id": "ChIJT2_j5Bx644kRU4KZYySjJdg", "plus_code": {"compound_code": "8WW4+VF Boston, Massachusetts, United States", "global_code": "87JC8WW4+VF"}, "reference": "ChIJT2_j5Bx644kRU4KZYySjJdg", "scope": "GOOGLE", "types": ["point_of_interest", "establishment"], "vicinity": "132 Ipswich Street, Boston"}, "ChIJuysRHR1644kRRkXMVhlbbu4": {"geometry": {"location": {"lat": 42.3473143, "lng": -71.0944726}, "viewport": {"northeast": {"lat": 42.3485874302915, "lng": -71.0931492197085}, "southwest": {"lat": 42.3458894697085, "lng": -71.0958471802915}}}, "icon": "https://maps.gstatic.com/mapfiles/place_api/icons/restaurant-71.png", "id": "481e5b85d31080ededf0a9cf91d3749feaa84efc", "name": "Loretta's Last Call", "opening_hours": {"open_now": true}, "photos": [{"height": 1367, "html_attributions": ["<a href=\"https://maps.google.com/maps/contrib/104111246635874032234/photos\">ZAGAT</a>"], "photo_reference": "CmRaAAAARj-C1JOrjW1MLEf1Fha3TK2AQnf7AOE33vP75eQKyf-s0sBEzAsA3QdFMog39Z_Op-HMtOU6mm-mJFWKy0qyoEg2xWkFgA0ri_HnPNdT6UIY-xsoa8xH9pCpLgakc2ToEhCdB1KgJ6KtFNjHIB6DDhEcGhTAqKLiLr9Nes_1VVulCrimHbQM5Q", "width": 2048}], "place_id": "ChIJuysRHR1644kRRkXMVhlbbu4", "plus_code": {"compound_code": "8WW4+W6 Boston, Massachusetts, United States", "global_code": "87JC8WW4+W6"}, "price_level": 2, "rating": 4.2, "reference": "ChIJuysRHR1644kRRkXMVhlbbu4", "scope": "GOOGLE", "types": ["bar", "restaurant", "point_of_interest", "food", "establishment"], "user_ratings_total": 426, "vicinity": "1 Lansdowne Street, Boston"}, "ChIJnwgR5hx644kRtXKREMcz0kc": {"geometry": {"location": {"lat": 42.34729939999999, "lng": -71.0937257}, "viewport": {"northeast": {"lat": 42.3487540802915, "lng": -71.0923771197085}, "southwest": {"lat": 42.3460561197085, "lng": -71.09507508029151}}}, "icon": "https://maps.gstatic.com/mapfiles/place_api/icons/school-71.png", "id": "776f9310e462077712b6d3c76aeb9459f467dcab", "name": "Boston Conservatory", "photos": [{"height": 2448, "html_attributions": ["<a href=\"https://maps.google.com/maps/contrib/106040088452667669488/photos\">JUAN CARLOS FERNANDEZ</a>"], "photo_reference": "CmRaAAAAal8zPeYL1wLMDOB3i323pSgXjrsyYxhAWL6lEfsDX_QcGOJ41UBf8sB8D9XBDNYX-X8oG1WYuPVGD0lCJO8hczJisvFQU6sVhZugW6bW8kfQnu6Zv9x0gPQ-Dy_lTkWXEhB2bx9r2LiwNh-_gac--6PkGhTOYTyNEyWXUTa5DN1aCb1tjUgwpQ", "width": 3264}], "place_id": "ChIJnwgR5hx644kRtXKREMcz0kc", "plus_code": {"compound_code": "8WW4+WG Boston, Massachusetts, United States", "global_code": "87JC8WW4+WG"}, "reference": "ChIJnwgR5hx644kRtXKREMcz0kc", "scope": "GOOGLE", "types": ["school", "point_of_interest", "establishment"], "vicinity": "132 Ipswich Street, Boston"}, "ChIJnwgR5hx644kRPjBaqrzebEw": {"geometry": {"location": {"lat": 42.3474271, "lng": -71.0936641}, "viewport": {"northeast": {"lat": 42.3488179802915, "lng": -71.0923152697085}, "southwest": {"lat": 42.3461200197085, "lng": -71.0950132302915}}}, "icon": "https://maps.gstatic.com/mapfiles/place_api/icons/school-71.png", "id": "f525c25e0c18f756dd16b5e990c3998e004fbede", "name": "Ipswich Hall at the Boston Conservatory at Berklee", "place_id": "ChIJnwgR5hx644kRPjBaqrzebEw", "plus_code": {"compound_code": "8WW4+XG Boston, Massachusetts, United States", "global_code": "87JC8WW4+XG"}, "reference": "ChIJnwgR5hx644kRPjBaqrzebEw", "scope": "GOOGLE", "types": ["school", "point_of_interest", "establishment"], "vicinity": "132 Ipswich Street, Boston"}, "ChIJnwgR5hx644kRgHt9zLnmu1A": {"geometry": {"location": {"lat": 42.3474271, "lng": -71.0936641}, "viewport": {"northeast": {"lat": 42.3488179802915, "lng": -71.0923152697085}, "southwest": {"lat": 42.3461200197085, "lng": -71.0950132302915}}}, "icon": "https://maps.gstatic.com/mapfiles/place_api/icons/school-71.png", "id": "6eefd25e2e354bb6a751bf0ca17df3171839cb03", "name": "Boston Conservatory of Music on Ipswich", "place_id": "ChIJnwgR5hx644kRgHt9zLnmu1A", "plus_code": {"compound_code": "8WW4+XG Boston, Massachusetts, United States", "global_code": "87JC8WW4+XG"}, "reference": "ChIJnwgR5hx644kRgHt9zLnmu1A", "scope": "GOOGLE", "types": ["school", "point_of_interest", "establishment"], "vicinity": "132 Ipswich Street, Boston"}, "ChIJKTVXHR1644kRVE5Aih48SRk": {"geometry": {"location": {"lat": 42.3469677, "lng": -71.09473779999999}, "viewport": {"northeast": {"lat": 42.3482849802915, "lng": -71.09334116970848}, "southwest": {"lat": 42.3455870197085, "lng": -71.09603913029149}}}, "icon": "https://maps.gstatic.com/mapfiles/place_api/icons/bus-71.png", "id": "7cb6a9c4ae44e7200af2a152f986809f207e3690", "name": "Ipswich St @ Lansdowne St", "place_id": "ChIJKTVXHR1644kRVE5Aih48SRk", "plus_code": {"compound_code": "8WW4+Q4 Boston, Massachusetts, United States", "global_code": "87JC8WW4+Q4"}, "reference": "ChIJKTVXHR1644kRVE5Aih48SRk", "scope": "GOOGLE", "types": ["bus_station", "transit_station", "point_of_interest", "establishment"], "vicinity": "United States"}, "ChIJ-ckB-Rx644kRhaY8m2BcI4Q": {"geometry": {"location": {"lat": 42.3467791, "lng": -71.09369600000001}, "viewport": {"northeast": {"lat": 42.3480346302915, "lng": -71.0922129697085}, "southwest": {"lat": 42.3453366697085, "lng": -71.09491093029152}}}, "icon": "https://maps.gstatic.com/mapfiles/place_api/icons/school-71.png", "id": "ce5c1426d109fd3916bd6646631ea71fcca8102e", "name": "Brunelle Group", "place_id": "ChIJ-ckB-Rx644kRhaY8m2BcI4Q", "plus_code": {"compound_code": "8WW4+PG Boston, Massachusetts, United States", "global_code": "87JC8WW4+PG"}, "reference": "ChIJ-ckB-Rx644kRhaY8m2BcI4Q", "scope": "GOOGLE", "types": ["school", "point_of_interest", "establishment"], "vicinity": "1175 Boylston Street # 40, Boston"}, "ChIJX-sc-hx644kRT8aal1j8FSU": {"geometry": {"location": {"lat": 42.34679819999999, "lng": -71.0936567}, "viewport": {"northeast": {"lat": 42.34804818029149, "lng": -71.09218816970849}, "southwest": {"lat": 42.3453502197085, "lng": -71.0948861302915}}}, "icon": "https://maps.gstatic.com/mapfiles/place_api/icons/generic_business-71.png", "id": "59977cffcb2c15fb45b39099b38e80dce63a349c", "name": "Decal Techniques", "place_id": "ChIJX-sc-hx644kRT8aal1j8FSU", "plus_code": {"compound_code": "8WW4+PG Boston, Massachusetts, United States", "global_code": "87JC8WW4+PG"}, "reference": "ChIJX-sc-hx644kRT8aal1j8FSU", "scope": "GOOGLE", "types": ["point_of_interest", "establishment"], "vicinity": "1171 Boylston Street #25, Boston"}, "ChIJGzE9DS1l44kRoOhiASS_fHg": {"geometry": {"location": {"lat": 42.3600825, "lng": -71.0588801}, "viewport": {"northeast": {"lat": 42.40081989999999, "lng": -70.749455}, "southwest": {"lat": 42.22788, "lng": -71.191113}}}, "icon": "https://maps.gstatic.com/mapfiles/place_api/icons/geocode-71.png", "id": "06755c25d2b34d13942a4713971756a55b870ced", "name": "Boston", "photos": [{"height": 3024, "html_attributions": ["<a href=\"https://maps.google.com/maps/contrib/104670289779338733432/photos\">Natalia Zalucean</a>"], "photo_reference": "CmRaAAAAK_Slev6wbf8tICim43ivvlwwMHoYr149kKNADSEi_7czClexjPvISkPhm-f50Nst7Zsj3etnVhBXSryesrPTyFlR_pCV3iz52Lc8DQyKpv-iyqnTltFm8h1vDuw873U8EhAJKOx_InRyfP3tba73kJkGGhSEFTu1JCeFu5u1Kgz8F2138xy1nw", "width": 4032}], "place_id": "ChIJGzE9DS1l44kRoOhiASS_fHg", "reference": "ChIJGzE9DS1l44kRoOhiASS_fHg", "scope": "GOOGLE", "types": ["locality", "political"], "vicinity": "Boston"}}