{"ChIJDQAYmDx544kR_zwhi2nsy64": {"geometry": {"location": {"lat": 42.30371439999999, "lng": -71.1315164}, "viewport": {"northeast": {"lat": 42.30488648029149, "lng": -71.12821980000001}, "southwest": {"lat": 42.30218851970849, "lng": -71.13451499999998}}}, "icon": "https://maps.gstatic.com/mapfiles/place_api/icons/geocode-71.png", "id": "ed3b377e94b83505c514f2b46d146a6832a95f3f", "name": "81-199 Whitcomb Ave", "place_id": "ChIJDQAYmDx544kR_zwhi2nsy64", "reference": "ChIJDQAYmDx544kR_zwhi2nsy64", "scope": "GOOGLE", "types": ["route"], "vicinity": "Boston"}, "ChIJxT7Mfzt544kRnZkgd5-bj8M": {"geometry": {"location": {"lat": 42.30274719999999, "lng": -71.1302}, "viewport": {"northeast": {"lat": 42.3041523802915, "lng": -71.1289343697085}, "southwest": {"lat": 42.3014544197085, "lng": -71.13163233029151}}}, "icon": "https://maps.gstatic.com/mapfiles/place_api/icons/generic_business-71.png", "id": "6e4b8e143b2568557ab5257a5e395b6ec7aebac0", "name": "Cofield Properties Inc", "place_id": "ChIJxT7Mfzt544kRnZkgd5-bj8M", "plus_code": {"compound_code": "8V39+3W Boston, Massachusetts, United States", "global_code": "87JC8V39+3W"}, "reference": "ChIJxT7Mfzt544kRnZkgd5-bj8M", "scope": "GOOGLE", "types": ["real_estate_agency", "point_of_interest", "establishment"], "vicinity": "10 Malcolm Road, Jamaica Plain"}, "ChIJxT7Mfzt544kR_8fqx88bn4o": {"geometry": {"location": {"lat": 42.30274719999999, "lng": -71.1302}, "viewport": {"northeast": {"lat": 42.3041523802915, "lng": -71.1289343697085}, "southwest": {"lat": 42.3014544197085, "lng": -71.13163233029151}}}, "icon": "https://maps.gstatic.com/mapfiles/place_api/icons/generic_business-71.png", "id": "f40a0d3fef7b6bf07520aaf0d0026a913b6e5815", "name": "Malmart Mortgage Co", "place_id": "ChIJxT7Mfzt544kR_8fqx88bn4o", "plus_code": {"compound_code": "8V39+3W Boston, Massachusetts, United States", "global_code": "87JC8V39+3W"}, "reference": "ChIJxT7Mfzt544kR_8fqx88bn4o", "scope": "GOOGLE", "types": ["finance", "point_of_interest", "establishment"], "vicinity": "10 Malcolm Road, Jamaica Plain"}, "ChIJGzE9DS1l44kRoOhiASS_fHg": {"geometry": {"location": {"lat": 42.3600825, "lng": -71.0588801}, "viewport": {"northeast": {"lat": 42.40081989999999, "lng": -70.749455}, "southwest": {"lat": 42.22788, "lng": -71.191113}}}, "icon": "https://maps.gstatic.com/mapfiles/place_api/icons/geocode-71.png", "id": "06755c25d2b34d13942a4713971756a55b870ced", "name": "Boston", "photos": [{"height": 3024, "html_attributions": ["<a href=\"https://maps.google.com/maps/contrib/104670289779338733432/photos\">Natalia Zalucean</a>"], "photo_reference": "CmRaAAAAFdHgzVaiwsCLeS3UMSoVyKi9YW7q03Z5P9dRSUzTyF6ZVz_Bft86wkiZ80k47gkLAHhSQYa3CVaqq6KCPkcfBLmiKwOuMVwdXQzE3EwqX3t_Rdjf3jmS-hmZq3btOLDpEhD7Wz6Fp5WBWN1KhQWB3rWxGhQRHTg15lM9JgW0PxYEH-ZufjTt5A", "width": 4032}], "place_id": "ChIJGzE9DS1l44kRoOhiASS_fHg", "reference": "ChIJGzE9DS1l44kRoOhiASS_fHg", "scope": "GOOGLE", "types": ["locality", "political"], "vicinity": "Boston"}}