{"ChIJ70NIQJd544kR7gYSisGVVt0": {"geometry": {"location": {"lat": 42.3349246, "lng": -71.11633929999999}, "viewport": {"northeast": {"lat": 42.3361642802915, "lng": -71.11517451970849}, "southwest": {"lat": 42.3334663197085, "lng": -71.11787248029151}}}, "icon": "https://maps.gstatic.com/mapfiles/place_api/icons/geocode-71.png", "id": "433bae26f297b58a7f47d93a6be8dec71ff8d9c7", "name": "39-99 Linden Pl", "place_id": "ChIJ70NIQJd544kR7gYSisGVVt0", "reference": "ChIJ70NIQJd544kR7gYSisGVVt0", "scope": "GOOGLE", "types": ["route"], "vicinity": "Brookline"}, "ChIJDbgxPpd544kRE5uslZf-eb8": {"geometry": {"location": {"lat": 42.3351147, "lng": -71.1165472}, "viewport": {"northeast": {"lat": 42.3364814802915, "lng": -71.1151956197085}, "southwest": {"lat": 42.3337835197085, "lng": -71.11789358029151}}}, "icon": "https://maps.gstatic.com/mapfiles/place_api/icons/generic_business-71.png", "id": "a6cf233fee3dcc2f7be9085dd1e2359959eb89f3", "name": "Anderson Julie", "place_id": "ChIJDbgxPpd544kRE5uslZf-eb8", "plus_code": {"compound_code": "8VPM+29 Brookline, Massachusetts, United States", "global_code": "87JC8VPM+29"}, "reference": "ChIJDbgxPpd544kRE5uslZf-eb8", "scope": "GOOGLE", "types": ["doctor", "health", "point_of_interest", "establishment"], "vicinity": "46 Linden Place, Brookline"}, "ChIJza6sMZd544kR2bdDL-7ZRzQ": {"geometry": {"location": {"lat": 42.33525640000001, "lng": -71.11570669999999}, "viewport": {"northeast": {"lat": 42.3365849302915, "lng": -71.11438181970848}, "southwest": {"lat": 42.3338869697085, "lng": -71.11707978029149}}}, "icon": "https://maps.gstatic.com/mapfiles/place_api/icons/generic_business-71.png", "id": "7755131dc5b8f0d371a6902aad5302b97bb65ec3", "name": "Joyce Collier, LICSW", "place_id": "ChIJza6sMZd544kR2bdDL-7ZRzQ", "plus_code": {"compound_code": "8VPM+4P Brookline, Massachusetts, United States", "global_code": "87JC8VPM+4P"}, "reference": "ChIJza6sMZd544kR2bdDL-7ZRzQ", "scope": "GOOGLE", "types": ["doctor", "health", "point_of_interest", "establishment"], "vicinity": "25 Bowker Street, Brookline, MA 02445, Brookline"}, "ChIJLzcxO5d544kRkXSAuxVfa98": {"geometry": {"location": {"lat": 42.3354404, "lng": -71.1161389}, "viewport": {"northeast": {"lat": 42.33681793029149, "lng": -71.1147562197085}, "southwest": {"lat": 42.3341199697085, "lng": -71.11745418029152}}}, "icon": "https://maps.gstatic.com/mapfiles/place_api/icons/generic_business-71.png", "id": "75acc935fda5c02621918dcd1bd71f08333304eb", "name": "Carol Spitzer Landscape Design", "place_id": "ChIJLzcxO5d544kRkXSAuxVfa98", "plus_code": {"compound_code": "8VPM+5G Brookline, Massachusetts, United States", "global_code": "87JC8VPM+5G"}, "reference": "ChIJLzcxO5d544kRkXSAuxVfa98", "scope": "GOOGLE", "types": ["point_of_interest", "establishment"], "vicinity": "15 Bowker Street, Brookline"}, "ChIJVVUhJJd544kRi7h1xMkmenk": {"geometry": {"location": {"lat": 42.3357432, "lng": -71.1161265}, "viewport": {"northeast": {"lat": 42.3370324802915, "lng": -71.11484796970849}, "southwest": {"lat": 42.3343345197085, "lng": -71.1175459302915}}}, "icon": "https://maps.gstatic.com/mapfiles/place_api/icons/generic_business-71.png", "id": "f7afd06754f32b10c503b5df9ed3bc0a524e2780", "name": "Friends of the Muddy River", "place_id": "ChIJVVUhJJd544kRi7h1xMkmenk", "plus_code": {"compound_code": "8VPM+7G Brookline, Massachusetts, United States", "global_code": "87JC8VPM+7G"}, "reference": "ChIJVVUhJJd544kRi7h1xMkmenk", "scope": "GOOGLE", "types": ["point_of_interest", "establishment"], "vicinity": "10 Bowker Street, Brookline"}, "ChIJc1pPMpd544kRyWnK-vDtaP0": {"geometry": {"location": {"lat": 42.3352251, "lng": -71.1153954}, "viewport": {"northeast": {"lat": 42.3365276302915, "lng": -71.11410126970848}, "southwest": {"lat": 42.3338296697085, "lng": -71.11679923029149}}}, "icon": "https://maps.gstatic.com/mapfiles/place_api/icons/generic_business-71.png", "id": "926097fc095e3855aa6cf7df199169e17bd5c9e0", "name": "Media Smith", "place_id": "ChIJc1pPMpd544kRyWnK-vDtaP0", "plus_code": {"compound_code": "8VPM+3R Brookline, Massachusetts, United States", "global_code": "87JC8VPM+3R"}, "reference": "ChIJc1pPMpd544kRyWnK-vDtaP0", "scope": "GOOGLE", "types": ["point_of_interest", "establishment"], "vicinity": "32 Bowker Street, Brookline"}, "ChIJ-5yrFpd544kR0IFE2UVRBHI": {"geometry": {"location": {"lat": 42.33537259999999, "lng": -71.11690709999999}, "viewport": {"northeast": {"lat": 42.3366768302915, "lng": -71.1156385697085}, "southwest": {"lat": 42.3339788697085, "lng": -71.1183365302915}}}, "icon": "https://maps.gstatic.com/mapfiles/place_api/icons/generic_recreational-71.png", "id": "51303991e59a74880ff5557c22acc00b47ceaebd", "name": "Linden Square", "place_id": "ChIJ-5yrFpd544kR0IFE2UVRBHI", "reference": "ChIJ-5yrFpd544kR0IFE2UVRBHI", "scope": "GOOGLE", "types": ["park", "premise", "point_of_interest", "establishment"], "vicinity": "Brookline"}, "ChIJhZirQQB544kRB9LbXEfedZQ": {"geometry": {"location": {"lat": 42.33176419999999, "lng": -71.1211635}, "viewport": {"northeast": {"lat": 42.3518109, "lng": -71.1056969}, "southwest": {"lat": 42.29459689999999, "lng": -71.1789959}}}, "icon": "https://maps.gstatic.com/mapfiles/place_api/icons/geocode-71.png", "id": "92986b2d1f69af2f2a7e29d34ced8adfa8573beb", "name": "Brookline", "photos": [{"height": 651, "html_attributions": ["<a href=\"https://maps.google.com/maps/contrib/114772942214832951419/photos\">Michael Ahn</a>"], "photo_reference": "CmRaAAAATKlQ9vT2W_IwUduHNHvGcVo-qNf5vOdC_SNghPRlBX0B2ppPKy9rmSb58BYm98HpFEzUQqSygK1--Uanwbck5tCSyPv23DV3ooTP14SltlTiocTlV_tccoF_EUdtZ3v3EhDpPeNO9yBgvoQM-BCVkY7_GhTcAz5grjII4_g8YouF9Cw8NTSn9A", "width": 1608}], "place_id": "ChIJhZirQQB544kRB9LbXEfedZQ", "reference": "ChIJhZirQQB544kRB9LbXEfedZQ", "scope": "GOOGLE", "types": ["locality", "political"], "vicinity": "Brookline"}}