{"ChIJ_ePCzJZw44kRWbubhIwiVnc": {"geometry": {"location": {"lat": 42.36663739999999, "lng": -71.0676909}, "viewport": {"northeast": {"lat": 42.3679521302915, "lng": -71.0663280197085}, "southwest": {"lat": 42.3652541697085, "lng": -71.0690259802915}}}, "icon": "https://maps.gstatic.com/mapfiles/place_api/icons/geocode-71.png", "id": "3d2810b37ba26b6244f7b915f9c0f6e0ad02c617", "name": "1910 MA-3", "place_id": "ChIJ_ePCzJZw44kRWbubhIwiVnc", "reference": "ChIJ_ePCzJZw44kRWbubhIwiVnc", "scope": "GOOGLE", "types": ["route"], "vicinity": "Boston"}, "ChIJi82kzJZw44kRwOmBweUF4YQ": {"geometry": {"location": {"lat": 42.366664, "lng": -71.067666}, "viewport": {"northeast": {"lat": 42.3680132302915, "lng": -71.0663215697085}, "southwest": {"lat": 42.3653152697085, "lng": -71.06901953029151}}}, "icon": "https://maps.gstatic.com/mapfiles/place_api/icons/bank_dollar-71.png", "id": "9c31aee88da964719ca2e323decac6db36f98cf6", "name": "Citizens Bank", "place_id": "ChIJi82kzJZw44kRwOmBweUF4YQ", "plus_code": {"compound_code": "9W8J+MW Boston, Massachusetts, United States", "global_code": "87JC9W8J+MW"}, "rating": 5, "reference": "ChIJi82kzJZw44kRwOmBweUF4YQ", "scope": "GOOGLE", "types": ["bank", "atm", "finance", "point_of_interest", "establishment"], "user_ratings_total": 1, "vicinity": "Boston"}, "ChIJi82kzJZw44kRb-2XFlokKOk": {"geometry": {"location": {"lat": 42.3668172, "lng": -71.0677769}, "viewport": {"northeast": {"lat": 42.36819138029149, "lng": -71.0664743197085}, "southwest": {"lat": 42.3654934197085, "lng": -71.06917228029151}}}, "icon": "https://maps.gstatic.com/mapfiles/place_api/icons/generic_business-71.png", "id": "68c1a871db01a17209e3fa2ad6dd868bfb771b1c", "name": "Science Park / West End", "photos": [{"height": 1836, "html_attributions": ["<a href=\"https://maps.google.com/maps/contrib/114222932741171673682/photos\">Maurice Karpman</a>"], "photo_reference": "CmRaAAAAojis-x2gbOiX_rFw-dgyBj3vtXfwsT8xtQhZ17H9sdcrvYG-Y1idcrAuTl7QDWFdeGokKD3iDC0kAaoMKuMDy_VxsLttN6QROaIG7FW1nF5byMnW8okF3PUONEtWAsc5EhDO8c5YE-S2o0arvxs-5bN2GhQHyMK4E1fPcyl-SiWesAxprKceRg", "width": 3264}], "place_id": "ChIJi82kzJZw44kRb-2XFlokKOk", "plus_code": {"compound_code": "9W8J+PV Boston, Massachusetts, United States", "global_code": "87JC9W8J+PV"}, "rating": 4.4, "reference": "ChIJi82kzJZw44kRb-2XFlokKOk", "scope": "GOOGLE", "types": ["light_rail_station", "transit_station", "point_of_interest", "establishment"], "user_ratings_total": 16, "vicinity": "United States"}, "ChIJN1WGzZZw44kRU15J7MpuZGk": {"geometry": {"location": {"lat": 42.3664401, "lng": -71.0678259}, "viewport": {"northeast": {"lat": 42.3678154802915, "lng": -71.06646641970849}, "southwest": {"lat": 42.36511751970851, "lng": -71.0691643802915}}}, "icon": "https://maps.gstatic.com/mapfiles/place_api/icons/generic_business-71.png", "id": "336976e50db8bda6e3f23ce8e1a5bc1734081790", "name": "60 State Highway 3 Parking", "place_id": "ChIJN1WGzZZw44kRU15J7MpuZGk", "plus_code": {"compound_code": "9W8J+HV Boston, Massachusetts, United States", "global_code": "87JC9W8J+HV"}, "reference": "ChIJN1WGzZZw44kRU15J7MpuZGk", "scope": "GOOGLE", "types": ["parking", "point_of_interest", "establishment"], "vicinity": "60 State Highway 3, Boston"}, "ChIJ1bA8r5Nw44kRMv5RpD45jB4": {"geometry": {"location": {"lat": 42.3668315, "lng": -71.0688575}, "viewport": {"northeast": {"lat": 42.36823358029149, "lng": -71.06746031970849}, "southwest": {"lat": 42.3655356197085, "lng": -71.07015828029151}}}, "icon": "https://maps.gstatic.com/mapfiles/place_api/icons/police-71.png", "id": "9a296924ef3a88baea6a24ff0d3f706e7e6a5771", "name": "Mass Commonwealth of State Pd", "place_id": "ChIJ1bA8r5Nw44kRMv5RpD45jB4", "plus_code": {"compound_code": "9W8J+PF Boston, Massachusetts, United States", "global_code": "87JC9W8J+PF"}, "reference": "ChIJ1bA8r5Nw44kRMv5RpD45jB4", "scope": "GOOGLE", "types": ["police", "point_of_interest", "establishment"], "vicinity": "250 Leverett Circle, Boston"}, "ChIJGx0mgpdw44kRze0kc2iIjSE": {"geometry": {"location": {"lat": 42.36429169999999, "lng": -71.07094769999999}, "viewport": {"northeast": {"lat": 42.3670907, "lng": -71.06830769999999}, "southwest": {"lat": 42.3614465, "lng": -71.07313669999999}}}, "icon": "https://maps.gstatic.com/mapfiles/place_api/icons/generic_recreational-71.png", "id": "ca8d12596ff283e06e3a5093982e72463c9ac55a", "name": "Lederman Park", "photos": [{"height": 2312, "html_attributions": ["<a href=\"https://maps.google.com/maps/contrib/111275380096239787791/photos\">Greg Anderson</a>"], "photo_reference": "CmRaAAAAZZ1llsBGEsQqqYSxEOEQIjnf6P1vlK77V6PqNEahUkW8VpPaHrUxvBuLt-NCWb2UNEp1PHNOLP8zoatdGfm2AR2H881akBV9MiuZwxg4o1-SWytRLCHYCfncScNM87UbEhBfHHx44Hhj2hngMR1DoukzGhSz9hEDCVdOOX7xgVReJp8lC3Z5VA", "width": 2536}], "place_id": "ChIJGx0mgpdw44kRze0kc2iIjSE", "reference": "ChIJGx0mgpdw44kRze0kc2iIjSE", "scope": "GOOGLE", "types": ["park", "premise", "point_of_interest", "establishment"], "vicinity": "Boston"}, "ChIJGzE9DS1l44kRoOhiASS_fHg": {"geometry": {"location": {"lat": 42.3600825, "lng": -71.0588801}, "viewport": {"northeast": {"lat": 42.40081989999999, "lng": -70.749455}, "southwest": {"lat": 42.22788, "lng": -71.191113}}}, "icon": "https://maps.gstatic.com/mapfiles/place_api/icons/geocode-71.png", "id": "06755c25d2b34d13942a4713971756a55b870ced", "name": "Boston", "photos": [{"height": 3024, "html_attributions": ["<a href=\"https://maps.google.com/maps/contrib/104670289779338733432/photos\">Natalia Zalucean</a>"], "photo_reference": "CmRaAAAAQVCegQBm2KjXiKoJy3PBvlbn2NU0BJhHlXxX_wDnyWxBILRGNAO3BMpXGte69IgQv9Yl6T8RyMvTg_ObUtUdz11jFQnEKBfNZb_AUcrAbd6q5VZ6Ty5zi-1R7JcvsL9HEhBdac3hxMlBuaaym1ylM4McGhS5lhK7jlALIEX5veVt_0WM5OMMeQ", "width": 4032}], "place_id": "ChIJGzE9DS1l44kRoOhiASS_fHg", "reference": "ChIJGzE9DS1l44kRoOhiASS_fHg", "scope": "GOOGLE", "types": ["locality", "political"], "vicinity": "Boston"}}