{"ChIJw0fCUkVw44kRtHy4AN8NXxY": {"geometry": {"location": {"lat": 42.37682849999999, "lng": -71.0378072}, "viewport": {"northeast": {"lat": 42.3781774802915, "lng": -71.03645821970849}, "southwest": {"lat": 42.3754795197085, "lng": -71.0391561802915}}}, "icon": "https://maps.gstatic.com/mapfiles/place_api/icons/geocode-71.png", "id": "2e16db456f9194d2f980fcd1b9d7f6e1b54b7e91", "name": "23-41 Princeton St", "place_id": "ChIJw0fCUkVw44kRtHy4AN8NXxY", "reference": "ChIJw0fCUkVw44kRtHy4AN8NXxY", "scope": "GOOGLE", "types": ["route"], "vicinity": "Boston"}, "ChIJtfnut1pw44kRwGTJf8w5CJA": {"geometry": {"location": {"lat": 42.3763713, "lng": -71.03855759999999}, "viewport": {"northeast": {"lat": 42.3777910302915, "lng": -71.03725701970849}, "southwest": {"lat": 42.3750930697085, "lng": -71.0399549802915}}}, "icon": "https://maps.gstatic.com/mapfiles/place_api/icons/generic_business-71.png", "id": "168f81ac9a22af2c6c3ade58c7b697a5d1202de4", "name": "Kevin James Kelly Carpentry", "place_id": "ChIJtfnut1pw44kRwGTJf8w5CJA", "plus_code": {"compound_code": "9XG6+GH Boston, Massachusetts, United States", "global_code": "87JC9XG6+GH"}, "reference": "ChIJtfnut1pw44kRwGTJf8w5CJA", "scope": "GOOGLE", "types": ["point_of_interest", "establishment"], "vicinity": "11 Princeton Street, Boston"}, "ChIJGzE9DS1l44kRoOhiASS_fHg": {"geometry": {"location": {"lat": 42.3600825, "lng": -71.0588801}, "viewport": {"northeast": {"lat": 42.40081989999999, "lng": -70.749455}, "southwest": {"lat": 42.22788, "lng": -71.191113}}}, "icon": "https://maps.gstatic.com/mapfiles/place_api/icons/geocode-71.png", "id": "06755c25d2b34d13942a4713971756a55b870ced", "name": "Boston", "photos": [{"height": 3024, "html_attributions": ["<a href=\"https://maps.google.com/maps/contrib/104670289779338733432/photos\">Natalia Zalucean</a>"], "photo_reference": "CmRaAAAAwE9F0Dbv_Qhkj0-lXXEE8gVQwAopad2VLQW06SCkr8-MarLPzdg0h94EBw2gLvjrtkTfr94wdqMmkCD4ZGULiU-huZDwJQVKBp2b9uUwOn6qrz1A-rE19wBz5eiq884qEhCaAbGgtB26TTZSqsouTCheGhQUl49WDtJrNoG1kD60IUzrpGeVpw", "width": 4032}], "place_id": "ChIJGzE9DS1l44kRoOhiASS_fHg", "reference": "ChIJGzE9DS1l44kRoOhiASS_fHg", "scope": "GOOGLE", "types": ["locality", "political"], "vicinity": "Boston"}}