{"ChIJlafmn3d544kRj4i8_dnnTkw": {"geometry": {"location": {"lat": 42.3208718, "lng": -71.1105937}, "viewport": {"northeast": {"lat": 42.3222214802915, "lng": -71.10924656970849}, "southwest": {"lat": 42.3195235197085, "lng": -71.1119445302915}}}, "icon": "https://maps.gstatic.com/mapfiles/place_api/icons/geocode-71.png", "id": "61be3d6f606bd75517753320201739cf8fce0a91", "name": "416-408 Centre St", "place_id": "ChIJlafmn3d544kRj4i8_dnnTkw", "reference": "ChIJlafmn3d544kRj4i8_dnnTkw", "scope": "GOOGLE", "types": ["route"], "vicinity": "Boston"}, "ChIJd_E2dXd544kRC1LLM7lN0-Y": {"geometry": {"location": {"lat": 42.3207581, "lng": -71.1104804}, "viewport": {"northeast": {"lat": 42.3221380302915, "lng": -71.10920736970849}, "southwest": {"lat": 42.3194400697085, "lng": -71.1119053302915}}}, "icon": "https://maps.gstatic.com/mapfiles/place_api/icons/restaurant-71.png", "id": "eddd5779ba48b4d29e8907774a6ac6cab99d7068", "name": "El Oriental De Cuba", "opening_hours": {"open_now": true}, "photos": [{"height": 3024, "html_attributions": ["<a href=\"https://maps.google.com/maps/contrib/107386735899670698087/photos\">boston mizer</a>"], "photo_reference": "CmRaAAAALbuz0WJiR4yo6UgXd4VswQNFE3Ll2IA5bCLFKhVm52TA_YCyB_0lWxQvneRSTaR_clB9xCy-b60dj045cFuO-3Cw73iGCx-kQXdfHJUHMYeK2-EMcaKbEEgZIqwboMKjEhDfP2Iu9GIRAGGwzO3rqWF-GhT65TVms3ZOFDLhvGAP8YB2LOOjuw", "width": 4032}], "place_id": "ChIJd_E2dXd544kRC1LLM7lN0-Y", "plus_code": {"compound_code": "8VCQ+8R Boston, Massachusetts, United States", "global_code": "87JC8VCQ+8R"}, "price_level": 2, "rating": 4.6, "reference": "ChIJd_E2dXd544kRC1LLM7lN0-Y", "scope": "GOOGLE", "types": ["restaurant", "point_of_interest", "food", "establishment"], "user_ratings_total": 678, "vicinity": "416 Centre Street, Jamaica Plain"}, "ChIJ-8rennd544kRNTxtp5TLbec": {"geometry": {"location": {"lat": 42.32110209999999, "lng": -71.1105687}, "viewport": {"northeast": {"lat": 42.32248978029149, "lng": -71.1092602697085}, "southwest": {"lat": 42.31979181970849, "lng": -71.1119582302915}}}, "icon": "https://maps.gstatic.com/mapfiles/place_api/icons/generic_business-71.png", "id": "65a6bf3173f72706cb2ec374c85b3197b5a45b52", "name": "Electric Charging Station", "place_id": "ChIJ-8rennd544kRNTxtp5TLbec", "plus_code": {"compound_code": "8VCQ+CQ Boston, Massachusetts, United States", "global_code": "87JC8VCQ+CQ"}, "reference": "ChIJ-8rennd544kRNTxtp5TLbec", "scope": "GOOGLE", "types": ["point_of_interest", "establishment"], "vicinity": "415 Centre Street, Jamaica Plain"}, "ChIJHztLCXd544kRcDubOXKIRVg": {"geometry": {"location": {"lat": 42.3206503, "lng": -71.11108999999999}, "viewport": {"northeast": {"lat": 42.3219422302915, "lng": -71.10962771970848}, "southwest": {"lat": 42.3192442697085, "lng": -71.1123256802915}}}, "icon": "https://maps.gstatic.com/mapfiles/place_api/icons/school-71.png", "id": "f72c47526d07cf3e628da7f0e3932925d8a20976", "name": "Connolly Branch of the Boston Public Library", "opening_hours": {"open_now": true}, "photos": [{"height": 2992, "html_attributions": ["<a href=\"https://maps.google.com/maps/contrib/112618579612179098204/photos\">Andrew Maryniuk</a>"], "photo_reference": "CmRaAAAAPTXvON0ZuGQai-Z3g9E0owXrdeEiZoF2KPvxAr--gG8uVUowVEVw4WnZPYCYZKFZWboCiJQliFveUNenUKdzCuosvJNXlelSUXla1aKam48GxeGHrduOcNd2PpFlWPGzEhA-3J10QtyCh1GohG5dQP4bGhR18xMW1eOiCKD401Cw-e3LBrvw-g", "width": 4000}], "place_id": "ChIJHztLCXd544kRcDubOXKIRVg", "plus_code": {"compound_code": "8VCQ+7H Boston, Massachusetts, United States", "global_code": "87JC8VCQ+7H"}, "rating": 4.4, "reference": "ChIJHztLCXd544kRcDubOXKIRVg", "scope": "GOOGLE", "types": ["library", "point_of_interest", "establishment"], "user_ratings_total": 8, "vicinity": "433 Centre Street, Jamaica Plain"}, "ChIJ04n6DWx544kR3q8BOTHzN0Q": {"geometry": {"location": {"lat": 42.32158280000001, "lng": -71.1109652}, "viewport": {"northeast": {"lat": 42.3226504802915, "lng": -71.1093118197085}, "southwest": {"lat": 42.3199525197085, "lng": -71.1120097802915}}}, "icon": "https://maps.gstatic.com/mapfiles/place_api/icons/shopping-71.png", "id": "20a97d1c2d915f4b05f30d27b8e48535f58ae209", "name": "Whole Foods Market", "opening_hours": {"open_now": true}, "photos": [{"height": 3024, "html_attributions": ["<a href=\"https://maps.google.com/maps/contrib/117678045276131345906/photos\">Sarah C</a>"], "photo_reference": "CmRaAAAAHjnhzh2SMg06QFeokEwFo_O5ToUtbCXV2MQ-RGLH7fD2ptiT9GfeZ4Wujt8Yr392Rvt0Yy4MzIq3TDLagHRddb2eB_qqHmtWzoyZfOQXrPac_OBQFZ2MH6ZSBfZj3EtSEhBEG0BEZSWAsheDeSm5x7tfGhQwrDLlGv3mje4XB4uzGjzKYYuxPQ", "width": 4032}], "place_id": "ChIJ04n6DWx544kR3q8BOTHzN0Q", "plus_code": {"compound_code": "8VCQ+JJ Boston, Massachusetts, United States", "global_code": "87JC8VCQ+JJ"}, "price_level": 3, "rating": 4.1, "reference": "ChIJ04n6DWx544kR3q8BOTHzN0Q", "scope": "GOOGLE", "types": ["grocery_or_supermarket", "supermarket", "store", "health", "point_of_interest", "food", "establishment"], "user_ratings_total": 439, "vicinity": "413 Centre Street, Jamaica Plain"}, "ChIJ56_LBnd544kRQWmiEOkR8g4": {"geometry": {"location": {"lat": 42.3208045, "lng": -71.1115109}, "viewport": {"northeast": {"lat": 42.3221299802915, "lng": -71.11035096970849}, "southwest": {"lat": 42.31943201970851, "lng": -71.1130489302915}}}, "icon": "https://maps.gstatic.com/mapfiles/place_api/icons/generic_business-71.png", "id": "b8b35da3a78972436f0b367051506e1d0f3c7eb1", "name": "El Mundo Newspaper", "place_id": "ChIJ56_LBnd544kRQWmiEOkR8g4", "plus_code": {"compound_code": "8VCQ+89 Boston, Massachusetts, United States", "global_code": "87JC8VCQ+89"}, "rating": 3.8, "reference": "ChIJ56_LBnd544kRQWmiEOkR8g4", "scope": "GOOGLE", "types": ["store", "point_of_interest", "establishment"], "user_ratings_total": 5, "vicinity": "408 South Huntington Avenue, Jamaica Plain"}, "ChIJ55hEAXd544kRTlfE1MS-2Hk": {"geometry": {"location": {"lat": 42.3208947, "lng": -71.11152489999999}, "viewport": {"northeast": {"lat": 42.3222197802915, "lng": -71.1103681697085}, "southwest": {"lat": 42.3195218197085, "lng": -71.1130661302915}}}, "icon": "https://maps.gstatic.com/mapfiles/place_api/icons/civic_building-71.png", "id": "4dbf3fc752350b1de987ec47d946a05337f79afd", "name": "Hispanic American Chamber", "place_id": "ChIJ55hEAXd544kRTlfE1MS-2Hk", "plus_code": {"compound_code": "8VCQ+99 Boston, Massachusetts, United States", "global_code": "87JC8VCQ+99"}, "reference": "ChIJ55hEAXd544kRTlfE1MS-2Hk", "scope": "GOOGLE", "types": ["point_of_interest", "establishment"], "vicinity": "406 South Huntington Avenue, Jamaica Plain"}, "ChIJ56_LBnd544kRVh80LqPEVY4": {"geometry": {"location": {"lat": 42.3208045, "lng": -71.1115109}, "viewport": {"northeast": {"lat": 42.3221299802915, "lng": -71.11035096970849}, "southwest": {"lat": 42.31943201970851, "lng": -71.1130489302915}}}, "icon": "https://maps.gstatic.com/mapfiles/place_api/icons/generic_business-71.png", "id": "090ec8587fe7d65f9fb253f9fab7c9931e523e57", "name": "American Medical", "place_id": "ChIJ56_LBnd544kRVh80LqPEVY4", "plus_code": {"compound_code": "8VCQ+89 Boston, Massachusetts, United States", "global_code": "87JC8VCQ+89"}, "reference": "ChIJ56_LBnd544kRVh80LqPEVY4", "scope": "GOOGLE", "types": ["doctor", "health", "point_of_interest", "establishment"], "vicinity": "408 South Huntington Avenue, Jamaica Plain"}, "ChIJ55hEAXd544kRezrgD-9kugQ": {"geometry": {"location": {"lat": 42.320854, "lng": -71.11175}, "viewport": {"northeast": {"lat": 42.3221932302915, "lng": -71.11047931970849}, "southwest": {"lat": 42.3194952697085, "lng": -71.11317728029151}}}, "icon": "https://maps.gstatic.com/mapfiles/place_api/icons/generic_business-71.png", "id": "91a58ac0fa1b1aae720e2f8aab52772bf29d291c", "name": "Spinal Rehab Group - Jamaica Plain", "photos": [{"height": 525, "html_attributions": ["<a href=\"https://maps.google.com/maps/contrib/105718105992428847983/photos\">Spinal Rehab Group - Jamaica Plain</a>"], "photo_reference": "CmRaAAAAOv-auH6EbcnfqBpNRqIPdvy_hn5t4FqCOlHSTc_SiUPXmjQ_Xre8D6t0gGqbBa4kahDrPFwDT2-H00EX9zHcUdasrn2j1SIed5XRAYGX0I4lU4yQKM_J4bhdgUZkrps_EhDNxEQrcFBtaLjGvUpI7-67GhRKRgI1O5RViy2wnmYbGhU8bahysQ", "width": 929}], "place_id": "ChIJ55hEAXd544kRezrgD-9kugQ", "plus_code": {"compound_code": "8VCQ+87 Boston, Massachusetts, United States", "global_code": "87JC8VCQ+87"}, "rating": 5, "reference": "ChIJ55hEAXd544kRezrgD-9kugQ", "scope": "GOOGLE", "types": ["health", "point_of_interest", "establishment"], "user_ratings_total": 1, "vicinity": "406 South Huntington Avenue suite a, Jamaica Plain"}, "ChIJhx_4qXd544kRbDobxF_p3V4": {"geometry": {"location": {"lat": 42.32113890000001, "lng": -71.1117419}, "viewport": {"northeast": {"lat": 42.3224742802915, "lng": -71.11050626970848}, "southwest": {"lat": 42.3197763197085, "lng": -71.1132042302915}}}, "icon": "https://maps.gstatic.com/mapfiles/place_api/icons/generic_business-71.png", "id": "cd51a97403247fcd7826bde8cfc06a9298e3c91e", "name": "Endeavor Capital", "opening_hours": {"open_now": true}, "photos": [{"height": 307, "html_attributions": ["<a href=\"https://maps.google.com/maps/contrib/117775634159479539857/photos\">Endeavor Capital</a>"], "photo_reference": "CmRaAAAAM5SYEvEEHckOAJon230H1m4g0HZHuBtCPkc7_hesxIbuVUJsEDyFp1DCMaX1DFgQKV11rpJm5njGOXCGrexeeyfZe38hrctJ5e9IYffSXABki3cc87w0wXrftngx9sjKEhAPEZPeyWqJNsL1PGnzJAssGhTcfwLRY96KxUpGIgKoW1RTppi-dA", "width": 1024}], "place_id": "ChIJhx_4qXd544kRbDobxF_p3V4", "plus_code": {"compound_code": "8VCQ+F8 Boston, Massachusetts, United States", "global_code": "87JC8VCQ+F8"}, "rating": 5, "reference": "ChIJhx_4qXd544kRbDobxF_p3V4", "scope": "GOOGLE", "types": ["real_estate_agency", "finance", "point_of_interest", "establishment"], "user_ratings_total": 1, "vicinity": "404 South Huntington Avenue, Boston"}, "ChIJszz1oHd544kRk5q9MHNebiA": {"geometry": {"location": {"lat": 42.3209968, "lng": -71.1108622}, "viewport": {"northeast": {"lat": 42.3223403802915, "lng": -71.10951311970848}, "southwest": {"lat": 42.3196424197085, "lng": -71.11221108029149}}}, "icon": "https://maps.gstatic.com/mapfiles/place_api/icons/generic_business-71.png", "id": "86a7b18aae8e6fc1afbfe9c41c45056ffc4c0b2c", "name": "Hyde Square Hubway Station", "opening_hours": {"open_now": true}, "photos": [{"height": 2988, "html_attributions": ["<a href=\"https://maps.google.com/maps/contrib/100879435187789616998/photos\">Keith Istler</a>"], "photo_reference": "CmRaAAAAsNnyD2wpvcvC-Sr4rRC9D3mmgQekO9mgfWaCYvF6XKMgdWS_E4cTcnfSS9wM9VwzewSzEMn_EYgh1k4t_tw4NcrgRfdeOlmeo5lVUoRHajocfO55c0yYyrSO488WtEj3EhD3thaRDArvPb6h6Cf-fXuYGhQ5TOBQH53UInNrzjorVeDvRe6saA", "width": 5312}], "place_id": "ChIJszz1oHd544kRk5q9MHNebiA", "plus_code": {"compound_code": "8VCQ+9M Boston, Massachusetts, United States", "global_code": "87JC8VCQ+9M"}, "rating": 3.5, "reference": "ChIJszz1oHd544kRk5q9MHNebiA", "scope": "GOOGLE", "types": ["point_of_interest", "establishment"], "user_ratings_total": 2, "vicinity": "6 Barbara Street, Boston"}, "ChIJN6uvn3d544kRD-ROy82Y5Ss": {"geometry": {"location": {"lat": 42.32086, "lng": -71.110401}, "viewport": {"northeast": {"lat": 42.3222404802915, "lng": -71.10912926970849}, "southwest": {"lat": 42.31954251970851, "lng": -71.1118272302915}}}, "icon": "https://maps.gstatic.com/mapfiles/place_api/icons/generic_business-71.png", "id": "2b8dc9cd0e248b872eb7cdb113700412414d4a56", "name": "Jamaica Plain Laundry Centre", "opening_hours": {"open_now": true}, "photos": [{"height": 2336, "html_attributions": ["<a href=\"https://maps.google.com/maps/contrib/105503049740711891014/photos\">Eric KABUSS</a>"], "photo_reference": "CmRaAAAAX6zcNR-yknw_X1WSnL-qgh7fcMxvo7GwTgpOyygjFBdRPD_nFGgSu40_9BqP4GsNbOufauzCg9XRSQrAISoS9I9kSlWfA9mD6GrJ8cE6oGD_bdTyHKUryUr9UpT8T0z_EhDwbQqBVhK5yK7yU5heu18qGhTZPvbR0yE5I5zt_ts0bQGUx5LJ2w", "width": 4160}], "place_id": "ChIJN6uvn3d544kRD-ROy82Y5Ss", "plus_code": {"compound_code": "8VCQ+8R Boston, Massachusetts, United States", "global_code": "87JC8VCQ+8R"}, "rating": 4.5, "reference": "ChIJN6uvn3d544kRD-ROy82Y5Ss", "scope": "GOOGLE", "types": ["laundry", "point_of_interest", "establishment"], "user_ratings_total": 19, "vicinity": "410 Centre Street, Jamaica Plain"}, "ChIJoeyyD3d544kRLKtDSXQdeFY": {"geometry": {"location": {"lat": 42.3204854, "lng": -71.1111741}, "viewport": {"northeast": {"lat": 42.3217911302915, "lng": -71.10973031970849}, "southwest": {"lat": 42.3190931697085, "lng": -71.11242828029151}}}, "icon": "https://maps.gstatic.com/mapfiles/place_api/icons/generic_business-71.png", "id": "b8496d7ca76d420f32a959d5fe767d8b5a1bc194", "name": "Bernard Scott, LICSW", "place_id": "ChIJoeyyD3d544kRLKtDSXQdeFY", "plus_code": {"compound_code": "8VCQ+5G Boston, Massachusetts, United States", "global_code": "87JC8VCQ+5G"}, "rating": 5, "reference": "ChIJoeyyD3d544kRLKtDSXQdeFY", "scope": "GOOGLE", "types": ["doctor", "health", "point_of_interest", "establishment"], "user_ratings_total": 1, "vicinity": "441 Centre Street, Jamaica Plain, MA 02130, Jamaica Plain"}, "ChIJhx_4qXd544kRbhrLaEJ9aQw": {"geometry": {"location": {"lat": 42.32113890000001, "lng": -71.1117419}, "viewport": {"northeast": {"lat": 42.3224742802915, "lng": -71.11050626970848}, "southwest": {"lat": 42.3197763197085, "lng": -71.1132042302915}}}, "icon": "https://maps.gstatic.com/mapfiles/place_api/icons/generic_business-71.png", "id": "fb4ffc6b52028e54a4076b4d4f9e189f093e0f49", "name": "Greater Boston Realty Group", "place_id": "ChIJhx_4qXd544kRbhrLaEJ9aQw", "plus_code": {"compound_code": "8VCQ+F8 Boston, Massachusetts, United States", "global_code": "87JC8VCQ+F8"}, "rating": 5, "reference": "ChIJhx_4qXd544kRbhrLaEJ9aQw", "scope": "GOOGLE", "types": ["real_estate_agency", "point_of_interest", "establishment"], "user_ratings_total": 1, "vicinity": "404 South Huntington Avenue, Jamaica Plain"}, "ChIJhx_4qXd544kRFNrgiCGt5F4": {"geometry": {"location": {"lat": 42.32113890000001, "lng": -71.1117419}, "viewport": {"northeast": {"lat": 42.3224742802915, "lng": -71.11050626970848}, "southwest": {"lat": 42.3197763197085, "lng": -71.1132042302915}}}, "icon": "https://maps.gstatic.com/mapfiles/place_api/icons/generic_business-71.png", "id": "41b35815ff3dd8389ebcc1926f4709757af38ea4", "name": "IBS Management Inc", "opening_hours": {"open_now": true}, "place_id": "ChIJhx_4qXd544kRFNrgiCGt5F4", "plus_code": {"compound_code": "8VCQ+F8 Boston, Massachusetts, United States", "global_code": "87JC8VCQ+F8"}, "rating": 5, "reference": "ChIJhx_4qXd544kRFNrgiCGt5F4", "scope": "GOOGLE", "types": ["point_of_interest", "establishment"], "user_ratings_total": 1, "vicinity": "404 South Huntington Avenue, Jamaica Plain"}, "ChIJu9MBkHd544kRTlt49il_p9c": {"geometry": {"location": {"lat": 42.32084, "lng": -71.111744}, "viewport": {"northeast": {"lat": 42.3221790802915, "lng": -71.1104746697085}, "southwest": {"lat": 42.3194811197085, "lng": -71.1131726302915}}}, "icon": "https://maps.gstatic.com/mapfiles/place_api/icons/generic_business-71.png", "id": "ae16b56588a1d0c8f5c4d307b347829ee503f3a5", "name": "JPs Massage Therapy Center", "opening_hours": {"open_now": true}, "photos": [{"height": 1520, "html_attributions": ["<a href=\"https://maps.google.com/maps/contrib/101358114216361702845/photos\">JPs Massage Therapy Center</a>"], "photo_reference": "CmRaAAAAMH0e0scgNxwKCQDZiGT2xVMPgqNNPZ9wPRb3aOA8FhdwtVC6kyIG2k-22D0zUokodR9ZRb-hTrmYFjc2BASQN77klgAVmCaKDhYcvVEu7weXymWX1Gb0qpSfqdFbd5UGEhCPSGj2WVONPfEmk87UNZ10GhQAyc3A9UWHtjJKyy6-h17CEJqSbw", "width": 2000}], "place_id": "ChIJu9MBkHd544kRTlt49il_p9c", "plus_code": {"compound_code": "8VCQ+88 Boston, Massachusetts, United States", "global_code": "87JC8VCQ+88"}, "rating": 4.6, "reference": "ChIJu9MBkHd544kRTlt49il_p9c", "scope": "GOOGLE", "types": ["point_of_interest", "establishment"], "user_ratings_total": 18, "vicinity": "408 South Huntington Avenue, Boston"}, "ChIJoeyyD3d544kRCtV9ZJ2o50c": {"geometry": {"location": {"lat": 42.3204788, "lng": -71.11117999999999}, "viewport": {"northeast": {"lat": 42.3217844802915, "lng": -71.1097361197085}, "southwest": {"lat": 42.3190865197085, "lng": -71.11243408029151}}}, "icon": "https://maps.gstatic.com/mapfiles/place_api/icons/generic_business-71.png", "id": "4073dc4acad1fa521d9bd559eeb20520d3c3a1a1", "name": "Volunteers of America", "opening_hours": {"open_now": true}, "place_id": "ChIJoeyyD3d544kRCtV9ZJ2o50c", "plus_code": {"compound_code": "8VCQ+5G Boston, Massachusetts, United States", "global_code": "87JC8VCQ+5G"}, "rating": 5, "reference": "ChIJoeyyD3d544kRCtV9ZJ2o50c", "scope": "GOOGLE", "types": ["health", "point_of_interest", "establishment"], "user_ratings_total": 1, "vicinity": "441 Centre Street, Jamaica Plain"}, "ChIJZ90UamR544kRLPaBbW-Iqbg": {"geometry": {"location": {"lat": 42.32058560000001, "lng": -71.11064379999999}, "viewport": {"northeast": {"lat": 42.3219638802915, "lng": -71.10935916970848}, "southwest": {"lat": 42.3192659197085, "lng": -71.11205713029149}}}, "icon": "https://maps.gstatic.com/mapfiles/place_api/icons/generic_business-71.png", "id": "7a7629e69a48ac5421e36a53f3e19522713e808c", "name": "Family Independence Initiative", "place_id": "ChIJZ90UamR544kRLPaBbW-Iqbg", "plus_code": {"compound_code": "8VCQ+6P Boston, Massachusetts, United States", "global_code": "87JC8VCQ+6P"}, "rating": 5, "reference": "ChIJZ90UamR544kRLPaBbW-Iqbg", "scope": "GOOGLE", "types": ["point_of_interest", "establishment"], "user_ratings_total": 2, "vicinity": "418 Centre Street, Jamaica Plain"}, "ChIJKdcdCHd544kRBNXlBx9CA_w": {"geometry": {"location": {"lat": 42.3209122, "lng": -71.11134779999999}, "viewport": {"northeast": {"lat": 42.32231153029149, "lng": -71.1100014697085}, "southwest": {"lat": 42.31961356970849, "lng": -71.11269943029151}}}, "icon": "https://maps.gstatic.com/mapfiles/place_api/icons/generic_business-71.png", "id": "65992cd4e05ce497e2e367c5f7e7aa2fe91fa68c", "name": "Smeloff & Associates Law Offices", "opening_hours": {"open_now": true}, "photos": [{"height": 255, "html_attributions": ["<a href=\"https://maps.google.com/maps/contrib/110728206519870252708/photos\">Smeloff &amp; Associates Law Offices</a>"], "photo_reference": "CmRaAAAAaAsYlgC_hLxaJXLV5baQalOO_JUK-Rxpumn_NrKMeibow2QxBuQ7MLY1bh6ufO9RFBMWHAVoxs_TCcA4jyYTUcJ3V6JF9caveVRFq3TMDLZGaZk3jCR7zU7vEw9aQ7shEhAhzY6JFH9vHmOm7z_gWz48GhRw13q1oPqUtmSISfvJnFgq6jf1pg", "width": 587}], "place_id": "ChIJKdcdCHd544kRBNXlBx9CA_w", "plus_code": {"compound_code": "8VCQ+9F Boston, Massachusetts, United States", "global_code": "87JC8VCQ+9F"}, "reference": "ChIJKdcdCHd544kRBNXlBx9CA_w", "scope": "GOOGLE", "types": ["lawyer", "point_of_interest", "establishment"], "vicinity": "12 Barbara Street, Jamaica Plain"}, "ChIJGzE9DS1l44kRoOhiASS_fHg": {"geometry": {"location": {"lat": 42.3600825, "lng": -71.0588801}, "viewport": {"northeast": {"lat": 42.40081989999999, "lng": -70.749455}, "southwest": {"lat": 42.22788, "lng": -71.191113}}}, "icon": "https://maps.gstatic.com/mapfiles/place_api/icons/geocode-71.png", "id": "06755c25d2b34d13942a4713971756a55b870ced", "name": "Boston", "photos": [{"height": 3024, "html_attributions": ["<a href=\"https://maps.google.com/maps/contrib/104670289779338733432/photos\">Natalia Zalucean</a>"], "photo_reference": "CmRaAAAAh4sLR0wGnf-QH0jFKSFaOiqmg3HsQy0I9dIXmcK_yMZs7ySlsRiqIU4CfDo5PVuw8CR_0hujxjl5Gcbm6Ruy0ty5Id3VeUXw02qbewj7kzPnwrRZ9-ZtQD8VDV03KrMPEhA0qAggyrlVPm487MuQGXTCGhTRBiLWQGfm-YY2IfrTG9Fasa1ipw", "width": 4032}], "place_id": "ChIJGzE9DS1l44kRoOhiASS_fHg", "reference": "ChIJGzE9DS1l44kRoOhiASS_fHg", "scope": "GOOGLE", "types": ["locality", "political"], "vicinity": "Boston"}, "ChIJG5VfCnd544kRsp5qqkkEa_k": {"geometry": {"location": {"lat": 42.3208199, "lng": -71.1108776}, "viewport": {"northeast": {"lat": 42.3221273802915, "lng": -71.10943746970851}, "southwest": {"lat": 42.3194294197085, "lng": -71.11213543029152}}}, "icon": "https://maps.gstatic.com/mapfiles/place_api/icons/gas_station-71.png", "id": "3cfe9facf5654380f4423669de77c5b66ca0419c", "name": "Jp Auto Service", "opening_hours": {"open_now": true}, "place_id": "ChIJG5VfCnd544kRsp5qqkkEa_k", "plus_code": {"compound_code": "8VCQ+8J Boston, Massachusetts, United States", "global_code": "87JC8VCQ+8J"}, "rating": 2.7, "reference": "ChIJG5VfCnd544kRsp5qqkkEa_k", "scope": "GOOGLE", "types": ["gas_station", "point_of_interest", "establishment"], "user_ratings_total": 10, "vicinity": "429 Centre Street, Jamaica Plain"}, "ChIJc9XapXd544kRC-Zeb9SdAPg": {"geometry": {"location": {"lat": 42.3213053, "lng": -71.1113014}, "viewport": {"northeast": {"lat": 42.3226303802915, "lng": -71.1098662197085}, "southwest": {"lat": 42.3199324197085, "lng": -71.1125641802915}}}, "icon": "https://maps.gstatic.com/mapfiles/place_api/icons/generic_business-71.png", "id": "ee65eb54df08132e479751b701e296b444c61e7d", "name": "ChargePoint Charging Station", "place_id": "ChIJc9XapXd544kRC-Zeb9SdAPg", "plus_code": {"compound_code": "8VCQ+GF Boston, Massachusetts, United States", "global_code": "87JC8VCQ+GF"}, "reference": "ChIJc9XapXd544kRC-Zeb9SdAPg", "scope": "GOOGLE", "types": ["point_of_interest", "establishment"], "vicinity": "32 Perkins Street, Boston"}, "ChIJ55hEAXd544kRKl5U6K4BUuA": {"geometry": {"location": {"lat": 42.3208947, "lng": -71.11152489999999}, "viewport": {"northeast": {"lat": 42.3222197802915, "lng": -71.1103681697085}, "southwest": {"lat": 42.3195218197085, "lng": -71.1130661302915}}}, "icon": "https://maps.gstatic.com/mapfiles/place_api/icons/generic_business-71.png", "id": "cb73a0eca4bb979c0b32bbe5eac028a535cbf00b", "name": "Contacto Inc", "place_id": "ChIJ55hEAXd544kRKl5U6K4BUuA", "plus_code": {"compound_code": "8VCQ+99 Boston, Massachusetts, United States", "global_code": "87JC8VCQ+99"}, "reference": "ChIJ55hEAXd544kRKl5U6K4BUuA", "scope": "GOOGLE", "types": ["accounting", "finance", "point_of_interest", "establishment"], "vicinity": "406 South Huntington Avenue, Jamaica Plain"}, "ChIJq6qqqml544kRtmQcUXGo844": {"geometry": {"location": {"lat": 42.32090549999999, "lng": -71.11156869999999}, "viewport": {"northeast": {"lat": 42.3222330802915, "lng": -71.1103918697085}, "southwest": {"lat": 42.3195351197085, "lng": -71.1130898302915}}}, "icon": "https://maps.gstatic.com/mapfiles/place_api/icons/generic_business-71.png", "id": "8bb17825cda72cb1810a7a8b1225d45a4fc6ff9f", "name": "Gopin Steven", "place_id": "ChIJq6qqqml544kRtmQcUXGo844", "plus_code": {"compound_code": "8VCQ+99 Boston, Massachusetts, United States", "global_code": "87JC8VCQ+99"}, "reference": "ChIJq6qqqml544kRtmQcUXGo844", "scope": "GOOGLE", "types": ["lawyer", "point_of_interest", "establishment"], "vicinity": "406 South Huntington Avenue, Jamaica Plain"}, "ChIJ56_LBnd544kRGQ3iZDoZKOs": {"geometry": {"location": {"lat": 42.3208045, "lng": -71.1115109}, "viewport": {"northeast": {"lat": 42.3221299802915, "lng": -71.11035096970849}, "southwest": {"lat": 42.31943201970851, "lng": -71.1130489302915}}}, "icon": "https://maps.gstatic.com/mapfiles/place_api/icons/shopping-71.png", "id": "7477b80bb1b92beab2ab1e4464b77534e3115fd7", "name": "Caribe Communications", "place_id": "ChIJ56_LBnd544kRGQ3iZDoZKOs", "plus_code": {"compound_code": "8VCQ+89 Boston, Massachusetts, United States", "global_code": "87JC8VCQ+89"}, "reference": "ChIJ56_LBnd544kRGQ3iZDoZKOs", "scope": "GOOGLE", "types": ["store", "point_of_interest", "establishment"], "vicinity": "408 South Huntington Avenue, Jamaica Plain"}, "ChIJebBTCXd544kRX_UPKx8pdZw": {"geometry": {"location": {"lat": 42.3206503, "lng": -71.11108999999999}, "viewport": {"northeast": {"lat": 42.3219422302915, "lng": -71.10962771970848}, "southwest": {"lat": 42.3192442697085, "lng": -71.1123256802915}}}, "icon": "https://maps.gstatic.com/mapfiles/place_api/icons/library-71.png", "id": "8f5960bda2b50a531eb69fba52f20a091ca6bb77", "name": "Colony Library", "place_id": "ChIJebBTCXd544kRX_UPKx8pdZw", "plus_code": {"compound_code": "8VCQ+7H Boston, Massachusetts, United States", "global_code": "87JC8VCQ+7H"}, "reference": "ChIJebBTCXd544kRX_UPKx8pdZw", "scope": "GOOGLE", "types": ["library", "point_of_interest", "establishment"], "vicinity": "433 Centre Street, Jamaica Plain"}, "ChIJxyIln3d544kRS3T9TMYPpjg": {"geometry": {"location": {"lat": 42.32109299999999, "lng": -71.11054399999999}, "viewport": {"northeast": {"lat": 42.32242593029149, "lng": -71.10915316970848}, "southwest": {"lat": 42.3197279697085, "lng": -71.1118511302915}}}, "icon": "https://maps.gstatic.com/mapfiles/place_api/icons/bus-71.png", "id": "0e93e2cfb27aad3a10fb759fc68f44255ac44a3a", "name": "Centre St @ Barbara St", "place_id": "ChIJxyIln3d544kRS3T9TMYPpjg", "plus_code": {"compound_code": "8VCQ+CQ Boston, Massachusetts, United States", "global_code": "87JC8VCQ+CQ"}, "reference": "ChIJxyIln3d544kRS3T9TMYPpjg", "scope": "GOOGLE", "types": ["bus_station", "transit_station", "point_of_interest", "establishment"], "vicinity": "United States"}, "ChIJhx_4qXd544kRfuJw3sbHbSE": {"geometry": {"location": {"lat": 42.32113890000001, "lng": -71.1117419}, "viewport": {"northeast": {"lat": 42.3224742802915, "lng": -71.11050626970848}, "southwest": {"lat": 42.3197763197085, "lng": -71.1132042302915}}}, "icon": "https://maps.gstatic.com/mapfiles/place_api/icons/generic_business-71.png", "id": "268e38886c094f915c1baabc070f8dafb0c91e7e", "name": "Greater Boston Mortgage", "place_id": "ChIJhx_4qXd544kRfuJw3sbHbSE", "plus_code": {"compound_code": "8VCQ+F8 Boston, Massachusetts, United States", "global_code": "87JC8VCQ+F8"}, "reference": "ChIJhx_4qXd544kRfuJw3sbHbSE", "scope": "GOOGLE", "types": ["finance", "point_of_interest", "establishment"], "vicinity": "404 South Huntington Avenue, Jamaica Plain"}, "ChIJSdHZn3d544kR4zjKusElQ_A": {"geometry": {"location": {"lat": 42.321048, "lng": -71.110438}, "viewport": {"northeast": {"lat": 42.3223919802915, "lng": -71.10907591970849}, "southwest": {"lat": 42.3196940197085, "lng": -71.1117738802915}}}, "icon": "https://maps.gstatic.com/mapfiles/place_api/icons/bus-71.png", "id": "5c5f302baabf2a3d9e5e2abfaca4df0481d70445", "name": "Centre St @ Paul Gore St", "place_id": "ChIJSdHZn3d544kR4zjKusElQ_A", "plus_code": {"compound_code": "8VCQ+CR Boston, Massachusetts, United States", "global_code": "87JC8VCQ+CR"}, "reference": "ChIJSdHZn3d544kR4zjKusElQ_A", "scope": "GOOGLE", "types": ["bus_station", "transit_station", "point_of_interest", "establishment"], "vicinity": "United States"}, "ChIJEza3Bnd544kRhHtScphCGNI": {"geometry": {"location": {"lat": 42.32081040000001, "lng": -71.1117642}, "viewport": {"northeast": {"lat": 42.32215113029151, "lng": -71.11048176970849}, "southwest": {"lat": 42.31945316970851, "lng": -71.1131797302915}}}, "icon": "https://maps.gstatic.com/mapfiles/place_api/icons/generic_business-71.png", "id": "982dab5b85a9697fd95e8a08bdfa5034e1ece1ad", "name": "Mark K. Lique, DC", "place_id": "ChIJEza3Bnd544kRhHtScphCGNI", "plus_code": {"compound_code": "8VCQ+87 Boston, Massachusetts, United States", "global_code": "87JC8VCQ+87"}, "reference": "ChIJEza3Bnd544kRhHtScphCGNI", "scope": "GOOGLE", "types": ["health", "point_of_interest", "establishment"], "vicinity": "408 South Huntington Avenue, Boston"}, "ChIJwyWedXd544kRn82locozcQk": {"geometry": {"location": {"lat": 42.3207725, "lng": -71.1104993}, "viewport": {"northeast": {"lat": 42.3221478302915, "lng": -71.10921491970849}, "southwest": {"lat": 42.3194498697085, "lng": -71.1119128802915}}}, "icon": "https://maps.gstatic.com/mapfiles/place_api/icons/restaurant-71.png", "id": "67592ddca38c4fc6be5bf4b52991625fefe5bf22", "name": "La Esquina Del Sabor", "place_id": "ChIJwyWedXd544kRn82locozcQk", "plus_code": {"compound_code": "8VCQ+8R Boston, Massachusetts, United States", "global_code": "87JC8VCQ+8R"}, "reference": "ChIJwyWedXd544kRn82locozcQk", "scope": "GOOGLE", "types": ["restaurant", "point_of_interest", "food", "establishment"], "vicinity": "416 Centre Street, Boston"}, "ChIJlVJtB3d544kRJv27CeZIAhA": {"geometry": {"location": {"lat": 42.3209592, "lng": -71.1116641}, "viewport": {"northeast": {"lat": 42.32230818029149, "lng": -71.1103151197085}, "southwest": {"lat": 42.3196102197085, "lng": -71.11301308029151}}}, "icon": "https://maps.gstatic.com/mapfiles/place_api/icons/generic_business-71.png", "id": "3108708b1a9d70345bb1d8dc0f98940b0b89dc90", "name": "Jp's Fitness Solutions", "place_id": "ChIJlVJtB3d544kRJv27CeZIAhA", "plus_code": {"compound_code": "8VCQ+98 Boston, Massachusetts, United States", "global_code": "87JC8VCQ+98"}, "reference": "ChIJlVJtB3d544kRJv27CeZIAhA", "scope": "GOOGLE", "types": ["gym", "health", "point_of_interest", "establishment"], "vicinity": "Barbara Street, Boston"}}