{"ChIJ0c30vBt644kRee4D-bG9Ng8": {"geometry": {"location": {"lat": 42.3450682, "lng": -71.0895922}, "viewport": {"northeast": {"lat": 42.34641713029151, "lng": -71.0882431697085}, "southwest": {"lat": 42.34371916970851, "lng": -71.09094113029151}}}, "icon": "https://maps.gstatic.com/mapfiles/place_api/icons/geocode-71.png", "id": "cbd0bc2436307cb1317a6d7ec8a9d6ccacf74c30", "name": "41-65 Hemenway St", "place_id": "ChIJ0c30vBt644kRee4D-bG9Ng8", "reference": "ChIJ0c30vBt644kRee4D-bG9Ng8", "scope": "GOOGLE", "types": ["route"], "vicinity": "Boston"}, "ChIJaa-5vht644kRzT6aPy9UYOs": {"geometry": {"location": {"lat": 42.3448031, "lng": -71.08945369999999}, "viewport": {"northeast": {"lat": 42.3461677802915, "lng": -71.08820681970849}, "southwest": {"lat": 42.3434698197085, "lng": -71.0909047802915}}}, "icon": "https://maps.gstatic.com/mapfiles/place_api/icons/restaurant-71.png", "id": "a3e5205ce63cb239e9e32131f85667d54fcf5503", "name": "Woody's Grill & Tap", "opening_hours": {"open_now": true}, "photos": [{"height": 4032, "html_attributions": ["<a href=\"https://maps.google.com/maps/contrib/115868994401982392422/photos\">Heather Day</a>"], "photo_reference": "CmRaAAAAlTLLCpA65dWCJ95bPwrl8-lP_rbpCTYsGSgonWsNMrV7xkcC0CiXO7rqdbe3lIv91LPjfPOtZmlFYxzibqSKfdsXMns_Y-u-LOhtEgsYFZ9Q9rFQwMS1J0088oAqer4dEhChzru3FtE8sZu6hhLtYedoGhTCZomIHB8AlXiprvzfkkqiMLlPyg", "width": 3024}], "place_id": "ChIJaa-5vht644kRzT6aPy9UYOs", "plus_code": {"compound_code": "8WV6+W6 Boston, Massachusetts, United States", "global_code": "87JC8WV6+W6"}, "price_level": 2, "rating": 4.5, "reference": "ChIJaa-5vht644kRzT6aPy9UYOs", "scope": "GOOGLE", "types": ["restaurant", "point_of_interest", "food", "establishment"], "user_ratings_total": 218, "vicinity": "58 Hemenway Street, Boston"}, "ChIJv9K_uht644kR65svdJVjnVw": {"geometry": {"location": {"lat": 42.345066, "lng": -71.08922799999999}, "viewport": {"northeast": {"lat": 42.3464418302915, "lng": -71.08805381970849}, "southwest": {"lat": 42.3437438697085, "lng": -71.09075178029151}}}, "icon": "https://maps.gstatic.com/mapfiles/place_api/icons/generic_business-71.png", "id": "dc379077f6aac3a95974d2cbd2c9cf739ee6a854", "name": "The Badminton & Tennis Club", "opening_hours": {"open_now": true}, "photos": [{"height": 404, "html_attributions": ["<a href=\"https://maps.google.com/maps/contrib/104092118758670315433/photos\">The Badminton &amp; Tennis Club</a>"], "photo_reference": "CmRaAAAA7a6b3ZQ-HNZ1fbdiI-MmVvJfm55ytxVQRHM1cUAVWqJQXt3LDqVUIwMhfErn56fF1EF3zONYbPzjo5VdIrMki5kvpwRXOZUAFVrl2adHVr19HJkqSj9v-e0mH43m4k5pEhBjTRuIiM-npg-ra3h6vbZ5GhTs8d1YfbZBhB6ron_cOJWjvhVqFA", "width": 1024}], "place_id": "ChIJv9K_uht644kR65svdJVjnVw", "plus_code": {"compound_code": "8WW6+28 Boston, Massachusetts, United States", "global_code": "87JC8WW6+28"}, "rating": 5, "reference": "ChIJv9K_uht644kR65svdJVjnVw", "scope": "GOOGLE", "types": ["point_of_interest", "establishment"], "user_ratings_total": 3, "vicinity": "52 Hemenway Street, Boston"}, "ChIJZzZbyBt644kR0errgrlQd_Y": {"geometry": {"location": {"lat": 42.3443719, "lng": -71.0891196}, "viewport": {"northeast": {"lat": 42.3457880802915, "lng": -71.08775201970849}, "southwest": {"lat": 42.3430901197085, "lng": -71.09044998029151}}}, "icon": "https://maps.gstatic.com/mapfiles/place_api/icons/generic_business-71.png", "id": "6b46ab319b42cdbab805db1ebb51e7f79b2d68f9", "name": "Hall Keen Management", "place_id": "ChIJZzZbyBt644kR0errgrlQd_Y", "plus_code": {"compound_code": "8WV6+P9 Boston, Massachusetts, United States", "global_code": "87JC8WV6+P9"}, "rating": 5, "reference": "ChIJZzZbyBt644kR0errgrlQd_Y", "scope": "GOOGLE", "types": ["real_estate_agency", "point_of_interest", "establishment"], "user_ratings_total": 1, "vicinity": "70 Burbank Street # 2, Boston"}, "ChIJfeAV5WKQ5IkR9070jbAXKQA": {"geometry": {"location": {"lat": 42.344412, "lng": -71.08886}, "viewport": {"northeast": {"lat": 42.3457884302915, "lng": -71.0875034697085}, "southwest": {"lat": 42.3430904697085, "lng": -71.0902014302915}}}, "icon": "https://maps.gstatic.com/mapfiles/place_api/icons/shopping-71.png", "id": "1c1dc4410c9aacabe610b9a05db482c050369197", "name": "New Hope Construction", "opening_hours": {"open_now": true}, "photos": [{"height": 1100, "html_attributions": ["<a href=\"https://maps.google.com/maps/contrib/108486358659413062832/photos\">New Hope Construction</a>"], "photo_reference": "CmRaAAAAmNhDAT0pwVdoFl8dgU8MRX4gxKMKWmygRTvtcemurafSfxGHEiAF7TWHJx1q5dJKLrwZsIlYbcxOLJ6rMmWQaRlcoQwEjMtn5Pfh_n_OqlBl_lflb0jJdP6Do5-Zs5ukEhCQABp_ADvnjpGAllOelzJOGhRlpBkf84LGb62jype0g95T4VyxQQ", "width": 2858}], "place_id": "ChIJfeAV5WKQ5IkR9070jbAXKQA", "plus_code": {"compound_code": "8WV6+QF Boston, Massachusetts, United States", "global_code": "87JC8WV6+QF"}, "reference": "ChIJfeAV5WKQ5IkR9070jbAXKQA", "scope": "GOOGLE", "types": ["home_goods_store", "store", "general_contractor", "point_of_interest", "establishment"], "vicinity": "147 Whitman St, East Bridgewater"}, "ChIJB2HquBt644kRnHMJP9Oml_s": {"geometry": {"location": {"lat": 42.3446745, "lng": -71.08944819999999}, "viewport": {"northeast": {"lat": 42.3460414302915, "lng": -71.08822151970848}, "southwest": {"lat": 42.3433434697085, "lng": -71.09091948029149}}}, "icon": "https://maps.gstatic.com/mapfiles/place_api/icons/generic_business-71.png", "id": "518032a6a0e804c408c02dcd3530f9bff39c5a69", "name": "Raise the Woof!", "photos": [{"height": 540, "html_attributions": ["<a href=\"https://maps.google.com/maps/contrib/111731035692522086297/photos\">Raise the Woof!</a>"], "photo_reference": "CmRaAAAAo0UKmyd6BMVy4cjtjONKwQGa265MJ5LaCtVOxVNGXHKD-jOzzLaBN8dGOWw_gGBZTdfHem-pMBHiAsKDUTYjrboAloqBUDN1zwjYHXx1PX1vW3GQHFtgAp3qAJ9zvK-LEhB4jlBZgLCnhDatVRqXXG7jGhSOF5vFfLcPdj6dIQiGl6ZQfaW2JQ", "width": 720}], "place_id": "ChIJB2HquBt644kRnHMJP9Oml_s", "plus_code": {"compound_code": "8WV6+V6 Boston, Massachusetts, United States", "global_code": "87JC8WV6+V6"}, "rating": 5, "reference": "ChIJB2HquBt644kRnHMJP9Oml_s", "scope": "GOOGLE", "types": ["point_of_interest", "establishment"], "user_ratings_total": 1, "vicinity": "64 Hemenway Street, Boston"}, "ChIJl8bwvRt644kRqniWdiTwq7g": {"geometry": {"location": {"lat": 42.3449902, "lng": -71.0898728}, "viewport": {"northeast": {"lat": 42.3463201302915, "lng": -71.08839981970848}, "southwest": {"lat": 42.3436221697085, "lng": -71.0910977802915}}}, "icon": "https://maps.gstatic.com/mapfiles/place_api/icons/generic_business-71.png", "id": "6cb3f8a53a333c54c9a293f955535f619103f8ea", "name": "Fenway Lodging House", "place_id": "ChIJl8bwvRt644kRqniWdiTwq7g", "plus_code": {"compound_code": "8WV6+X3 Boston, Massachusetts, United States", "global_code": "87JC8WV6+X3"}, "reference": "ChIJl8bwvRt644kRqniWdiTwq7g", "scope": "GOOGLE", "types": ["point_of_interest", "establishment"], "vicinity": "57 Hemenway Street # 101, Boston"}, "ChIJh38Jtht644kRbEh0ZXZy2Uc": {"geometry": {"location": {"lat": 42.3445656, "lng": -71.0887896}, "viewport": {"northeast": {"lat": 42.3458648802915, "lng": -71.08745436970851}, "southwest": {"lat": 42.3431669197085, "lng": -71.09015233029152}}}, "icon": "https://maps.gstatic.com/mapfiles/place_api/icons/bank_dollar-71.png", "id": "7d7b012f9baf5ae10f9ad86e95bc90aa1deea7d7", "name": "63-63 Burbank", "place_id": "ChIJh38Jtht644kRbEh0ZXZy2Uc", "plus_code": {"compound_code": "8WV6+RF Boston, Massachusetts, United States", "global_code": "87JC8WV6+RF"}, "rating": 5, "reference": "ChIJh38Jtht644kRbEh0ZXZy2Uc", "scope": "GOOGLE", "types": ["bank", "finance", "point_of_interest", "establishment"], "user_ratings_total": 1, "vicinity": "63 Burbank Street, Boston"}, "ChIJ320O8sl744kRe9jwgjhV1v8": {"geometry": {"location": {"lat": 42.34468809999999, "lng": -71.08913679999999}, "viewport": {"northeast": {"lat": 42.3459537802915, "lng": -71.08781086970849}, "southwest": {"lat": 42.3432558197085, "lng": -71.0905088302915}}}, "icon": "https://maps.gstatic.com/mapfiles/place_api/icons/school-71.png", "id": "24aa9b4a84fc7a9f23019879d183acbf89db6553", "name": "Mass College of Art", "place_id": "ChIJ320O8sl744kRe9jwgjhV1v8", "plus_code": {"compound_code": "8WV6+V8 Boston, Massachusetts, United States", "global_code": "87JC8WV6+V8"}, "reference": "ChIJ320O8sl744kRe9jwgjhV1v8", "scope": "GOOGLE", "types": ["school", "point_of_interest", "establishment"], "vicinity": "75 Burbank Street APT 401, Boston"}, "ChIJofOB0e9cXEARoL75nB6VJxc": {"geometry": {"location": {"lat": 42.3444719, "lng": -71.0888394}, "viewport": {"northeast": {"lat": 42.34584953029149, "lng": -71.08748251970849}, "southwest": {"lat": 42.34315156970849, "lng": -71.0901804802915}}}, "icon": "https://maps.gstatic.com/mapfiles/place_api/icons/generic_business-71.png", "id": "0ea965dc449aa457df18d62680815c18d99e49bb", "name": "Fenway Community Development Corporation", "opening_hours": {"open_now": true}, "photos": [{"height": 1345, "html_attributions": ["<a href=\"https://maps.google.com/maps/contrib/110405595193119652120/photos\">Fenway Community Development Corporation</a>"], "photo_reference": "CmRaAAAA-7C6kK9Z_Hp1McVSOsZibGj73qSPjVBAJjYUai-fmWZ6b6gQsL62XORhJQyqi9yDGWVlqxj3ukEfEIAzS8_QlbwmoPrjLh_g1UP5EYTQ34dYIKIcQ9sQSwnM9d-fZHD0EhB-7XnlbP9xNItecW-xt_k3GhRJ3PUuOiqFFO9TSKrSIxxN80pBHA", "width": 2048}], "place_id": "ChIJofOB0e9cXEARoL75nB6VJxc", "plus_code": {"compound_code": "8WV6+QF Boston, Massachusetts, United States", "global_code": "87JC8WV6+QF"}, "rating": 4.8, "reference": "ChIJofOB0e9cXEARoL75nB6VJxc", "scope": "GOOGLE", "types": ["point_of_interest", "establishment"], "user_ratings_total": 4, "vicinity": "70 Burbank Street, Boston"}, "ChIJBW0dyRt644kRqDZE1PrVSdM": {"geometry": {"location": {"lat": 42.3443055, "lng": -71.0889555}, "viewport": {"northeast": {"lat": 42.34574163029149, "lng": -71.0875824197085}, "southwest": {"lat": 42.34304366970849, "lng": -71.09028038029152}}}, "icon": "https://maps.gstatic.com/mapfiles/place_api/icons/generic_business-71.png", "id": "d0f26dd4d6939797a39fa8723975098a73b83734", "name": "64-70 Burbank Street Apartments", "place_id": "ChIJBW0dyRt644kRqDZE1PrVSdM", "plus_code": {"compound_code": "8WV6+PC Boston, Massachusetts, United States", "global_code": "87JC8WV6+PC"}, "rating": 3, "reference": "ChIJBW0dyRt644kRqDZE1PrVSdM", "scope": "GOOGLE", "types": ["point_of_interest", "establishment"], "user_ratings_total": 2, "vicinity": "70 Burbank Street, Boston"}, "ChIJGzE9DS1l44kRoOhiASS_fHg": {"geometry": {"location": {"lat": 42.3600825, "lng": -71.0588801}, "viewport": {"northeast": {"lat": 42.40081989999999, "lng": -70.749455}, "southwest": {"lat": 42.22788, "lng": -71.191113}}}, "icon": "https://maps.gstatic.com/mapfiles/place_api/icons/geocode-71.png", "id": "06755c25d2b34d13942a4713971756a55b870ced", "name": "Boston", "photos": [{"height": 3024, "html_attributions": ["<a href=\"https://maps.google.com/maps/contrib/104670289779338733432/photos\">Natalia Zalucean</a>"], "photo_reference": "CmRaAAAAC4Uq6-q2YQ5-BAcpPBJTgS_ND2AwQOhpldk1IhdgLi96oSSbE652ZuHUExKWPmD7ICQcwd1uQLhZgPJNfi1EJ9jl4eCcr7YL5zggph3ieMmhpTZlM3Hu5cdAJp2CGLkCEhCU0f9ER7NEmeLM8VtB6c1WGhRXRz5e-fCWDqK-3Na_KrWGvILOJg", "width": 4032}], "place_id": "ChIJGzE9DS1l44kRoOhiASS_fHg", "reference": "ChIJGzE9DS1l44kRoOhiASS_fHg", "scope": "GOOGLE", "types": ["locality", "political"], "vicinity": "Boston"}}