{"ChIJPwakHFF644kRAaK6LE9JOBk": {"geometry": {"location": {"lat": 42.3210791, "lng": -71.05788299999999}, "viewport": {"northeast": {"lat": 42.32244293029149, "lng": -71.05654466970849}, "southwest": {"lat": 42.31974496970849, "lng": -71.05924263029151}}}, "icon": "https://maps.gstatic.com/mapfiles/place_api/icons/geocode-71.png", "id": "704fab70895148411b4295f654f1350bca781242", "name": "82-56 Roseclair St", "place_id": "ChIJPwakHFF644kRAaK6LE9JOBk", "reference": "ChIJPwakHFF644kRAaK6LE9JOBk", "scope": "GOOGLE", "types": ["route"], "vicinity": "Boston"}, "ChIJKaJoF1F644kROn8b1uQg9-s": {"geometry": {"location": {"lat": 42.3206709, "lng": -71.0578586}, "viewport": {"northeast": {"lat": 42.32187598029149, "lng": -71.0563860697085}, "southwest": {"lat": 42.3191780197085, "lng": -71.0590840302915}}}, "icon": "https://maps.gstatic.com/mapfiles/place_api/icons/school-71.png", "id": "b9817665fb825caea7940f571d083b5322d4887a", "name": "Pope John Paul II Catholic Academy", "photos": [{"height": 4032, "html_attributions": ["<a href=\"https://maps.google.com/maps/contrib/105679325390003562139/photos\">Jose Ruiz Morcillo</a>"], "photo_reference": "CmRaAAAAFSDZApKPGMrPp3DcXaw3kVcOOPG25X1LQdM-L7hvXqs6Uwa5pTDgjpbuDUYJcxsO3wMoo0_3Fg71P6XQV1uHH3J0FaAHGgRUIjf4s_wbKsefNGZlgi7BzZTqQvhZ9V8pEhCkKeUvHQ5vL401nxwtWljLGhT2P9dVIs1BYB23INjFz4MPpJ5CBQ", "width": 3024}], "place_id": "ChIJKaJoF1F644kROn8b1uQg9-s", "plus_code": {"compound_code": "8WCR+7V Boston, Massachusetts, United States", "global_code": "87JC8WCR+7V"}, "rating": 2.6, "reference": "ChIJKaJoF1F644kROn8b1uQg9-s", "scope": "GOOGLE", "types": ["school", "point_of_interest", "establishment"], "user_ratings_total": 7, "vicinity": "790 Columbia Road, Dorchester"}, "ChIJebOVAFF644kRDvBfMVPPuHo": {"geometry": {"location": {"lat": 42.321302, "lng": -71.058595}, "viewport": {"northeast": {"lat": 42.32257733029149, "lng": -71.0572936697085}, "southwest": {"lat": 42.3198793697085, "lng": -71.0599916302915}}}, "icon": "https://maps.gstatic.com/mapfiles/place_api/icons/generic_business-71.png", "id": "8d3a4090a447692f481cc3159fe3a4f6257dd861", "name": "Amazing Fence", "opening_hours": {"open_now": true}, "photos": [{"height": 2448, "html_attributions": ["<a href=\"https://maps.google.com/maps/contrib/102988239821753088228/photos\">Amazing Fence</a>"], "photo_reference": "CmRaAAAAAkui3DRwdbMz_SdYMi5tkp2B4NoqJmj6QDrbo0Mc21cjO-I-3Jkqgn1UE9O7lAnmTxyXhz5SwikOiX4-M52ovJ9JygDg8i_F5Q8mItyZXM3zDylMrimzrznWpAX7Qfn6EhAyawiMPX6iMKhDyZqUbvu5GhRa-2LNLwZ3v2URbzzmMktrD_M69w", "width": 3264}], "place_id": "ChIJebOVAFF644kRDvBfMVPPuHo", "plus_code": {"compound_code": "8WCR+GH Boston, Massachusetts, United States", "global_code": "87JC8WCR+GH"}, "rating": 5, "reference": "ChIJebOVAFF644kRDvBfMVPPuHo", "scope": "GOOGLE", "types": ["store", "general_contractor", "point_of_interest", "establishment"], "user_ratings_total": 1, "vicinity": "42 Mayhew Street, Dorchester"}, "ChIJF3xVF1F644kRHTyxL5J1qVw": {"geometry": {"location": {"lat": 42.3207189, "lng": -71.0575668}, "viewport": {"northeast": {"lat": 42.3219521802915, "lng": -71.0561233197085}, "southwest": {"lat": 42.3192542197085, "lng": -71.05882128029151}}}, "icon": "https://maps.gstatic.com/mapfiles/place_api/icons/school-71.png", "id": "a04fdb1be4f7b90af559339ebb8aff48fda713ed", "name": "SJP2CA-Columbia", "place_id": "ChIJF3xVF1F644kRHTyxL5J1qVw", "plus_code": {"compound_code": "8WCR+7X Boston, Massachusetts, United States", "global_code": "87JC8WCR+7X"}, "reference": "ChIJF3xVF1F644kRHTyxL5J1qVw", "scope": "GOOGLE", "types": ["point_of_interest", "school", "establishment"], "vicinity": "790 Columbia Road, Boston"}, "ChIJKaJoF1F644kRq7zyMfcW4yw": {"geometry": {"location": {"lat": 42.3206497, "lng": -71.0578089}, "viewport": {"northeast": {"lat": 42.32186873029149, "lng": -71.0563537697085}, "southwest": {"lat": 42.3191707697085, "lng": -71.0590517302915}}}, "icon": "https://maps.gstatic.com/mapfiles/place_api/icons/school-71.png", "id": "a6c813705a5ab5d46d2a137134e011e282b790f6", "name": "St. Margaret School", "place_id": "ChIJKaJoF1F644kRq7zyMfcW4yw", "plus_code": {"compound_code": "8WCR+7V Boston, Massachusetts, United States", "global_code": "87JC8WCR+7V"}, "reference": "ChIJKaJoF1F644kRq7zyMfcW4yw", "scope": "GOOGLE", "types": ["point_of_interest", "school", "establishment"], "vicinity": "790 Columbia Road, Boston"}, "ChIJkeDWDVF644kR8_vOzBOdmtQ": {"geometry": {"location": {"lat": 42.32049999999999, "lng": -71.0581}, "viewport": {"northeast": {"lat": 42.32205308029149, "lng": -71.0568814197085}, "southwest": {"lat": 42.31935511970849, "lng": -71.05957938029151}}}, "icon": "https://maps.gstatic.com/mapfiles/place_api/icons/school-71.png", "id": "69e51b076b560ebb44ed4cf2e12fbe706be3c4fa", "name": "Saint Margaret Elementary School", "place_id": "ChIJkeDWDVF644kR8_vOzBOdmtQ", "plus_code": {"compound_code": "8WCR+5Q Boston, Massachusetts, United States", "global_code": "87JC8WCR+5Q"}, "reference": "ChIJkeDWDVF644kR8_vOzBOdmtQ", "scope": "GOOGLE", "types": ["point_of_interest", "school", "establishment"], "vicinity": "69 Roseclair Street, Boston"}, "ChIJGzE9DS1l44kRoOhiASS_fHg": {"geometry": {"location": {"lat": 42.3600825, "lng": -71.0588801}, "viewport": {"northeast": {"lat": 42.40081989999999, "lng": -70.749455}, "southwest": {"lat": 42.22788, "lng": -71.191113}}}, "icon": "https://maps.gstatic.com/mapfiles/place_api/icons/geocode-71.png", "id": "06755c25d2b34d13942a4713971756a55b870ced", "name": "Boston", "photos": [{"height": 3024, "html_attributions": ["<a href=\"https://maps.google.com/maps/contrib/104670289779338733432/photos\">Natalia Zalucean</a>"], "photo_reference": "CmRaAAAAu7LS2eMMBuJGFvxFD8jqq9yGnLy9DEOQiwEv_aoLNOmC9Z83DDOX-3OxKu53kP_55i31_MY63aKNis-7fTCPn6-73KPgN0WPlGnw9Liu6YrK-CwhFNqlPRVK3fVUH9xWEhCzY1CS9zUIp2yR2r4hN39UGhTyDIK4RQM9YXKQhXzVLZa4aCueTg", "width": 4032}], "place_id": "ChIJGzE9DS1l44kRoOhiASS_fHg", "reference": "ChIJGzE9DS1l44kRoOhiASS_fHg", "scope": "GOOGLE", "types": ["locality", "political"], "vicinity": "Boston"}}