{"ChIJPwzkEsB744kRl0tF2pvtixw": {"geometry": {"location": {"lat": 42.2991339, "lng": -71.0744493}, "viewport": {"northeast": {"lat": 42.3004828802915, "lng": -71.07310031970849}, "southwest": {"lat": 42.2977849197085, "lng": -71.07579828029151}}}, "icon": "https://maps.gstatic.com/mapfiles/place_api/icons/geocode-71.png", "id": "5a97397849b39f10727a1c2b1df65a5d4e88884d", "name": "9-21 Harvard St", "place_id": "ChIJPwzkEsB744kRl0tF2pvtixw", "reference": "ChIJPwzkEsB744kRl0tF2pvtixw", "scope": "GOOGLE", "types": ["route"], "vicinity": "Boston"}, "ChIJyXwSFsB744kR2NbQ8a7fcVU": {"geometry": {"location": {"lat": 42.2988683, "lng": -71.0748243}, "viewport": {"northeast": {"lat": 42.3002568302915, "lng": -71.07334191970848}, "southwest": {"lat": 42.2975588697085, "lng": -71.0760398802915}}}, "icon": "https://maps.gstatic.com/mapfiles/place_api/icons/shopping-71.png", "id": "4528af28d82a0b43d392cd241e16968837c15103", "name": "The Solution Plumbing", "opening_hours": {"open_now": true}, "place_id": "ChIJyXwSFsB744kR2NbQ8a7fcVU", "plus_code": {"compound_code": "7WXG+G3 Boston, Massachusetts, United States", "global_code": "87JC7WXG+G3"}, "reference": "ChIJyXwSFsB744kR2NbQ8a7fcVU", "scope": "GOOGLE", "types": ["plumber", "home_goods_store", "store", "point_of_interest", "establishment"], "vicinity": "26 Harvard Park, Dorchester"}, "ChIJC8oQbMB744kR_vtf1dHf1kI": {"geometry": {"location": {"lat": 42.2995117, "lng": -71.0745933}, "viewport": {"northeast": {"lat": 42.3009172802915, "lng": -71.0732776697085}, "southwest": {"lat": 42.2982193197085, "lng": -71.07597563029151}}}, "icon": "https://maps.gstatic.com/mapfiles/place_api/icons/generic_business-71.png", "id": "63b4876a666fa5379bd31679a944054f017800bd", "name": "Seeds of Change Solidarity Network - African American Cooperative Solutions", "opening_hours": {"open_now": false}, "place_id": "ChIJC8oQbMB744kR_vtf1dHf1kI", "plus_code": {"compound_code": "7WXG+R5 Boston, Massachusetts, United States", "global_code": "87JC7WXG+R5"}, "rating": 4, "reference": "ChIJC8oQbMB744kR_vtf1dHf1kI", "scope": "GOOGLE", "types": ["lodging", "point_of_interest", "establishment"], "user_ratings_total": 1, "vicinity": "9 Arvale Road, Dorchester"}, "ChIJSfybPcB744kRa4RDQR-HezQ": {"geometry": {"location": {"lat": 42.2989172, "lng": -71.075102}, "viewport": {"northeast": {"lat": 42.30025113029149, "lng": -71.0737450197085}, "southwest": {"lat": 42.2975531697085, "lng": -71.07644298029152}}}, "icon": "https://maps.gstatic.com/mapfiles/place_api/icons/generic_business-71.png", "id": "1b727ed35558cb49ddc8c71bd0639b0b3cf000ba", "name": "Torrent Engine 18", "place_id": "ChIJSfybPcB744kRa4RDQR-HezQ", "plus_code": {"compound_code": "7WXF+HX Boston, Massachusetts, United States", "global_code": "87JC7WXF+HX"}, "rating": 5, "reference": "ChIJSfybPcB744kRa4RDQR-HezQ", "scope": "GOOGLE", "types": ["point_of_interest", "establishment"], "user_ratings_total": 2, "vicinity": "30 Harvard Street, Boston"}, "ChIJddjGC3t744kRCYfICMaf_GI": {"geometry": {"location": {"lat": 42.29953099999999, "lng": -71.0749514}, "viewport": {"northeast": {"lat": 42.3009087302915, "lng": -71.0736194197085}, "southwest": {"lat": 42.2982107697085, "lng": -71.07631738029151}}}, "icon": "https://maps.gstatic.com/mapfiles/place_api/icons/generic_business-71.png", "id": "b91348fdcc1b9ca13a700aff95360a5a74c3f7ca", "name": "Women of Color Cooperative", "place_id": "ChIJddjGC3t744kRCYfICMaf_GI", "plus_code": {"compound_code": "7WXG+R2 Boston, Massachusetts, United States", "global_code": "87JC7WXG+R2"}, "reference": "ChIJddjGC3t744kRCYfICMaf_GI", "scope": "GOOGLE", "types": ["point_of_interest", "establishment"], "vicinity": "Arvale Road, Boston"}, "ChIJGzE9DS1l44kRoOhiASS_fHg": {"geometry": {"location": {"lat": 42.3600825, "lng": -71.0588801}, "viewport": {"northeast": {"lat": 42.40081989999999, "lng": -70.749455}, "southwest": {"lat": 42.22788, "lng": -71.191113}}}, "icon": "https://maps.gstatic.com/mapfiles/place_api/icons/geocode-71.png", "id": "06755c25d2b34d13942a4713971756a55b870ced", "name": "Boston", "photos": [{"height": 3024, "html_attributions": ["<a href=\"https://maps.google.com/maps/contrib/104670289779338733432/photos\">Natalia Zalucean</a>"], "photo_reference": "CmRaAAAAUfVESU6mUicz7YRFHl6uz6yT3D_XQH3bDnh0iC6mPYu6mkKISuP2OZsUVilFjnxw4jKVmRsOCAZRFpjqAtrSAncq37sc5AYM2oYBVsN3K_0N4pOx3PjMEYux1mEp5FxCEhAlmq6qx_RNr-CnSDQfRYV_GhRu3Tmmb73cjWmpK7xzCD3No1W3xQ", "width": 4032}], "place_id": "ChIJGzE9DS1l44kRoOhiASS_fHg", "reference": "ChIJGzE9DS1l44kRoOhiASS_fHg", "scope": "GOOGLE", "types": ["locality", "political"], "vicinity": "Boston"}}