{"ChIJw9XVOE9w44kRuwfBgThadXY": {"geometry": {"location": {"lat": 42.3778461, "lng": -71.03303369999999}, "viewport": {"northeast": {"lat": 42.3791950302915, "lng": -71.03088355}, "southwest": {"lat": 42.3764970697085, "lng": -71.03518374999997}}}, "icon": "https://maps.gstatic.com/mapfiles/place_api/icons/geocode-71.png", "id": "a08abf81b263681d1d15f94b6ccf01f9344d0c57", "name": "298-200 Saratoga St", "place_id": "ChIJw9XVOE9w44kRuwfBgThadXY", "reference": "ChIJw9XVOE9w44kRuwfBgThadXY", "scope": "GOOGLE", "types": ["route"], "vicinity": "Boston"}, "ChIJSZNO0blx44kRqguoYMwWc80": {"geometry": {"location": {"lat": 42.37804329999999, "lng": -71.03408759999999}, "viewport": {"northeast": {"lat": 42.3794618802915, "lng": -71.0327863697085}, "southwest": {"lat": 42.3767639197085, "lng": -71.03548433029151}}}, "icon": "https://maps.gstatic.com/mapfiles/place_api/icons/generic_business-71.png", "id": "f246cfcbd877d2d591c1fec70abbf47afddc43bc", "name": "PREMIER GLOBAL PROPERTIES", "photos": [{"height": 2448, "html_attributions": ["<a href=\"https://maps.google.com/maps/contrib/117870956048690457476/photos\">PREMIER GLOBAL PROPERTIES</a>"], "photo_reference": "CmRaAAAA6RxIrbot47i5_D5LFfg2t_Bebg37R4KokT-t4H5UyQzb274pbGa0ayJqffK6WBBtMx9OZXpQmEKkPqNAlNfNLuTFpBhb0GWdk-TwMHi4ZqlZsZne91UlpKv_6LAtSGGUEhBji12EMhci_cZs7UganpspGhRHIiUVZEDMJ42lhbCqeBgKcsK7iw", "width": 3264}], "place_id": "ChIJSZNO0blx44kRqguoYMwWc80", "plus_code": {"compound_code": "9XH8+69 Boston, Massachusetts, United States", "global_code": "87JC9XH8+69"}, "rating": 5, "reference": "ChIJSZNO0blx44kRqguoYMwWc80", "scope": "GOOGLE", "types": ["point_of_interest", "establishment"], "user_ratings_total": 1, "vicinity": "141 Princeton Street, Boston"}, "ChIJ8czFck9w44kRyFRKZBPZI6o": {"geometry": {"location": {"lat": 42.3778701, "lng": -71.0342964}, "viewport": {"northeast": {"lat": 42.3792040302915, "lng": -71.03298811970849}, "southwest": {"lat": 42.3765060697085, "lng": -71.0356860802915}}}, "icon": "https://maps.gstatic.com/mapfiles/place_api/icons/generic_business-71.png", "id": "149bd8f6902b0be7c000025e5a49934d869d1068", "name": "Iglesia De Dios El Sinai", "place_id": "ChIJ8czFck9w44kRyFRKZBPZI6o", "plus_code": {"compound_code": "9XH8+47 Boston, Massachusetts, United States", "global_code": "87JC9XH8+47"}, "reference": "ChIJ8czFck9w44kRyFRKZBPZI6o", "scope": "GOOGLE", "types": ["point_of_interest", "establishment"], "vicinity": "107 Brooks Street, Boston"}, "ChIJBwEADE9w44kR9LsXoHjJj2w": {"geometry": {"location": {"lat": 42.3782174, "lng": -71.0344318}, "viewport": {"northeast": {"lat": 42.3795154802915, "lng": -71.0330479197085}, "southwest": {"lat": 42.37681751970851, "lng": -71.03574588029151}}}, "icon": "https://maps.gstatic.com/mapfiles/place_api/icons/atm-71.png", "id": "e15bb3b4a23ca0b0a77fdb4168838a4b922542f5", "name": "Instant Money Service", "place_id": "ChIJBwEADE9w44kR9LsXoHjJj2w", "plus_code": {"compound_code": "9XH8+76 Boston, Massachusetts, United States", "global_code": "87JC9XH8+76"}, "reference": "ChIJBwEADE9w44kR9LsXoHjJj2w", "scope": "GOOGLE", "types": ["atm", "finance", "point_of_interest", "establishment"], "vicinity": "140 Princeton Street, Boston"}, "ChIJBwEADE9w44kRusL7SiaXVbo": {"geometry": {"location": {"lat": 42.37821479999999, "lng": -71.03444879999999}, "viewport": {"northeast": {"lat": 42.3795113802915, "lng": -71.03306391970848}, "southwest": {"lat": 42.3768134197085, "lng": -71.0357618802915}}}, "icon": "https://maps.gstatic.com/mapfiles/place_api/icons/shopping-71.png", "id": "5234740b2433ab0ea58ce04bbb918f4d1fa14676", "name": "Calderon Market", "opening_hours": {"open_now": true}, "photos": [{"height": 777, "html_attributions": ["<a href=\"https://maps.google.com/maps/contrib/103046195674554227256/photos\">Jennifer-lee Flores</a>"], "photo_reference": "CmRaAAAAS2MuWDarNztaIEuGRztYbdhAOISzviVBRSsoflN6MO6OZkYWn6IfuG35JviAe8CUluJxaZfR2oXauaWCgac1cKg4-2Lr-BR3u8TbVL_Fn9KfK9ucvPeYF9yUUMJMJU0cEhCRkuM6b3ksU_Q2GsjpG_RbGhSz68ghteGzVnyT3mEpdSA6vOK6_w", "width": 1080}], "place_id": "ChIJBwEADE9w44kRusL7SiaXVbo", "plus_code": {"compound_code": "9XH8+76 Boston, Massachusetts, United States", "global_code": "87JC9XH8+76"}, "rating": 4.5, "reference": "ChIJBwEADE9w44kRusL7SiaXVbo", "scope": "GOOGLE", "types": ["grocery_or_supermarket", "store", "point_of_interest", "food", "establishment"], "user_ratings_total": 8, "vicinity": "140 Princeton Street, East Boston"}, "ChIJc7YEcU9w44kRNJGmZjoJhUA": {"geometry": {"location": {"lat": 42.3774792, "lng": -71.0343767}, "viewport": {"northeast": {"lat": 42.37877538029149, "lng": -71.0329913697085}, "southwest": {"lat": 42.37607741970849, "lng": -71.0356893302915}}}, "icon": "https://maps.gstatic.com/mapfiles/place_api/icons/school-71.png", "id": "fba29caba026f0d2681a6317ce4133b56d7773af", "name": "Swift Waters After School", "place_id": "ChIJc7YEcU9w44kRNJGmZjoJhUA", "plus_code": {"compound_code": "9XG8+X6 Boston, Massachusetts, United States", "global_code": "87JC9XG8+X6"}, "rating": 5, "reference": "ChIJc7YEcU9w44kRNJGmZjoJhUA", "scope": "GOOGLE", "types": ["point_of_interest", "establishment"], "user_ratings_total": 3, "vicinity": "172 Saratoga Street, Boston"}, "ChIJ-4YQek9w44kRSzlhs3_5MU8": {"geometry": {"location": {"lat": 42.377488, "lng": -71.03448399999999}, "viewport": {"northeast": {"lat": 42.3787646802915, "lng": -71.03308521970848}, "southwest": {"lat": 42.3760667197085, "lng": -71.0357831802915}}}, "icon": "https://maps.gstatic.com/mapfiles/place_api/icons/worship_general-71.png", "id": "2a859835d06ecd0b34306f8b8937a1c81bc9d99c", "name": "Assembly of Christians Church", "place_id": "ChIJ-4YQek9w44kRSzlhs3_5MU8", "plus_code": {"compound_code": "9XG8+X6 Boston, Massachusetts, United States", "global_code": "87JC9XG8+X6"}, "reference": "ChIJ-4YQek9w44kRSzlhs3_5MU8", "scope": "GOOGLE", "types": ["church", "place_of_worship", "point_of_interest", "establishment"], "vicinity": "166 Saratoga Street, East Boston"}, "ChIJGzE9DS1l44kRoOhiASS_fHg": {"geometry": {"location": {"lat": 42.3600825, "lng": -71.0588801}, "viewport": {"northeast": {"lat": 42.40081989999999, "lng": -70.749455}, "southwest": {"lat": 42.22788, "lng": -71.191113}}}, "icon": "https://maps.gstatic.com/mapfiles/place_api/icons/geocode-71.png", "id": "06755c25d2b34d13942a4713971756a55b870ced", "name": "Boston", "photos": [{"height": 3024, "html_attributions": ["<a href=\"https://maps.google.com/maps/contrib/104670289779338733432/photos\">Natalia Zalucean</a>"], "photo_reference": "CmRaAAAATy7I8y5FPRs7quPDVcxMhgyfaDtlriQRT1_Lht3DxSfAmkMY8mi9B3lPCYwA3MQPa_qs9W6Ksp9wrnwBkFvSRd9hBkHNv3pdQZiZRrHBdtFN6QzP53r5fI_C7E4nF6j1EhA19p00x13zXPgkZj7uneDFGhRoIlfdKz245y5IQP9IE57WOAzKuQ", "width": 4032}], "place_id": "ChIJGzE9DS1l44kRoOhiASS_fHg", "reference": "ChIJGzE9DS1l44kRoOhiASS_fHg", "scope": "GOOGLE", "types": ["locality", "political"], "vicinity": "Boston"}}