{"ChIJpSUHhAmC44kRfq9wm3sIklU": {"geometry": {"location": {"lat": 42.3370413, "lng": -71.20922139999999}, "viewport": {"northeast": {"lat": 42.3679719, "lng": -71.1569968}, "southwest": {"lat": 42.2827739, "lng": -71.270359}}}, "icon": "https://maps.gstatic.com/mapfiles/place_api/icons/geocode-71.png", "id": "d74f935d4736f725e4eba20abe314f6094a27c4a", "name": "Newton", "photos": [{"height": 1536, "html_attributions": ["<a href=\"https://maps.google.com/maps/contrib/103956073675495355808/photos\">Fumiaki Imamura</a>"], "photo_reference": "CmRZAAAALJ5zP8ubOCqiOigqDWyaxGKiBX9eYCP85_yS53ohF7MukNR7V4LnXgUdST79HbDDjbZT7lJcVmjCmb2RfBmbYaUj6CvFhCZD7NEUaQY1SqFWz3_qHeyTc2Hqnh62o_3MEhDgq7wZgfIAAKduGiu6N-qvGhTXJBUJ1P_KO05s29PX8FIMNN6ZfA", "width": 2048}], "place_id": "ChIJpSUHhAmC44kRfq9wm3sIklU", "reference": "ChIJpSUHhAmC44kRfq9wm3sIklU", "scope": "GOOGLE", "types": ["locality", "political"], "vicinity": "Newton"}, "ChIJ80B_tpJ444kRjQQfz2GvyQc": {"geometry": {"location": {"lat": 42.3227561, "lng": -71.16898809999999}, "viewport": {"northeast": {"lat": 42.32424263029149, "lng": -71.16770611970848}, "southwest": {"lat": 42.32154466970849, "lng": -71.17040408029149}}}, "icon": "https://maps.gstatic.com/mapfiles/place_api/icons/restaurant-71.png", "id": "93001e68dd180e98f3ea0f2ebcf2a9b2b1c3cf8b", "name": "Legal Sea Foods", "opening_hours": {"open_now": true}, "photos": [{"height": 628, "html_attributions": ["<a href=\"https://maps.google.com/maps/contrib/113115713591969838475/photos\">Legal Sea Foods</a>"], "photo_reference": "CmRaAAAAJ2yYyR1Fkk10DLSX7KzquUJmgkTjKtXqTu8xCCWw0COua7svzvZbjJuuidjZKSsUzu6FnkN92DcJa7uznxBJJWvrTQF4PEHdxjAoORyCSFTACF0BF8f6WJ_AKDDwKOG3EhDrAPVJk7lzzjDPg4ch3pf9GhT_uffDLNyi1ayV07Gv8ZfhAaXEmg", "width": 628}], "place_id": "ChIJ80B_tpJ444kRjQQfz2GvyQc", "plus_code": {"compound_code": "8RFJ+4C Newton, Massachusetts, United States", "global_code": "87JC8RFJ+4C"}, "price_level": 3, "rating": 4.1, "reference": "ChIJ80B_tpJ444kRjQQfz2GvyQc", "scope": "GOOGLE", "types": ["bar", "restaurant", "point_of_interest", "food", "establishment"], "user_ratings_total": 312, "vicinity": "55 Boylston Street, The Street, Chestnut Hill"}, "ChIJofJ86ZJ444kROU5EZLfYqww": {"geometry": {"location": {"lat": 42.32298369999999, "lng": -71.1687804}, "viewport": {"northeast": {"lat": 42.3243939802915, "lng": -71.16746126970851}, "southwest": {"lat": 42.3216960197085, "lng": -71.17015923029152}}}, "icon": "https://maps.gstatic.com/mapfiles/place_api/icons/shopping-71.png", "id": "78136b2c4c03bf06fc1ec0adf50a38eeeeedf03a", "name": "Bluemercury", "opening_hours": {"open_now": true}, "photos": [{"height": 1180, "html_attributions": ["<a href=\"https://maps.google.com/maps/contrib/104906076382484767897/photos\">Bluemercury</a>"], "photo_reference": "CmRaAAAA8Nu0ErQbh5wJJjEXk9sGdKB1wwMB50Tn-hpyFkQ_CTFW0Msfhncz-4dSlj8tO-PTuAyzVqmcZh7v3Go0KtAOad68Ls62Taqy_OsS7kRSopB22xcfa3KL5Ajd7hIOipMlEhDGQWDMnZnMNWSyKGn5ho8iGhSgYBkY7i6zq1xE7yd8Gv4yqnRUaw", "width": 1800}], "place_id": "ChIJofJ86ZJ444kROU5EZLfYqww", "plus_code": {"compound_code": "8RFJ+5F Newton, Massachusetts, United States", "global_code": "87JC8RFJ+5F"}, "price_level": 3, "rating": 5, "reference": "ChIJofJ86ZJ444kROU5EZLfYqww", "scope": "GOOGLE", "types": ["spa", "clothing_store", "home_goods_store", "store", "point_of_interest", "establishment"], "user_ratings_total": 1, "vicinity": "33 Boylston Street #3343, Chestnut Hill"}, "ChIJJUlnspJ444kRCeux1UJWLIw": {"geometry": {"location": {"lat": 42.3229554, "lng": -71.1688277}, "viewport": {"northeast": {"lat": 42.3243726302915, "lng": -71.16751196970849}, "southwest": {"lat": 42.3216746697085, "lng": -71.17020993029149}}}, "icon": "https://maps.gstatic.com/mapfiles/place_api/icons/shopping-71.png", "id": "a005694a5f86101a6fc2c66c1a2efb4d138b3ab0", "name": "Legit Activewear", "opening_hours": {"open_now": true}, "photos": [{"height": 750, "html_attributions": ["<a href=\"https://maps.google.com/maps/contrib/110050314821216986690/photos\">Legit Activewear</a>"], "photo_reference": "CmRaAAAANLnBIXk-ZDKi9m48EGoh-5XGpQ26bbKnU2B_eLZJkYlD_lIuHNvNTfnt7ivbZpkeX_L6pPmfJpJIvD1LhdzHBPHfrHylcF-1drn2qUK3xI3ZLmajTtg1s-4q4SM6E4yWEhCpAuqgIEsvcesdFTocdhPLGhScJojVQF3M-1SGOrWUSLhLYjDuHA", "width": 1400}], "place_id": "ChIJJUlnspJ444kRCeux1UJWLIw", "plus_code": {"compound_code": "8RFJ+5F Newton, Massachusetts, United States", "global_code": "87JC8RFJ+5F"}, "reference": "ChIJJUlnspJ444kRCeux1UJWLIw", "scope": "GOOGLE", "types": ["clothing_store", "store", "point_of_interest", "establishment"], "vicinity": "33 Boylston Street suite 3335, Chestnut Hill"}, "ChIJH4Y-ae1444kRXQOcQXZpvz0": {"geometry": {"location": {"lat": 42.3230674, "lng": -71.1685935}, "viewport": {"northeast": {"lat": 42.3244626802915, "lng": -71.16726706970849}, "southwest": {"lat": 42.3217647197085, "lng": -71.16996503029151}}}, "icon": "https://maps.gstatic.com/mapfiles/place_api/icons/shopping-71.png", "id": "ab41d8b9597b1ceaccd3bafeff28d4a5ba38db5a", "name": "DAVIDsTEA", "opening_hours": {"open_now": true}, "photos": [{"height": 4032, "html_attributions": ["<a href=\"https://maps.google.com/maps/contrib/108823863836720515661/photos\">Lev Agranovich, EA MSA CFC PA CDFA</a>"], "photo_reference": "CmRaAAAA_pxB5icUtdupGC45LZBeBaY45DqRM0nU-hdLmTf1EZuLXIX6-pZXW2mtdBbZ1CFlVW_Linw5MCS9WKkbnSfbnSd3Um5imRjFYgOD2BxZgWQTo3oP2KCZpFPBGfCXeSSoEhDdrOxTzgyQj9djEx2vbZdiGhTToa3g5v_0rH9MEo6G8LTZIcUgHA", "width": 3024}], "place_id": "ChIJH4Y-ae1444kRXQOcQXZpvz0", "plus_code": {"compound_code": "8RFJ+6H Newton, Massachusetts, United States", "global_code": "87JC8RFJ+6H"}, "rating": 4.8, "reference": "ChIJH4Y-ae1444kRXQOcQXZpvz0", "scope": "GOOGLE", "types": ["store", "point_of_interest", "food", "establishment"], "user_ratings_total": 22, "vicinity": "33 Boylston Street, Chestnut Hill"}, "ChIJSeaw4JJ444kR7-KynzPgEIo": {"geometry": {"location": {"lat": 42.32297000000001, "lng": -71.1686122}, "viewport": {"northeast": {"lat": 42.3243436302915, "lng": -71.1671683197085}, "southwest": {"lat": 42.3216456697085, "lng": -71.1698662802915}}}, "icon": "https://maps.gstatic.com/mapfiles/place_api/icons/restaurant-71.png", "id": "2adfb36a4e50785f1129d778424c1501af9a8e1a", "name": "Del Frisco's Grille", "opening_hours": {"open_now": true}, "photos": [{"height": 3024, "html_attributions": ["<a href=\"https://maps.google.com/maps/contrib/110674127243864444052/photos\">Michael Kit</a>"], "photo_reference": "CmRaAAAAEUef6ib2iNa5avJwVzVDYNzoaTFYxW3zuootmwp_qZdY5GtuypKJbHqmZJfY-Ntr9b2HqsoyND1y7oVD_ssYN3yzl2QUZb1xBhNdkZeZfHmtTtdjCxaLQkEwtcuKIFY0EhDTjzWSl-gKIOQ-M4C9AFIYGhRV92v39At8MRhDGgU8VxbpoSgW8w", "width": 4032}], "place_id": "ChIJSeaw4JJ444kR7-KynzPgEIo", "plus_code": {"compound_code": "8RFJ+5H Newton, Massachusetts, United States", "global_code": "87JC8RFJ+5H"}, "price_level": 3, "rating": 4, "reference": "ChIJSeaw4JJ444kR7-KynzPgEIo", "scope": "GOOGLE", "types": ["bar", "restaurant", "point_of_interest", "food", "establishment"], "user_ratings_total": 152, "vicinity": "33 Boylston Street Suite 3370, Chestnut Hill"}, "ChIJ70Zo5JJ444kRBprKVvejGwM": {"geometry": {"location": {"lat": 42.32273439999999, "lng": -71.1689493}, "viewport": {"northeast": {"lat": 42.32423508029149, "lng": -71.1676742197085}, "southwest": {"lat": 42.32153711970849, "lng": -71.17037218029151}}}, "icon": "https://maps.gstatic.com/mapfiles/place_api/icons/shopping-71.png", "id": "adb77bd86f762dcde53fcc732cf37bbb00eba9d2", "name": "lululemon", "opening_hours": {"open_now": true}, "photos": [{"height": 1080, "html_attributions": ["<a href=\"https://maps.google.com/maps/contrib/102740870821353034375/photos\">bernie shen</a>"], "photo_reference": "CmRaAAAAD-D5MJ8z1psb0zBS4_Os-kwO1k_Env85R8L-Y4hYKOMg8-Hufg0rHvBzNAl7yKcUJlQWZONxTZzhUrgB4d4gl5jAgrZT2GqVWdUT5GRh7oHKgaiVchzq1oESDOhv9zhaEhCTCuKjFv_Yv7_FYVACY2sxGhQaYDu7nPAhWHVEb2IcPF4LNj689w", "width": 1920}], "place_id": "ChIJ70Zo5JJ444kRBprKVvejGwM", "plus_code": {"compound_code": "8RFJ+3C Newton, Massachusetts, United States", "global_code": "87JC8RFJ+3C"}, "price_level": 3, "rating": 3.6, "reference": "ChIJ70Zo5JJ444kRBprKVvejGwM", "scope": "GOOGLE", "types": ["shoe_store", "gym", "clothing_store", "store", "health", "point_of_interest", "establishment"], "user_ratings_total": 8, "vicinity": "55 Boylston Street, Chestnut Hill"}, "ChIJtyod55J444kRZU5wnUdmGOY": {"geometry": {"location": {"lat": 42.3227864, "lng": -71.1687194}, "viewport": {"northeast": {"lat": 42.3241824802915, "lng": -71.1671889697085}, "southwest": {"lat": 42.3214845197085, "lng": -71.16988693029151}}}, "icon": "https://maps.gstatic.com/mapfiles/place_api/icons/generic_business-71.png", "id": "c0799a7723e804151ae7986c70a3e59aef7d6641", "name": "WS Development", "place_id": "ChIJtyod55J444kRZU5wnUdmGOY", "plus_code": {"compound_code": "8RFJ+4G Newton, Massachusetts, United States", "global_code": "87JC8RFJ+4G"}, "rating": 5, "reference": "ChIJtyod55J444kRZU5wnUdmGOY", "scope": "GOOGLE", "types": ["general_contractor", "point_of_interest", "establishment"], "user_ratings_total": 1, "vicinity": "33 Boylston Street #3000, Chestnut Hill"}, "ChIJY9Yp3ZJ444kRQlXQM_qJxhI": {"geometry": {"location": {"lat": 42.32278599999999, "lng": -71.168719}, "viewport": {"northeast": {"lat": 42.3241820802915, "lng": -71.16718866970848}, "southwest": {"lat": 42.3214841197085, "lng": -71.1698866302915}}}, "icon": "https://maps.gstatic.com/mapfiles/place_api/icons/shopping-71.png", "id": "0099cd74fa31f02b10e64beb6772d087de44dd58", "name": "Polkadog Bakery - Chestnut Hill", "opening_hours": {"open_now": true}, "photos": [{"height": 375, "html_attributions": ["<a href=\"https://maps.google.com/maps/contrib/111609284728954671173/photos\">William Barnes</a>"], "photo_reference": "CmRaAAAAg7i-zz2ixlFo2BNrkdaf5LpSd14Ui_Ukqn_r5iXl7RrU0yk5UvaPq7Ju4lIoaAGy_ZMqH_QZmSRxgKDQ5GRjOVwh99jN11_dFCQT6k_c91nYn1mfx3cshoPDGZb6SaWbEhAnp1jbJ5b--esIEgucgAS9GhTVfrSbtSj59B3JluHxt3GQqeauJw", "width": 500}], "place_id": "ChIJY9Yp3ZJ444kRQlXQM_qJxhI", "plus_code": {"compound_code": "8RFJ+4G Newton, Massachusetts, United States", "global_code": "87JC8RFJ+4G"}, "rating": 4.8, "reference": "ChIJY9Yp3ZJ444kRQlXQM_qJxhI", "scope": "GOOGLE", "types": ["store", "point_of_interest", "establishment"], "user_ratings_total": 33, "vicinity": "33 Boylston Street, Chestnut Hill"}, "ChIJYy4Vs5J444kRc-jutjZKA1U": {"geometry": {"location": {"lat": 42.32278599999999, "lng": -71.168719}, "viewport": {"northeast": {"lat": 42.3241820802915, "lng": -71.16718866970848}, "southwest": {"lat": 42.3214841197085, "lng": -71.1698866302915}}}, "icon": "https://maps.gstatic.com/mapfiles/place_api/icons/restaurant-71.png", "id": "6bf499b33794185dbc9e5a4eef02352d2d4ba2b1", "name": "Juice Press", "opening_hours": {"open_now": true}, "photos": [{"height": 3264, "html_attributions": ["<a href=\"https://maps.google.com/maps/contrib/113614333173745513919/photos\">ellen w</a>"], "photo_reference": "CmRaAAAAdGz0qqa25lV96qjo759yyDKu0_uiGwO0l6foHrKzXGmBTwN6Lum4gMZHMAm32IMU8VVnKH7-3gw9eCZkq4UnBqZO4PSp4sW_XjS8TJT00XURdbI7HHk6CXKEyL3HQoplEhBDE_EPnb0vg0l7DzGxLp1cGhR7cadcCHSUSGStQjA6Ut-BxgqhHA", "width": 2448}], "place_id": "ChIJYy4Vs5J444kRc-jutjZKA1U", "plus_code": {"compound_code": "8RFJ+4G Newton, Massachusetts, United States", "global_code": "87JC8RFJ+4G"}, "price_level": 2, "rating": 4.5, "reference": "ChIJYy4Vs5J444kRc-jutjZKA1U", "scope": "GOOGLE", "types": ["store", "health", "restaurant", "point_of_interest", "food", "establishment"], "user_ratings_total": 15, "vicinity": "33 Boylston Street, Chestnut Hill"}, "ChIJ9zLi5pJ444kRcOky0264Joc": {"geometry": {"location": {"lat": 42.3227856, "lng": -71.1687358}, "viewport": {"northeast": {"lat": 42.32418363029149, "lng": -71.16719791970849}, "southwest": {"lat": 42.3214856697085, "lng": -71.1698958802915}}}, "icon": "https://maps.gstatic.com/mapfiles/place_api/icons/shopping-71.png", "id": "65f5f08535daa280528ce469835bc33ae9f48e9e", "name": "Ku De Ta", "opening_hours": {"open_now": true}, "photos": [{"height": 607, "html_attributions": ["<a href=\"https://maps.google.com/maps/contrib/104111246635874032234/photos\">ZAGAT</a>"], "photo_reference": "CmRaAAAATjjG0OQL_G1VJ_rthULVcaUITf7VJrKGv3A6mHCPu1aF5m3yipnwCTJXl67pInUb15spcdPXSvx7SLs4Wok0A0U2rD2DTnAqGItJHlWXYJtNlM7YeP8IJbMVP8-L58asEhD2S4EQMxWCmbJ7rwmIOLHdGhTS9tM_LK-35MS3eGqY8GM4ISc-9g", "width": 960}], "place_id": "ChIJ9zLi5pJ444kRcOky0264Joc", "plus_code": {"compound_code": "8RFJ+4G Newton, Massachusetts, United States", "global_code": "87JC8RFJ+4G"}, "price_level": 2, "rating": 5, "reference": "ChIJ9zLi5pJ444kRcOky0264Joc", "scope": "GOOGLE", "types": ["clothing_store", "store", "point_of_interest", "establishment"], "user_ratings_total": 2, "vicinity": "33 Boylston Street, Chestnut Hill"}, "ChIJzWoNYQ1544kRI__NSUAJetM": {"geometry": {"location": {"lat": 42.3226925, "lng": -71.1691056}, "viewport": {"northeast": {"lat": 42.3238898802915, "lng": -71.16768581970848}, "southwest": {"lat": 42.3211919197085, "lng": -71.1703837802915}}}, "icon": "https://maps.gstatic.com/mapfiles/place_api/icons/shopping-71.png", "id": "6f8a92a2fd1d5d04f6ba2254009047e975f6935b", "name": "Copious Row", "opening_hours": {"open_now": true}, "photos": [{"height": 250, "html_attributions": ["<a href=\"https://maps.google.com/maps/contrib/104273210282845182693/photos\">Copious Row</a>"], "photo_reference": "CmRaAAAAIKYQ7R4IkbJ_iraMZb6DXxHwcqSYVTKLiQ5uqn87wyoHLsOS-y9WbP3oDR3w91jJzLnODQF1oOQH0EWmt_aXGWeSCODbamoSrtUs8Cy_CjDo-E5Oe8nOuNHoEzl5S2stEhDus3TI8sc-me2XPSnul4p5GhTSzMUGNHniY-AKwZZ8JtrDy1tjUw", "width": 250}], "place_id": "ChIJzWoNYQ1544kRI__NSUAJetM", "plus_code": {"compound_code": "8RFJ+39 Newton, Massachusetts, United States", "global_code": "87JC8RFJ+39"}, "reference": "ChIJzWoNYQ1544kRI__NSUAJetM", "scope": "GOOGLE", "types": ["clothing_store", "store", "point_of_interest", "establishment"], "vicinity": "33 Boylston Street #3300, Chestnut Hill"}, "ChIJywfuR5F544kRj12EuohXJUI": {"geometry": {"location": {"lat": 42.3226925, "lng": -71.1691056}, "viewport": {"northeast": {"lat": 42.3238898802915, "lng": -71.16768581970848}, "southwest": {"lat": 42.3211919197085, "lng": -71.1703837802915}}}, "icon": "https://maps.gstatic.com/mapfiles/place_api/icons/shopping-71.png", "id": "6b277a60be3f2bb3613456da10738d678edc6860", "name": "Simon Pearce", "opening_hours": {"open_now": true}, "place_id": "ChIJywfuR5F544kRj12EuohXJUI", "plus_code": {"compound_code": "8RFJ+39 Newton, Massachusetts, United States", "global_code": "87JC8RFJ+39"}, "reference": "ChIJywfuR5F544kRj12EuohXJUI", "scope": "GOOGLE", "types": ["store", "point_of_interest", "establishment"], "vicinity": "33 Boylston Street Chestnut Hill Shopping Center, Chestnut Hill"}, "ChIJ935y-nR444kRXq9TINc9zps": {"geometry": {"location": {"lat": 42.3303798, "lng": -71.166187}, "viewport": {"northeast": {"lat": 42.344031, "lng": -71.156997}, "southwest": {"lat": 42.320597, "lng": -71.18579799999999}}}, "icon": "https://maps.gstatic.com/mapfiles/place_api/icons/geocode-71.png", "id": "6d79e487197ccbe17502e69c70148b418f4601e8", "name": "Chestnut Hill", "place_id": "ChIJ935y-nR444kRXq9TINc9zps", "reference": "ChIJ935y-nR444kRXq9TINc9zps", "scope": "GOOGLE", "types": ["neighborhood", "political"], "vicinity": "Newton"}}