{"ChIJKY0egU9w44kRU5GwEG2OuZE": {"geometry": {"location": {"lat": 42.3770438, "lng": -71.0351819}, "viewport": {"northeast": {"lat": 42.3783912802915, "lng": -71.03303645}, "southwest": {"lat": 42.3756933197085, "lng": -71.03732545000001}}}, "icon": "https://maps.gstatic.com/mapfiles/place_api/icons/geocode-71.png", "id": "e5d61fb6e421ae7c55640a9ded0c71d171edf09c", "name": "198-100 Saratoga St", "place_id": "ChIJKY0egU9w44kRU5GwEG2OuZE", "reference": "ChIJKY0egU9w44kRU5GwEG2OuZE", "scope": "GOOGLE", "types": ["route"], "vicinity": "Boston"}, "ChIJQ24KfkVw44kRT-E3fmdk_bA": {"geometry": {"location": {"lat": 42.37683699999999, "lng": -71.035287}, "viewport": {"northeast": {"lat": 42.3782524302915, "lng": -71.03398376970848}, "southwest": {"lat": 42.3755544697085, "lng": -71.0366817302915}}}, "icon": "https://maps.gstatic.com/mapfiles/place_api/icons/generic_business-71.png", "id": "9325511fd86d590a877361bb675da21e9e51197f", "name": "boston, ma | jr tile specialist inc", "place_id": "ChIJQ24KfkVw44kRT-E3fmdk_bA", "plus_code": {"compound_code": "9XG7+PV Boston, Massachusetts, United States", "global_code": "87JC9XG7+PV"}, "reference": "ChIJQ24KfkVw44kRT-E3fmdk_bA", "scope": "GOOGLE", "types": ["general_contractor", "point_of_interest", "establishment"], "vicinity": "127 Saratoga Street, Boston"}, "ChIJg7mxpcdx44kRID9g8p9uXyM": {"geometry": {"location": {"lat": 42.377467, "lng": -71.035685}, "viewport": {"northeast": {"lat": 42.3788771802915, "lng": -71.03437796970849}, "southwest": {"lat": 42.3761792197085, "lng": -71.03707593029151}}}, "icon": "https://maps.gstatic.com/mapfiles/place_api/icons/generic_business-71.png", "id": "118f4bea399733dce303512c95125a28e7d20de4", "name": "Toomey Brothers Rentals", "opening_hours": {"open_now": true}, "photos": [{"height": 4000, "html_attributions": ["<a href=\"https://maps.google.com/maps/contrib/107763331791714036193/photos\">Toomey Brothers Rentals</a>"], "photo_reference": "CmRaAAAAz5lOvxNHrCo-lTAZV0s2eR_pp37toulnBcvgMuGQO4721M4CtaxrAghzcuZzWNEpj8exy-tE-4GZcSI3psspSUbg0DjBCrVv_5rVuEnBu9q7q602uFSbyLWWzLCNRm7cEhDF99RFy5B67Lnke9lNheZaGhQtPgFqAAnVmZmsMGRHhhC0PEh4VA", "width": 6000}], "place_id": "ChIJg7mxpcdx44kRID9g8p9uXyM", "plus_code": {"compound_code": "9XG7+XP Boston, Massachusetts, United States", "global_code": "87JC9XG7+XP"}, "rating": 5, "reference": "ChIJg7mxpcdx44kRID9g8p9uXyM", "scope": "GOOGLE", "types": ["car_rental", "point_of_interest", "establishment"], "user_ratings_total": 2, "vicinity": "105 Princeton Street, Boston"}, "ChIJnd1weE9w44kRYR4AQ9ATzig": {"geometry": {"location": {"lat": 42.3773204, "lng": -71.0348905}, "viewport": {"northeast": {"lat": 42.3786029802915, "lng": -71.03349581970849}, "southwest": {"lat": 42.3759050197085, "lng": -71.0361937802915}}}, "icon": "https://maps.gstatic.com/mapfiles/place_api/icons/lodging-71.png", "id": "8b2e1a623108641da01318be4642632f5c2ba19e", "name": "\uc5d0\uc5b4\ube44\uc564\ube44 \uc219\uc18c", "photos": [{"height": 2560, "html_attributions": ["<a href=\"https://maps.google.com/maps/contrib/110574767476684683380/photos\">Glenda Hernanadez</a>"], "photo_reference": "CmRaAAAAtxsUftBrwTr09kBG_07KBaT1itfm23xzd_2qP0eZdECNVm6uYSq2htqIlYda4dOAUnBCI6AUyeIVv5xKj0wRPFCsSJwaVjIlD-zvd0DurpwFq2HirW0tSvRVj7uLe_rlEhAAvtEQ9Vt1_K8uic8SrEkUGhRbm7QHzJK3vu6ghASnPu8mOh1wBw", "width": 1440}], "place_id": "ChIJnd1weE9w44kRYR4AQ9ATzig", "plus_code": {"compound_code": "9XG8+W2 Boston, Massachusetts, United States", "global_code": "87JC9XG8+W2"}, "rating": 3.8, "reference": "ChIJnd1weE9w44kRYR4AQ9ATzig", "scope": "GOOGLE", "types": ["lodging", "point_of_interest", "establishment"], "user_ratings_total": 5, "vicinity": "154 Saratoga Street, Boston"}, "ChIJtyZCjk9w44kRXs3v3nKVvxs": {"geometry": {"location": {"lat": 42.37739919999999, "lng": -71.0358526}, "viewport": {"northeast": {"lat": 42.37881138029149, "lng": -71.0345469697085}, "southwest": {"lat": 42.3761134197085, "lng": -71.03724493029151}}}, "icon": "https://maps.gstatic.com/mapfiles/place_api/icons/generic_business-71.png", "id": "d073a81717a10fa605e6031ed0a4a8ec2c850736", "name": "Kenterrdy Enterprise", "place_id": "ChIJtyZCjk9w44kRXs3v3nKVvxs", "plus_code": {"compound_code": "9XG7+XM Boston, Massachusetts, United States", "global_code": "87JC9XG7+XM"}, "reference": "ChIJtyZCjk9w44kRXs3v3nKVvxs", "scope": "GOOGLE", "types": ["point_of_interest", "establishment"], "vicinity": "97 Princeton Street, Boston"}, "ChIJ26nvZEVw44kRF2YSiegzCa4": {"geometry": {"location": {"lat": 42.3766441, "lng": -71.0357804}, "viewport": {"northeast": {"lat": 42.37806253029149, "lng": -71.03447921970849}, "southwest": {"lat": 42.37536456970849, "lng": -71.03717718029151}}}, "icon": "https://maps.gstatic.com/mapfiles/place_api/icons/shopping-71.png", "id": "46b0f4b4f560f07e8c3da0356cd213f3db2bf353", "name": "Classica of New England", "place_id": "ChIJ26nvZEVw44kRF2YSiegzCa4", "plus_code": {"compound_code": "9XG7+MM Boston, Massachusetts, United States", "global_code": "87JC9XG7+MM"}, "reference": "ChIJ26nvZEVw44kRF2YSiegzCa4", "scope": "GOOGLE", "types": ["furniture_store", "home_goods_store", "store", "point_of_interest", "establishment"], "vicinity": "109 Saratoga Street, Boston"}, "ChIJGzE9DS1l44kRoOhiASS_fHg": {"geometry": {"location": {"lat": 42.3600825, "lng": -71.0588801}, "viewport": {"northeast": {"lat": 42.40081989999999, "lng": -70.749455}, "southwest": {"lat": 42.22788, "lng": -71.191113}}}, "icon": "https://maps.gstatic.com/mapfiles/place_api/icons/geocode-71.png", "id": "06755c25d2b34d13942a4713971756a55b870ced", "name": "Boston", "photos": [{"height": 3024, "html_attributions": ["<a href=\"https://maps.google.com/maps/contrib/104670289779338733432/photos\">Natalia Zalucean</a>"], "photo_reference": "CmRaAAAAVPQuruFgtNRaO0dNfnSkCbTcrFZPcbOkP-7wqufPSYEV_cskMOxkf-f2ReC5qX4g7yyzAjKHTVL80XIzemHvN_CcGJD9R0n837v9AfWT1E59xSvvrZ2c9JcP46w7DE_KEhDbuqdxSJ3IV6fRueZznDmFGhTuCsUN2XBA2vPtBYs_xQxEUYSYxg", "width": 4032}], "place_id": "ChIJGzE9DS1l44kRoOhiASS_fHg", "reference": "ChIJGzE9DS1l44kRoOhiASS_fHg", "scope": "GOOGLE", "types": ["locality", "political"], "vicinity": "Boston"}}