{"ChIJ-ZeQfr5w44kR0M5tB_E6AkU": {"geometry": {"location": {"lat": 42.36991219999999, "lng": -71.0762704}, "viewport": {"northeast": {"lat": 42.3712600802915, "lng": -71.07492046970849}, "southwest": {"lat": 42.3685621197085, "lng": -71.0776184302915}}}, "icon": "https://maps.gstatic.com/mapfiles/place_api/icons/geocode-71.png", "id": "6120d98919524d140cbb14523e75b36be25ac60e", "name": "Canal Park", "place_id": "ChIJ-ZeQfr5w44kR0M5tB_E6AkU", "reference": "ChIJ-ZeQfr5w44kR0M5tB_E6AkU", "scope": "GOOGLE", "types": ["route"], "vicinity": "Cambridge"}, "ChIJS4Z0fr5w44kR8SO1hKP1sOI": {"geometry": {"location": {"lat": 42.37016819999999, "lng": -71.0763161}, "viewport": {"northeast": {"lat": 42.3713942302915, "lng": -71.0749803697085}, "southwest": {"lat": 42.3686962697085, "lng": -71.0776783302915}}}, "icon": "https://maps.gstatic.com/mapfiles/place_api/icons/generic_business-71.png", "id": "2bd9d4d88130112ad7c9368ab43ef48ef8623d2e", "name": "Decisions Architects", "place_id": "ChIJS4Z0fr5w44kR8SO1hKP1sOI", "plus_code": {"compound_code": "9WCF+3F Cambridge, Massachusetts, United States", "global_code": "87JC9WCF+3F"}, "reference": "ChIJS4Z0fr5w44kR8SO1hKP1sOI", "scope": "GOOGLE", "types": ["point_of_interest", "establishment"], "vicinity": "2 Canal Park, Cambridge"}, "ChIJt3hH9qVw44kRTzsGZr75aTg": {"geometry": {"location": {"lat": 42.36969879999999, "lng": -71.07675100000002}, "viewport": {"northeast": {"lat": 42.3711556302915, "lng": -71.0753756197085}, "southwest": {"lat": 42.3684576697085, "lng": -71.07807358029152}}}, "icon": "https://maps.gstatic.com/mapfiles/place_api/icons/generic_business-71.png", "id": "808eed8c70dee653cc0e1d7f52a46991143cf2ae", "name": "Simon Kucher & Partners", "photos": [{"height": 3036, "html_attributions": ["<a href=\"https://maps.google.com/maps/contrib/112742624399631006347/photos\">Evan DiLeo</a>"], "photo_reference": "CmRaAAAAJ54d9ehgj6aF8PnMyLWqPzUhIPrhtNpzESKv7YBeI68T8hcWhA9vNuf_RLgtBdQ-lsAz8AM5YCb2bLwdkI97G4pMFxDC32Fp50PhF4BDWHflKr3UaQKbkwC04f7k-MBhEhCaI_pWcdnnia0h-IAayYGqGhSxRn6UCGu_n0TgwOYWE0Dn_2Ou1g", "width": 4048}], "place_id": "ChIJt3hH9qVw44kRTzsGZr75aTg", "plus_code": {"compound_code": "9W9F+V7 Cambridge, Massachusetts, United States", "global_code": "87JC9W9F+V7"}, "rating": 5, "reference": "ChIJt3hH9qVw44kRTzsGZr75aTg", "scope": "GOOGLE", "types": ["point_of_interest", "establishment"], "user_ratings_total": 1, "vicinity": "One, Boston, Canal Park, Cambridge"}, "ChIJYxmIv71w44kR30REcaoV1o0": {"geometry": {"location": {"lat": 42.3699899, "lng": -71.07596319999999}, "viewport": {"northeast": {"lat": 42.3712798802915, "lng": -71.07463036970849}, "southwest": {"lat": 42.3685819197085, "lng": -71.0773283302915}}}, "icon": "https://maps.gstatic.com/mapfiles/place_api/icons/generic_business-71.png", "id": "0d9d4a811b6e68de359da09993425077aa607b9e", "name": "Target Analysis Group Inc", "opening_hours": {"open_now": false}, "place_id": "ChIJYxmIv71w44kR30REcaoV1o0", "plus_code": {"compound_code": "9W9F+XJ Cambridge, Massachusetts, United States", "global_code": "87JC9W9F+XJ"}, "rating": 5, "reference": "ChIJYxmIv71w44kR30REcaoV1o0", "scope": "GOOGLE", "types": ["point_of_interest", "establishment"], "user_ratings_total": 1, "vicinity": "2 Canal Park # 10, Cambridge"}, "ChIJ8bWcNyR444kR0TSmAXLuWZ8": {"geometry": {"location": {"lat": 42.3701391, "lng": -71.0762867}, "viewport": {"northeast": {"lat": 42.3713794302915, "lng": -71.0749639197085}, "southwest": {"lat": 42.3686814697085, "lng": -71.0776618802915}}}, "icon": "https://maps.gstatic.com/mapfiles/place_api/icons/generic_business-71.png", "id": "f70c494cfdde8de89471d4ef112701acbe0e729e", "name": "Acusphere Inc", "place_id": "ChIJ8bWcNyR444kR0TSmAXLuWZ8", "plus_code": {"compound_code": "9WCF+3F Cambridge, Massachusetts, United States", "global_code": "87JC9WCF+3F"}, "reference": "ChIJ8bWcNyR444kR0TSmAXLuWZ8", "scope": "GOOGLE", "types": ["point_of_interest", "establishment"], "vicinity": "2 Canal Park # 5, Cambridge"}, "ChIJI101Krxw44kRCZ3ikv-y5M4": {"geometry": {"location": {"lat": 42.36969879999999, "lng": -71.07675100000002}, "viewport": {"northeast": {"lat": 42.3711556302915, "lng": -71.0753756197085}, "southwest": {"lat": 42.3684576697085, "lng": -71.07807358029152}}}, "icon": "https://maps.gstatic.com/mapfiles/place_api/icons/generic_business-71.png", "id": "5afb6091a8725f33e91ed3e479414d6473c63971", "name": "Foster & Eldridge: Eldridge Joan", "place_id": "ChIJI101Krxw44kRCZ3ikv-y5M4", "plus_code": {"compound_code": "9W9F+V7 Cambridge, Massachusetts, United States", "global_code": "87JC9W9F+V7"}, "reference": "ChIJI101Krxw44kRCZ3ikv-y5M4", "scope": "GOOGLE", "types": ["lawyer", "point_of_interest", "establishment"], "vicinity": "1 Canal Park # 6, Cambridge"}, "ChIJI101Krxw44kR5lU7xtWvlBo": {"geometry": {"location": {"lat": 42.369566, "lng": -71.07677699999999}, "viewport": {"northeast": {"lat": 42.37108878029149, "lng": -71.0753854697085}, "southwest": {"lat": 42.3683908197085, "lng": -71.0780834302915}}}, "icon": "https://maps.gstatic.com/mapfiles/place_api/icons/generic_business-71.png", "id": "f28f9fd20d4f1f3b7fd72131b1dc7d6e672f734c", "name": "Sterling Office Services", "place_id": "ChIJI101Krxw44kR5lU7xtWvlBo", "plus_code": {"compound_code": "9W9F+R7 Cambridge, Massachusetts, United States", "global_code": "87JC9W9F+R7"}, "reference": "ChIJI101Krxw44kR5lU7xtWvlBo", "scope": "GOOGLE", "types": ["accounting", "finance", "point_of_interest", "establishment"], "vicinity": "1 Canal Park, Cambridge"}, "ChIJz4d0fr5w44kRh6jqbdB90Fk": {"geometry": {"location": {"lat": 42.3701391, "lng": -71.0762867}, "viewport": {"northeast": {"lat": 42.3713794302915, "lng": -71.0749639197085}, "southwest": {"lat": 42.3686814697085, "lng": -71.0776618802915}}}, "icon": "https://maps.gstatic.com/mapfiles/place_api/icons/generic_business-71.png", "id": "6e05c9436362b47730192dd96edbee878e99710f", "name": "Sankaty Group Inc", "photos": [{"height": 500, "html_attributions": ["<a href=\"https://maps.google.com/maps/contrib/107945568659165777629/photos\">Sankaty Group Inc</a>"], "photo_reference": "CmRaAAAAOLu-D7nE635fdKTzEamoCLJNd9a18fLnFEdfmPZTENPkNPqoSscmN1rx0VzKqsQOf83mH1_ng8j9Y8LhgJoW3mrI-_XuS_e-jzK5-OeBhQjvCKW_t85zifbFdZ8QNDdKEhCG7Q3c5DtPInYI8CsaY6bgGhRw4kxBhMKtbbcledVMAQ-KYObYuw", "width": 500}], "place_id": "ChIJz4d0fr5w44kRh6jqbdB90Fk", "plus_code": {"compound_code": "9WCF+3F Cambridge, Massachusetts, United States", "global_code": "87JC9WCF+3F"}, "reference": "ChIJz4d0fr5w44kRh6jqbdB90Fk", "scope": "GOOGLE", "types": ["general_contractor", "point_of_interest", "establishment"], "vicinity": "2 Canal Park, Cambridge"}, "ChIJz4d0fr5w44kR61LBpvh6XlU": {"geometry": {"location": {"lat": 42.3701391, "lng": -71.0762867}, "viewport": {"northeast": {"lat": 42.3716679302915, "lng": -71.07528231970849}, "southwest": {"lat": 42.3689699697085, "lng": -71.0779802802915}}}, "icon": "https://maps.gstatic.com/mapfiles/place_api/icons/atm-71.png", "id": "fb146bdf82ea9b61d766cd8662813d4a8838aac7", "name": "Bank of America ATM", "opening_hours": {"open_now": true}, "photos": [{"height": 1920, "html_attributions": ["<a href=\"https://maps.google.com/maps/contrib/117458023207972697208/photos\">Harrison Makofsky</a>"], "photo_reference": "CmRaAAAAfpExOSYit8RTinxADNn9-62G-HSteutk-ZGXZzhRI3oEUm0lSOPkLu2jAJ2mloNVfZ_pua5Z3Q5Rlb7VOj2mPmyaUw-nfOU3OcTnoW_Hbh_aCujc_inoR-eLyjI_RYN4EhBE-T8yhB-3uncTDp8RMhuOGhSjwm7ki6DHCARDc2mJCGeOpsgHmA", "width": 1080}], "place_id": "ChIJz4d0fr5w44kR61LBpvh6XlU", "plus_code": {"compound_code": "9WCF+3F Cambridge, Massachusetts, United States", "global_code": "87JC9WCF+3F"}, "rating": 5, "reference": "ChIJz4d0fr5w44kR61LBpvh6XlU", "scope": "GOOGLE", "types": ["atm", "finance", "point_of_interest", "establishment"], "user_ratings_total": 2, "vicinity": "2 Canal Park, Cambridge"}, "ChIJI101Krxw44kRvPr5kHEDCTU": {"geometry": {"location": {"lat": 42.36969879999999, "lng": -71.07675100000002}, "viewport": {"northeast": {"lat": 42.3711556302915, "lng": -71.0753756197085}, "southwest": {"lat": 42.3684576697085, "lng": -71.07807358029152}}}, "icon": "https://maps.gstatic.com/mapfiles/place_api/icons/generic_business-71.png", "id": "b93fc2347788e2a0d181b88ef3bfebc76506e3a0", "name": "Foster & Eldridge", "place_id": "ChIJI101Krxw44kRvPr5kHEDCTU", "plus_code": {"compound_code": "9W9F+V7 Cambridge, Massachusetts, United States", "global_code": "87JC9W9F+V7"}, "reference": "ChIJI101Krxw44kRvPr5kHEDCTU", "scope": "GOOGLE", "types": ["point_of_interest", "establishment"], "vicinity": "1 Canal Park # 2100, Cambridge"}, "ChIJrQI5CzOVwokR-uKwsjvmoKQ": {"geometry": {"location": {"lat": 42.3701391, "lng": -71.0762867}, "viewport": {"northeast": {"lat": 42.3713794302915, "lng": -71.0749639197085}, "southwest": {"lat": 42.3686814697085, "lng": -71.0776618802915}}}, "icon": "https://maps.gstatic.com/mapfiles/place_api/icons/generic_business-71.png", "id": "7d071563499bc60413b72df0a07b1cd0cc957b46", "name": "North American Philips Corporation", "place_id": "ChIJrQI5CzOVwokR-uKwsjvmoKQ", "plus_code": {"compound_code": "9WCF+3F Cambridge, Massachusetts, United States", "global_code": "87JC9WCF+3F"}, "rating": 5, "reference": "ChIJrQI5CzOVwokR-uKwsjvmoKQ", "scope": "GOOGLE", "types": ["point_of_interest", "establishment"], "user_ratings_total": 1, "vicinity": "2 Canal Park, Cambridge"}, "ChIJz4d0fr5w44kR71HC6j-FDto": {"geometry": {"location": {"lat": 42.37016819999999, "lng": -71.0763161}, "viewport": {"northeast": {"lat": 42.3713942302915, "lng": -71.0749803697085}, "southwest": {"lat": 42.3686962697085, "lng": -71.0776783302915}}}, "icon": "https://maps.gstatic.com/mapfiles/place_api/icons/generic_business-71.png", "id": "7366b075ad4eb3f2967d8780581e3d71720ddfd5", "name": "Thompson Farland, Inc. Professional Engineers and Land Surveyors", "photos": [{"height": 1530, "html_attributions": ["<a href=\"https://maps.google.com/maps/contrib/103315978506825615159/photos\">Thompson Farland, Inc. Professional Engineers and Land Surveyors</a>"], "photo_reference": "CmRaAAAAHbb_x1-CFLvm2XzX5FwUXdwVeS7nkoV2nDcOwZyZRJBook4JFGZe5jaSAY8BVHkxx2E83G3Q3blNeo65DM546i4fm_x7528_S64bRMmXB4EbNgpWwYynCgMW0VLvKAF9EhDf2NVCrSvwHraNoraoja5ZGhRMAAyL1-Oj-zn7eEHyu0METYSAVA", "width": 2048}], "place_id": "ChIJz4d0fr5w44kR71HC6j-FDto", "plus_code": {"compound_code": "9WCF+3F Cambridge, Massachusetts, United States", "global_code": "87JC9WCF+3F"}, "reference": "ChIJz4d0fr5w44kR71HC6j-FDto", "scope": "GOOGLE", "types": ["point_of_interest", "establishment"], "vicinity": "2 Canal Park, Cambridge"}, "ChIJz4d0fr5w44kR8mE9OXHeJgQ": {"geometry": {"location": {"lat": 42.3701391, "lng": -71.0762867}, "viewport": {"northeast": {"lat": 42.3713794302915, "lng": -71.0749639197085}, "southwest": {"lat": 42.3686814697085, "lng": -71.0776618802915}}}, "icon": "https://maps.gstatic.com/mapfiles/place_api/icons/generic_business-71.png", "id": "36d2ced16fab7a4e983c3847e644844c9b74fcb3", "name": "New Leadership Group", "place_id": "ChIJz4d0fr5w44kR8mE9OXHeJgQ", "plus_code": {"compound_code": "9WCF+3F Cambridge, Massachusetts, United States", "global_code": "87JC9WCF+3F"}, "reference": "ChIJz4d0fr5w44kR8mE9OXHeJgQ", "scope": "GOOGLE", "types": ["point_of_interest", "establishment"], "vicinity": "2 Canal Park, Cambridge"}, "ChIJ2YXenpfAwokRDJ4Tig_ODA4": {"geometry": {"location": {"lat": 42.37008470000001, "lng": -71.0763482}, "viewport": {"northeast": {"lat": 42.37135248029151, "lng": -71.07498896970849}, "southwest": {"lat": 42.36865451970851, "lng": -71.07768693029149}}}, "icon": "https://maps.gstatic.com/mapfiles/place_api/icons/school-71.png", "id": "aafad539078545964b6ffd20c81bd2e4c4f1318b", "name": "Philips Research", "photos": [{"height": 3024, "html_attributions": ["<a href=\"https://maps.google.com/maps/contrib/102600452508663790379/photos\">John Beebe</a>"], "photo_reference": "CmRaAAAAQof_oi4bejwSzYGGoTjKzeTDZICTP8EI9dCOJP-FgmYfG-pSA-ED0_CJtgY9rQ3OPvGDAg2ai1P_A0V-3jLXkPoX9Q4LDYGyUskuCG_-btIIe_8YpOda7xD1qHe04pUPEhC65ti5DOmngOXzLpzajQGgGhSCkUztjotQtGSpIaz6DwNMfxryMQ", "width": 4032}], "place_id": "ChIJ2YXenpfAwokRDJ4Tig_ODA4", "plus_code": {"compound_code": "9WCF+2F Cambridge, Massachusetts, United States", "global_code": "87JC9WCF+2F"}, "rating": 5, "reference": "ChIJ2YXenpfAwokRDJ4Tig_ODA4", "scope": "GOOGLE", "types": ["point_of_interest", "establishment"], "user_ratings_total": 5, "vicinity": "2 Canal Park, Cambridge"}, "ChIJLdpvfb5w44kR_jB_Mc7ep_k": {"geometry": {"location": {"lat": 42.3701391, "lng": -71.0762867}, "viewport": {"northeast": {"lat": 42.3713794302915, "lng": -71.0749639197085}, "southwest": {"lat": 42.3686814697085, "lng": -71.0776618802915}}}, "icon": "https://maps.gstatic.com/mapfiles/place_api/icons/generic_business-71.png", "id": "575342f79e63820388183721fcf9c91b4c694b7c", "name": "Symantec", "opening_hours": {"open_now": false}, "place_id": "ChIJLdpvfb5w44kR_jB_Mc7ep_k", "plus_code": {"compound_code": "9WCF+3F Cambridge, Massachusetts, United States", "global_code": "87JC9WCF+3F"}, "rating": 5, "reference": "ChIJLdpvfb5w44kR_jB_Mc7ep_k", "scope": "GOOGLE", "types": ["point_of_interest", "establishment"], "user_ratings_total": 1, "vicinity": "2 Canal Park #5, Cambridge"}, "ChIJa1D0Ob5w44kRWu4kPtI1xFg": {"geometry": {"location": {"lat": 42.36969879999999, "lng": -71.07675100000002}, "viewport": {"northeast": {"lat": 42.37104778029149, "lng": -71.0754020197085}, "southwest": {"lat": 42.3683498197085, "lng": -71.07809998029151}}}, "icon": "https://maps.gstatic.com/mapfiles/place_api/icons/generic_business-71.png", "id": "2618fa0575c99e399a2b03e02013a67fd2ae5df5", "name": "Emily Elizabeth Interior Design", "place_id": "ChIJa1D0Ob5w44kRWu4kPtI1xFg", "plus_code": {"compound_code": "9W9F+V7 Cambridge, Massachusetts, United States", "global_code": "87JC9W9F+V7"}, "reference": "ChIJa1D0Ob5w44kRWu4kPtI1xFg", "scope": "GOOGLE", "types": ["general_contractor", "point_of_interest", "establishment"], "vicinity": "1 Earhart Street, Cambridge"}, "ChIJ6xXhfL5w44kRSSeBXEfBPB4": {"geometry": {"location": {"lat": 42.37016819999999, "lng": -71.07631599999999}, "viewport": {"northeast": {"lat": 42.3713942302915, "lng": -71.0749803197085}, "southwest": {"lat": 42.3686962697085, "lng": -71.07767828029151}}}, "icon": "https://maps.gstatic.com/mapfiles/place_api/icons/generic_business-71.png", "id": "3d15ddfeeabbc5573d558b71fa326b13f4f5f5a5", "name": "globex", "place_id": "ChIJ6xXhfL5w44kRSSeBXEfBPB4", "plus_code": {"compound_code": "9WCF+3F Cambridge, Massachusetts, United States", "global_code": "87JC9WCF+3F"}, "reference": "ChIJ6xXhfL5w44kRSSeBXEfBPB4", "scope": "GOOGLE", "types": ["point_of_interest", "establishment"], "vicinity": "5th, 2 Canal Park, Cambridge"}, "ChIJwRXhfL5w44kRJTOg_H6K3EM": {"geometry": {"location": {"lat": 42.37016819999999, "lng": -71.0763161}, "viewport": {"northeast": {"lat": 42.3713942302915, "lng": -71.0749803697085}, "southwest": {"lat": 42.3686962697085, "lng": -71.0776783302915}}}, "icon": "https://maps.gstatic.com/mapfiles/place_api/icons/generic_business-71.png", "id": "dcf60aa11d299a78674a8813c35dd8b840f55c11", "name": "CarGurus", "opening_hours": {"open_now": false}, "photos": [{"height": 3264, "html_attributions": ["<a href=\"https://maps.google.com/maps/contrib/111822990200227698732/photos\">Neelakshi Banerjee</a>"], "photo_reference": "CmRaAAAABJRCdajHvs75QxOC_eV3Ki8D0kmeMlI8smqc1Nz4_yLdYiO16XO6DLw-3oAK4MuzZ-NmnrhcRMq7lDSFcpsYpKXn95ToXFvwdY-k620VpIiI6ldtf2qeaXdAlEr-uxMiEhDWcvA4sOdgAvV-MN4mFA8hGhRNlGEGD0zOyo1k2oziuka2IQu_Og", "width": 1836}], "place_id": "ChIJwRXhfL5w44kRJTOg_H6K3EM", "plus_code": {"compound_code": "9WCF+3F Cambridge, Massachusetts, United States", "global_code": "87JC9WCF+3F"}, "rating": 3.7, "reference": "ChIJwRXhfL5w44kRJTOg_H6K3EM", "scope": "GOOGLE", "types": ["point_of_interest", "establishment"], "user_ratings_total": 44, "vicinity": "2 Canal Park, Cambridge"}, "ChIJwRXhfL5w44kROWrXgIxvz_o": {"geometry": {"location": {"lat": 42.37016819999999, "lng": -71.0763161}, "viewport": {"northeast": {"lat": 42.3713942302915, "lng": -71.0749803697085}, "southwest": {"lat": 42.3686962697085, "lng": -71.0776783302915}}}, "icon": "https://maps.gstatic.com/mapfiles/place_api/icons/generic_business-71.png", "id": "d461642dfd00df034e5b1ee869dc355222757422", "name": "HubSpot", "photos": [{"height": 3198, "html_attributions": ["<a href=\"https://maps.google.com/maps/contrib/101927666912329239040/photos\">Juan Carlos H.</a>"], "photo_reference": "CmRaAAAAJQ6LbyXljXNlid1GMgj4hD-wnb4ZuaMm1GHNl9Y_0wDj5FuY2zlWblN6TFUrbCYiussJuLSBlGpBV9lgrPU-eGk_OG1B-jRWhkLEd6_oxr57vkz3nG7E16VS6TknINXmEhCPaPz65ziGHcIoeAc873_3GhRofBxdMeoeftfGQbGH18TyLFo_RQ", "width": 2398}], "place_id": "ChIJwRXhfL5w44kROWrXgIxvz_o", "plus_code": {"compound_code": "9WCF+3F Cambridge, Massachusetts, United States", "global_code": "87JC9WCF+3F"}, "rating": 4.6, "reference": "ChIJwRXhfL5w44kROWrXgIxvz_o", "scope": "GOOGLE", "types": ["point_of_interest", "establishment"], "user_ratings_total": 11, "vicinity": "2 Canal Park, Cambridge"}, "ChIJX8wwy6Vw44kRh2xoiWSOOsU": {"geometry": {"location": {"lat": 42.3736158, "lng": -71.10973349999999}, "viewport": {"northeast": {"lat": 42.4043839, "lng": -71.06548719999999}, "southwest": {"lat": 42.3523968, "lng": -71.16033209999999}}}, "icon": "https://maps.gstatic.com/mapfiles/place_api/icons/geocode-71.png", "id": "6d2faadca7159347cc68b047055a94b00fec6032", "name": "Cambridge", "photos": [{"height": 2000, "html_attributions": ["<a href=\"https://maps.google.com/maps/contrib/115519834423791060860/photos\">Luca Raggi</a>"], "photo_reference": "CmRaAAAAjWLMCEGs39ulk33aB_hm4rFOs0t6K4qIam92rTvmywoJfxB1Av0Zo2NR8UKJ_ZKq_nT1XJ70XU42Ybtunt29Eq1cIhTRDgRZOdKlLTpkbhx473eZQaLwcDvm-UsA30EjEhC2R6tQFJN5t7RFjgaLSZUGGhSWthNv7EdCdMhc5Jt-vHx2CshX3g", "width": 3008}], "place_id": "ChIJX8wwy6Vw44kRh2xoiWSOOsU", "reference": "ChIJX8wwy6Vw44kRh2xoiWSOOsU", "scope": "GOOGLE", "types": ["locality", "political"], "vicinity": "Cambridge"}, "ChIJ_wBEzUFdXEAR9oBGFrCHyWs": {"geometry": {"location": {"lat": 42.3701751, "lng": -71.0763234}, "viewport": {"northeast": {"lat": 42.3713976802915, "lng": -71.0749840197085}, "southwest": {"lat": 42.3686997197085, "lng": -71.0776819802915}}}, "icon": "https://maps.gstatic.com/mapfiles/place_api/icons/generic_business-71.png", "id": "c7b35507a25b65bcadaa698fb03e90da8978de1a", "name": "Grail Research", "place_id": "ChIJ_wBEzUFdXEAR9oBGFrCHyWs", "plus_code": {"compound_code": "9WCF+3F Cambridge, Massachusetts, United States", "global_code": "87JC9WCF+3F"}, "reference": "ChIJ_wBEzUFdXEAR9oBGFrCHyWs", "scope": "GOOGLE", "types": ["point_of_interest", "establishment"], "vicinity": "2 Canal Park, Cambridge"}, "ChIJVVXlfL5w44kRDdjzKHjgrxo": {"geometry": {"location": {"lat": 42.3701391, "lng": -71.0762867}, "viewport": {"northeast": {"lat": 42.3713794302915, "lng": -71.0749639197085}, "southwest": {"lat": 42.3686814697085, "lng": -71.0776618802915}}}, "icon": "https://maps.gstatic.com/mapfiles/place_api/icons/generic_business-71.png", "id": "a891836d53fe80e138795bcf41e2f800ea6797be", "name": "Anthony Rao", "place_id": "ChIJVVXlfL5w44kRDdjzKHjgrxo", "reference": "ChIJVVXlfL5w44kRDdjzKHjgrxo", "scope": "GOOGLE", "types": ["point_of_interest", "establishment"], "vicinity": "2 Canal Park, Cambridge"}, "ChIJI101Krxw44kRq2W78wI37X8": {"geometry": {"location": {"lat": 42.369566, "lng": -71.07677699999999}, "viewport": {"northeast": {"lat": 42.37108878029149, "lng": -71.0753854697085}, "southwest": {"lat": 42.3683908197085, "lng": -71.0780834302915}}}, "icon": "https://maps.gstatic.com/mapfiles/place_api/icons/generic_business-71.png", "id": "ddb08d3e2c19b5b55a693d550141a570fc113be9", "name": "Little Medeiros Kinder Bulman", "place_id": "ChIJI101Krxw44kRq2W78wI37X8", "plus_code": {"compound_code": "9W9F+R7 Cambridge, Massachusetts, United States", "global_code": "87JC9W9F+R7"}, "reference": "ChIJI101Krxw44kRq2W78wI37X8", "scope": "GOOGLE", "types": ["lawyer", "point_of_interest", "establishment"], "vicinity": "1 Canal Park, Cambridge"}, "ChIJI101Krxw44kRHrTjIFNGP9c": {"geometry": {"location": {"lat": 42.369566, "lng": -71.07677699999999}, "viewport": {"northeast": {"lat": 42.37108878029149, "lng": -71.0753854697085}, "southwest": {"lat": 42.3683908197085, "lng": -71.0780834302915}}}, "icon": "https://maps.gstatic.com/mapfiles/place_api/icons/atm-71.png", "id": "81d9b3c2f11abbb44c5e8f1cafd81f1f3ca5b1ea", "name": "ATM", "opening_hours": {"open_now": false}, "place_id": "ChIJI101Krxw44kRHrTjIFNGP9c", "plus_code": {"compound_code": "9W9F+R7 Cambridge, Massachusetts, United States", "global_code": "87JC9W9F+R7"}, "rating": 5, "reference": "ChIJI101Krxw44kRHrTjIFNGP9c", "scope": "GOOGLE", "types": ["atm", "finance", "point_of_interest", "establishment"], "user_ratings_total": 1, "vicinity": "1 Canal Park, Cambridge"}, "ChIJVVXlfL5w44kRH4lA_raNt74": {"geometry": {"location": {"lat": 42.369959, "lng": -71.076415}, "viewport": {"northeast": {"lat": 42.3712911802915, "lng": -71.0750356197085}, "southwest": {"lat": 42.3685932197085, "lng": -71.07773358029151}}}, "icon": "https://maps.gstatic.com/mapfiles/place_api/icons/generic_business-71.png", "id": "7e300d75af1636d77703bdd207ee0c09b60d8d9f", "name": "Oilfield Supply & Construction", "place_id": "ChIJVVXlfL5w44kRH4lA_raNt74", "plus_code": {"compound_code": "9W9F+XC Cambridge, Massachusetts, United States", "global_code": "87JC9W9F+XC"}, "reference": "ChIJVVXlfL5w44kRH4lA_raNt74", "scope": "GOOGLE", "types": ["point_of_interest", "establishment"], "vicinity": "2 Canal Park, Cambridge"}, "ChIJyXiIazNx44kREWuoNDs0BAQ": {"geometry": {"location": {"lat": 42.3701391, "lng": -71.0762867}, "viewport": {"northeast": {"lat": 42.3713794302915, "lng": -71.0749639197085}, "southwest": {"lat": 42.3686814697085, "lng": -71.0776618802915}}}, "icon": "https://maps.gstatic.com/mapfiles/place_api/icons/school-71.png", "id": "8acfcf3e18115fc2b8b973c89d5540f3148cf7b5", "name": "Frank\u2019s Work", "place_id": "ChIJyXiIazNx44kREWuoNDs0BAQ", "plus_code": {"compound_code": "9WCF+3F Cambridge, Massachusetts, United States", "global_code": "87JC9WCF+3F"}, "reference": "ChIJyXiIazNx44kREWuoNDs0BAQ", "scope": "GOOGLE", "types": ["school", "point_of_interest", "establishment"], "vicinity": "2-12 Canal Park, Cambridge"}, "ChIJ486oTO5x44kRChU8M6VKYR8": {"geometry": {"location": {"lat": 42.3701391, "lng": -71.0762867}, "viewport": {"northeast": {"lat": 42.3713794302915, "lng": -71.0749639197085}, "southwest": {"lat": 42.3686814697085, "lng": -71.0776618802915}}}, "icon": "https://maps.gstatic.com/mapfiles/place_api/icons/generic_business-71.png", "id": "23d67d8c489838f0d859ea00c216210711ea0681", "name": "SP+ Parking", "opening_hours": {"open_now": true}, "photos": [{"height": 400, "html_attributions": ["<a href=\"https://maps.google.com/maps/contrib/105460991756708486998/photos\">SP+ Parking</a>"], "photo_reference": "CmRaAAAAHoaa_GHcsNT0zS8N0Fe9__06lPwqfL8agwtRRFjy4foAuUZeldfBV8jvpzj18SQGAj0evQd-zgvLfQU6yfEQ23d8QIkiNwzBCRBJ930STUMq9aFbiQzJwLjOxFaLthRFEhCqCWfesuj45ygNoroFTWfwGhSO0u72V6Tp7ffmD6-DVbJNriU6_w", "width": 400}], "place_id": "ChIJ486oTO5x44kRChU8M6VKYR8", "plus_code": {"compound_code": "9WCF+3F Cambridge, Massachusetts, United States", "global_code": "87JC9WCF+3F"}, "reference": "ChIJ486oTO5x44kRChU8M6VKYR8", "scope": "GOOGLE", "types": ["parking", "point_of_interest", "establishment"], "vicinity": "2 Canal Park, Cambridge"}, "ChIJwRXhfL5w44kRtv7qWGPrnRk": {"geometry": {"location": {"lat": 42.3701642, "lng": -71.0763181}, "viewport": {"northeast": {"lat": 42.37139223029151, "lng": -71.0749813697085}, "southwest": {"lat": 42.36869426970851, "lng": -71.0776793302915}}}, "icon": "https://maps.gstatic.com/mapfiles/place_api/icons/generic_business-71.png", "id": "78c9482b11160011e971160df02740cdf8164ccf", "name": "Giant Garage Door Repair", "opening_hours": {"open_now": true}, "photos": [{"height": 480, "html_attributions": ["<a href=\"https://maps.google.com/maps/contrib/101451350384833989220/photos\">Giant Garage Door Repair</a>"], "photo_reference": "CmRaAAAABH_8E8xZLWgBWdV4KVdCFNJ8skqM8NojEgdVcHUh5WW_1jpMVl7HJQCyQ_QpyzbRclIBxgvJsyuMj2DbjHZpdo_Q4E3e5_aS2nvzwgNr5FcrVRmQ2b81Ol477gyc6A3fEhDdetIIlTTHzL9WMp0JCtLSGhTj9PWiQ-Da0DQbhVD7jLFSzp5M4w", "width": 740}], "place_id": "ChIJwRXhfL5w44kRtv7qWGPrnRk", "plus_code": {"compound_code": "9WCF+3F Cambridge, Massachusetts, United States", "global_code": "87JC9WCF+3F"}, "rating": 4.6, "reference": "ChIJwRXhfL5w44kRtv7qWGPrnRk", "scope": "GOOGLE", "types": ["point_of_interest", "establishment"], "user_ratings_total": 11, "vicinity": "2 Canal Park, Cambridge"}, "ChIJd9C2K7xw44kR65olwcEueyY": {"geometry": {"location": {"lat": 42.3701944, "lng": -71.076353}, "viewport": {"northeast": {"lat": 42.3714073302915, "lng": -71.07499136970848}, "southwest": {"lat": 42.3687093697085, "lng": -71.07768933029149}}}, "icon": "https://maps.gstatic.com/mapfiles/place_api/icons/generic_business-71.png", "id": "05f7d271032f35b747fcccac496e3e56d8cb7566", "name": "Blackbaud", "place_id": "ChIJd9C2K7xw44kR65olwcEueyY", "plus_code": {"compound_code": "9WCF+3F Cambridge, Massachusetts, United States", "global_code": "87JC9WCF+3F"}, "rating": 5, "reference": "ChIJd9C2K7xw44kR65olwcEueyY", "scope": "GOOGLE", "types": ["point_of_interest", "establishment"], "user_ratings_total": 1, "vicinity": "2 Canal Park #4300, Cambridge"}, "ChIJLT1vKrxw44kRNDdzF7zY1Hs": {"geometry": {"location": {"lat": 42.36969879999999, "lng": -71.07675100000002}, "viewport": {"northeast": {"lat": 42.3711547302915, "lng": -71.0753834197085}, "southwest": {"lat": 42.3684567697085, "lng": -71.07808138029151}}}, "icon": "https://maps.gstatic.com/mapfiles/place_api/icons/generic_business-71.png", "id": "9aa9081730fce90b286e9f6c9297ed119e79fa7f", "name": "Beacon & CBRE Management", "place_id": "ChIJLT1vKrxw44kRNDdzF7zY1Hs", "plus_code": {"compound_code": "9W9F+V7 Cambridge, Massachusetts, United States", "global_code": "87JC9W9F+V7"}, "reference": "ChIJLT1vKrxw44kRNDdzF7zY1Hs", "scope": "GOOGLE", "types": ["point_of_interest", "establishment"], "vicinity": "1 Canal Park, Cambridge"}, "ChIJL8gegr5w44kRFtofkyCCq0A": {"geometry": {"location": {"lat": 42.3697652, "lng": -71.0769579}, "viewport": {"northeast": {"lat": 42.37120323029149, "lng": -71.0755871197085}, "southwest": {"lat": 42.36850526970849, "lng": -71.07828508029151}}}, "icon": "https://maps.gstatic.com/mapfiles/place_api/icons/restaurant-71.png", "id": "9c16a6ecc62c2fe7722a526d3135a581d6f19435", "name": "Tahaza Hummus Kitchen", "opening_hours": {"open_now": true}, "photos": [{"height": 2988, "html_attributions": ["<a href=\"https://maps.google.com/maps/contrib/102767763845134064318/photos\">Alex Ludman</a>"], "photo_reference": "CmRaAAAABvVr1s7sgnhHFtA1bqp5Y0a87diJNTICG9fL4JfI5ciqdwVyIQdmSPSDKPQiGWXWIVQhENaqOolmp13N0i6_nV0VQabCeOYFvsYTW13QQe6_24wa1v-BK9lXfkaYqVqHEhAc3qPvHTlnIt56hJiV8LR0GhTa1GfmbcQQf7mpv8uraPqOj03ePQ", "width": 5312}], "place_id": "ChIJL8gegr5w44kRFtofkyCCq0A", "plus_code": {"compound_code": "9W9F+W6 Cambridge, Massachusetts, United States", "global_code": "87JC9W9F+W6"}, "price_level": 1, "rating": 4.4, "reference": "ChIJL8gegr5w44kRFtofkyCCq0A", "scope": "GOOGLE", "types": ["cafe", "restaurant", "point_of_interest", "food", "establishment"], "user_ratings_total": 218, "vicinity": "1 Canal Park, Cambridge"}, "ChIJsf7s2L1w44kRifdtyvTIsvA": {"geometry": {"location": {"lat": 42.3695002, "lng": -71.0756498}, "viewport": {"northeast": {"lat": 42.37128434999999, "lng": -71.07210470000001}, "southwest": {"lat": 42.36763295, "lng": -71.07890230000001}}}, "icon": "https://maps.gstatic.com/mapfiles/place_api/icons/generic_recreational-71.png", "id": "69e1756918d18ed4423b8581c4131fecd4c06d02", "name": "Lechmere Canal Park", "opening_hours": {"open_now": true}, "photos": [{"height": 2448, "html_attributions": ["<a href=\"https://maps.google.com/maps/contrib/117838335272633951214/photos\">S James</a>"], "photo_reference": "CmRaAAAAY_BLL1Z2oIq_2-_AbDc-6WMQDIMGcwcF_tf9pBzDgzXom3vu2soNFvbKFBk7H0rjEhKLl19BIGo-h4cWfe358UJWgIwdAxJEXt1jVfGUBlp3qRyVszBcvpUuL8tXUW2uEhALu7zoPNr7Nnt0zj4CxsXAGhRai_8nicyIQZGyFjm7v5Rk3HvvOg", "width": 3264}], "place_id": "ChIJsf7s2L1w44kRifdtyvTIsvA", "plus_code": {"compound_code": "9W9F+RP Cambridge, Massachusetts, United States", "global_code": "87JC9W9F+RP"}, "rating": 4.7, "reference": "ChIJsf7s2L1w44kRifdtyvTIsvA", "scope": "GOOGLE", "types": ["park", "point_of_interest", "establishment"], "user_ratings_total": 55, "vicinity": "Cambridge"}, "ChIJk6ywK7xw44kRslJKFO7M4qo": {"geometry": {"location": {"lat": 42.369686, "lng": -71.076993}, "viewport": {"northeast": {"lat": 42.3711557302915, "lng": -71.07569196970849}, "southwest": {"lat": 42.3684577697085, "lng": -71.07838993029151}}}, "icon": "https://maps.gstatic.com/mapfiles/place_api/icons/cafe-71.png", "id": "17f600e835344798f1dd8f3295f30f0125aa0464", "name": "Haute Coffee", "opening_hours": {"open_now": false}, "photos": [{"height": 1536, "html_attributions": ["<a href=\"https://maps.google.com/maps/contrib/104976081627817315614/photos\">Haute Coffee</a>"], "photo_reference": "CmRaAAAAmVkMPniZzXbwoMO-t4FHhMv-TpfnXXP2kLglXb-lrWQB426vYW0ER7A-9GLa9w8i_8Gtf0wE-ewgwh7xXuQL0mqOqrz4QAKScIe1hUUmfRf7Q695Yfv46HIY_BjNoXTCEhDWtstnNrQICvh22p7ZIkFZGhRYfPnw6gp8MTt-sbu4xn6KiyzEhQ", "width": 2048}], "place_id": "ChIJk6ywK7xw44kRslJKFO7M4qo", "plus_code": {"compound_code": "9W9F+V6 Cambridge, Massachusetts, United States", "global_code": "87JC9W9F+V6"}, "price_level": 2, "rating": 4.6, "reference": "ChIJk6ywK7xw44kRslJKFO7M4qo", "scope": "GOOGLE", "types": ["cafe", "store", "point_of_interest", "food", "establishment"], "user_ratings_total": 98, "vicinity": "1 Canal Park, Cambridge"}, "ChIJEexCgr5w44kRleEUthejNrA": {"geometry": {"location": {"lat": 42.369862, "lng": -71.077022}, "viewport": {"northeast": {"lat": 42.3712132802915, "lng": -71.0756980197085}, "southwest": {"lat": 42.3685153197085, "lng": -71.0783959802915}}}, "icon": "https://maps.gstatic.com/mapfiles/place_api/icons/bus-71.png", "id": "0034c2762e81a47608f4d1aea9ab3e4d00bc8721", "name": "Lechmere", "photos": [{"height": 3024, "html_attributions": ["<a href=\"https://maps.google.com/maps/contrib/103081002593465247940/photos\">Gisel Feliz</a>"], "photo_reference": "CmRaAAAALvs1C_qkepFIdk4MBu1ZQVvaNiu9fuURXzV34-EL8yk3AmKZKWqZnuLXGQEhz6p-fbkCLaZWeRFXzg4bDbqvWwxjRwgg4JdNmjWpiSe3s0huxfNXssq94nuHKF7O8bI8EhAnMr0IarIDC-UZ-oPaI8GIGhTITQ22uzZQ3tsRrRVLxXNRhnD4Hg", "width": 4032}], "place_id": "ChIJEexCgr5w44kRleEUthejNrA", "plus_code": {"compound_code": "9W9F+W5 Cambridge, Massachusetts, United States", "global_code": "87JC9W9F+W5"}, "rating": 5, "reference": "ChIJEexCgr5w44kRleEUthejNrA", "scope": "GOOGLE", "types": ["bus_station", "transit_station", "point_of_interest", "establishment"], "user_ratings_total": 1, "vicinity": "United States"}}