{"ChIJU5Cnui9_44kRZdltv8-Droc": {"geometry": {"location": {"lat": 42.28492799999999, "lng": -71.1545447}, "viewport": {"northeast": {"lat": 42.28627693029149, "lng": -71.15319571970849}, "southwest": {"lat": 42.28357896970849, "lng": -71.15589368029151}}}, "icon": "https://maps.gstatic.com/mapfiles/place_api/icons/geocode-71.png", "id": "2748e1ab96ad9a210409d1bbc8e72525b79aa2bd", "name": "28 Corey St", "place_id": "ChIJU5Cnui9_44kRZdltv8-Droc", "reference": "ChIJU5Cnui9_44kRZdltv8-Droc", "scope": "GOOGLE", "types": ["route"], "vicinity": "Boston"}, "ChIJIXfqSi5_44kR-5fzKKNiBDU": {"geometry": {"location": {"lat": 42.285737, "lng": -71.15515649999999}, "viewport": {"northeast": {"lat": 42.2872066802915, "lng": -71.15389156970849}, "southwest": {"lat": 42.2845087197085, "lng": -71.1565895302915}}}, "icon": "https://maps.gstatic.com/mapfiles/place_api/icons/shopping-71.png", "id": "a4bb44a0b23127e50a3deebbcf0c4e8f864679e7", "name": "Boomerangs", "opening_hours": {"open_now": true}, "photos": [{"height": 2448, "html_attributions": ["<a href=\"https://maps.google.com/maps/contrib/104161268918006105235/photos\">magen Primo</a>"], "photo_reference": "CmRaAAAAnGF19cq6zagh5tAuq9R8WdaKy8qQi8X20HvS-pQCziVe8WbYXkN68m0Zru8Hl5VILwhWWKMgnmfgZCK0tGdweHG5CzXkg05Ll2Xct6q4RHgWgGbVJiehaP__KkdROD7xEhBO7U_SPieY1rqS4atxEH6JGhScaDjLLUhSIqcvOZzrnebW3abfew", "width": 3264}], "place_id": "ChIJIXfqSi5_44kR-5fzKKNiBDU", "plus_code": {"compound_code": "7RPV+7W Boston, Massachusetts, United States", "global_code": "87JC7RPV+7W"}, "rating": 4.5, "reference": "ChIJIXfqSi5_44kR-5fzKKNiBDU", "scope": "GOOGLE", "types": ["furniture_store", "clothing_store", "home_goods_store", "store", "point_of_interest", "establishment"], "user_ratings_total": 37, "vicinity": "1870 Centre Street, West Roxbury"}, "ChIJD48FTwV644kRHSq4C74e3vE": {"geometry": {"location": {"lat": 42.285824, "lng": -71.154938}, "viewport": {"northeast": {"lat": 42.28729233029149, "lng": -71.1536712697085}, "southwest": {"lat": 42.2845943697085, "lng": -71.1563692302915}}}, "icon": "https://maps.gstatic.com/mapfiles/place_api/icons/generic_business-71.png", "id": "9d8206f1555b9a6509bf9f97ca11f87b2eb5792e", "name": "1HourTooth LLC", "opening_hours": {"open_now": true}, "photos": [{"height": 1365, "html_attributions": ["<a href=\"https://maps.google.com/maps/contrib/106380968109050229413/photos\">David Jin</a>"], "photo_reference": "CmRaAAAA7Sp6EH2br8Hqgj_KePg_7jPa3iNUSxiq2IdQe6ed3dtiK4f8CKal99SFqi0DS_SEoi3BlF71LTo43K9YUnwyvdnDFwGPI4N3Q5aRYd_h2WudOq_dj9tU5LPlVvzaA_BkEhBKRL5orwx0xK9p0nRQc2FxGhST6lLs3uoqbrWP8KsFlLA6o8Qjbw", "width": 2048}], "place_id": "ChIJD48FTwV644kRHSq4C74e3vE", "plus_code": {"compound_code": "7RPW+82 Boston, Massachusetts, United States", "global_code": "87JC7RPW+82"}, "reference": "ChIJD48FTwV644kRHSq4C74e3vE", "scope": "GOOGLE", "types": ["dentist", "health", "point_of_interest", "establishment"], "vicinity": "1864 Centre Street unit 1, Boston"}, "ChIJb6ZGMy5_44kRENzVxXtVCnE": {"geometry": {"location": {"lat": 42.2856569, "lng": -71.1555497}, "viewport": {"northeast": {"lat": 42.28706828029151, "lng": -71.1542802697085}, "southwest": {"lat": 42.28437031970851, "lng": -71.15697823029151}}}, "icon": "https://maps.gstatic.com/mapfiles/place_api/icons/shopping-71.png", "id": "dc604f1a03ce192076b445d10b52b9177a3aa480", "name": "Real Deal, LLC", "opening_hours": {"open_now": true}, "photos": [{"height": 2988, "html_attributions": ["<a href=\"https://maps.google.com/maps/contrib/114798555224310320062/photos\">Joe C</a>"], "photo_reference": "CmRaAAAAtmoaloj8vlNYq7gcFzCRnD9jIKePhOmiPYb_w8qMZWjyqauNxWGQfUtCbMRVfS2WSCn7sACRuzQppETjsXB6pxBBu9dlkKwyGlALW6EudPwf5rEgOP99w0Ame06SrqGzEhDuI7FIAQgENRGZzMZkj0fUGhR5HnJl_ENWBKDqb5OBxxn0Kec_oA", "width": 5312}], "place_id": "ChIJb6ZGMy5_44kRENzVxXtVCnE", "plus_code": {"compound_code": "7RPV+7Q Boston, Massachusetts, United States", "global_code": "87JC7RPV+7Q"}, "price_level": 2, "rating": 4.2, "reference": "ChIJb6ZGMy5_44kRENzVxXtVCnE", "scope": "GOOGLE", "types": ["meal_takeaway", "store", "restaurant", "point_of_interest", "food", "establishment"], "user_ratings_total": 174, "vicinity": "1882 Centre Street, West Roxbury"}, "ChIJQeIgrS9_44kRcAoTE_TYC2g": {"geometry": {"location": {"lat": 42.28529700000001, "lng": -71.154375}, "viewport": {"northeast": {"lat": 42.2866718302915, "lng": -71.15296576970849}, "southwest": {"lat": 42.2839738697085, "lng": -71.15566373029151}}}, "icon": "https://maps.gstatic.com/mapfiles/place_api/icons/generic_business-71.png", "id": "f95f657dc01ffc9850c6486f924f9d8df7375c54", "name": "Fadi R Metri & Associates", "opening_hours": {"open_now": true}, "photos": [{"height": 677, "html_attributions": ["<a href=\"https://maps.google.com/maps/contrib/106518751353543284042/photos\">Fadi R Metri &amp; Associates</a>"], "photo_reference": "CmRaAAAAw5BXzo4iCplURQq329vbVCTQY0Uf6dls8DhGVdQQ4-6g4_is3azoptQY6lHhfPBs6HI4RDP0eHd7LLn-u9DRAx9FZD7k0qEDFhIq7VN6tV8_BEZc5WCdiEEsCyu2lSy-EhBqDb-m7yQpIHTj91o8dG4qGhTCEEYWucUx6QBmAqh-FvjSIcJJHw", "width": 1200}], "place_id": "ChIJQeIgrS9_44kRcAoTE_TYC2g", "plus_code": {"compound_code": "7RPW+46 Boston, Massachusetts, United States", "global_code": "87JC7RPW+46"}, "rating": 3.2, "reference": "ChIJQeIgrS9_44kRcAoTE_TYC2g", "scope": "GOOGLE", "types": ["dentist", "health", "point_of_interest", "establishment"], "user_ratings_total": 13, "vicinity": "28 Corey Street, West Roxbury"}, "ChIJjQepzC9_44kRZbFj5I6Vbog": {"geometry": {"location": {"lat": 42.2856569, "lng": -71.1555497}, "viewport": {"northeast": {"lat": 42.28706828029151, "lng": -71.1542802697085}, "southwest": {"lat": 42.28437031970851, "lng": -71.15697823029151}}}, "icon": "https://maps.gstatic.com/mapfiles/place_api/icons/restaurant-71.png", "id": "bad88a998db6ea552d8df1d8d870cf60e1343f57", "name": "Sugar Bakery", "opening_hours": {"open_now": true}, "photos": [{"height": 2268, "html_attributions": ["<a href=\"https://maps.google.com/maps/contrib/111897935942190006097/photos\">Huwenbo Shi</a>"], "photo_reference": "CmRaAAAA7nrOhohHqBciMfojfmoriTIM-y3lD1sMJ_A3M5lRoVLQujMBtuMxNmK5Wrx3-WtUpYUdHfLn7MbsIZO7-xmtxZBl4Kwrw1eUT7_P8R3nu9Qc2u6OdTnnGZ4MeGhlErgcEhCHxZPDuvdZFfsvUyMzUqddGhQY4MThIl3B9-CxPdYJzUckt-MDRA", "width": 4032}], "place_id": "ChIJjQepzC9_44kRZbFj5I6Vbog", "plus_code": {"compound_code": "7RPV+7Q Boston, Massachusetts, United States", "global_code": "87JC7RPV+7Q"}, "price_level": 2, "rating": 4.4, "reference": "ChIJjQepzC9_44kRZbFj5I6Vbog", "scope": "GOOGLE", "types": ["bakery", "cafe", "store", "point_of_interest", "food", "establishment"], "user_ratings_total": 80, "vicinity": "1884 Centre Street, West Roxbury"}, "ChIJMVvF6cx-44kRIBWE_fZSeP4": {"geometry": {"location": {"lat": 42.28529729999999, "lng": -71.15437519999999}, "viewport": {"northeast": {"lat": 42.28667213029149, "lng": -71.1529659697085}, "southwest": {"lat": 42.28397416970849, "lng": -71.15566393029151}}}, "icon": "https://maps.gstatic.com/mapfiles/place_api/icons/shopping-71.png", "id": "206387e2338096e2d30f0a2f0ddb83b671d1c776", "name": "J B Pride Uniforms", "opening_hours": {"open_now": true}, "photos": [{"height": 3006, "html_attributions": ["<a href=\"https://maps.google.com/maps/contrib/107139818270204877645/photos\">Michael Golden</a>"], "photo_reference": "CmRaAAAAy-63O_vNe-VfyZ7Ha1zY2mDflz15JRdywBXN1uAHytRAsBghc7cQLfiBBcHYRVnWYfAtYuyMers53VqvKdJaDdUhDYuCuKS2MnWrQ_Bs36PF4-oIYAQxBF4eYZuIFreYEhBnPgfDWr4rE4wRq2NXRhS-GhQTEqI6eZu8FYHipXWRV_LbfwSBGQ", "width": 5344}], "place_id": "ChIJMVvF6cx-44kRIBWE_fZSeP4", "plus_code": {"compound_code": "7RPW+46 Boston, Massachusetts, United States", "global_code": "87JC7RPW+46"}, "rating": 3.6, "reference": "ChIJMVvF6cx-44kRIBWE_fZSeP4", "scope": "GOOGLE", "types": ["clothing_store", "store", "point_of_interest", "establishment"], "user_ratings_total": 41, "vicinity": "28 Corey Street, West Roxbury"}, "ChIJQeIgrS9_44kRhCvdkiwySD0": {"geometry": {"location": {"lat": 42.28529729999999, "lng": -71.15437519999999}, "viewport": {"northeast": {"lat": 42.28667213029149, "lng": -71.1529659697085}, "southwest": {"lat": 42.28397416970849, "lng": -71.15566393029151}}}, "icon": "https://maps.gstatic.com/mapfiles/place_api/icons/generic_business-71.png", "id": "1466acc319d16aae84aa729d9e8d4925eac0b9ca", "name": "Fadi R Metri & Associates: Mallouh Abboud DDS", "opening_hours": {"open_now": true}, "place_id": "ChIJQeIgrS9_44kRhCvdkiwySD0", "plus_code": {"compound_code": "7RPW+46 Boston, Massachusetts, United States", "global_code": "87JC7RPW+46"}, "reference": "ChIJQeIgrS9_44kRhCvdkiwySD0", "scope": "GOOGLE", "types": ["dentist", "health", "point_of_interest", "establishment"], "vicinity": "28 Corey Street, West Roxbury"}, "ChIJQeIgrS9_44kRNQdeGnhgUUc": {"geometry": {"location": {"lat": 42.28529729999999, "lng": -71.15437519999999}, "viewport": {"northeast": {"lat": 42.28667213029149, "lng": -71.1529659697085}, "southwest": {"lat": 42.28397416970849, "lng": -71.15566393029151}}}, "icon": "https://maps.gstatic.com/mapfiles/place_api/icons/generic_business-71.png", "id": "8cd3a40264d67b64683653ae808d7fb05fc4276a", "name": "Fadi R Metri & Associates: Zahka Nabil DDS", "opening_hours": {"open_now": true}, "place_id": "ChIJQeIgrS9_44kRNQdeGnhgUUc", "plus_code": {"compound_code": "7RPW+46 Boston, Massachusetts, United States", "global_code": "87JC7RPW+46"}, "reference": "ChIJQeIgrS9_44kRNQdeGnhgUUc", "scope": "GOOGLE", "types": ["dentist", "health", "point_of_interest", "establishment"], "vicinity": "28 Corey Street, West Roxbury"}, "ChIJX_D3RS5_44kR0kWgz8oy7rg": {"geometry": {"location": {"lat": 42.2858235, "lng": -71.1549378}, "viewport": {"northeast": {"lat": 42.28729208029149, "lng": -71.1536712197085}, "southwest": {"lat": 42.28459411970849, "lng": -71.1563691802915}}}, "icon": "https://maps.gstatic.com/mapfiles/place_api/icons/generic_business-71.png", "id": "fcc859c9dd213b8f39749cc1a6f09cb62397d884", "name": "A Beautiful Smile Dentistry", "opening_hours": {"open_now": true}, "photos": [{"height": 2250, "html_attributions": ["<a href=\"https://maps.google.com/maps/contrib/107123036647696014434/photos\">Rolando Alvarado</a>"], "photo_reference": "CmRaAAAAN57b2OMopBAEbBsJC7UEiAlVQa4XM3Si1BAxmMKb3uQ4_ee9f4tbmUV13usa96GNhaLRBPnUB2lLUKOA5T55zf1IlyewjqO_4tRlLJQZIY_FYOMXbA0Zz-4Dws1GRkOIEhDW_ndcfEgg_ATub-GzIeyWGhQ-IuGfNQG1K0rTirWzNuMlj1QPAA", "width": 3000}], "place_id": "ChIJX_D3RS5_44kR0kWgz8oy7rg", "plus_code": {"compound_code": "7RPW+82 Boston, Massachusetts, United States", "global_code": "87JC7RPW+82"}, "rating": 5, "reference": "ChIJX_D3RS5_44kR0kWgz8oy7rg", "scope": "GOOGLE", "types": ["dentist", "health", "point_of_interest", "establishment"], "user_ratings_total": 5, "vicinity": "1864 Centre Street # 1, West Roxbury"}, "ChIJu0BoNC5_44kR9yYBGZ5qCtE": {"geometry": {"location": {"lat": 42.2857637, "lng": -71.155391}, "viewport": {"northeast": {"lat": 42.2871788302915, "lng": -71.15410541970849}, "southwest": {"lat": 42.2844808697085, "lng": -71.15680338029149}}}, "icon": "https://maps.gstatic.com/mapfiles/place_api/icons/generic_business-71.png", "id": "7ec7c4b5983bc2c00444c4f7008b66af0291aa64", "name": "Kure Creative", "opening_hours": {"open_now": true}, "place_id": "ChIJu0BoNC5_44kR9yYBGZ5qCtE", "plus_code": {"compound_code": "7RPV+8R Boston, Massachusetts, United States", "global_code": "87JC7RPV+8R"}, "reference": "ChIJu0BoNC5_44kR9yYBGZ5qCtE", "scope": "GOOGLE", "types": ["point_of_interest", "establishment"], "vicinity": "1874 Centre Street, West Roxbury"}, "ChIJA-P-NC5_44kRJDHbKbmmok0": {"geometry": {"location": {"lat": 42.2857683, "lng": -71.1553883}, "viewport": {"northeast": {"lat": 42.2871823802915, "lng": -71.15410171970849}, "southwest": {"lat": 42.2844844197085, "lng": -71.1567996802915}}}, "icon": "https://maps.gstatic.com/mapfiles/place_api/icons/generic_business-71.png", "id": "3bbf6bc1c6a19b13d1615dd39355c74af1406fd5", "name": "Law Office of Paul M. Derby", "opening_hours": {"open_now": true}, "place_id": "ChIJA-P-NC5_44kRJDHbKbmmok0", "plus_code": {"compound_code": "7RPV+8R Boston, Massachusetts, United States", "global_code": "87JC7RPV+8R"}, "reference": "ChIJA-P-NC5_44kRJDHbKbmmok0", "scope": "GOOGLE", "types": ["lawyer", "point_of_interest", "establishment"], "vicinity": "1874 Centre Street, Boston"}, "ChIJX_D3RS5_44kRTwt7jcQXW7Q": {"geometry": {"location": {"lat": 42.2858078, "lng": -71.1548545}, "viewport": {"northeast": {"lat": 42.2872950802915, "lng": -71.15360081970849}, "southwest": {"lat": 42.2845971197085, "lng": -71.15629878029151}}}, "icon": "https://maps.gstatic.com/mapfiles/place_api/icons/civic_building-71.png", "id": "b57e1505e6f7a94cb7e49ffe2f08ed753a905492", "name": "The Brad Williams Committee", "place_id": "ChIJX_D3RS5_44kRTwt7jcQXW7Q", "plus_code": {"compound_code": "7RPW+83 Boston, Massachusetts, United States", "global_code": "87JC7RPW+83"}, "reference": "ChIJX_D3RS5_44kRTwt7jcQXW7Q", "scope": "GOOGLE", "types": ["local_government_office", "point_of_interest", "establishment"], "vicinity": "1864 Centre Street #4, West Roxbury"}, "ChIJlR5USS5_44kRCdf-UoaPhDc": {"geometry": {"location": {"lat": 42.28581579999999, "lng": -71.1549315}, "viewport": {"northeast": {"lat": 42.2872883802915, "lng": -71.15366766970851}, "southwest": {"lat": 42.2845904197085, "lng": -71.15636563029152}}}, "icon": "https://maps.gstatic.com/mapfiles/place_api/icons/generic_business-71.png", "id": "8119b3fd2877a179a04273986613abc658dc1c23", "name": "The Peebles Real Estate Group", "place_id": "ChIJlR5USS5_44kRCdf-UoaPhDc", "plus_code": {"compound_code": "7RPW+82 Boston, Massachusetts, United States", "global_code": "87JC7RPW+82"}, "reference": "ChIJlR5USS5_44kRCdf-UoaPhDc", "scope": "GOOGLE", "types": ["real_estate_agency", "point_of_interest", "establishment"], "vicinity": "1864 Centre Street, West Roxbury"}, "ChIJHzCeSS5_44kReBP0vmSwfWQ": {"geometry": {"location": {"lat": 42.28581579999999, "lng": -71.1549315}, "viewport": {"northeast": {"lat": 42.2872883802915, "lng": -71.15366766970851}, "southwest": {"lat": 42.2845904197085, "lng": -71.15636563029152}}}, "icon": "https://maps.gstatic.com/mapfiles/place_api/icons/shopping-71.png", "id": "204055d265a3e122eabaf459acf12f63200ef959", "name": "Greater Boston Long Term Care", "opening_hours": {"open_now": true}, "place_id": "ChIJHzCeSS5_44kReBP0vmSwfWQ", "plus_code": {"compound_code": "7RPW+82 Boston, Massachusetts, United States", "global_code": "87JC7RPW+82"}, "rating": 4.5, "reference": "ChIJHzCeSS5_44kReBP0vmSwfWQ", "scope": "GOOGLE", "types": ["pharmacy", "store", "health", "point_of_interest", "establishment"], "user_ratings_total": 2, "vicinity": "1864 Centre Street #2, West Roxbury"}, "ChIJX_D3RS5_44kR58EhR181I1Y": {"geometry": {"location": {"lat": 42.2858078, "lng": -71.1548545}, "viewport": {"northeast": {"lat": 42.2872950802915, "lng": -71.15360081970849}, "southwest": {"lat": 42.2845971197085, "lng": -71.15629878029151}}}, "icon": "https://maps.gstatic.com/mapfiles/place_api/icons/generic_business-71.png", "id": "e52a04cfa4d699c728d70e13fc15366bd7b7412b", "name": "Dental Health Works: Katsaras Aristomenis DDS", "place_id": "ChIJX_D3RS5_44kR58EhR181I1Y", "plus_code": {"compound_code": "7RPW+83 Boston, Massachusetts, United States", "global_code": "87JC7RPW+83"}, "reference": "ChIJX_D3RS5_44kR58EhR181I1Y", "scope": "GOOGLE", "types": ["dentist", "health", "point_of_interest", "establishment"], "vicinity": "1864 Centre Street # 1, West Roxbury"}, "ChIJ2x-CSS5_44kR7z-kq5lvDLM": {"geometry": {"location": {"lat": 42.285836, "lng": -71.1550357}, "viewport": {"northeast": {"lat": 42.2872847302915, "lng": -71.15375616970849}, "southwest": {"lat": 42.2845867697085, "lng": -71.1564541302915}}}, "icon": "https://maps.gstatic.com/mapfiles/place_api/icons/shopping-71.png", "id": "72fde3ab8c18a654980cccd495d3da5a513349c4", "name": "Greater Boston Long Term Care", "opening_hours": {"open_now": true}, "place_id": "ChIJ2x-CSS5_44kR7z-kq5lvDLM", "plus_code": {"compound_code": "7RPV+8X Boston, Massachusetts, United States", "global_code": "87JC7RPV+8X"}, "rating": 4, "reference": "ChIJ2x-CSS5_44kR7z-kq5lvDLM", "scope": "GOOGLE", "types": ["pharmacy", "store", "health", "point_of_interest", "establishment"], "user_ratings_total": 1, "vicinity": "1868 Centre Street #7, West Roxbury"}, "ChIJ0ViGUi5_44kRfhNQJLzQ0aA": {"geometry": {"location": {"lat": 42.28563699999999, "lng": -71.154471}, "viewport": {"northeast": {"lat": 42.2869995302915, "lng": -71.15308966970849}, "southwest": {"lat": 42.2843015697085, "lng": -71.1557876302915}}}, "icon": "https://maps.gstatic.com/mapfiles/place_api/icons/generic_business-71.png", "id": "ca99eca5ebd14a4e6c4fff22bf3396f0d9deb27e", "name": "RCN Limousine", "photos": [{"height": 392, "html_attributions": ["<a href=\"https://maps.google.com/maps/contrib/110849458109089363666/photos\">RCN Limousine</a>"], "photo_reference": "CmRaAAAAsFRAbbk4IOL6Ep-jFFEvpOBnioq6Ugv3mKuRqjcKbBTUjcD5EYehwXGi93JRcRdfrjStFtS76IR_X8gGj_talU9-L0v9VarQ1jSnCcf8ivxuJ79Wrvt24PRj6PnwKsarEhDZlGwjtiq_oBcIvCZxdZ2GGhSPwS7LfNEgy_kW677ixCmZOJK6aQ", "width": 687}], "place_id": "ChIJ0ViGUi5_44kRfhNQJLzQ0aA", "plus_code": {"compound_code": "7RPW+76 Boston, Massachusetts, United States", "global_code": "87JC7RPW+76"}, "reference": "ChIJ0ViGUi5_44kRfhNQJLzQ0aA", "scope": "GOOGLE", "types": ["point_of_interest", "establishment"], "vicinity": "41 Corey Street, Boston"}, "ChIJ79B6NC5_44kRTiC6eXr8Ti0": {"geometry": {"location": {"lat": 42.28578599999999, "lng": -71.155392}, "viewport": {"northeast": {"lat": 42.28719548029149, "lng": -71.1540948697085}, "southwest": {"lat": 42.2844975197085, "lng": -71.15679283029151}}}, "icon": "https://maps.gstatic.com/mapfiles/place_api/icons/cafe-71.png", "id": "ce4043c6d4f9d9994dcb5af9ea1ff24ddc7e5283", "name": "Recreo Coffee & Roasterie", "opening_hours": {"open_now": true}, "photos": [{"height": 2448, "html_attributions": ["<a href=\"https://maps.google.com/maps/contrib/102074522632931267191/photos\">Recreo Coffee &amp; Roasterie</a>"], "photo_reference": "CmRaAAAAg9HAKPydoz8cg2KktrdMQT0VfUGaIx3L70MDFroMMx3gE0_eO4oVlggSrsQZ_44qYR-dLNkAZ-xE6Cuf6DcmWW86w1uX3F_TQ71uUV-SI62gvtpGNo4vTo-8jyEfqEY4EhDvPzPKtA_vr_NUECJvn2MYGhSaz_v08ClhOkXKFQ-ctAaT-iYLyA", "width": 3264}], "place_id": "ChIJ79B6NC5_44kRTiC6eXr8Ti0", "plus_code": {"compound_code": "7RPV+8R Boston, Massachusetts, United States", "global_code": "87JC7RPV+8R"}, "rating": 4.8, "reference": "ChIJ79B6NC5_44kRTiC6eXr8Ti0", "scope": "GOOGLE", "types": ["cafe", "store", "restaurant", "point_of_interest", "food", "establishment"], "user_ratings_total": 111, "vicinity": "1876 Centre Street, West Roxbury"}, "ChIJGzE9DS1l44kRoOhiASS_fHg": {"geometry": {"location": {"lat": 42.3600825, "lng": -71.0588801}, "viewport": {"northeast": {"lat": 42.40081989999999, "lng": -70.749455}, "southwest": {"lat": 42.22788, "lng": -71.191113}}}, "icon": "https://maps.gstatic.com/mapfiles/place_api/icons/geocode-71.png", "id": "06755c25d2b34d13942a4713971756a55b870ced", "name": "Boston", "photos": [{"height": 3024, "html_attributions": ["<a href=\"https://maps.google.com/maps/contrib/104670289779338733432/photos\">Natalia Zalucean</a>"], "photo_reference": "CmRaAAAA3nM1OauzuWgsmNxBSBHGdvXt8c4IpLKcvOLzTdjpfJmOE7jCcAFMuP9bktTiapzWeHL3FfdKHHa-tbwKncmgt-9x4NIljK1BSUt4wPAGUE-w5-dYiE7KPQ35tIMJxrPcEhDLh0TwK570b8LEvuAoRq5hGhT5eSyGiI0TAEfeAtXjrwIUtW4Tmw", "width": 4032}], "place_id": "ChIJGzE9DS1l44kRoOhiASS_fHg", "reference": "ChIJGzE9DS1l44kRoOhiASS_fHg", "scope": "GOOGLE", "types": ["locality", "political"], "vicinity": "Boston"}, "ChIJy0BoNC5_44kRyfzfc3FmD4I": {"geometry": {"location": {"lat": 42.2857765, "lng": -71.1554214}, "viewport": {"northeast": {"lat": 42.28718208029149, "lng": -71.15412666970849}, "southwest": {"lat": 42.28448411970849, "lng": -71.1568246302915}}}, "icon": "https://maps.gstatic.com/mapfiles/place_api/icons/generic_business-71.png", "id": "eb236fc008b83d796564675a3b4fd8a6a6074370", "name": "Primary Residential Mortgage, Inc.", "place_id": "ChIJy0BoNC5_44kRyfzfc3FmD4I", "plus_code": {"compound_code": "7RPV+8R Boston, Massachusetts, United States", "global_code": "87JC7RPV+8R"}, "reference": "ChIJy0BoNC5_44kRyfzfc3FmD4I", "scope": "GOOGLE", "types": ["finance", "point_of_interest", "establishment"], "vicinity": "1874 Centre Street #2, West Roxbury"}, "ChIJQeIgrS9_44kRkgOlHQK6e4o": {"geometry": {"location": {"lat": 42.2852827, "lng": -71.1543903}, "viewport": {"northeast": {"lat": 42.28666183029149, "lng": -71.1529711697085}, "southwest": {"lat": 42.2839638697085, "lng": -71.1556691302915}}}, "icon": "https://maps.gstatic.com/mapfiles/place_api/icons/generic_business-71.png", "id": "e0d06866259e3b72f1dfc816880cbb7a60b79b75", "name": "Ewald R. Mendeszoon Jr, DPM", "place_id": "ChIJQeIgrS9_44kRkgOlHQK6e4o", "plus_code": {"compound_code": "7RPW+46 Boston, Massachusetts, United States", "global_code": "87JC7RPW+46"}, "reference": "ChIJQeIgrS9_44kRkgOlHQK6e4o", "scope": "GOOGLE", "types": ["doctor", "health", "point_of_interest", "establishment"], "vicinity": "28 Corey Street, West Roxbury"}, "ChIJmwf2zS9_44kR8OiWUMxDcr4": {"geometry": {"location": {"lat": 42.2854839, "lng": -71.1557377}, "viewport": {"northeast": {"lat": 42.2868932802915, "lng": -71.15448121970849}, "southwest": {"lat": 42.2841953197085, "lng": -71.15717918029151}}}, "icon": "https://maps.gstatic.com/mapfiles/place_api/icons/restaurant-71.png", "id": "6b93055b1da69fb292d932937baa1cd960bd1eb7", "name": "West Garden", "opening_hours": {"open_now": true}, "photos": [{"height": 2268, "html_attributions": ["<a href=\"https://maps.google.com/maps/contrib/111897935942190006097/photos\">Huwenbo Shi</a>"], "photo_reference": "CmRaAAAACNPUAPZMqcdPkA8LP81gw1pUvoMU89hfR7MivmgWq-86QAN7rAobkOIDFII81O1zxvo5Gwgmn_xH8Jb8ZE_TqZe5_1ovR91b3FjkxQJjShXBmZ8OVfKZiU8n0YHdUsj_EhDMwCeCOI3n8MLhbYx3t0nsGhSa2FKc04rL9_ydzy7tuPBNyeJQUg", "width": 4032}], "place_id": "ChIJmwf2zS9_44kR8OiWUMxDcr4", "plus_code": {"compound_code": "7RPV+5P Boston, Massachusetts, United States", "global_code": "87JC7RPV+5P"}, "price_level": 1, "rating": 3.5, "reference": "ChIJmwf2zS9_44kR8OiWUMxDcr4", "scope": "GOOGLE", "types": ["restaurant", "point_of_interest", "food", "establishment"], "user_ratings_total": 39, "vicinity": "1890 Centre Street, West Roxbury"}, "ChIJmXRAuC9_44kRe4AOufNvx4A": {"geometry": {"location": {"lat": 42.2849609, "lng": -71.1550762}, "viewport": {"northeast": {"lat": 42.28635403029151, "lng": -71.15367221970848}, "southwest": {"lat": 42.28365606970851, "lng": -71.1563701802915}}}, "icon": "https://maps.gstatic.com/mapfiles/place_api/icons/generic_business-71.png", "id": "2f3761e233275a3fefd89549639a632aa262cec8", "name": "Thomas Anthony Donahoe LMHC", "place_id": "ChIJmXRAuC9_44kRe4AOufNvx4A", "plus_code": {"compound_code": "7RMV+XX Boston, Massachusetts, United States", "global_code": "87JC7RMV+XX"}, "reference": "ChIJmXRAuC9_44kRe4AOufNvx4A", "scope": "GOOGLE", "types": ["health", "point_of_interest", "establishment"], "vicinity": "8 Hastings Street, West Roxbury"}, "ChIJQeIgrS9_44kRl36vmITBBNw": {"geometry": {"location": {"lat": 42.28529729999999, "lng": -71.15437519999999}, "viewport": {"northeast": {"lat": 42.28667213029149, "lng": -71.1529659697085}, "southwest": {"lat": 42.28397416970849, "lng": -71.15566393029151}}}, "icon": "https://maps.gstatic.com/mapfiles/place_api/icons/generic_business-71.png", "id": "75d6f7fd3425138d35b85aba1da474c99b0aedf5", "name": "Boston Foot Care Group", "place_id": "ChIJQeIgrS9_44kRl36vmITBBNw", "plus_code": {"compound_code": "7RPW+46 Boston, Massachusetts, United States", "global_code": "87JC7RPW+46"}, "reference": "ChIJQeIgrS9_44kRl36vmITBBNw", "scope": "GOOGLE", "types": ["doctor", "health", "point_of_interest", "establishment"], "vicinity": "28 Corey Street, West Roxbury"}, "ChIJixyCSS5_44kR_dt0pw-5Z4k": {"geometry": {"location": {"lat": 42.2857637, "lng": -71.155391}, "viewport": {"northeast": {"lat": 42.2871788302915, "lng": -71.15410541970849}, "southwest": {"lat": 42.2844808697085, "lng": -71.15680338029149}}}, "icon": "https://maps.gstatic.com/mapfiles/place_api/icons/generic_business-71.png", "id": "16072543611c1d4228902e85b3f63358bee62eb8", "name": "John H Miller Jr Law Office", "place_id": "ChIJixyCSS5_44kR_dt0pw-5Z4k", "plus_code": {"compound_code": "7RPV+8R Boston, Massachusetts, United States", "global_code": "87JC7RPV+8R"}, "rating": 5, "reference": "ChIJixyCSS5_44kR_dt0pw-5Z4k", "scope": "GOOGLE", "types": ["lawyer", "point_of_interest", "establishment"], "user_ratings_total": 1, "vicinity": "1874 Centre Street # 2, West Roxbury"}, "ChIJM-feNS5_44kRCEVzZVvRZ8M": {"geometry": {"location": {"lat": 42.2857725, "lng": -71.1553976}, "viewport": {"northeast": {"lat": 42.2871835302915, "lng": -71.15410811970851}, "southwest": {"lat": 42.2844855697085, "lng": -71.15680608029152}}}, "icon": "https://maps.gstatic.com/mapfiles/place_api/icons/generic_business-71.png", "id": "bb11705ef1418dab978f938730c21ef619b30ec6", "name": "Images Limited", "place_id": "ChIJM-feNS5_44kRCEVzZVvRZ8M", "plus_code": {"compound_code": "7RPV+8R Boston, Massachusetts, United States", "global_code": "87JC7RPV+8R"}, "rating": 4.8, "reference": "ChIJM-feNS5_44kRCEVzZVvRZ8M", "scope": "GOOGLE", "types": ["beauty_salon", "point_of_interest", "establishment"], "user_ratings_total": 6, "vicinity": "1872 Centre Street, West Roxbury"}, "ChIJX_D3RS5_44kR3yvtXJl1hls": {"geometry": {"location": {"lat": 42.2858235, "lng": -71.1549378}, "viewport": {"northeast": {"lat": 42.28729208029149, "lng": -71.1536712197085}, "southwest": {"lat": 42.28459411970849, "lng": -71.1563691802915}}}, "icon": "https://maps.gstatic.com/mapfiles/place_api/icons/generic_business-71.png", "id": "673373042fd50d51fbaa8bdb4e8511dbc8df6e82", "name": "Cedars Property Management LLC", "place_id": "ChIJX_D3RS5_44kR3yvtXJl1hls", "plus_code": {"compound_code": "7RPW+82 Boston, Massachusetts, United States", "global_code": "87JC7RPW+82"}, "reference": "ChIJX_D3RS5_44kR3yvtXJl1hls", "scope": "GOOGLE", "types": ["point_of_interest", "establishment"], "vicinity": "1864 Centre Street # 4, West Roxbury"}, "ChIJX_D3RS5_44kRQ8QvwboZPwM": {"geometry": {"location": {"lat": 42.2858235, "lng": -71.1549378}, "viewport": {"northeast": {"lat": 42.28729208029149, "lng": -71.1536712197085}, "southwest": {"lat": 42.28459411970849, "lng": -71.1563691802915}}}, "icon": "https://maps.gstatic.com/mapfiles/place_api/icons/generic_business-71.png", "id": "1c20af85b47ef5e5f3810ea233ee7af5984a0686", "name": "ATS Co", "place_id": "ChIJX_D3RS5_44kRQ8QvwboZPwM", "plus_code": {"compound_code": "7RPW+82 Boston, Massachusetts, United States", "global_code": "87JC7RPW+82"}, "reference": "ChIJX_D3RS5_44kRQ8QvwboZPwM", "scope": "GOOGLE", "types": ["accounting", "finance", "point_of_interest", "establishment"], "vicinity": "1864 Centre Street, West Roxbury"}, "ChIJX_D3RS5_44kRRCrofg4lfNE": {"geometry": {"location": {"lat": 42.2858235, "lng": -71.1549378}, "viewport": {"northeast": {"lat": 42.28729208029149, "lng": -71.1536712197085}, "southwest": {"lat": 42.28459411970849, "lng": -71.1563691802915}}}, "icon": "https://maps.gstatic.com/mapfiles/place_api/icons/generic_business-71.png", "id": "b6ce4c9153f560597c5c5a06723af48553754156", "name": "Eileen Corcoran Nicholas", "place_id": "ChIJX_D3RS5_44kRRCrofg4lfNE", "plus_code": {"compound_code": "7RPW+82 Boston, Massachusetts, United States", "global_code": "87JC7RPW+82"}, "reference": "ChIJX_D3RS5_44kRRCrofg4lfNE", "scope": "GOOGLE", "types": ["beauty_salon", "hair_care", "point_of_interest", "establishment"], "vicinity": "1864 Centre Street # 3, West Roxbury"}, "ChIJbwS8Ti5_44kRsD4Kjs-GzpU": {"geometry": {"location": {"lat": 42.2858261, "lng": -71.15485199999999}, "viewport": {"northeast": {"lat": 42.2873072302915, "lng": -71.15359146970849}, "southwest": {"lat": 42.2846092697085, "lng": -71.15628943029151}}}, "icon": "https://maps.gstatic.com/mapfiles/place_api/icons/generic_business-71.png", "id": "e6132fcc8353ed9b10715f8139ffa4a7c8e4c01e", "name": "A Beautiful Smile Dentistry", "opening_hours": {"open_now": true}, "photos": [{"height": 2250, "html_attributions": ["<a href=\"https://maps.google.com/maps/contrib/104698510141408392576/photos\">A Beautiful Smile Dentistry</a>"], "photo_reference": "CmRaAAAA0F4vIHwNBRXMKrWLu0-oFdEIDKr47I3MKNZbMVrRF_UfzXgUslDBqXdZ_jaX7m7pQ8-JwPmydCtswc1NwSOxMZyHF31CKR5Y4P8bcPTeCkG24QEugcjm7RuWXTFEVOAvEhAPN8Fe6-MW3Q8yDtlqgXunGhRYL4U_DIfosUy6Z_6KhkHYvhbSgA", "width": 3000}], "place_id": "ChIJbwS8Ti5_44kRsD4Kjs-GzpU", "plus_code": {"compound_code": "7RPW+83 Boston, Massachusetts, United States", "global_code": "87JC7RPW+83"}, "rating": 4.9, "reference": "ChIJbwS8Ti5_44kRsD4Kjs-GzpU", "scope": "GOOGLE", "types": ["dentist", "health", "point_of_interest", "establishment"], "user_ratings_total": 15, "vicinity": "1864 Centre Street, Boston"}}