{"ChIJeZ7zDXF644kR8hl6wYCn7UI": {"geometry": {"location": {"lat": 42.347063, "lng": -71.065834}, "viewport": {"northeast": {"lat": 42.3484118302915, "lng": -71.0644795697085}, "southwest": {"lat": 42.3457138697085, "lng": -71.0671775302915}}}, "icon": "https://maps.gstatic.com/mapfiles/place_api/icons/geocode-71.png", "id": "f43ac2df587bdaaf3ea176d1ddbacd28bbb3f243", "name": "98-94 Shawmut Ave", "place_id": "ChIJeZ7zDXF644kR8hl6wYCn7UI", "reference": "ChIJeZ7zDXF644kR8hl6wYCn7UI", "scope": "GOOGLE", "types": ["route"], "vicinity": "Boston"}, "ChIJc5lxCnF644kRwlJV9hDEa_8": {"geometry": {"location": {"lat": 42.3465341, "lng": -71.0657779}, "viewport": {"northeast": {"lat": 42.3478509802915, "lng": -71.0644419697085}, "southwest": {"lat": 42.3451530197085, "lng": -71.06713993029152}}}, "icon": "https://maps.gstatic.com/mapfiles/place_api/icons/generic_business-71.png", "id": "b4babb7ff0a6e55bfb05a1d60431d068fbefa656", "name": "Monica Ponce De Leon Design", "place_id": "ChIJc5lxCnF644kRwlJV9hDEa_8", "plus_code": {"compound_code": "8WWM+JM Boston, Massachusetts, United States", "global_code": "87JC8WWM+JM"}, "rating": 3, "reference": "ChIJc5lxCnF644kRwlJV9hDEa_8", "scope": "GOOGLE", "types": ["point_of_interest", "establishment"], "user_ratings_total": 2, "vicinity": "112 Shawmut Avenue, Boston"}, "ChIJrXJxCnF644kRDgCgkONjRyM": {"geometry": {"location": {"lat": 42.3465341, "lng": -71.0657779}, "viewport": {"northeast": {"lat": 42.3478509802915, "lng": -71.0644419697085}, "southwest": {"lat": 42.3451530197085, "lng": -71.06713993029152}}}, "icon": "https://maps.gstatic.com/mapfiles/place_api/icons/generic_business-71.png", "id": "2824fa0334bc1f9f3b60d24c8a51cf67247251f6", "name": "Landworks Studio Inc", "opening_hours": {"open_now": true}, "photos": [{"height": 2988, "html_attributions": ["<a href=\"https://maps.google.com/maps/contrib/107905934759119658868/photos\">joseph silvano</a>"], "photo_reference": "CmRaAAAA08Cc-BMXBBSt47JwlMANLU3sR_oIJ-KQkcQHSTifozXfrufYPrsSNLI4BB3sDYqZiCg5Sdq1JJhuqDdEyRKFwv63dQnFII1byd1hvPfFew-hSW56YoEmarOwkWF5BeJIEhDHErNDsEpf6cEHnMf4vz2aGhQ9eYFoi4KQl4FAvDiF2fT-DwT7IQ", "width": 5312}], "place_id": "ChIJrXJxCnF644kRDgCgkONjRyM", "plus_code": {"compound_code": "8WWM+JM Boston, Massachusetts, United States", "global_code": "87JC8WWM+JM"}, "rating": 3, "reference": "ChIJrXJxCnF644kRDgCgkONjRyM", "scope": "GOOGLE", "types": ["general_contractor", "point_of_interest", "establishment"], "user_ratings_total": 2, "vicinity": "112 Shawmut Avenue # 6B, Boston"}, "ChIJaboHklp744kRjoUHsnMKckI": {"geometry": {"location": {"lat": 42.3469005, "lng": -71.0658775}, "viewport": {"northeast": {"lat": 42.34821923029151, "lng": -71.06454031970848}, "southwest": {"lat": 42.34552126970851, "lng": -71.06723828029149}}}, "icon": "https://maps.gstatic.com/mapfiles/place_api/icons/worship_general-71.png", "id": "8fef5e9825966497cecbf4f8d7ed0476eb115c64", "name": "Biz 11", "opening_hours": {"open_now": false}, "place_id": "ChIJaboHklp744kRjoUHsnMKckI", "plus_code": {"compound_code": "8WWM+QJ Boston, Massachusetts, United States", "global_code": "87JC8WWM+QJ"}, "reference": "ChIJaboHklp744kRjoUHsnMKckI", "scope": "GOOGLE", "types": ["church", "place_of_worship", "point_of_interest", "establishment"], "vicinity": "85 Herald Street, Boston"}, "ChIJM-GL5pN744kRSn0xic0Ans4": {"geometry": {"location": {"lat": 42.3469385, "lng": -71.0662948}, "viewport": {"northeast": {"lat": 42.3483041302915, "lng": -71.06493931970849}, "southwest": {"lat": 42.3456061697085, "lng": -71.06763728029149}}}, "icon": "https://maps.gstatic.com/mapfiles/place_api/icons/generic_business-71.png", "id": "28ec7a250e56fd62fdb7d35e047e7449ca0d002e", "name": "Herald St Parking", "place_id": "ChIJM-GL5pN744kRSn0xic0Ans4", "plus_code": {"compound_code": "8WWM+QF Boston, Massachusetts, United States", "global_code": "87JC8WWM+QF"}, "reference": "ChIJM-GL5pN744kRSn0xic0Ans4", "scope": "GOOGLE", "types": ["parking", "point_of_interest", "establishment"], "vicinity": "85-157 Herald Street, Boston"}, "ChIJGzE9DS1l44kRoOhiASS_fHg": {"geometry": {"location": {"lat": 42.3600825, "lng": -71.0588801}, "viewport": {"northeast": {"lat": 42.40081989999999, "lng": -70.749455}, "southwest": {"lat": 42.22788, "lng": -71.191113}}}, "icon": "https://maps.gstatic.com/mapfiles/place_api/icons/geocode-71.png", "id": "06755c25d2b34d13942a4713971756a55b870ced", "name": "Boston", "photos": [{"height": 3024, "html_attributions": ["<a href=\"https://maps.google.com/maps/contrib/104670289779338733432/photos\">Natalia Zalucean</a>"], "photo_reference": "CmRaAAAAjajCzAR3PhtteKoJOHzAdy62AY1LwAsiab3oStQBqCr4duLuaPKaVamSBTB1ltjSmQBMMiDB3K6pEG0k-zdZIyO9oi4h-RFLMa5OIbF65HE233xZhtV8fGbaZwsvbShxEhB8BlfJ595pMm66r-pwG2sVGhQDlqHAD1ljLJcSiiiba3eTaxgN6A", "width": 4032}], "place_id": "ChIJGzE9DS1l44kRoOhiASS_fHg", "reference": "ChIJGzE9DS1l44kRoOhiASS_fHg", "scope": "GOOGLE", "types": ["locality", "political"], "vicinity": "Boston"}}