{"ChIJkeHHxYhw44kRzRvd7ItXAEQ": {"geometry": {"location": {"lat": 42.3628351, "lng": -71.0548221}, "viewport": {"northeast": {"lat": 42.3641809302915, "lng": -71.0534679197085}, "southwest": {"lat": 42.3614829697085, "lng": -71.0561658802915}}}, "icon": "https://maps.gstatic.com/mapfiles/place_api/icons/geocode-71.png", "id": "bbb9400da5c5d425f1e9bb49865caf6c6bfc812e", "name": "Massachusetts 1A", "place_id": "ChIJkeHHxYhw44kRzRvd7ItXAEQ", "reference": "ChIJkeHHxYhw44kRzRvd7ItXAEQ", "scope": "GOOGLE", "types": ["route"], "vicinity": "Boston"}, "ChIJT3RSzIhw44kRRNDw7opO8ic": {"geometry": {"location": {"lat": 42.36293019999999, "lng": -71.0554887}, "viewport": {"northeast": {"lat": 42.36425033029149, "lng": -71.05408891970849}, "southwest": {"lat": 42.36155236970849, "lng": -71.0567868802915}}}, "icon": "https://maps.gstatic.com/mapfiles/place_api/icons/generic_business-71.png", "id": "0b15655235478c6dbf3f75168c27eac6d7c1c1bc", "name": "Improv Asylum", "photos": [{"height": 2448, "html_attributions": ["<a href=\"https://maps.google.com/maps/contrib/115632530971583199545/photos\">Rob W</a>"], "photo_reference": "CmRaAAAAwZy9IW5X8FAyDZs27SDSYYEcFsF6Mq-UThoILOh8L9cB5z6APzpUS2Qda06T6MjxBcRdDJlfSEhbQdWjvnvY7WRTKO2qR9AgOdzlEK56WkqbJuwHtQgDJZBfYC0WRN5SEhAjjxoBHKdZXAl9uhESmllpGhTpuHML7FiRDv9m187HflYFgIYzvw", "width": 3264}], "place_id": "ChIJT3RSzIhw44kRRNDw7opO8ic", "plus_code": {"compound_code": "9W7V+5R Boston, Massachusetts, United States", "global_code": "87JC9W7V+5R"}, "price_level": 2, "rating": 4.7, "reference": "ChIJT3RSzIhw44kRRNDw7opO8ic", "scope": "GOOGLE", "types": ["point_of_interest", "establishment"], "user_ratings_total": 471, "vicinity": "216 Hanover Street, Boston"}, "ChIJF7Wfzohw44kRkiOdItOu1Oo": {"geometry": {"location": {"lat": 42.36285960000001, "lng": -71.0552033}, "viewport": {"northeast": {"lat": 42.3642437802915, "lng": -71.0539162697085}, "southwest": {"lat": 42.36154581970851, "lng": -71.0566142302915}}}, "icon": "https://maps.gstatic.com/mapfiles/place_api/icons/restaurant-71.png", "id": "169254a943511c800c42b7297effcccd9a923247", "name": "Dolce Vita Ristorante", "opening_hours": {"open_now": true}, "photos": [{"height": 3120, "html_attributions": ["<a href=\"https://maps.google.com/maps/contrib/105051463055500698714/photos\">John McNamara</a>"], "photo_reference": "CmRaAAAAgtyVAw1H3J1LgPcQuLkxIWOH4iBsZKvrypKFz2wu1hyl4fcZ6YJTAbWmmxPFVeUs0IyBxQQ6qUZiVWvQzJNeFfZFBiPrJF7g8R5aqjEdtInnr6av_GZuxj86c5V0UAjAEhCJBNTqsDmi7FiMLSvxnZEeGhTNqxViYt6SF7I7Kka5nEenfx_1ZQ", "width": 4160}], "place_id": "ChIJF7Wfzohw44kRkiOdItOu1Oo", "plus_code": {"compound_code": "9W7V+4W Boston, Massachusetts, United States", "global_code": "87JC9W7V+4W"}, "price_level": 2, "rating": 4.3, "reference": "ChIJF7Wfzohw44kRkiOdItOu1Oo", "scope": "GOOGLE", "types": ["restaurant", "point_of_interest", "food", "establishment"], "user_ratings_total": 276, "vicinity": "221 Hanover Street, Boston"}, "ChIJT3RSzIhw44kReq5iUqELH-8": {"geometry": {"location": {"lat": 42.3629813, "lng": -71.0555667}, "viewport": {"northeast": {"lat": 42.3642779802915, "lng": -71.0541256697085}, "southwest": {"lat": 42.36158001970851, "lng": -71.0568236302915}}}, "icon": "https://maps.gstatic.com/mapfiles/place_api/icons/generic_business-71.png", "id": "4ecdfbf7648ed52457f3c712bb0a4523e85bed12", "name": "Rock Hard Productions Inc", "place_id": "ChIJT3RSzIhw44kReq5iUqELH-8", "plus_code": {"compound_code": "9W7V+5Q Boston, Massachusetts, United States", "global_code": "87JC9W7V+5Q"}, "reference": "ChIJT3RSzIhw44kReq5iUqELH-8", "scope": "GOOGLE", "types": ["point_of_interest", "establishment"], "vicinity": "216 Hanover Street, Boston"}, "ChIJRQc854hw44kRFkYEHlm02PE": {"geometry": {"location": {"lat": 42.3628915, "lng": -71.05513619999999}, "viewport": {"northeast": {"lat": 42.3642400302915, "lng": -71.05378781970849}, "southwest": {"lat": 42.3615420697085, "lng": -71.0564857802915}}}, "icon": "https://maps.gstatic.com/mapfiles/place_api/icons/restaurant-71.png", "id": "05d9399de6d53f29e258617adf8bdb866a812b91", "name": "Mare Oyster Bar", "opening_hours": {"open_now": false}, "photos": [{"height": 1536, "html_attributions": ["<a href=\"https://maps.google.com/maps/contrib/105944380839755283376/photos\">Ivancy Yu</a>"], "photo_reference": "CmRaAAAAzPGz3IFjT-y_vZse_LtVoNkq_qX8_GObEM27k_SZLrnvp6ql79sL5fZeBwExEsD5N54n83wNj2x7XRKqcVjY7e9sTcww4_Vbdae-s2ecFlZfNt9HnYFx5302sfcioOh3EhBmSG53bW1qbbNB92B8OETZGhRwidqdNTezA4VHx3ckj4USqpdO3w", "width": 2048}], "place_id": "ChIJRQc854hw44kRFkYEHlm02PE", "plus_code": {"compound_code": "9W7V+5W Boston, Massachusetts, United States", "global_code": "87JC9W7V+5W"}, "price_level": 3, "rating": 4.5, "reference": "ChIJRQc854hw44kRFkYEHlm02PE", "scope": "GOOGLE", "types": ["bar", "restaurant", "point_of_interest", "food", "establishment"], "user_ratings_total": 269, "vicinity": "3 Mechanic Street, Boston"}, "ChIJGwg4zohw44kR2JOE0zpR_Wo": {"geometry": {"location": {"lat": 42.3629871, "lng": -71.0551195}, "viewport": {"northeast": {"lat": 42.3643621802915, "lng": -71.0538211697085}, "southwest": {"lat": 42.3616642197085, "lng": -71.0565191302915}}}, "icon": "https://maps.gstatic.com/mapfiles/place_api/icons/bar-71.png", "id": "b543aa3762f86c896b71aeb0b954494daa58441c", "name": "Tresca", "opening_hours": {"open_now": false}, "photos": [{"height": 1365, "html_attributions": ["<a href=\"https://maps.google.com/maps/contrib/104111246635874032234/photos\">ZAGAT</a>"], "photo_reference": "CmRaAAAApqdmF2mlRNQmWTxfIxm4AtZp50NcEU8Dl_mE0KbVkF_VfYbpVlGVLlArbx171_SpmWAkrV7SRktawn1Qc4ZhRFahFE0iI2Ij62OIvRC-af2xb0QFSuU8cfkg_1g4F4TwEhBKM51USb3qiW86Pi391TWMGhRsRLlxjrU6o-j9PHYvhfQpXdgbkw", "width": 2048}], "place_id": "ChIJGwg4zohw44kR2JOE0zpR_Wo", "plus_code": {"compound_code": "9W7V+5X Boston, Massachusetts, United States", "global_code": "87JC9W7V+5X"}, "price_level": 3, "rating": 4.4, "reference": "ChIJGwg4zohw44kR2JOE0zpR_Wo", "scope": "GOOGLE", "types": ["bar", "restaurant", "point_of_interest", "food", "establishment"], "user_ratings_total": 120, "vicinity": "233 Hanover Street, Boston"}, "ChIJUXCQzIhw44kRB3pj_lgazIU": {"geometry": {"location": {"lat": 42.36292629999999, "lng": -71.055595}, "viewport": {"northeast": {"lat": 42.3642281302915, "lng": -71.0541630697085}, "southwest": {"lat": 42.3615301697085, "lng": -71.0568610302915}}}, "icon": "https://maps.gstatic.com/mapfiles/place_api/icons/restaurant-71.png", "id": "28cb3a277c3f1740d50019c23d783a7251b56a87", "name": "Taranta", "opening_hours": {"open_now": false}, "photos": [{"height": 2988, "html_attributions": ["<a href=\"https://maps.google.com/maps/contrib/105723441655519311194/photos\">Shawn McGrath</a>"], "photo_reference": "CmRaAAAAoDzErRxtxYCUeABFjFED7Qv2oIotLlF_lu-WVgTkA4eZHXnfO-Rj3gGN1VttepmEpMvhG935Moq_bEoWCIZAAdAL_i8xR4qpbIHeJYPTqY1CY2acVFkuYHnr0NB40ksBEhD-VFMMSy_mPLYPhUIcuGpeGhQxoQl1yNmmQBXyZNjGKD2zG6kh-Q", "width": 5312}], "place_id": "ChIJUXCQzIhw44kRB3pj_lgazIU", "plus_code": {"compound_code": "9W7V+5Q Boston, Massachusetts, United States", "global_code": "87JC9W7V+5Q"}, "price_level": 3, "rating": 4.5, "reference": "ChIJUXCQzIhw44kRB3pj_lgazIU", "scope": "GOOGLE", "types": ["restaurant", "point_of_interest", "food", "establishment"], "user_ratings_total": 126, "vicinity": "210 Hanover Street, Boston"}, "ChIJAXXx0Yhw44kRgOgYa9xlDyw": {"geometry": {"location": {"lat": 42.36312329999999, "lng": -71.05528149999999}, "viewport": {"northeast": {"lat": 42.36444798029149, "lng": -71.0538854197085}, "southwest": {"lat": 42.3617500197085, "lng": -71.0565833802915}}}, "icon": "https://maps.gstatic.com/mapfiles/place_api/icons/restaurant-71.png", "id": "983bb6ea0dadf7a3ad40d3cc2ad8a8a455a42c5c", "name": "Lucca", "opening_hours": {"open_now": false}, "photos": [{"height": 1360, "html_attributions": ["<a href=\"https://maps.google.com/maps/contrib/104115260641374757573/photos\">Lucca</a>"], "photo_reference": "CmRaAAAABCoZQgULvJpMGL408ftXSc5V3Mgt20tNJuCvYFp0E-ojXcvJILpmxqxdxmAx1ukiQqf6EJ23ko17DTdhY1-5xEmuvChBx25FWDd_2ZQjEqiTHsrrOgjXlNWSLx-3rwRwEhBV0Fpgu8Rg_S8NCOJpwKr3GhQE-uOlJpixVc9hZZ74GnUgyTdI-Q", "width": 2048}], "place_id": "ChIJAXXx0Yhw44kRgOgYa9xlDyw", "plus_code": {"compound_code": "9W7V+6V Boston, Massachusetts, United States", "global_code": "87JC9W7V+6V"}, "price_level": 3, "rating": 4.4, "reference": "ChIJAXXx0Yhw44kRgOgYa9xlDyw", "scope": "GOOGLE", "types": ["bar", "restaurant", "point_of_interest", "food", "establishment"], "user_ratings_total": 304, "vicinity": "226 Hanover Street, Boston"}, "ChIJtX-6zohw44kRT3zkzhLRPHA": {"geometry": {"location": {"lat": 42.3626826, "lng": -71.0552861}, "viewport": {"northeast": {"lat": 42.3640906802915, "lng": -71.0540254197085}, "southwest": {"lat": 42.3613927197085, "lng": -71.0567233802915}}}, "icon": "https://maps.gstatic.com/mapfiles/place_api/icons/restaurant-71.png", "id": "d44c7b6839fd47e6d525db863769ef349d968a10", "name": "Mother Anna's", "opening_hours": {"open_now": true}, "photos": [{"height": 2988, "html_attributions": ["<a href=\"https://maps.google.com/maps/contrib/103963824022192485767/photos\">Mark Davis</a>"], "photo_reference": "CmRaAAAATQiJZSh-sDJWnkZCVeXOXEl1dBumzkDtTkuWz-SftAiMZuC4xHSPVcwBJEroAB-OV_Q9PaEBKPeWA-YKii4s8VqD1quKrYexHdyDRFnuguVjRVFAo1VfdFABli7cxl4lEhD90bBAzHuQRZmCE3BjVBXrGhTEEYgImIRlhjw_k0Ra5R5hAoqrJQ", "width": 5312}], "place_id": "ChIJtX-6zohw44kRT3zkzhLRPHA", "plus_code": {"compound_code": "9W7V+3V Boston, Massachusetts, United States", "global_code": "87JC9W7V+3V"}, "price_level": 2, "rating": 4.2, "reference": "ChIJtX-6zohw44kRT3zkzhLRPHA", "scope": "GOOGLE", "types": ["restaurant", "point_of_interest", "food", "establishment"], "user_ratings_total": 212, "vicinity": "211 Hanover Street, Boston"}, "ChIJvWFWyYhw44kRP-cwI8JZ_mM": {"geometry": {"location": {"lat": 42.3627443, "lng": -71.0552428}, "viewport": {"northeast": {"lat": 42.3641428302915, "lng": -71.0539810697085}, "southwest": {"lat": 42.3614448697085, "lng": -71.0566790302915}}}, "icon": "https://maps.gstatic.com/mapfiles/place_api/icons/generic_business-71.png", "id": "9c8216d08c2ae56cee4d8de52ce4bb96ecf7ead9", "name": "North End Dental Associates", "opening_hours": {"open_now": true}, "photos": [{"height": 450, "html_attributions": ["<a href=\"https://maps.google.com/maps/contrib/110223399692723573815/photos\">Shivani Pareek</a>"], "photo_reference": "CmRaAAAA9HoFiyGSYr_x_ScjF-bmpJRouVJPQwEQwD6BXRYUB0ERLpVDIaK5WUwH5L7-Ead5D_LH9y_FIXd_AuRbxIcFMEswuzpPNBBrsqoWZt1t15S_5Tc4Zg9Uj1emSvAv00UGEhDC9Erfz-5bAsygbCSynSnDGhTJv6Ivo9QGBVa1reHT6r_Vj5A1vw", "width": 675}], "place_id": "ChIJvWFWyYhw44kRP-cwI8JZ_mM", "plus_code": {"compound_code": "9W7V+3W Boston, Massachusetts, United States", "global_code": "87JC9W7V+3W"}, "rating": 3.2, "reference": "ChIJvWFWyYhw44kRP-cwI8JZ_mM", "scope": "GOOGLE", "types": ["dentist", "health", "point_of_interest", "establishment"], "user_ratings_total": 25, "vicinity": "215 Hanover Street #204, Boston"}, "ChIJT3RSzIhw44kRLeQdn0us8qA": {"geometry": {"location": {"lat": 42.3627443, "lng": -71.0552428}, "viewport": {"northeast": {"lat": 42.3641428302915, "lng": -71.0539810697085}, "southwest": {"lat": 42.3614448697085, "lng": -71.0566790302915}}}, "icon": "https://maps.gstatic.com/mapfiles/place_api/icons/generic_business-71.png", "id": "63b95fe00a3ba7235307d81182720f2de6ab7230", "name": "Improv Asylum Business Office", "place_id": "ChIJT3RSzIhw44kRLeQdn0us8qA", "plus_code": {"compound_code": "9W7V+3W Boston, Massachusetts, United States", "global_code": "87JC9W7V+3W"}, "reference": "ChIJT3RSzIhw44kRLeQdn0us8qA", "scope": "GOOGLE", "types": ["art_gallery", "point_of_interest", "establishment"], "vicinity": "215 Hanover Street, Boston"}, "ChIJETSDy4hw44kRl72FKKSiZ_4": {"geometry": {"location": {"lat": 42.3628299, "lng": -71.0556016}, "viewport": {"northeast": {"lat": 42.36414678029151, "lng": -71.0542046697085}, "southwest": {"lat": 42.36144881970851, "lng": -71.0569026302915}}}, "icon": "https://maps.gstatic.com/mapfiles/place_api/icons/shopping-71.png", "id": "f7fce2d079152c70001a5ccc484560392a3d320f", "name": "Romano Florist", "photos": [{"height": 4000, "html_attributions": ["<a href=\"https://maps.google.com/maps/contrib/112956682134553317959/photos\">Chris Ferry</a>"], "photo_reference": "CmRaAAAAzXNLFotcPVRrYWq6h6z8NYItCz1KUg33TNwyw3GvFo8e0L4AZk0yCwHpFZJQTIB6oGxfQGST6UTGlW0ewLSGPHWpAlVEp6elIbAOqohiEE4NH0kJix51QVbMYN8NiCZKEhCVkAXyL0lAhU_LtFKjmddwGhQ39QDvxdxmf12bYwoU6sFPJpEfiw", "width": 6000}], "place_id": "ChIJETSDy4hw44kRl72FKKSiZ_4", "plus_code": {"compound_code": "9W7V+4Q Boston, Massachusetts, United States", "global_code": "87JC9W7V+4Q"}, "rating": 4.1, "reference": "ChIJETSDy4hw44kRl72FKKSiZ_4", "scope": "GOOGLE", "types": ["florist", "store", "point_of_interest", "establishment"], "user_ratings_total": 12, "vicinity": "206 Hanover Street, Boston"}, "ChIJNeytzohw44kRGMpvz4Y4TgY": {"geometry": {"location": {"lat": 42.3627537, "lng": -71.0552089}, "viewport": {"northeast": {"lat": 42.3641398302915, "lng": -71.0538107197085}, "southwest": {"lat": 42.3614418697085, "lng": -71.0565086802915}}}, "icon": "https://maps.gstatic.com/mapfiles/place_api/icons/generic_business-71.png", "id": "709b8daa7044c730bda85ff7e094f9df5400a441", "name": "Tear Film & Ocular Surface Society (TFOS)", "photos": [{"height": 513, "html_attributions": ["<a href=\"https://maps.google.com/maps/contrib/116658584035025188908/photos\">Tear Film &amp; Ocular Surface Society (TFOS)</a>"], "photo_reference": "CmRaAAAA58hF_PQa9sGb5IFnKTpmlAXKt0ciPNC2EB7k4Hc9oG-_DNdt-nJ4SkoAZ3Jmyv5avwCAieECGIcl1djyuGF57qkDQWoa1171jfWOzO5Jm3x5cqLpNiciNCPO0KcYcSmBEhCJJrxf3rtjEK352_06lAflGhQyzSevXnFO4f_kfws-oXDdbfpqEA", "width": 912}], "place_id": "ChIJNeytzohw44kRGMpvz4Y4TgY", "plus_code": {"compound_code": "9W7V+4W Boston, Massachusetts, United States", "global_code": "87JC9W7V+4W"}, "reference": "ChIJNeytzohw44kRGMpvz4Y4TgY", "scope": "GOOGLE", "types": ["point_of_interest", "establishment"], "vicinity": "217 Hanover Street BOX 130146, Boston"}, "ChIJTV6bi4Rw44kRnX_-ZZUmVAE": {"geometry": {"location": {"lat": 42.36276399999999, "lng": -71.05518599999999}, "viewport": {"northeast": {"lat": 42.36416903029149, "lng": -71.0539356697085}, "southwest": {"lat": 42.3614710697085, "lng": -71.0566336302915}}}, "icon": "https://maps.gstatic.com/mapfiles/place_api/icons/generic_business-71.png", "id": "7c97234de0eb45ed616f3746e3200e5e6e839890", "name": "Goose Valley Natural Foods LLC", "photos": [{"height": 1152, "html_attributions": ["<a href=\"https://maps.google.com/maps/contrib/116578563145350868214/photos\">Goose Valley Natural Foods LLC</a>"], "photo_reference": "CmRaAAAA1DtWzydsBki-ha1EK4nDArd_5XmTzZe-yv1huD_BhOL83z7021BCxy9J6NEwlmVsKWPF-LPzoSLyUE9n7ozLgZZBWISeZLdSA4zyJkYjZWZSFtwwbYWQdLqqFAxFn33vEhAO5y0Ezyca0s5TaEnNfHEUGhRgllTedQXCaxdruUjBYkDxPo4Y1A", "width": 2048}], "place_id": "ChIJTV6bi4Rw44kRnX_-ZZUmVAE", "plus_code": {"compound_code": "9W7V+4W Boston, Massachusetts, United States", "global_code": "87JC9W7V+4W"}, "reference": "ChIJTV6bi4Rw44kRnX_-ZZUmVAE", "scope": "GOOGLE", "types": ["point_of_interest", "food", "establishment"], "vicinity": "217 Hanover Street Suite 130130, Boston"}, "ChIJs1LDfIhw44kRE--q3AKvEtc": {"geometry": {"location": {"lat": 42.362744, "lng": -71.05524299999999}, "viewport": {"northeast": {"lat": 42.36414258029151, "lng": -71.05398126970849}, "southwest": {"lat": 42.36144461970851, "lng": -71.05667923029151}}}, "icon": "https://maps.gstatic.com/mapfiles/place_api/icons/generic_business-71.png", "id": "3bfd4188f3045f66f31627e3be255269b4d62697", "name": "Solace Wax", "opening_hours": {"open_now": true}, "photos": [{"height": 3264, "html_attributions": ["<a href=\"https://maps.google.com/maps/contrib/100816125453113321642/photos\">Solace Wax</a>"], "photo_reference": "CmRaAAAAxEv3KjAThYIkKnxHhAF7OJjr9EBq4-XPF30B9mT9Lo_LCb4AQwjesY1uPXa1-WBGa82bQmuuUSLGqINB0ClhwO3IjxooQfSgaQTe-NoykDJ4BDPv7bxt3LJ2AmiXUmEoEhDSrwS1bYPf7hv4oX14vxHPGhSoPnXPDLrVBoKcudYCE-tuTnagnQ", "width": 2448}], "place_id": "ChIJs1LDfIhw44kRE--q3AKvEtc", "plus_code": {"compound_code": "9W7V+3W Boston, Massachusetts, United States", "global_code": "87JC9W7V+3W"}, "rating": 5, "reference": "ChIJs1LDfIhw44kRE--q3AKvEtc", "scope": "GOOGLE", "types": ["beauty_salon", "hair_care", "spa", "point_of_interest", "establishment"], "user_ratings_total": 8, "vicinity": "215 Hanover Street floor 2, Boston"}, "ChIJvWFWyYhw44kRqueuuj4ifIA": {"geometry": {"location": {"lat": 42.3627443, "lng": -71.0552428}, "viewport": {"northeast": {"lat": 42.3641428302915, "lng": -71.0539810697085}, "southwest": {"lat": 42.3614448697085, "lng": -71.0566790302915}}}, "icon": "https://maps.gstatic.com/mapfiles/place_api/icons/generic_business-71.png", "id": "36840a03c5290b0c63348ce230fe10d7f6acad04", "name": "Dolores Maniscalco Skin Care", "photos": [{"height": 3024, "html_attributions": ["<a href=\"https://maps.google.com/maps/contrib/110375666804951895154/photos\">Sarah Kroesser</a>"], "photo_reference": "CmRaAAAA5AclVvmSVU-uoYGCya1FDsEoiIawjNPGuadmvkSQehB-nvtCPCTTZcuK-sbZqXweuo_LuQbTOVIwiTsPfiM08fJK_1BLpaVYhQvxSOLVrIdR3ze_HVVaLdQp6GXwf27jEhBFjN5muEocA76qcGfNdUJiGhT9I7wxM5R_VYlphwaBtso62EuNPw", "width": 4032}], "place_id": "ChIJvWFWyYhw44kRqueuuj4ifIA", "plus_code": {"compound_code": "9W7V+3W Boston, Massachusetts, United States", "global_code": "87JC9W7V+3W"}, "reference": "ChIJvWFWyYhw44kRqueuuj4ifIA", "scope": "GOOGLE", "types": ["beauty_salon", "hair_care", "point_of_interest", "establishment"], "vicinity": "215 Hanover Street, Boston"}, "ChIJvR2Gzohw44kRpDeIXhI8DPk": {"geometry": {"location": {"lat": 42.362861, "lng": -71.05519699999999}, "viewport": {"northeast": {"lat": 42.3642460302915, "lng": -71.0539114697085}, "southwest": {"lat": 42.3615480697085, "lng": -71.0566094302915}}}, "icon": "https://maps.gstatic.com/mapfiles/place_api/icons/restaurant-71.png", "id": "0cc07b82f20cc1364aec25f603d94f2d6b1c00c8", "name": "Cobblestone Cafe", "opening_hours": {"open_now": true}, "photos": [{"height": 912, "html_attributions": ["<a href=\"https://maps.google.com/maps/contrib/111273407894491871099/photos\">Cobblestone Cafe</a>"], "photo_reference": "CmRaAAAAi3KMUgWg4T-6bpbTD07AucfVXWaD9zPwQLulCTrdy_YdzM6mcmRpLsGjr4eBd5RA2wYEix7-C2b3uPaU_euIwtJpCy_wMM2_0PJA-_ddEBcH0nWR9CrvezTS2E5phyy6EhA32VLsBy6c85D1ZUjU4MoEGhRG6JAvwv7k2FkTPEOP59vzyRU9yg", "width": 1368}], "place_id": "ChIJvR2Gzohw44kRpDeIXhI8DPk", "plus_code": {"compound_code": "9W7V+4W Boston, Massachusetts, United States", "global_code": "87JC9W7V+4W"}, "price_level": 1, "rating": 4.1, "reference": "ChIJvR2Gzohw44kRpDeIXhI8DPk", "scope": "GOOGLE", "types": ["cafe", "meal_takeaway", "store", "restaurant", "point_of_interest", "food", "establishment"], "user_ratings_total": 107, "vicinity": "227 Hanover Street, Boston"}, "ChIJNeytzohw44kRe4LJzDRetjY": {"geometry": {"location": {"lat": 42.3627537, "lng": -71.0552089}, "viewport": {"northeast": {"lat": 42.3641565302915, "lng": -71.05395471970849}, "southwest": {"lat": 42.3614585697085, "lng": -71.0566526802915}}}, "icon": "https://maps.gstatic.com/mapfiles/place_api/icons/generic_business-71.png", "id": "19dcd19033d51f59c894b5b37f1a49f412073bec", "name": "Beantown Productions, LLC", "opening_hours": {"open_now": true}, "place_id": "ChIJNeytzohw44kRe4LJzDRetjY", "plus_code": {"compound_code": "9W7V+4W Boston, Massachusetts, United States", "global_code": "87JC9W7V+4W"}, "reference": "ChIJNeytzohw44kRe4LJzDRetjY", "scope": "GOOGLE", "types": ["point_of_interest", "establishment"], "vicinity": "217 Hanover Street, Boston"}, "ChIJydCIzohw44kRQ1XXFaFslBM": {"geometry": {"location": {"lat": 42.3629308, "lng": -71.055027}, "viewport": {"northeast": {"lat": 42.3643311302915, "lng": -71.0537776197085}, "southwest": {"lat": 42.3616331697085, "lng": -71.0564755802915}}}, "icon": "https://maps.gstatic.com/mapfiles/place_api/icons/generic_business-71.png", "id": "665975e926ef48f7180f76e6f14a5cd3c96f4ccb", "name": "Vincent Hamel Insurance", "place_id": "ChIJydCIzohw44kRQ1XXFaFslBM", "plus_code": {"compound_code": "9W7V+5X Boston, Massachusetts, United States", "global_code": "87JC9W7V+5X"}, "reference": "ChIJydCIzohw44kRQ1XXFaFslBM", "scope": "GOOGLE", "types": ["insurance_agency", "point_of_interest", "establishment"], "vicinity": "227 Hanover Street, Boston"}, "ChIJGzE9DS1l44kRoOhiASS_fHg": {"geometry": {"location": {"lat": 42.3600825, "lng": -71.0588801}, "viewport": {"northeast": {"lat": 42.40081989999999, "lng": -70.749455}, "southwest": {"lat": 42.22788, "lng": -71.191113}}}, "icon": "https://maps.gstatic.com/mapfiles/place_api/icons/geocode-71.png", "id": "06755c25d2b34d13942a4713971756a55b870ced", "name": "Boston", "photos": [{"height": 3024, "html_attributions": ["<a href=\"https://maps.google.com/maps/contrib/104670289779338733432/photos\">Natalia Zalucean</a>"], "photo_reference": "CmRaAAAAAhnWa52LtEGYWXOFAcZEy0Qy35FPEGQd8_WJ2BX5RuDRhkrCIGQHYMQkaKPl4CLOHsxuzfhSn2pUjTJk4jFA4lxzrVLE_6Lq3k0ZcE83lLdMWkYBoOIj7XbpWp1Bse_kEhC6PDxnaG4Ry8n3QsTQrru1GhTydlps5Cjw6DQdqNv7tGF4PyWU3Q", "width": 4032}], "place_id": "ChIJGzE9DS1l44kRoOhiASS_fHg", "reference": "ChIJGzE9DS1l44kRoOhiASS_fHg", "scope": "GOOGLE", "types": ["locality", "political"], "vicinity": "Boston"}, "ChIJg8Zesolw44kRubwkfd4z6lc": {"geometry": {"location": {"lat": 42.3627766, "lng": -71.0552117}, "viewport": {"northeast": {"lat": 42.3641746802915, "lng": -71.05394916970849}, "southwest": {"lat": 42.3614767197085, "lng": -71.05664713029151}}}, "icon": "https://maps.gstatic.com/mapfiles/place_api/icons/generic_business-71.png", "id": "e9f3213134d5f11678d0add107f20c7ace72c49b", "name": "International Catacomb Society", "opening_hours": {"open_now": true}, "place_id": "ChIJg8Zesolw44kRubwkfd4z6lc", "plus_code": {"compound_code": "9W7V+4W Boston, Massachusetts, United States", "global_code": "87JC9W7V+4W"}, "reference": "ChIJg8Zesolw44kRubwkfd4z6lc", "scope": "GOOGLE", "types": ["point_of_interest", "establishment"], "vicinity": "217 Hanover Street, Boston"}, "ChIJvWFWyYhw44kRSreZ9E9jqhQ": {"geometry": {"location": {"lat": 42.3627537, "lng": -71.0552089}, "viewport": {"northeast": {"lat": 42.3641565302915, "lng": -71.05395471970849}, "southwest": {"lat": 42.3614585697085, "lng": -71.0566526802915}}}, "icon": "https://maps.gstatic.com/mapfiles/place_api/icons/generic_business-71.png", "id": "7edf1a1540aba04d592dc880c54e8b9f64995a07", "name": "North End Dental Associates: Pareek Shivani DDS", "place_id": "ChIJvWFWyYhw44kRSreZ9E9jqhQ", "plus_code": {"compound_code": "9W7V+4W Boston, Massachusetts, United States", "global_code": "87JC9W7V+4W"}, "rating": 5, "reference": "ChIJvWFWyYhw44kRSreZ9E9jqhQ", "scope": "GOOGLE", "types": ["dentist", "health", "point_of_interest", "establishment"], "user_ratings_total": 1, "vicinity": "215 Hanover Street, Boston"}, "ChIJ96VEtYhw44kRLFSt4gGekZQ": {"geometry": {"location": {"lat": 42.3625095, "lng": -71.05557019999999}, "viewport": {"northeast": {"lat": 42.3639074302915, "lng": -71.05428846970848}, "southwest": {"lat": 42.3612094697085, "lng": -71.05698643029149}}}, "icon": "https://maps.gstatic.com/mapfiles/place_api/icons/generic_business-71.png", "id": "c17097b45b207589a548695711032a8ef2d67e13", "name": "Tony DeMarco Statue", "photos": [{"height": 3024, "html_attributions": ["<a href=\"https://maps.google.com/maps/contrib/105937359144973983227/photos\">Kyle Salewski</a>"], "photo_reference": "CmRaAAAADxPrHbvp0tzAmIga6GwwZhOd9luvFDIjPwzrrBhXwZH9txQwyTLE8kZKItmZZlgopjUGoNKzr5ickstup5msQrGn_QW5yxHCFPOYXzsl-0w0EqeyK1fRDyqPuG0SvIjnEhCtpvHS3aUedypwYMFShfLfGhROcPseXwOV1hMdojAiv-lq-HpEnQ", "width": 4032}], "place_id": "ChIJ96VEtYhw44kRLFSt4gGekZQ", "plus_code": {"compound_code": "9W7V+2Q Boston, Massachusetts, United States", "global_code": "87JC9W7V+2Q"}, "rating": 4.3, "reference": "ChIJ96VEtYhw44kRLFSt4gGekZQ", "scope": "GOOGLE", "types": ["point_of_interest", "establishment"], "user_ratings_total": 13, "vicinity": "191 Hanover Street, Boston"}, "ChIJHbFXyYhw44kRZtVg8qaQuZs": {"geometry": {"location": {"lat": 42.3627443, "lng": -71.0552428}, "viewport": {"northeast": {"lat": 42.3641428302915, "lng": -71.0539810697085}, "southwest": {"lat": 42.3614448697085, "lng": -71.0566790302915}}}, "icon": "https://maps.gstatic.com/mapfiles/place_api/icons/generic_business-71.png", "id": "9c8c1e2f004c42d827fe4cc258b4f8c2bf6af0b6", "name": "Bow & Arrow", "opening_hours": {"open_now": true}, "photos": [{"height": 2828, "html_attributions": ["<a href=\"https://maps.google.com/maps/contrib/101951582293629885218/photos\">Bow &amp; Arrow</a>"], "photo_reference": "CmRaAAAAHVrN95qsLfiZNDwO3qbJMa7yD-K6pC-irJSs_xB5l16-DTEhxeWxIHR7mUxz6Fh1eIaW4-W-hBbprP5lkxpbgKFcE5OEbwi98AA63fPKDc782azvoNz15dsNW4XWtTwoEhBBZG7J9DCbYf4y7NkpszhdGhSw6UFrlQv7_VoWJ0sIxpuy6vOKOQ", "width": 5028}], "place_id": "ChIJHbFXyYhw44kRZtVg8qaQuZs", "plus_code": {"compound_code": "9W7V+3W Boston, Massachusetts, United States", "global_code": "87JC9W7V+3W"}, "rating": 5, "reference": "ChIJHbFXyYhw44kRZtVg8qaQuZs", "scope": "GOOGLE", "types": ["hair_care", "point_of_interest", "establishment"], "user_ratings_total": 17, "vicinity": "215 Hanover Street #201, Boston"}, "ChIJWUv3y4hw44kRJrB0jBOcpAU": {"geometry": {"location": {"lat": 42.3627646, "lng": -71.0551845}, "viewport": {"northeast": {"lat": 42.3641697802915, "lng": -71.0539344197085}, "southwest": {"lat": 42.3614718197085, "lng": -71.0566323802915}}}, "icon": "https://maps.gstatic.com/mapfiles/place_api/icons/post_office-71.png", "id": "6478f440fefc85748409e097e447d6a509e8384d", "name": "United States Postal Service", "opening_hours": {"open_now": true}, "photos": [{"height": 1025, "html_attributions": ["<a href=\"https://maps.google.com/maps/contrib/116998309347126067760/photos\">United States Postal Service</a>"], "photo_reference": "CmRaAAAApEqSajVcyyTpqe3Q4z6tJCVFVU7XkaPZqOcm_x7tzRl5ya1V54-5SUEkVwUya3cQXlpbg0oXWANGMP79funa6JTeTO-5ZLFEYkw_JNHM27VhvM4jeqEmI59ZTxpSMlgaEhCRxnAw6qbdgi0GxEdGjdCRGhRiMqbZBpIOm_64xTo94EEgyvkx_A", "width": 1025}], "place_id": "ChIJWUv3y4hw44kRJrB0jBOcpAU", "plus_code": {"compound_code": "9W7V+4W Boston, Massachusetts, United States", "global_code": "87JC9W7V+4W"}, "rating": 4.2, "reference": "ChIJWUv3y4hw44kRJrB0jBOcpAU", "scope": "GOOGLE", "types": ["post_office", "finance", "point_of_interest", "establishment"], "user_ratings_total": 12, "vicinity": "217 Hanover Street, Boston"}, "ChIJmRUtNI9w44kRCe_d7oT3FXg": {"geometry": {"location": {"lat": 42.36277339999999, "lng": -71.0559469}, "viewport": {"northeast": {"lat": 42.3641157302915, "lng": -71.05463431970848}, "southwest": {"lat": 42.3614177697085, "lng": -71.0573322802915}}}, "icon": "https://maps.gstatic.com/mapfiles/place_api/icons/generic_business-71.png", "id": "a9672e05e8faa4775b32a9f4b39cafcbfcd078c8", "name": "Cross and Hanover Hubway Station", "photos": [{"height": 1520, "html_attributions": ["<a href=\"https://maps.google.com/maps/contrib/109005557773782083836/photos\">Glenn Kelsall</a>"], "photo_reference": "CmRaAAAA97rEKE-aJd4nyisatPYOqN7hz3ojvbWjjf7mGUAyxx4DE3rQ8qDqqShBDALUU9xYyqfsIcYFeth54UV4lQ-THCZ-5fihXRkt8xnMgLr0LpFLT8p9qQpYqrZGS575EUB4EhDIZDA-uQ5ht7MI-NokUBNcGhQrGQL4PTM6inREPo072sm-4HLPzQ", "width": 2688}], "place_id": "ChIJmRUtNI9w44kRCe_d7oT3FXg", "plus_code": {"compound_code": "9W7V+4J Boston, Massachusetts, United States", "global_code": "87JC9W7V+4J"}, "rating": 5, "reference": "ChIJmRUtNI9w44kRCe_d7oT3FXg", "scope": "GOOGLE", "types": ["point_of_interest", "establishment"], "user_ratings_total": 1, "vicinity": "Cross Street, Boston"}, "ChIJzTOVxohw44kRys4pMI6bk3w": {"geometry": {"location": {"lat": 42.36265, "lng": -71.05460599999999}, "viewport": {"northeast": {"lat": 42.36396908029149, "lng": -71.05316631970848}, "southwest": {"lat": 42.3612711197085, "lng": -71.0558642802915}}}, "icon": "https://maps.gstatic.com/mapfiles/place_api/icons/school-71.png", "id": "ee65a599e7d97d1d7a7efa8b8727e2d8635138bf", "name": "North Bennet Street School", "opening_hours": {"open_now": true}, "photos": [{"height": 360, "html_attributions": ["<a href=\"https://maps.google.com/maps/contrib/107213871071755634845/photos\">North Bennet Street School</a>"], "photo_reference": "CmRaAAAAl6tqPDFjFqRKDf1H5PMMKESGoV6_hJalKlUbysWbwLAqfE445uJqSOmzlFMe34qrmMUMpFlbrb8S4l16N_F9-lv9fwN3xPfGZiCdG6ZM8RL08T2sdpCnegbeuJi2X1QrEhBBFjPxdKstaOmfe6SpAyJiGhSek-y8uvVnU4NtM9elwOdg2OwNJw", "width": 526}], "place_id": "ChIJzTOVxohw44kRys4pMI6bk3w", "plus_code": {"compound_code": "9W7W+35 Boston, Massachusetts, United States", "global_code": "87JC9W7W+35"}, "rating": 3.8, "reference": "ChIJzTOVxohw44kRys4pMI6bk3w", "scope": "GOOGLE", "types": ["point_of_interest", "establishment"], "user_ratings_total": 11, "vicinity": "150 North Street, Boston"}, "ChIJ2UGczYhw44kRDL7PfbX8jBw": {"geometry": {"location": {"lat": 42.36305279999999, "lng": -71.0554853}, "viewport": {"northeast": {"lat": 42.3643507302915, "lng": -71.0540464697085}, "southwest": {"lat": 42.3616527697085, "lng": -71.0567444302915}}}, "icon": "https://maps.gstatic.com/mapfiles/place_api/icons/atm-71.png", "id": "622ff779a312e9ce58ca5a6e5eec1d74fe22a3e2", "name": "Santander Bank ATM", "opening_hours": {"open_now": true}, "photos": [{"height": 2326, "html_attributions": ["<a href=\"https://maps.google.com/maps/contrib/109444628066490433429/photos\">Santander Bank ATM</a>"], "photo_reference": "CmRaAAAA7lOAWk52-jM_Y5bZpJ67KR9BzyNmBH8keDhZKjx7QtHO5f1pWXunuzJXrbo2IMmJE0Kg47N61-XYwzeypiTr9h99KFTxCNCbQmpo5PJvKnkLBMR6I22lqA8oweWOJ-3IEhCnkhNhU9Ima-W6bQr7Lbv0GhRTRaa9kRrVaF4bPaGIyVUwzj5nTQ", "width": 2326}], "place_id": "ChIJ2UGczYhw44kRDL7PfbX8jBw", "plus_code": {"compound_code": "9W7V+6R Boston, Massachusetts, United States", "global_code": "87JC9W7V+6R"}, "rating": 5, "reference": "ChIJ2UGczYhw44kRDL7PfbX8jBw", "scope": "GOOGLE", "types": ["atm", "insurance_agency", "finance", "point_of_interest", "establishment"], "user_ratings_total": 1, "vicinity": "218 Hanover Street, Boston"}, "ChIJzSY5yYhw44kRV22C6OCDvLU": {"geometry": {"location": {"lat": 42.3627443, "lng": -71.0552428}, "viewport": {"northeast": {"lat": 42.3641428302915, "lng": -71.0539810697085}, "southwest": {"lat": 42.3614448697085, "lng": -71.0566790302915}}}, "icon": "https://maps.gstatic.com/mapfiles/place_api/icons/generic_business-71.png", "id": "c039aee4b7cc1024a2ae66b595cb6f6ca0c4e9e5", "name": "The Black Dog Real Estate Group, LLC.", "place_id": "ChIJzSY5yYhw44kRV22C6OCDvLU", "plus_code": {"compound_code": "9W7V+3W Boston, Massachusetts, United States", "global_code": "87JC9W7V+3W"}, "reference": "ChIJzSY5yYhw44kRV22C6OCDvLU", "scope": "GOOGLE", "types": ["real_estate_agency", "point_of_interest", "establishment"], "vicinity": "215 Hanover Street, Boston"}, "ChIJTwh8xYhw44kRMcq03uNuWLk": {"geometry": {"location": {"lat": 42.36298, "lng": -71.0548644}, "viewport": {"northeast": {"lat": 42.3642446802915, "lng": -71.0536270197085}, "southwest": {"lat": 42.3615467197085, "lng": -71.0563249802915}}}, "icon": "https://maps.gstatic.com/mapfiles/place_api/icons/shopping-71.png", "id": "97d313276a148fad23fc60b38ab00217e82fb16b", "name": "Bricco Salumeria & Pasta Shop", "opening_hours": {"open_now": true}, "photos": [{"height": 3024, "html_attributions": ["<a href=\"https://maps.google.com/maps/contrib/101344562041706661184/photos\">Alex Wertz</a>"], "photo_reference": "CmRaAAAAXSVtJ_v-WeGGP13Sz-C3Kj1lnPeK7m_DsUzgDyab6usMdK9pm9HoOBqT0DuZgLpw8fobJLweGDt77sYoRo0S5Z4ko5f4ygoDsADfVgZh8oMtw7fO1QWSbH7dkK1yMXtYEhBa6VCkGHAQZFa80KgXdPOfGhQ3nER1n_jnirwJzvxgRLkm0Y6gcg", "width": 4032}], "place_id": "ChIJTwh8xYhw44kRMcq03uNuWLk", "plus_code": {"compound_code": "9W7W+53 Boston, Massachusetts, United States", "global_code": "87JC9W7W+53"}, "price_level": 2, "rating": 4.9, "reference": "ChIJTwh8xYhw44kRMcq03uNuWLk", "scope": "GOOGLE", "types": ["grocery_or_supermarket", "store", "restaurant", "point_of_interest", "food", "establishment"], "user_ratings_total": 64, "vicinity": "11 Board Alley, Boston"}, "ChIJvWFWyYhw44kREK72WPGS8IA": {"geometry": {"location": {"lat": 42.3627537, "lng": -71.0552089}, "viewport": {"northeast": {"lat": 42.3641565302915, "lng": -71.05395471970849}, "southwest": {"lat": 42.3614585697085, "lng": -71.0566526802915}}}, "icon": "https://maps.gstatic.com/mapfiles/place_api/icons/generic_business-71.png", "id": "d21038bdb5e878ea64a425709fbab84becdb928e", "name": "Dr. Sharanjot Mann, DMD", "place_id": "ChIJvWFWyYhw44kREK72WPGS8IA", "plus_code": {"compound_code": "9W7V+4W Boston, Massachusetts, United States", "global_code": "87JC9W7V+4W"}, "reference": "ChIJvWFWyYhw44kREK72WPGS8IA", "scope": "GOOGLE", "types": ["dentist", "health", "point_of_interest", "establishment"], "vicinity": "215 Hanover Street, Boston"}, "ChIJ2UGczYhw44kRKMjLDwLo9Qk": {"geometry": {"location": {"lat": 42.36309000000001, "lng": -71.0555165}, "viewport": {"northeast": {"lat": 42.3643789302915, "lng": -71.05405266970848}, "southwest": {"lat": 42.3616809697085, "lng": -71.05675063029149}}}, "icon": "https://maps.gstatic.com/mapfiles/place_api/icons/generic_business-71.png", "id": "0e3b0b48c81b3fef32a6cab54cacdcc60dbf6a87", "name": "MoneyGram", "opening_hours": {"open_now": true}, "photos": [{"height": 300, "html_attributions": ["<a href=\"https://maps.google.com/maps/contrib/103138289243667279869/photos\">MoneyGram</a>"], "photo_reference": "CmRaAAAAXiWtCxm1uH3aVFxjp_YrAs_eNnJMWGDrcueFjEnKKeJN1io2AIwBRpduMyTLFJ0RKfB3hofjkAnVhOiftYCtRmXQsM4oiYh2OffbkgsjG7vaWSNeGf4rFwRimsupO8n_EhDOhhxKbh9VAfmVjNr3hd13GhTB0OJZtz4oX0rkEdoIQ1mv3h3iuA", "width": 300}], "place_id": "ChIJ2UGczYhw44kRKMjLDwLo9Qk", "plus_code": {"compound_code": "9W7V+6Q Boston, Massachusetts, United States", "global_code": "87JC9W7V+6Q"}, "reference": "ChIJ2UGczYhw44kRKMjLDwLo9Qk", "scope": "GOOGLE", "types": ["finance", "point_of_interest", "establishment"], "vicinity": "218 Hanover Street, Boston"}, "ChIJfSkwuIhw44kRQ5pPh9n1Wis": {"geometry": {"location": {"lat": 42.36236409999999, "lng": -71.0548839}, "viewport": {"northeast": {"lat": 42.3636705802915, "lng": -71.05346311970848}, "southwest": {"lat": 42.3609726197085, "lng": -71.05616108029149}}}, "icon": "https://maps.gstatic.com/mapfiles/place_api/icons/generic_recreational-71.png", "id": "abf62199a08efd52d301a6f9a42970424c348c1a", "name": "North Street Park", "photos": [{"height": 2610, "html_attributions": ["<a href=\"https://maps.google.com/maps/contrib/108953566708679428149/photos\">Nehemoth</a>"], "photo_reference": "CmRaAAAAygNI-cawMkYPINW3zMoKvHQW_8w8_WmFpcEJsV6THjfjK7EQITVdC2ZL0Idt4QkBt6Et2rqHBhsP_hCWL3dBLRaKd2DH3X2DV3Ng4lSXf3TlgwvmoCDv5ibwcMrd_5i3EhBHhdfq6-B4WAmwU-EsLtvYGhSXTyaun6ZV2s8d5-7QuDvftpuVYQ", "width": 4640}], "place_id": "ChIJfSkwuIhw44kRQ5pPh9n1Wis", "plus_code": {"compound_code": "9W6W+W2 Boston, Massachusetts, United States", "global_code": "87JC9W6W+W2"}, "rating": 3, "reference": "ChIJfSkwuIhw44kRQ5pPh9n1Wis", "scope": "GOOGLE", "types": ["park", "point_of_interest", "establishment"], "user_ratings_total": 1, "vicinity": "Boston"}, "ChIJnb5vyYhw44kRTQzFiauVUVQ": {"geometry": {"location": {"lat": 42.3626999, "lng": -71.055295}, "viewport": {"northeast": {"lat": 42.3641022802915, "lng": -71.05402626970849}, "southwest": {"lat": 42.3614043197085, "lng": -71.05672423029151}}}, "icon": "https://maps.gstatic.com/mapfiles/place_api/icons/generic_business-71.png", "id": "eac43f5e3a016cfee6490d07a030aca60a454251", "name": "Jabour George R", "place_id": "ChIJnb5vyYhw44kRTQzFiauVUVQ", "plus_code": {"compound_code": "9W7V+3V Boston, Massachusetts, United States", "global_code": "87JC9W7V+3V"}, "reference": "ChIJnb5vyYhw44kRTQzFiauVUVQ", "scope": "GOOGLE", "types": ["lawyer", "point_of_interest", "establishment"], "vicinity": "213 Hanover Street, Boston"}, "ChIJnb5vyYhw44kRJ3oGtoy7lS0": {"geometry": {"location": {"lat": 42.3626999, "lng": -71.055295}, "viewport": {"northeast": {"lat": 42.3641022802915, "lng": -71.05402626970849}, "southwest": {"lat": 42.3614043197085, "lng": -71.05672423029151}}}, "icon": "https://maps.gstatic.com/mapfiles/place_api/icons/generic_business-71.png", "id": "21d3e2b6a09bceae0434a4ed19f0f231ee669257", "name": "Giglio Joseph CPA", "place_id": "ChIJnb5vyYhw44kRJ3oGtoy7lS0", "plus_code": {"compound_code": "9W7V+3V Boston, Massachusetts, United States", "global_code": "87JC9W7V+3V"}, "reference": "ChIJnb5vyYhw44kRJ3oGtoy7lS0", "scope": "GOOGLE", "types": ["accounting", "finance", "point_of_interest", "establishment"], "vicinity": "213 Hanover Street, Boston"}, "ChIJg09TyYhw44kRhEazIZGRnn0": {"geometry": {"location": {"lat": 42.3627443, "lng": -71.0552428}, "viewport": {"northeast": {"lat": 42.3641428302915, "lng": -71.0539810697085}, "southwest": {"lat": 42.3614448697085, "lng": -71.0566790302915}}}, "icon": "https://maps.gstatic.com/mapfiles/place_api/icons/generic_business-71.png", "id": "d5b79b9ce1e9abba9b1f3cfd73b33762ace8c195", "name": "Boston Emergency Dental", "opening_hours": {"open_now": true}, "place_id": "ChIJg09TyYhw44kRhEazIZGRnn0", "plus_code": {"compound_code": "9W7V+3W Boston, Massachusetts, United States", "global_code": "87JC9W7V+3W"}, "rating": 5, "reference": "ChIJg09TyYhw44kRhEazIZGRnn0", "scope": "GOOGLE", "types": ["dentist", "health", "point_of_interest", "establishment"], "user_ratings_total": 1, "vicinity": "215 Hanover Street #204, Boston"}, "ChIJvWFWyYhw44kRReHau1p-GCs": {"geometry": {"location": {"lat": 42.3627443, "lng": -71.0552428}, "viewport": {"northeast": {"lat": 42.3641428302915, "lng": -71.0539810697085}, "southwest": {"lat": 42.3614448697085, "lng": -71.0566790302915}}}, "icon": "https://maps.gstatic.com/mapfiles/place_api/icons/shopping-71.png", "id": "e0851233be5f36f9111eb172bfef6aa3331ee80f", "name": "New Age Psycic Studios", "place_id": "ChIJvWFWyYhw44kRReHau1p-GCs", "plus_code": {"compound_code": "9W7V+3W Boston, Massachusetts, United States", "global_code": "87JC9W7V+3W"}, "reference": "ChIJvWFWyYhw44kRReHau1p-GCs", "scope": "GOOGLE", "types": ["electronics_store", "home_goods_store", "store", "point_of_interest", "establishment"], "vicinity": "215 Hanover Street, Boston"}, "ChIJD0j9JrFx44kRuM9BR9Zgha4": {"geometry": {"location": {"lat": 42.362764, "lng": -71.0551855}, "viewport": {"northeast": {"lat": 42.36416913029149, "lng": -71.05393531970849}, "southwest": {"lat": 42.36147116970849, "lng": -71.05663328029149}}}, "icon": "https://maps.gstatic.com/mapfiles/place_api/icons/generic_business-71.png", "id": "624935aab6e2d81b6cfec4f75c9bfba21d67d0d2", "name": "Fulcrum East, LLC", "opening_hours": {"open_now": true}, "place_id": "ChIJD0j9JrFx44kRuM9BR9Zgha4", "plus_code": {"compound_code": "9W7V+4W Boston, Massachusetts, United States", "global_code": "87JC9W7V+4W"}, "reference": "ChIJD0j9JrFx44kRuM9BR9Zgha4", "scope": "GOOGLE", "types": ["point_of_interest", "establishment"], "vicinity": "217 Hanover Street, Boston"}, "ChIJxUopyYhw44kRiq21l6SyX_E": {"geometry": {"location": {"lat": 42.3627846, "lng": -71.0552285}, "viewport": {"northeast": {"lat": 42.3641782302915, "lng": -71.05395806970849}, "southwest": {"lat": 42.3614802697085, "lng": -71.05665603029149}}}, "icon": "https://maps.gstatic.com/mapfiles/place_api/icons/generic_business-71.png", "id": "04ee9e5898623d8cc1c4e3de09d22bc670abb26c", "name": "Numeric Advantage LLC", "photos": [{"height": 1724, "html_attributions": ["<a href=\"https://maps.google.com/maps/contrib/106842714050821395771/photos\">Numeric Advantage LLC</a>"], "photo_reference": "CmRaAAAAVbBUM7BYSy4_8ahEqd8L_jyt-U5K-CUzXeREJl-JoMxDftUra5I4ftQRejd_AyS5gAJt7IOG8O35o3Nd67Tdh_s3HReDAjYZzKSotN8_Zy7W0vSoEEUYyqUEQA6Kiho7EhB5dSD6ZDuW8y8HodMh-42TGhShfNheqsgu78Orp8WN-TWRlfvqkw", "width": 1729}], "place_id": "ChIJxUopyYhw44kRiq21l6SyX_E", "plus_code": {"compound_code": "9W7V+4W Boston, Massachusetts, United States", "global_code": "87JC9W7V+4W"}, "reference": "ChIJxUopyYhw44kRiq21l6SyX_E", "scope": "GOOGLE", "types": ["accounting", "finance", "point_of_interest", "establishment"], "vicinity": "217 Hanover Street #130316, Boston"}, "ChIJwSPHrqNx44kRdjPKdQC0XJM": {"geometry": {"location": {"lat": 42.3629151, "lng": -71.05498539999999}, "viewport": {"northeast": {"lat": 42.3642187302915, "lng": -71.05369646970848}, "southwest": {"lat": 42.3615207697085, "lng": -71.05639443029149}}}, "icon": "https://maps.gstatic.com/mapfiles/place_api/icons/generic_business-71.png", "id": "991a965de946629279dfc8e16be53caecbec5a66", "name": "Boston Stay", "place_id": "ChIJwSPHrqNx44kRdjPKdQC0XJM", "plus_code": {"compound_code": "9W7W+52 Boston, Massachusetts, United States", "global_code": "87JC9W7W+52"}, "reference": "ChIJwSPHrqNx44kRdjPKdQC0XJM", "scope": "GOOGLE", "types": ["spa", "point_of_interest", "establishment"], "vicinity": "BOST-0303292000, Boston"}}