{"ChIJ-RDogrB544kR5a8YmwlGrJk": {"geometry": {"location": {"lat": 42.3394644, "lng": -71.1331041}, "viewport": {"northeast": {"lat": 42.3408126802915, "lng": -71.13175511970849}, "southwest": {"lat": 42.3381147197085, "lng": -71.13445308029151}}}, "icon": "https://maps.gstatic.com/mapfiles/place_api/icons/geocode-71.png", "id": "fd840868ba9e1857d9cd36f31ad0604a9f8bcd31", "name": "Beacon Street", "place_id": "ChIJ-RDogrB544kR5a8YmwlGrJk", "reference": "ChIJ-RDogrB544kR5a8YmwlGrJk", "scope": "GOOGLE", "types": ["route"], "vicinity": "Brookline"}, "ChIJnb6IgrB544kRdcF3X1_k1OY": {"geometry": {"location": {"lat": 42.33911419999999, "lng": -71.1331033}, "viewport": {"northeast": {"lat": 42.34063828029149, "lng": -71.1317532697085}, "southwest": {"lat": 42.33794031970849, "lng": -71.1344512302915}}}, "icon": "https://maps.gstatic.com/mapfiles/place_api/icons/school-71.png", "id": "c421ededab7275333e53a49aba2947f6da59c7e9", "name": "Boston Graduate School of Psychoanalysis", "opening_hours": {"open_now": false}, "photos": [{"height": 449, "html_attributions": ["<a href=\"https://maps.google.com/maps/contrib/110666727518948556060/photos\">Boston Graduate School of Psychoanalysis</a>"], "photo_reference": "CmRaAAAAsNUTjVfmji0cV0_EAr1dxaRUXOQNuDRN9Iutcpk-Sz_4wa5axOsKqFwx-brlMZGjTShUF0zX0hqvQBt57KJTxGIBTsrbHhOLd0N1RO88CzxEfTchAiHqS2EaDRCjc1vzEhBp8ztDOZ1AaCc68ep-UFXFGhS8oXGgHNVniiuJVFLDIuoGn6A5kQ", "width": 600}], "place_id": "ChIJnb6IgrB544kRdcF3X1_k1OY", "plus_code": {"compound_code": "8VQ8+JQ Brookline, Massachusetts, United States", "global_code": "87JC8VQ8+JQ"}, "rating": 4.3, "reference": "ChIJnb6IgrB544kRdcF3X1_k1OY", "scope": "GOOGLE", "types": ["university", "health", "point_of_interest", "establishment"], "user_ratings_total": 11, "vicinity": "1581 Beacon Street, Brookline"}, "ChIJnb6IgrB544kRw3zlFrwloVs": {"geometry": {"location": {"lat": 42.3391329, "lng": -71.1331077}, "viewport": {"northeast": {"lat": 42.3404686802915, "lng": -71.13155736970849}, "southwest": {"lat": 42.3377707197085, "lng": -71.13425533029151}}}, "icon": "https://maps.gstatic.com/mapfiles/place_api/icons/generic_business-71.png", "id": "acf6540aacb26885b48ff92b88993ca08f030605", "name": "Lauren E. O'sullivan, MA", "place_id": "ChIJnb6IgrB544kRw3zlFrwloVs", "plus_code": {"compound_code": "8VQ8+MQ Brookline, Massachusetts, United States", "global_code": "87JC8VQ8+MQ"}, "reference": "ChIJnb6IgrB544kRw3zlFrwloVs", "scope": "GOOGLE", "types": ["doctor", "health", "point_of_interest", "establishment"], "vicinity": "1581 Beacon Street, Brookline, MA 02446, Brookline"}, "ChIJnb6IgrB544kR3y3TMiE1e5U": {"geometry": {"location": {"lat": 42.3392944, "lng": -71.1330464}, "viewport": {"northeast": {"lat": 42.34072828029149, "lng": -71.13169691970849}, "southwest": {"lat": 42.33803031970849, "lng": -71.13439488029151}}}, "icon": "https://maps.gstatic.com/mapfiles/place_api/icons/generic_business-71.png", "id": "153589c6302a288548f711b781c8f209811b63ef", "name": "Russell W. Lowe Psychotherapy", "photos": [{"height": 480, "html_attributions": ["<a href=\"https://maps.google.com/maps/contrib/101940994512622281561/photos\">Russell W. Lowe Psychotherapy</a>"], "photo_reference": "CmRaAAAAZPPCSefisa3mJILTg8hiT30b-QtmzLSJASiidygsErzjylKzj5nycAsBoch8BACnFTksN2exQ2_3BvGBhhyfk_goXvseb5qs7FgBm5SEP03MCcViZ-XYHdOHq6f8nO0IEhDABA_pC49uaKJkI_paYBZ0GhSOHFXtosWWBwJAl_fLbvFdWeKSvw", "width": 640}], "place_id": "ChIJnb6IgrB544kR3y3TMiE1e5U", "plus_code": {"compound_code": "8VQ8+PQ Brookline, Massachusetts, United States", "global_code": "87JC8VQ8+PQ"}, "reference": "ChIJnb6IgrB544kR3y3TMiE1e5U", "scope": "GOOGLE", "types": ["doctor", "health", "point_of_interest", "establishment"], "vicinity": "1581 Beacon Street, Brookline"}, "ChIJi72ihbB544kRzF0Hky8VaTw": {"geometry": {"location": {"lat": 42.3391141, "lng": -71.1331033}, "viewport": {"northeast": {"lat": 42.3406382302915, "lng": -71.1317532697085}, "southwest": {"lat": 42.3379402697085, "lng": -71.1344512302915}}}, "icon": "https://maps.gstatic.com/mapfiles/place_api/icons/generic_business-71.png", "id": "9982415dcb7e07975a0cc0cdf8e830d0912cfaf4", "name": "C W Management Inc", "opening_hours": {"open_now": false}, "place_id": "ChIJi72ihbB544kRzF0Hky8VaTw", "plus_code": {"compound_code": "8VQ8+JQ Brookline, Massachusetts, United States", "global_code": "87JC8VQ8+JQ"}, "rating": 5, "reference": "ChIJi72ihbB544kRzF0Hky8VaTw", "scope": "GOOGLE", "types": ["point_of_interest", "establishment"], "user_ratings_total": 1, "vicinity": "1583 Beacon Street, Brookline"}, "ChIJi72ihbB544kRBuKMW9-TRqQ": {"geometry": {"location": {"lat": 42.339273, "lng": -71.1329099}, "viewport": {"northeast": {"lat": 42.3407173302915, "lng": -71.1315603697085}, "southwest": {"lat": 42.3380193697085, "lng": -71.1342583302915}}}, "icon": "https://maps.gstatic.com/mapfiles/place_api/icons/generic_business-71.png", "id": "de51c7a8ec854bc0cf1213b64918de2568de5be0", "name": "Professional Profiles", "place_id": "ChIJi72ihbB544kRBuKMW9-TRqQ", "plus_code": {"compound_code": "8VQ8+PR Brookline, Massachusetts, United States", "global_code": "87JC8VQ8+PR"}, "reference": "ChIJi72ihbB544kRBuKMW9-TRqQ", "scope": "GOOGLE", "types": ["health", "point_of_interest", "establishment"], "vicinity": "1577 Beacon Street, Brookline"}, "ChIJnb6IgrB544kRkjiE2SI0QGs": {"geometry": {"location": {"lat": 42.3391329, "lng": -71.1331077}, "viewport": {"northeast": {"lat": 42.3406476302915, "lng": -71.13175771970849}, "southwest": {"lat": 42.3379496697085, "lng": -71.1344556802915}}}, "icon": "https://maps.gstatic.com/mapfiles/place_api/icons/generic_business-71.png", "id": "c6fb22ec80d90714bb3ea9248a5075109bfc5735", "name": "Jill E. Solomon, LICSW", "place_id": "ChIJnb6IgrB544kRkjiE2SI0QGs", "plus_code": {"compound_code": "8VQ8+MQ Brookline, Massachusetts, United States", "global_code": "87JC8VQ8+MQ"}, "reference": "ChIJnb6IgrB544kRkjiE2SI0QGs", "scope": "GOOGLE", "types": ["doctor", "health", "point_of_interest", "establishment"], "vicinity": "1581 Beacon Street, Brookline"}, "ChIJeV-gkrB544kR9X1p0nDh6Pw": {"geometry": {"location": {"lat": 42.33921309999999, "lng": -71.13347139999999}, "viewport": {"northeast": {"lat": 42.34068833029149, "lng": -71.1321216697085}, "southwest": {"lat": 42.33799036970849, "lng": -71.1348196302915}}}, "icon": "https://maps.gstatic.com/mapfiles/place_api/icons/generic_business-71.png", "id": "8832e20e3dca2d86d3fd178caeb3de66cb89960d", "name": "Boston Town Properties", "photos": [{"height": 1847, "html_attributions": ["<a href=\"https://maps.google.com/maps/contrib/109800720329757498384/photos\">Ronan Wolfsdorf</a>"], "photo_reference": "CmRaAAAAvHMw_Ht9X1Hk_Y1uXHh7jKxfctRQsJcHrn0L4SsvndL14J5brvEv7PuS9HkpUzcOC8hpG5axxSqUnMMtwVTaIPMgYGUtt3oMTraa7P9qB_1e9GOhibdX9ZWK3pCE9AS_EhCB65pNll-lCmcbW3BZVPsNGhRjqFW7ifTnLdOqWamcvFxhyWTARg", "width": 1174}], "place_id": "ChIJeV-gkrB544kR9X1p0nDh6Pw", "plus_code": {"compound_code": "8VQ8+MJ Brookline, Massachusetts, United States", "global_code": "87JC8VQ8+MJ"}, "reference": "ChIJeV-gkrB544kR9X1p0nDh6Pw", "scope": "GOOGLE", "types": ["real_estate_agency", "point_of_interest", "establishment"], "vicinity": "1577 Beacon Street, Brookline"}, "ChIJK5vqgrB544kRCnTHCpjHbOQ": {"geometry": {"location": {"lat": 42.3392944, "lng": -71.1330467}, "viewport": {"northeast": {"lat": 42.34072828029149, "lng": -71.13169721970849}, "southwest": {"lat": 42.33803031970849, "lng": -71.1343951802915}}}, "icon": "https://maps.gstatic.com/mapfiles/place_api/icons/generic_business-71.png", "id": "018271b6732b9a4c7350882eab617be0460efc8e", "name": "Boston Group Therapy", "place_id": "ChIJK5vqgrB544kRCnTHCpjHbOQ", "plus_code": {"compound_code": "8VQ8+PQ Brookline, Massachusetts, United States", "global_code": "87JC8VQ8+PQ"}, "reference": "ChIJK5vqgrB544kRCnTHCpjHbOQ", "scope": "GOOGLE", "types": ["health", "point_of_interest", "establishment"], "vicinity": "5 Walpole Street, Norwood"}, "ChIJz7u3jrB544kR9cpUcFCwXbs": {"geometry": {"location": {"lat": 42.3392434, "lng": -71.1337576}, "viewport": {"northeast": {"lat": 42.3406996302915, "lng": -71.1324402697085}, "southwest": {"lat": 42.3380016697085, "lng": -71.13513823029152}}}, "icon": "https://maps.gstatic.com/mapfiles/place_api/icons/generic_business-71.png", "id": "eb10830aaff2c28b60fb5274759f2aa620bd01ef", "name": "SKM Title & Closing Services", "place_id": "ChIJz7u3jrB544kR9cpUcFCwXbs", "plus_code": {"compound_code": "8VQ8+MF Brookline, Massachusetts, United States", "global_code": "87JC8VQ8+MF"}, "rating": 5, "reference": "ChIJz7u3jrB544kR9cpUcFCwXbs", "scope": "GOOGLE", "types": ["real_estate_agency", "insurance_agency", "lawyer", "point_of_interest", "establishment"], "user_ratings_total": 4, "vicinity": "1583 Beacon Street, Brookline"}, "ChIJCYCs_HqC44kR7Lh30SM2-vw": {"geometry": {"location": {"lat": 42.339273, "lng": -71.1329099}, "viewport": {"northeast": {"lat": 42.3407173302915, "lng": -71.1315603697085}, "southwest": {"lat": 42.3380193697085, "lng": -71.1342583302915}}}, "icon": "https://maps.gstatic.com/mapfiles/place_api/icons/generic_business-71.png", "id": "6f75e20c5bff8cddfef290a4cab2d3b5de08610d", "name": "Jack Foehl, Ph.D.", "photos": [{"height": 998, "html_attributions": ["<a href=\"https://maps.google.com/maps/contrib/102557946517745650011/photos\">Jack Foehl, Ph.D.</a>"], "photo_reference": "CmRaAAAA6CYDyZq42KFN5dCkyzpw4e3xgSxsSPNv8hyPYtpCg4pTZvVH8JMBGGyjVM6yP3zNmv-JARqCpaJBtlox5UHyfHz9b-yJ4itSCOh_GDArwwaujPwp5SxBF_5gHg7_3sySEhBfLpP9pIcEmoX-AZADLUhZGhSz4x_vITPDkf0Y0sRTtZmZB24GwQ", "width": 1500}], "place_id": "ChIJCYCs_HqC44kR7Lh30SM2-vw", "plus_code": {"compound_code": "8VQ8+PR Brookline, Massachusetts, United States", "global_code": "87JC8VQ8+PR"}, "reference": "ChIJCYCs_HqC44kR7Lh30SM2-vw", "scope": "GOOGLE", "types": ["health", "point_of_interest", "establishment"], "vicinity": "1577 Beacon Street, Brookline"}, "ChIJKQucBKd544kRatDN2sqW_6k": {"geometry": {"location": {"lat": 42.33922309999999, "lng": -71.13314129999999}, "viewport": {"northeast": {"lat": 42.3406927802915, "lng": -71.1317916197085}, "southwest": {"lat": 42.3379948197085, "lng": -71.1344895802915}}}, "icon": "https://maps.gstatic.com/mapfiles/place_api/icons/worship_general-71.png", "id": "007512ed68e9ff67f984fa570ed92f6c67896fa1", "name": "Unity In The City", "place_id": "ChIJKQucBKd544kRatDN2sqW_6k", "plus_code": {"compound_code": "8VQ8+MP Brookline, Massachusetts, United States", "global_code": "87JC8VQ8+MP"}, "rating": 4.5, "reference": "ChIJKQucBKd544kRatDN2sqW_6k", "scope": "GOOGLE", "types": ["church", "place_of_worship", "point_of_interest", "establishment"], "user_ratings_total": 2, "vicinity": "1581 Beacon Street, Brookline"}, "ChIJi76IgrB544kR5vZxDbdCemM": {"geometry": {"location": {"lat": 42.3392944, "lng": -71.1330464}, "viewport": {"northeast": {"lat": 42.34072828029149, "lng": -71.13169691970849}, "southwest": {"lat": 42.33803031970849, "lng": -71.13439488029151}}}, "icon": "https://maps.gstatic.com/mapfiles/place_api/icons/generic_business-71.png", "id": "3fadbed535702659198dc7383bbf2f2a495725c4", "name": "SJSmith Counseling", "photos": [{"height": 640, "html_attributions": ["<a href=\"https://maps.google.com/maps/contrib/106424986144809443591/photos\">SJSmith Counseling</a>"], "photo_reference": "CmRaAAAA2_Ni1HPNQHdjjeEYdgfEPQsIGcUtgiGbDMJNc64I1iXi9QviCMCZsHXgHdGcN5IzWCNM1sI_hTNaX29WyB8cKdDK_pbotnzYX9nIYzvu8Flr9_ZvNb8k_wkauzilXPUjEhAlkQI3vUuEH_HeTXCgzvPpGhSR2cx9i2IEc0PlHZmMt5BD9V9jgQ", "width": 480}], "place_id": "ChIJi76IgrB544kR5vZxDbdCemM", "plus_code": {"compound_code": "8VQ8+PQ Brookline, Massachusetts, United States", "global_code": "87JC8VQ8+PQ"}, "reference": "ChIJi76IgrB544kR5vZxDbdCemM", "scope": "GOOGLE", "types": ["health", "point_of_interest", "establishment"], "vicinity": "1581 Beacon Street, Brookline"}, "ChIJnb6IgrB544kRohBsLlVbVjI": {"geometry": {"location": {"lat": 42.33922750000001, "lng": -71.1331802}, "viewport": {"northeast": {"lat": 42.3406950302915, "lng": -71.1318305197085}, "southwest": {"lat": 42.3379970697085, "lng": -71.13452848029151}}}, "icon": "https://maps.gstatic.com/mapfiles/place_api/icons/generic_business-71.png", "id": "becde10484f8adcf3890b6e9b92522c987961e57", "name": "Soldz Stephen M PhD", "place_id": "ChIJnb6IgrB544kRohBsLlVbVjI", "plus_code": {"compound_code": "8VQ8+MP Brookline, Massachusetts, United States", "global_code": "87JC8VQ8+MP"}, "reference": "ChIJnb6IgrB544kRohBsLlVbVjI", "scope": "GOOGLE", "types": ["health", "point_of_interest", "establishment"], "vicinity": "1581 Beacon Street, Brookline"}, "ChIJnb6IgrB544kR3pGkP_5VsQg": {"geometry": {"location": {"lat": 42.3391329, "lng": -71.1331077}, "viewport": {"northeast": {"lat": 42.3404686802915, "lng": -71.13155736970849}, "southwest": {"lat": 42.3377707197085, "lng": -71.13425533029151}}}, "icon": "https://maps.gstatic.com/mapfiles/place_api/icons/generic_business-71.png", "id": "de9d0909b1683bdf3da937d3060f54e972ac1294", "name": "Ernest O. Fonseca, MED", "place_id": "ChIJnb6IgrB544kR3pGkP_5VsQg", "plus_code": {"compound_code": "8VQ8+MQ Brookline, Massachusetts, United States", "global_code": "87JC8VQ8+MQ"}, "reference": "ChIJnb6IgrB544kR3pGkP_5VsQg", "scope": "GOOGLE", "types": ["health", "point_of_interest", "establishment"], "vicinity": "1581 Beacon Street, Brookline, MA 02446, Brookline"}, "ChIJnb6IgrB544kR68-phyVqt_U": {"geometry": {"location": {"lat": 42.3392944, "lng": -71.1330464}, "viewport": {"northeast": {"lat": 42.34072828029149, "lng": -71.13169691970849}, "southwest": {"lat": 42.33803031970849, "lng": -71.13439488029151}}}, "icon": "https://maps.gstatic.com/mapfiles/place_api/icons/generic_business-71.png", "id": "e73abc3e0d4c365dc85acf2fb2aaa216b7469eb4", "name": "Jane C. Snyder, PhD", "place_id": "ChIJnb6IgrB544kR68-phyVqt_U", "plus_code": {"compound_code": "8VQ8+PQ Brookline, Massachusetts, United States", "global_code": "87JC8VQ8+PQ"}, "reference": "ChIJnb6IgrB544kR68-phyVqt_U", "scope": "GOOGLE", "types": ["doctor", "health", "point_of_interest", "establishment"], "vicinity": "1581 Beacon Street, Brookline"}, "ChIJnb6IgrB544kR9VI1erOM06g": {"geometry": {"location": {"lat": 42.3392944, "lng": -71.1330464}, "viewport": {"northeast": {"lat": 42.34072828029149, "lng": -71.13169691970849}, "southwest": {"lat": 42.33803031970849, "lng": -71.13439488029151}}}, "icon": "https://maps.gstatic.com/mapfiles/place_api/icons/generic_business-71.png", "id": "270b42296138863b4d305991143824d5b100a68a", "name": "Dr Sherry Ceridan", "opening_hours": {"open_now": true}, "place_id": "ChIJnb6IgrB544kR9VI1erOM06g", "plus_code": {"compound_code": "8VQ8+PQ Brookline, Massachusetts, United States", "global_code": "87JC8VQ8+PQ"}, "reference": "ChIJnb6IgrB544kR9VI1erOM06g", "scope": "GOOGLE", "types": ["health", "point_of_interest", "establishment"], "vicinity": "1581 Beacon Street, Brookline"}, "ChIJnb6IgrB544kRlnI3QqkXBcA": {"geometry": {"location": {"lat": 42.3392944, "lng": -71.1330464}, "viewport": {"northeast": {"lat": 42.34072828029149, "lng": -71.13169691970849}, "southwest": {"lat": 42.33803031970849, "lng": -71.13439488029151}}}, "icon": "https://maps.gstatic.com/mapfiles/place_api/icons/generic_business-71.png", "id": "7cd05c0cedfb1567e957f89169bc1aa62c28d3e3", "name": "Marjorie E. Kettell, PHD", "place_id": "ChIJnb6IgrB544kRlnI3QqkXBcA", "plus_code": {"compound_code": "8VQ8+PQ Brookline, Massachusetts, United States", "global_code": "87JC8VQ8+PQ"}, "reference": "ChIJnb6IgrB544kRlnI3QqkXBcA", "scope": "GOOGLE", "types": ["doctor", "health", "point_of_interest", "establishment"], "vicinity": "1581 Beacon Street, Brookline"}, "ChIJq6q6gbB544kRERSENjZPNqw": {"geometry": {"location": {"lat": 42.3391329, "lng": -71.1331077}, "viewport": {"northeast": {"lat": 42.3406476302915, "lng": -71.13175771970849}, "southwest": {"lat": 42.3379496697085, "lng": -71.1344556802915}}}, "icon": "https://maps.gstatic.com/mapfiles/place_api/icons/generic_business-71.png", "id": "002a2c376e220617287902bc4f5432e3a025529b", "name": "Adam Ayala", "place_id": "ChIJq6q6gbB544kRERSENjZPNqw", "plus_code": {"compound_code": "8VQ8+MQ Brookline, Massachusetts, United States", "global_code": "87JC8VQ8+MQ"}, "reference": "ChIJq6q6gbB544kRERSENjZPNqw", "scope": "GOOGLE", "types": ["health", "point_of_interest", "establishment"], "vicinity": "1581 Beacon Street, Brookline"}, "ChIJhZirQQB544kRB9LbXEfedZQ": {"geometry": {"location": {"lat": 42.33176419999999, "lng": -71.1211635}, "viewport": {"northeast": {"lat": 42.3518109, "lng": -71.1056969}, "southwest": {"lat": 42.29459689999999, "lng": -71.1789959}}}, "icon": "https://maps.gstatic.com/mapfiles/place_api/icons/geocode-71.png", "id": "92986b2d1f69af2f2a7e29d34ced8adfa8573beb", "name": "Brookline", "photos": [{"height": 651, "html_attributions": ["<a href=\"https://maps.google.com/maps/contrib/114772942214832951419/photos\">Michael Ahn</a>"], "photo_reference": "CmRaAAAA5vsIwx_yoAVtJakipTnfx8Cu2SuHZxZ13jLml5h1pX8J17_EO6FI6j9tQP5ezrxzDcsyFhAcj9rKqrmxusprYmB7XUWybqkJiWtD-X8dmTlSteVmr10I_BOm-tsUYu8GEhCRCfPzXMqgiqNCb33RcQh1GhRaHvaIC0VxwWYgl5vnlKpz20Bk6Q", "width": 1608}], "place_id": "ChIJhZirQQB544kRB9LbXEfedZQ", "reference": "ChIJhZirQQB544kRB9LbXEfedZQ", "scope": "GOOGLE", "types": ["locality", "political"], "vicinity": "Brookline"}, "ChIJnb6IgrB544kRga5uym4IXnw": {"geometry": {"location": {"lat": 42.3392944, "lng": -71.1330464}, "viewport": {"northeast": {"lat": 42.34072828029149, "lng": -71.13169691970849}, "southwest": {"lat": 42.33803031970849, "lng": -71.13439488029151}}}, "icon": "https://maps.gstatic.com/mapfiles/place_api/icons/generic_business-71.png", "id": "a18d9cfe3287dca62f0bb73526748a7effefd053", "name": "Audrey M. Jones, PhD", "place_id": "ChIJnb6IgrB544kRga5uym4IXnw", "plus_code": {"compound_code": "8VQ8+PQ Brookline, Massachusetts, United States", "global_code": "87JC8VQ8+PQ"}, "reference": "ChIJnb6IgrB544kRga5uym4IXnw", "scope": "GOOGLE", "types": ["doctor", "health", "point_of_interest", "establishment"], "vicinity": "1581 Beacon Street, Brookline"}, "ChIJz7u3jrB544kR_Rcz8pZb1FA": {"geometry": {"location": {"lat": 42.33923230000001, "lng": -71.134129}, "viewport": {"northeast": {"lat": 42.34060178029149, "lng": -71.1328690197085}, "southwest": {"lat": 42.33790381970849, "lng": -71.13556698029151}}}, "icon": "https://maps.gstatic.com/mapfiles/place_api/icons/generic_business-71.png", "id": "1a21d546d2888b1a68fb56400a9f950db3c903e0", "name": "Barkman Realty Group", "place_id": "ChIJz7u3jrB544kR_Rcz8pZb1FA", "plus_code": {"compound_code": "8VQ8+M8 Brookline, Massachusetts, United States", "global_code": "87JC8VQ8+M8"}, "reference": "ChIJz7u3jrB544kR_Rcz8pZb1FA", "scope": "GOOGLE", "types": ["point_of_interest", "establishment"], "vicinity": "1583 Beacon Street, Brookline"}, "ChIJz7u3jrB544kRt9FJgmTIwoc": {"geometry": {"location": {"lat": 42.33923230000001, "lng": -71.134129}, "viewport": {"northeast": {"lat": 42.34060178029149, "lng": -71.1328690197085}, "southwest": {"lat": 42.33790381970849, "lng": -71.13556698029151}}}, "icon": "https://maps.gstatic.com/mapfiles/place_api/icons/generic_business-71.png", "id": "376a8992ffd04648bc6a966e44a76ba205fb54d2", "name": "Chapin Properties Team Ltd", "opening_hours": {"open_now": true}, "place_id": "ChIJz7u3jrB544kRt9FJgmTIwoc", "plus_code": {"compound_code": "8VQ8+M8 Brookline, Massachusetts, United States", "global_code": "87JC8VQ8+M8"}, "rating": 2.3, "reference": "ChIJz7u3jrB544kRt9FJgmTIwoc", "scope": "GOOGLE", "types": ["real_estate_agency", "point_of_interest", "establishment"], "user_ratings_total": 3, "vicinity": "1583 Beacon Street, Brookline"}, "ChIJz7u3jrB544kRaBmAFbQtlY4": {"geometry": {"location": {"lat": 42.33923230000001, "lng": -71.134129}, "viewport": {"northeast": {"lat": 42.34060178029149, "lng": -71.1328690197085}, "southwest": {"lat": 42.33790381970849, "lng": -71.13556698029151}}}, "icon": "https://maps.gstatic.com/mapfiles/place_api/icons/generic_business-71.png", "id": "a9c010bc885de5629ee737824cdc51de44fba151", "name": "Repeat Real Estate Inc", "place_id": "ChIJz7u3jrB544kRaBmAFbQtlY4", "plus_code": {"compound_code": "8VQ8+M8 Brookline, Massachusetts, United States", "global_code": "87JC8VQ8+M8"}, "reference": "ChIJz7u3jrB544kRaBmAFbQtlY4", "scope": "GOOGLE", "types": ["real_estate_agency", "point_of_interest", "establishment"], "vicinity": "1583 Beacon Street, Brookline"}, "ChIJmxLTr6J544kRf-MZr3891JM": {"geometry": {"location": {"lat": 42.3394152, "lng": -71.1335641}, "viewport": {"northeast": {"lat": 42.3407831802915, "lng": -71.1322153697085}, "southwest": {"lat": 42.3380852197085, "lng": -71.13491333029151}}}, "icon": "https://maps.gstatic.com/mapfiles/place_api/icons/generic_business-71.png", "id": "5b8dc80c62e5c22c9992fb681b85fe96cdd289d6", "name": "Maria Luisa Victoria, PHD", "place_id": "ChIJmxLTr6J544kRf-MZr3891JM", "plus_code": {"compound_code": "8VQ8+QH Brookline, Massachusetts, United States", "global_code": "87JC8VQ8+QH"}, "reference": "ChIJmxLTr6J544kRf-MZr3891JM", "scope": "GOOGLE", "types": ["doctor", "health", "point_of_interest", "establishment"], "vicinity": "1577 Beacon Street, Brookline"}, "ChIJhw-uiLB544kRrmFeVJMG8Sg": {"geometry": {"location": {"lat": 42.33933390000001, "lng": -71.1337547}, "viewport": {"northeast": {"lat": 42.3407459802915, "lng": -71.13241041970849}, "southwest": {"lat": 42.3380480197085, "lng": -71.1351083802915}}}, "icon": "https://maps.gstatic.com/mapfiles/place_api/icons/generic_business-71.png", "id": "96daf4323de9edc64d07a0d96d460c1561006995", "name": "1589-1595 Beacon Apartments", "place_id": "ChIJhw-uiLB544kRrmFeVJMG8Sg", "plus_code": {"compound_code": "8VQ8+PF Brookline, Massachusetts, United States", "global_code": "87JC8VQ8+PF"}, "reference": "ChIJhw-uiLB544kRrmFeVJMG8Sg", "scope": "GOOGLE", "types": ["point_of_interest", "establishment"], "vicinity": "1589-1595 Beacon Street, Brookline"}, "ChIJhe9koKJ544kRR941BTJ8M7c": {"geometry": {"location": {"lat": 42.3391923, "lng": -71.1331522}, "viewport": {"northeast": {"lat": 42.3406773802915, "lng": -71.13180241970849}, "southwest": {"lat": 42.3379794197085, "lng": -71.1345003802915}}}, "icon": "https://maps.gstatic.com/mapfiles/place_api/icons/generic_business-71.png", "id": "041b89aae9e9966ae89c271335589f6f3fba1d02", "name": "STARS of Boston - Short Term Apartment Rental Solutions", "opening_hours": {"open_now": true}, "photos": [{"height": 542, "html_attributions": ["<a href=\"https://maps.google.com/maps/contrib/114184357850033786507/photos\">STARS of Boston - Short Term Apartment Rental Solutions</a>"], "photo_reference": "CmRaAAAANLiNvVyJQ2bpPk7xf6T6KNc8iPo0DkkpTTZC424tiOsJW8ldoVXS0ajGlWQTdZPfFLCy6XrSuC22GHVrVtaiwdX9rk0J4SMskY75Tv0g6xzG3HTV1mmKVnHlJ1bK2ghOEhCvt_wH4c8n_bZVVcAnTBusGhTIaA99U7b4bSgL1Thhb1gIztSJ6w", "width": 528}], "place_id": "ChIJhe9koKJ544kRR941BTJ8M7c", "plus_code": {"compound_code": "8VQ8+MP Brookline, Massachusetts, United States", "global_code": "87JC8VQ8+MP"}, "reference": "ChIJhe9koKJ544kRR941BTJ8M7c", "scope": "GOOGLE", "types": ["real_estate_agency", "point_of_interest", "establishment"], "vicinity": "1583 Beacon Street, Brookline"}, "ChIJqaq6gbB544kRq6IRGHFuSto": {"geometry": {"location": {"lat": 42.3391329, "lng": -71.1331076}, "viewport": {"northeast": {"lat": 42.3406476302915, "lng": -71.1317576197085}, "southwest": {"lat": 42.3379496697085, "lng": -71.1344555802915}}}, "icon": "https://maps.gstatic.com/mapfiles/place_api/icons/generic_business-71.png", "id": "9f8404155bfe669d57c5cd4ee79c31df2a87209b", "name": "Dr. Leila Karam, Psya.D, LMHC, LADC I", "place_id": "ChIJqaq6gbB544kRq6IRGHFuSto", "plus_code": {"compound_code": "8VQ8+MQ Brookline, Massachusetts, United States", "global_code": "87JC8VQ8+MQ"}, "reference": "ChIJqaq6gbB544kRq6IRGHFuSto", "scope": "GOOGLE", "types": ["health", "point_of_interest", "establishment"], "vicinity": "1581 Beacon Street, Brookline"}, "ChIJCSRyg7B544kR588Da8DyNPg": {"geometry": {"location": {"lat": 42.3391141, "lng": -71.1331033}, "viewport": {"northeast": {"lat": 42.3406382302915, "lng": -71.1317532697085}, "southwest": {"lat": 42.3379402697085, "lng": -71.1344512302915}}}, "icon": "https://maps.gstatic.com/mapfiles/place_api/icons/generic_business-71.png", "id": "8d35fab63ccac3059f82efefb39f330beeee9793", "name": "Narovlansky Law", "opening_hours": {"open_now": true}, "photos": [{"height": 1836, "html_attributions": ["<a href=\"https://maps.google.com/maps/contrib/109034692835004071198/photos\">Narovlansky Law</a>"], "photo_reference": "CmRaAAAAyH0RHfURUy7mFJ-BCDaTu_ty9QSrJ6fANh2lVuyoH76agREyM_MNwZy2-zb8HcLry5CLBUZ5K2L6K8-Uv0xRevwL-4xQHjZzRV9M83qgu2TQN2MwrnVoVFLeDz4yAX12EhDRrrUedq7mYFYU4Y3QPoqjGhQugDCW7xsF6d6SYqeNTDp6jCxHxw", "width": 3264}], "place_id": "ChIJCSRyg7B544kR588Da8DyNPg", "plus_code": {"compound_code": "8VQ8+JQ Brookline, Massachusetts, United States", "global_code": "87JC8VQ8+JQ"}, "rating": 5, "reference": "ChIJCSRyg7B544kR588Da8DyNPg", "scope": "GOOGLE", "types": ["point_of_interest", "establishment"], "user_ratings_total": 1, "vicinity": "1583 Beacon Street, Brookline"}, "ChIJCSRyg7B544kRBznrtMAQr2c": {"geometry": {"location": {"lat": 42.3391141, "lng": -71.1331033}, "viewport": {"northeast": {"lat": 42.3406382302915, "lng": -71.1317532697085}, "southwest": {"lat": 42.3379402697085, "lng": -71.1344512302915}}}, "icon": "https://maps.gstatic.com/mapfiles/place_api/icons/generic_business-71.png", "id": "68a3eb94dfd27cfdeef789769dc0ab7201311285", "name": "Kama H. Cicero", "place_id": "ChIJCSRyg7B544kRBznrtMAQr2c", "plus_code": {"compound_code": "8VQ8+JQ Brookline, Massachusetts, United States", "global_code": "87JC8VQ8+JQ"}, "rating": 3, "reference": "ChIJCSRyg7B544kRBznrtMAQr2c", "scope": "GOOGLE", "types": ["real_estate_agency", "point_of_interest", "establishment"], "user_ratings_total": 2, "vicinity": "1583 Beacon Street, Brookline"}, "ChIJi72ihbB544kRLRI3mYFe6TI": {"geometry": {"location": {"lat": 42.339273, "lng": -71.1329099}, "viewport": {"northeast": {"lat": 42.3407173302915, "lng": -71.1315603697085}, "southwest": {"lat": 42.3380193697085, "lng": -71.1342583302915}}}, "icon": "https://maps.gstatic.com/mapfiles/place_api/icons/generic_business-71.png", "id": "2d3fa88c22d715360132aa6fdecb6be306bed17b", "name": "Melikian Karen", "place_id": "ChIJi72ihbB544kRLRI3mYFe6TI", "plus_code": {"compound_code": "8VQ8+PR Brookline, Massachusetts, United States", "global_code": "87JC8VQ8+PR"}, "reference": "ChIJi72ihbB544kRLRI3mYFe6TI", "scope": "GOOGLE", "types": ["doctor", "health", "point_of_interest", "establishment"], "vicinity": "1577 Beacon Street, Brookline"}, "ChIJAQAAALF544kR1dUonsIE1sg": {"geometry": {"location": {"lat": 42.339273, "lng": -71.1329099}, "viewport": {"northeast": {"lat": 42.3407173302915, "lng": -71.1315603697085}, "southwest": {"lat": 42.3380193697085, "lng": -71.1342583302915}}}, "icon": "https://maps.gstatic.com/mapfiles/place_api/icons/school-71.png", "id": "f72cf063790dff3a6d5cf3a17b98417de1efe819", "name": "Divya Jyoti Yoga Therapy Center", "opening_hours": {"open_now": true}, "photos": [{"height": 960, "html_attributions": ["<a href=\"https://maps.google.com/maps/contrib/114969063145747738430/photos\">Divya Jyoti Yoga Therapy Center</a>"], "photo_reference": "CmRaAAAAviPzJlH1j0cBbjmKBVJCITl1_s7UG9L1m4kfT8Y4_C7twp_BIATaEZJC3MtTBJVGKDPJjqItBqKyHxxfsX9JA_Ge-TO006ZBNEsL7VjtpfjwsQSXkhZp0P4bTiXdOPP2EhBzR6FinVSuCGVzS2dZYOmaGhTA8b-fDImOBRXGeaQ-gzhNSd4Bhg", "width": 720}], "place_id": "ChIJAQAAALF544kR1dUonsIE1sg", "plus_code": {"compound_code": "8VQ8+PR Brookline, Massachusetts, United States", "global_code": "87JC8VQ8+PR"}, "rating": 5, "reference": "ChIJAQAAALF544kR1dUonsIE1sg", "scope": "GOOGLE", "types": ["gym", "health", "point_of_interest", "establishment"], "user_ratings_total": 6, "vicinity": "1577 Beacon Street D, Brookline"}, "ChIJi72ihbB544kRfwVaDpBzdIc": {"geometry": {"location": {"lat": 42.339273, "lng": -71.1329099}, "viewport": {"northeast": {"lat": 42.3407173302915, "lng": -71.1315603697085}, "southwest": {"lat": 42.3380193697085, "lng": -71.1342583302915}}}, "icon": "https://maps.gstatic.com/mapfiles/place_api/icons/generic_business-71.png", "id": "d85676f133e552788d31f60b804f60309c5a9562", "name": "Lawrence Judith Wiln", "place_id": "ChIJi72ihbB544kRfwVaDpBzdIc", "plus_code": {"compound_code": "8VQ8+PR Brookline, Massachusetts, United States", "global_code": "87JC8VQ8+PR"}, "reference": "ChIJi72ihbB544kRfwVaDpBzdIc", "scope": "GOOGLE", "types": ["health", "point_of_interest", "establishment"], "vicinity": "1577 Beacon Street, Brookline"}, "ChIJi72ihbB544kRv-VQnl4tkqw": {"geometry": {"location": {"lat": 42.339273, "lng": -71.1329099}, "viewport": {"northeast": {"lat": 42.3407173302915, "lng": -71.1315603697085}, "southwest": {"lat": 42.3380193697085, "lng": -71.1342583302915}}}, "icon": "https://maps.gstatic.com/mapfiles/place_api/icons/generic_business-71.png", "id": "027b5c02348e1891154b4a968dc579bad748e345", "name": "Wolf Pamela J", "place_id": "ChIJi72ihbB544kRv-VQnl4tkqw", "plus_code": {"compound_code": "8VQ8+PR Brookline, Massachusetts, United States", "global_code": "87JC8VQ8+PR"}, "reference": "ChIJi72ihbB544kRv-VQnl4tkqw", "scope": "GOOGLE", "types": ["health", "point_of_interest", "establishment"], "vicinity": "1577 Beacon Street, Brookline"}, "ChIJi72ihbB544kRXgSEckbysG4": {"geometry": {"location": {"lat": 42.339273, "lng": -71.1329099}, "viewport": {"northeast": {"lat": 42.3407173302915, "lng": -71.1315603697085}, "southwest": {"lat": 42.3380193697085, "lng": -71.1342583302915}}}, "icon": "https://maps.gstatic.com/mapfiles/place_api/icons/generic_business-71.png", "id": "0bc9915b6f4060696ed70898e86bcdd5510090cb", "name": "Schmahmann Realty LLC", "place_id": "ChIJi72ihbB544kRXgSEckbysG4", "plus_code": {"compound_code": "8VQ8+PR Brookline, Massachusetts, United States", "global_code": "87JC8VQ8+PR"}, "reference": "ChIJi72ihbB544kRXgSEckbysG4", "scope": "GOOGLE", "types": ["point_of_interest", "establishment"], "vicinity": "1577 Beacon Street, Brookline"}, "ChIJL4mihbB544kRUpXGwzBDilU": {"geometry": {"location": {"lat": 42.339273, "lng": -71.1329099}, "viewport": {"northeast": {"lat": 42.3407173302915, "lng": -71.1315603697085}, "southwest": {"lat": 42.3380193697085, "lng": -71.1342583302915}}}, "icon": "https://maps.gstatic.com/mapfiles/place_api/icons/generic_business-71.png", "id": "13ec39e035e831269e8e74be942fdea51c813aa4", "name": "Nancy C Nitenson MD Llc", "place_id": "ChIJL4mihbB544kRUpXGwzBDilU", "plus_code": {"compound_code": "8VQ8+PR Brookline, Massachusetts, United States", "global_code": "87JC8VQ8+PR"}, "reference": "ChIJL4mihbB544kRUpXGwzBDilU", "scope": "GOOGLE", "types": ["doctor", "health", "point_of_interest", "establishment"], "vicinity": "1577 Beacon Street, Brookline"}, "ChIJmfjt7C5544kR0Vhuook_B3g": {"geometry": {"location": {"lat": 42.3392103, "lng": -71.1328846}, "viewport": {"northeast": {"lat": 42.3406859802915, "lng": -71.13153486970849}, "southwest": {"lat": 42.3379880197085, "lng": -71.13423283029151}}}, "icon": "https://maps.gstatic.com/mapfiles/place_api/icons/generic_business-71.png", "id": "69e224de38772a6fb886ecc5006c20ab5240e5b8", "name": "Jonathan Schiff, LICSW", "place_id": "ChIJmfjt7C5544kR0Vhuook_B3g", "plus_code": {"compound_code": "8VQ8+MR Brookline, Massachusetts, United States", "global_code": "87JC8VQ8+MR"}, "reference": "ChIJmfjt7C5544kR0Vhuook_B3g", "scope": "GOOGLE", "types": ["health", "point_of_interest", "establishment"], "vicinity": "1577 Beacon Street, Brookline"}, "ChIJVRLTr6J544kRLfLwDRgZmog": {"geometry": {"location": {"lat": 42.3392103, "lng": -71.1328846}, "viewport": {"northeast": {"lat": 42.3406859802915, "lng": -71.13153486970849}, "southwest": {"lat": 42.3379880197085, "lng": -71.13423283029151}}}, "icon": "https://maps.gstatic.com/mapfiles/place_api/icons/generic_business-71.png", "id": "168fcf74e02e6bf84c0285506d1cf8fdba0ca045", "name": "Elizabeth M. Pratt, PHD", "place_id": "ChIJVRLTr6J544kRLfLwDRgZmog", "plus_code": {"compound_code": "8VQ8+MR Brookline, Massachusetts, United States", "global_code": "87JC8VQ8+MR"}, "reference": "ChIJVRLTr6J544kRLfLwDRgZmog", "scope": "GOOGLE", "types": ["health", "point_of_interest", "establishment"], "vicinity": "1577 Beacon Street, Brookline"}, "ChIJq1pCwhR544kRY3ow3aym3LQ": {"geometry": {"location": {"lat": 42.339259, "lng": -71.133995}, "viewport": {"northeast": {"lat": 42.34070093029149, "lng": -71.13266081970849}, "southwest": {"lat": 42.33800296970849, "lng": -71.1353587802915}}}, "icon": "https://maps.gstatic.com/mapfiles/place_api/icons/generic_business-71.png", "id": "39cd70dff99e038d9882a78fdbef32e3d95d4609", "name": "Apartment", "place_id": "ChIJq1pCwhR544kRY3ow3aym3LQ", "plus_code": {"compound_code": "8VQ8+PC Brookline, Massachusetts, United States", "global_code": "87JC8VQ8+PC"}, "reference": "ChIJq1pCwhR544kRY3ow3aym3LQ", "scope": "GOOGLE", "types": ["point_of_interest", "establishment"], "vicinity": "1600 Beacon Street, Brookline"}, "ChIJi72ihbB544kRLc28n5kSeXg": {"geometry": {"location": {"lat": 42.339234, "lng": -71.1328292}, "viewport": {"northeast": {"lat": 42.34057843029149, "lng": -71.1314110197085}, "southwest": {"lat": 42.33788046970849, "lng": -71.1341089802915}}}, "icon": "https://maps.gstatic.com/mapfiles/place_api/icons/generic_business-71.png", "id": "e43f471b93ffc85285f65c1f6f2885233781215f", "name": "Elizabeth E. Keller, PSYD", "place_id": "ChIJi72ihbB544kRLc28n5kSeXg", "plus_code": {"compound_code": "8VQ8+MV Brookline, Massachusetts, United States", "global_code": "87JC8VQ8+MV"}, "reference": "ChIJi72ihbB544kRLc28n5kSeXg", "scope": "GOOGLE", "types": ["health", "point_of_interest", "establishment"], "vicinity": "1577 Beacon Street, Brookline, MA 02446, Brookline"}, "ChIJz7u3jrB544kRs6dSfMIVwJ4": {"geometry": {"location": {"lat": 42.33923230000001, "lng": -71.134129}, "viewport": {"northeast": {"lat": 42.34060178029149, "lng": -71.1328690197085}, "southwest": {"lat": 42.33790381970849, "lng": -71.13556698029151}}}, "icon": "https://maps.gstatic.com/mapfiles/place_api/icons/generic_business-71.png", "id": "4902499cd43a122cbbb6c6e5ebc867c8bdfbd144", "name": "Alan B Sharaf Law Office", "place_id": "ChIJz7u3jrB544kRs6dSfMIVwJ4", "plus_code": {"compound_code": "8VQ8+M8 Brookline, Massachusetts, United States", "global_code": "87JC8VQ8+M8"}, "reference": "ChIJz7u3jrB544kRs6dSfMIVwJ4", "scope": "GOOGLE", "types": ["lawyer", "point_of_interest", "establishment"], "vicinity": "1583 Beacon Street, Brookline"}, "ChIJHc93i7B544kR7KBertp_9nQ": {"geometry": {"location": {"lat": 42.33923230000001, "lng": -71.134129}, "viewport": {"northeast": {"lat": 42.3406762802915, "lng": -71.1328418197085}, "southwest": {"lat": 42.3379783197085, "lng": -71.13553978029151}}}, "icon": "https://maps.gstatic.com/mapfiles/place_api/icons/generic_business-71.png", "id": "0081e67569edf02fa3e710916e0a8653dd8ea7ef", "name": "1601 Beacon St Condominiums", "place_id": "ChIJHc93i7B544kR7KBertp_9nQ", "plus_code": {"compound_code": "8VQ8+M8 Brookline, Massachusetts, United States", "global_code": "87JC8VQ8+M8"}, "rating": 3.7, "reference": "ChIJHc93i7B544kR7KBertp_9nQ", "scope": "GOOGLE", "types": ["point_of_interest", "establishment"], "user_ratings_total": 3, "vicinity": "1601 Beacon Street, Brookline"}, "ChIJz7u3jrB544kRtqDQe70pdeo": {"geometry": {"location": {"lat": 42.33923230000001, "lng": -71.134129}, "viewport": {"northeast": {"lat": 42.34060178029149, "lng": -71.1328690197085}, "southwest": {"lat": 42.33790381970849, "lng": -71.13556698029151}}}, "icon": "https://maps.gstatic.com/mapfiles/place_api/icons/generic_business-71.png", "id": "7bdfe8dc69249898147bf1df86080daf8772e185", "name": "Buckman Michael L", "place_id": "ChIJz7u3jrB544kRtqDQe70pdeo", "plus_code": {"compound_code": "8VQ8+M8 Brookline, Massachusetts, United States", "global_code": "87JC8VQ8+M8"}, "reference": "ChIJz7u3jrB544kRtqDQe70pdeo", "scope": "GOOGLE", "types": ["lawyer", "point_of_interest", "establishment"], "vicinity": "1583 Beacon Street, Brookline"}, "ChIJp1JjhLB544kRPRwbEy_CCLM": {"geometry": {"location": {"lat": 42.33923230000001, "lng": -71.134129}, "viewport": {"northeast": {"lat": 42.34060178029149, "lng": -71.1328690197085}, "southwest": {"lat": 42.33790381970849, "lng": -71.13556698029151}}}, "icon": "https://maps.gstatic.com/mapfiles/place_api/icons/generic_business-71.png", "id": "9692734b66ad33c233d0fbc97400ba3836829886", "name": "Equitas Law LLP", "opening_hours": {"open_now": false}, "photos": [{"height": 500, "html_attributions": ["<a href=\"https://maps.google.com/maps/contrib/104485842653303458224/photos\">Equitas Law LLP</a>"], "photo_reference": "CmRaAAAAHszfbK3FCKqyLJSSt_TcVA6UUjmFqyI3bscfjPziDbdEe5Eir3IHRSPMkf94pD1TA_7OwRZ416QdIkZ2PqJfyF-qT0JW4OJx0Ckd0A4AhTBWzqYvNnNv78bVB39dqrUIEhDrlp9REb4jgHkcByyLj7YzGhT2i6t34qVEb7BfHk4u1Cwg5HzWjw", "width": 1500}], "place_id": "ChIJp1JjhLB544kRPRwbEy_CCLM", "plus_code": {"compound_code": "8VQ8+M8 Brookline, Massachusetts, United States", "global_code": "87JC8VQ8+M8"}, "rating": 5, "reference": "ChIJp1JjhLB544kRPRwbEy_CCLM", "scope": "GOOGLE", "types": ["lawyer", "point_of_interest", "establishment"], "user_ratings_total": 6, "vicinity": "1583 Beacon Street, Brookline"}, "ChIJq7vFi7B544kRr_ItDJ8FK5w": {"geometry": {"location": {"lat": 42.3393156, "lng": -71.1341442}, "viewport": {"northeast": {"lat": 42.3406645802915, "lng": -71.1327952197085}, "southwest": {"lat": 42.3379666197085, "lng": -71.1354931802915}}}, "icon": "https://maps.gstatic.com/mapfiles/place_api/icons/generic_business-71.png", "id": "cad8ebfc21196936e038ec79bd11e92d07501c3a", "name": "The Knickerbocker", "place_id": "ChIJq7vFi7B544kRr_ItDJ8FK5w", "plus_code": {"compound_code": "8VQ8+P8 Brookline, Massachusetts, United States", "global_code": "87JC8VQ8+P8"}, "reference": "ChIJq7vFi7B544kRr_ItDJ8FK5w", "scope": "GOOGLE", "types": ["point_of_interest", "establishment"], "vicinity": "1601 Beacon Street, Brookline"}}