{"ChIJYVGTjul544kRQgzKjXbo6NE": {"geometry": {"location": {"lat": 42.3485333, "lng": -71.1195125}, "viewport": {"northeast": {"lat": 42.3502093302915, "lng": -71.117408}, "southwest": {"lat": 42.3475113697085, "lng": -71.12086559999999}}}, "icon": "https://maps.gstatic.com/mapfiles/place_api/icons/geocode-71.png", "id": "beb88b88df2ea4113da1001c2779ce4b03d83aa8", "name": "61-199 Crowninshield Rd", "place_id": "ChIJYVGTjul544kRQgzKjXbo6NE", "reference": "ChIJYVGTjul544kRQgzKjXbo6NE", "scope": "GOOGLE", "types": ["route"], "vicinity": "Brookline"}, "ChIJq6pa7el544kRkufVLWsUh0E": {"geometry": {"location": {"lat": 42.34917069999999, "lng": -71.119646}, "viewport": {"northeast": {"lat": 42.3505883802915, "lng": -71.1182820697085}, "southwest": {"lat": 42.3478904197085, "lng": -71.1209800302915}}}, "icon": "https://maps.gstatic.com/mapfiles/place_api/icons/generic_business-71.png", "id": "408c17ed6f92af9b025df2eb220992f567677c1e", "name": "WhippleWare's", "place_id": "ChIJq6pa7el544kRkufVLWsUh0E", "plus_code": {"compound_code": "8VXJ+M4 Brookline, Massachusetts, United States", "global_code": "87JC8VXJ+M4"}, "reference": "ChIJq6pa7el544kRkufVLWsUh0E", "scope": "GOOGLE", "types": ["point_of_interest", "establishment"], "vicinity": "28 Copley Street, Brookline"}, "ChIJg2I18ul544kRODjfEoTXvmw": {"geometry": {"location": {"lat": 42.348869, "lng": -71.11981999999999}, "viewport": {"northeast": {"lat": 42.3502212302915, "lng": -71.11845481970849}, "southwest": {"lat": 42.3475232697085, "lng": -71.1211527802915}}}, "icon": "https://maps.gstatic.com/mapfiles/place_api/icons/generic_business-71.png", "id": "de3243f43b55c024f9194eae06c8a0aed7996247", "name": "Margaret Senturia, LICSW", "place_id": "ChIJg2I18ul544kRODjfEoTXvmw", "plus_code": {"compound_code": "8VXJ+G3 Brookline, Massachusetts, United States", "global_code": "87JC8VXJ+G3"}, "reference": "ChIJg2I18ul544kRODjfEoTXvmw", "scope": "GOOGLE", "types": ["doctor", "health", "point_of_interest", "establishment"], "vicinity": "98 Crowninshield Road, Brookline, MA 02446, Brookline"}, "ChIJr0XZ7Ol544kRFa7pV3c6sEw": {"geometry": {"location": {"lat": 42.34917910000001, "lng": -71.11927039999999}, "viewport": {"northeast": {"lat": 42.35057093029151, "lng": -71.1179120697085}, "southwest": {"lat": 42.34787296970851, "lng": -71.1206100302915}}}, "icon": "https://maps.gstatic.com/mapfiles/place_api/icons/generic_business-71.png", "id": "fa698d60a92235033d4bbd1993209c3d0ab55e99", "name": "Donaher Catherine", "place_id": "ChIJr0XZ7Ol544kRFa7pV3c6sEw", "plus_code": {"compound_code": "8VXJ+M7 Brookline, Massachusetts, United States", "global_code": "87JC8VXJ+M7"}, "reference": "ChIJr0XZ7Ol544kRFa7pV3c6sEw", "scope": "GOOGLE", "types": ["point_of_interest", "establishment"], "vicinity": "20 Copley Street, Brookline"}, "ChIJhZirQQB544kRB9LbXEfedZQ": {"geometry": {"location": {"lat": 42.33176419999999, "lng": -71.1211635}, "viewport": {"northeast": {"lat": 42.3518109, "lng": -71.1056969}, "southwest": {"lat": 42.29459689999999, "lng": -71.1789959}}}, "icon": "https://maps.gstatic.com/mapfiles/place_api/icons/geocode-71.png", "id": "92986b2d1f69af2f2a7e29d34ced8adfa8573beb", "name": "Brookline", "photos": [{"height": 651, "html_attributions": ["<a href=\"https://maps.google.com/maps/contrib/114772942214832951419/photos\">Michael Ahn</a>"], "photo_reference": "CmRaAAAAsl4dye2KjM1lCdMJv0dCnmkb6LYbZEy64pdcVuKFrHutFVNX-QxguM6h-WJkvtS3_rIurmQFnYRTKexyhcdmsG9MKPbvK9NSfYT-WwQg1E4rBeK8Ym2PhEsLKksvI5B-EhC6q8vUNLRp_Y2XKz_QSUzWGhSUQfzO4IfTZVPtmtZppXrQg39nVQ", "width": 1608}], "place_id": "ChIJhZirQQB544kRB9LbXEfedZQ", "reference": "ChIJhZirQQB544kRB9LbXEfedZQ", "scope": "GOOGLE", "types": ["locality", "political"], "vicinity": "Brookline"}}