{"ChIJDZPXBrl544kR7DR6Jwwko60": {"geometry": {"location": {"lat": 42.3430115, "lng": -71.1294627}, "viewport": {"northeast": {"lat": 42.34501675000003, "lng": -71.12651985}, "southwest": {"lat": 42.34059094999996, "lng": -71.13306764999999}}}, "icon": "https://maps.gstatic.com/mapfiles/place_api/icons/geocode-71.png", "id": "99299e27466084a3ea6c8f19e4d23d155d6a874d", "name": "222-120 Mason Terrace", "place_id": "ChIJDZPXBrl544kR7DR6Jwwko60", "reference": "ChIJDZPXBrl544kR7DR6Jwwko60", "scope": "GOOGLE", "types": ["route"], "vicinity": "Brookline"}, "ChIJ85KlJrl544kR3SExCVvhNlQ": {"geometry": {"location": {"lat": 42.34257389999999, "lng": -71.12809109999999}, "viewport": {"northeast": {"lat": 42.34397663029149, "lng": -71.12666876970849}, "southwest": {"lat": 42.34127866970849, "lng": -71.1293667302915}}}, "icon": "https://maps.gstatic.com/mapfiles/place_api/icons/generic_business-71.png", "id": "b3fc09bbc95ce31d16095f0ee76db0c7eed9ea4a", "name": "Maekeda", "place_id": "ChIJ85KlJrl544kR3SExCVvhNlQ", "plus_code": {"compound_code": "8VVC+2Q Brookline, Massachusetts, United States", "global_code": "87JC8VVC+2Q"}, "reference": "ChIJ85KlJrl544kR3SExCVvhNlQ", "scope": "GOOGLE", "types": ["point_of_interest", "establishment"], "vicinity": "54 Atherton Road, Brookline"}, "ChIJUVlY37h544kRVvEGmj4Kvk4": {"geometry": {"location": {"lat": 42.3428713, "lng": -71.1281976}, "viewport": {"northeast": {"lat": 42.34420223029149, "lng": -71.12687656970849}, "southwest": {"lat": 42.3415042697085, "lng": -71.1295745302915}}}, "icon": "https://maps.gstatic.com/mapfiles/place_api/icons/generic_business-71.png", "id": "05a5678f7ca5415b16af202c37e9e6ff71cb778b", "name": "Media Buzz Publicity", "place_id": "ChIJUVlY37h544kRVvEGmj4Kvk4", "plus_code": {"compound_code": "8VVC+4P Brookline, Massachusetts, United States", "global_code": "87JC8VVC+4P"}, "reference": "ChIJUVlY37h544kRVvEGmj4Kvk4", "scope": "GOOGLE", "types": ["point_of_interest", "establishment"], "vicinity": "62 Atherton Road, Brookline"}, "ChIJhZirQQB544kRB9LbXEfedZQ": {"geometry": {"location": {"lat": 42.33176419999999, "lng": -71.1211635}, "viewport": {"northeast": {"lat": 42.3518109, "lng": -71.1056969}, "southwest": {"lat": 42.29459689999999, "lng": -71.1789959}}}, "icon": "https://maps.gstatic.com/mapfiles/place_api/icons/geocode-71.png", "id": "92986b2d1f69af2f2a7e29d34ced8adfa8573beb", "name": "Brookline", "photos": [{"height": 651, "html_attributions": ["<a href=\"https://maps.google.com/maps/contrib/114772942214832951419/photos\">Michael Ahn</a>"], "photo_reference": "CmRaAAAAYGKsMY1HAwn-gBRk5guILiktltz8HsB45QnQC_sLtDLF62HNZYDj6sKi9V6a4YiRk0AYs2S9f3Tx7gvzXhxpA3BCdTxKW9VLrKbIRQ8rUMrDtvoKuj-yzWDqCq468_FAEhBdT35F2YMOrfpkpblBXkB4GhSOX0Y_N9GNeEVELyKqQ_C1eu9r3g", "width": 1608}], "place_id": "ChIJhZirQQB544kRB9LbXEfedZQ", "reference": "ChIJhZirQQB544kRB9LbXEfedZQ", "scope": "GOOGLE", "types": ["locality", "political"], "vicinity": "Brookline"}}