{"ChIJM22zhnJ644kRubPqfoyEDAA": {"geometry": {"location": {"lat": 42.3452712, "lng": -71.0709263}, "viewport": {"northeast": {"lat": 42.34662013029151, "lng": -71.0695772697085}, "southwest": {"lat": 42.34392216970851, "lng": -71.07227523029151}}}, "icon": "https://maps.gstatic.com/mapfiles/place_api/icons/geocode-71.png", "id": "9a834093a1c4daa4883387700f805bc5aefe8527", "name": "15-27 Warren Ave", "place_id": "ChIJM22zhnJ644kRubPqfoyEDAA", "reference": "ChIJM22zhnJ644kRubPqfoyEDAA", "scope": "GOOGLE", "types": ["route"], "vicinity": "Boston"}, "ChIJWfpfeG1644kRLK4b9lMWmCI": {"geometry": {"location": {"lat": 42.3444932, "lng": -71.0714971}, "viewport": {"northeast": {"lat": 42.34567823029149, "lng": -71.0700256697085}, "southwest": {"lat": 42.3429802697085, "lng": -71.0727236302915}}}, "icon": "https://maps.gstatic.com/mapfiles/place_api/icons/restaurant-71.png", "id": "79734ce9649c2c53402033d922b20a7815c1848f", "name": "Beehive Restaurant", "opening_hours": {"open_now": false}, "photos": [{"height": 2574, "html_attributions": ["<a href=\"https://maps.google.com/maps/contrib/105117167372898465095/photos\">Beehive Restaurant</a>"], "photo_reference": "CmRaAAAAy9Sb_nETI7WLIi6hTEDYUduLPio3yMqx5q0LHTHG5_r8t8p5TPLo-FTYcMOmSw0C18pas0xQMyHm9DYaFXB45K5DrSL7ECkW_FrDPBtKMMS9yyfw8PQcTuB8cdW9kS_CEhCRwFK1bV9FtMb5v9QZKbSAGhRGyIEN78TinonT9LscIi1u959E0w", "width": 3861}], "place_id": "ChIJWfpfeG1644kRLK4b9lMWmCI", "plus_code": {"compound_code": "8WVH+QC Boston, Massachusetts, United States", "global_code": "87JC8WVH+QC"}, "price_level": 2, "rating": 4.4, "reference": "ChIJWfpfeG1644kRLK4b9lMWmCI", "scope": "GOOGLE", "types": ["night_club", "bar", "restaurant", "point_of_interest", "food", "establishment"], "user_ratings_total": 1309, "vicinity": "541 Tremont Street, Boston"}, "ChIJKz0HcG1644kRx6MyMZFILcY": {"geometry": {"location": {"lat": 42.3444466, "lng": -71.07129069999999}, "viewport": {"northeast": {"lat": 42.34569893029149, "lng": -71.0698409697085}, "southwest": {"lat": 42.3430009697085, "lng": -71.0725389302915}}}, "icon": "https://maps.gstatic.com/mapfiles/place_api/icons/generic_business-71.png", "id": "fb2014b05dfd5b9323fc8bcbc52ac92b4c6ecb2b", "name": "Cyclorama", "photos": [{"height": 1520, "html_attributions": ["<a href=\"https://maps.google.com/maps/contrib/105176168275099405006/photos\">Fran Harrington</a>"], "photo_reference": "CmRaAAAAdPH9YhgmXA-E17uVsLNLX3_fxQV66ty4rSch9AMjGa4Hs1CyHiFtF3hjqh-6lpNZP7HNlapbFm6CYmpn4SzWa41VyTPOZl47yAx4Ehn4-PU_6OGaAJMz1qGEb7ScXhSYEhAZFQHwsz-o1UFragunf5laGhTn3NGu8jHR3iL5UId_NFxfWyvJKg", "width": 2048}], "place_id": "ChIJKz0HcG1644kRx6MyMZFILcY", "plus_code": {"compound_code": "8WVH+QF Boston, Massachusetts, United States", "global_code": "87JC8WVH+QF"}, "rating": 4.4, "reference": "ChIJKz0HcG1644kRx6MyMZFILcY", "scope": "GOOGLE", "types": ["point_of_interest", "establishment"], "user_ratings_total": 122, "vicinity": "539 Tremont Street, Boston"}, "ChIJKz0HcG1644kRFVrc79IkUwQ": {"geometry": {"location": {"lat": 42.344691, "lng": -71.0714069}, "viewport": {"northeast": {"lat": 42.3458393302915, "lng": -71.06986576970849}, "southwest": {"lat": 42.3431413697085, "lng": -71.0725637302915}}}, "icon": "https://maps.gstatic.com/mapfiles/place_api/icons/generic_business-71.png", "id": "60972ef2150a9b2fed282c4293134fc65cbf01ee", "name": "Company One", "place_id": "ChIJKz0HcG1644kRFVrc79IkUwQ", "plus_code": {"compound_code": "8WVH+VC Boston, Massachusetts, United States", "global_code": "87JC8WVH+VC"}, "rating": 4.4, "reference": "ChIJKz0HcG1644kRFVrc79IkUwQ", "scope": "GOOGLE", "types": ["point_of_interest", "establishment"], "user_ratings_total": 5, "vicinity": "539 Tremont Street, Boston"}, "ChIJKz0HcG1644kRhEw-C20v3cY": {"geometry": {"location": {"lat": 42.344691, "lng": -71.071407}, "viewport": {"northeast": {"lat": 42.3458393302915, "lng": -71.0698658697085}, "southwest": {"lat": 42.3431413697085, "lng": -71.0725638302915}}}, "icon": "https://maps.gstatic.com/mapfiles/place_api/icons/generic_business-71.png", "id": "e2110be9eedfb96fdba79188b28ccee5c6ba262a", "name": "AD 20/21: Art and Design of the 20th and 21st Centuries", "photos": [{"height": 1500, "html_attributions": ["<a href=\"https://maps.google.com/maps/contrib/116332229605223260676/photos\">AD 20/21: Art and Design of the 20th and 21st Centuries</a>"], "photo_reference": "CmRaAAAAwKXWf6n8HaYqWJWVHfV5X8605pegrpHgx2ryYHqbo-nvtLXllxKSiE8DiCbMKDwxzcwnA9ZH5QWiIDO-_CFxYkzZp6DwRz2S-Pab4GoDHuxemvvUtj07jjJQlVUQyoPlEhAwVGSjGgOXMOvTLje1RKRWGhTsDusds5l1QxX1etQ8ZkIIaJQW1A", "width": 2354}], "place_id": "ChIJKz0HcG1644kRhEw-C20v3cY", "plus_code": {"compound_code": "8WVH+VC Boston, Massachusetts, United States", "global_code": "87JC8WVH+VC"}, "reference": "ChIJKz0HcG1644kRhEw-C20v3cY", "scope": "GOOGLE", "types": ["point_of_interest", "establishment"], "vicinity": "539 Tremont Street, Boston"}, "ChIJKz0HcG1644kRZ8SM7BYmWSI": {"geometry": {"location": {"lat": 42.344488, "lng": -71.0710418}, "viewport": {"northeast": {"lat": 42.34576758029149, "lng": -71.06962636970849}, "southwest": {"lat": 42.34306961970849, "lng": -71.07232433029151}}}, "icon": "https://maps.gstatic.com/mapfiles/place_api/icons/generic_business-71.png", "id": "6a8be3f608d11c820d5a39be5583c40c1f4d984a", "name": "Boston Center for the Arts", "opening_hours": {"open_now": false}, "photos": [{"height": 3120, "html_attributions": ["<a href=\"https://maps.google.com/maps/contrib/109684182341949109183/photos\">Brooks Payne</a>"], "photo_reference": "CmRaAAAAK63Jyrtyu3jw-AYjfVhZylYTcP8wKsxREBwXakKAS0GJ6DQyHDNUENXO1RR0blTyBMCH85djuVTj8aZltYPDFlieJbUWM9xRuaInucop-g3y1uY1nyTNmrbiaSLV7aL5EhAODm-P85NDWa2krn4wZRxsGhQf7csJfBRCtlrZCzfFMQz10AEZyA", "width": 4160}], "place_id": "ChIJKz0HcG1644kRZ8SM7BYmWSI", "plus_code": {"compound_code": "8WVH+QH Boston, Massachusetts, United States", "global_code": "87JC8WVH+QH"}, "rating": 4.6, "reference": "ChIJKz0HcG1644kRZ8SM7BYmWSI", "scope": "GOOGLE", "types": ["art_gallery", "point_of_interest", "establishment"], "user_ratings_total": 72, "vicinity": "539 Tremont Street, Boston"}, "ChIJKz0HcG1644kRKqGzLBWoxxM": {"geometry": {"location": {"lat": 42.344691, "lng": -71.0714069}, "viewport": {"northeast": {"lat": 42.3458393302915, "lng": -71.06986576970849}, "southwest": {"lat": 42.3431413697085, "lng": -71.0725637302915}}}, "icon": "https://maps.gstatic.com/mapfiles/place_api/icons/generic_business-71.png", "id": "ecf21037ac0e82a2a4e0e7f0eb75988b07661558", "name": "City Stage Co", "place_id": "ChIJKz0HcG1644kRKqGzLBWoxxM", "plus_code": {"compound_code": "8WVH+VC Boston, Massachusetts, United States", "global_code": "87JC8WVH+VC"}, "reference": "ChIJKz0HcG1644kRKqGzLBWoxxM", "scope": "GOOGLE", "types": ["point_of_interest", "establishment"], "vicinity": "539 Tremont Street, Boston"}, "ChIJKz0HcG1644kRC1xbK1_VPtI": {"geometry": {"location": {"lat": 42.3444466, "lng": -71.0712908}, "viewport": {"northeast": {"lat": 42.34569888029149, "lng": -71.06984106970849}, "southwest": {"lat": 42.34300091970849, "lng": -71.0725390302915}}}, "icon": "https://maps.gstatic.com/mapfiles/place_api/icons/generic_business-71.png", "id": "0007bc595ef745b3891d8eb265cc6a658bd7a1c3", "name": "Mills Gallery at the Boston Center for the Arts", "opening_hours": {"open_now": false}, "photos": [{"height": 498, "html_attributions": ["<a href=\"https://maps.google.com/maps/contrib/100724295967339120805/photos\">Mills Gallery at the Boston Center for the Arts</a>"], "photo_reference": "CmRaAAAAOpzYkiy5TE0ICTuoP5nCwm2vU6bIPUq9yJ4pgUSjqbl3af5yNnzPnnq503QxgVJWsaeBtCz9qbJgmhdKy4S3KI1wiaDJz_2IVtBt51_5ZVdXagucRGIBXwc3hz6ONe_jEhAeP0T8cUnp12BD_GRoJR3BGhQ4CdvhmzzCRWPhjiftSG_Rn_H5Ww", "width": 750}], "place_id": "ChIJKz0HcG1644kRC1xbK1_VPtI", "plus_code": {"compound_code": "8WVH+QF Boston, Massachusetts, United States", "global_code": "87JC8WVH+QF"}, "rating": 5, "reference": "ChIJKz0HcG1644kRC1xbK1_VPtI", "scope": "GOOGLE", "types": ["art_gallery", "point_of_interest", "establishment"], "user_ratings_total": 4, "vicinity": "539 Tremont Street, Boston"}, "ChIJb8tsXW1644kRwYQXQPVjSkY": {"geometry": {"location": {"lat": 42.344718, "lng": -71.07209759999999}, "viewport": {"northeast": {"lat": 42.34604333029149, "lng": -71.07083711970849}, "southwest": {"lat": 42.3433453697085, "lng": -71.0735350802915}}}, "icon": "https://maps.gstatic.com/mapfiles/place_api/icons/school-71.png", "id": "7a1d15af67b1c787fbba7c2524045f0ccb069835", "name": "Boston Dance Alliance", "photos": [{"height": 250, "html_attributions": ["<a href=\"https://maps.google.com/maps/contrib/109581371940676727673/photos\">Boston Dance Alliance</a>"], "photo_reference": "CmRaAAAAdPJGtFDAdzzsH5uJBrLYU9C4jLbLP3--2pgTmWfi2XyzILxyxVeRRPrw3yekHufBRaH3lz6nzDlRe6vVj6hdTx_aDqrtd67YJ6K7a4vCkz3NZWJnr-X061eLwPmGwk7fEhCD553KXkItW9qRbZ1VamQQGhTKACzuiwAVsI53koWsRSt62jjTPg", "width": 559}], "place_id": "ChIJb8tsXW1644kRwYQXQPVjSkY", "plus_code": {"compound_code": "8WVH+V5 Boston, Massachusetts, United States", "global_code": "87JC8WVH+V5"}, "reference": "ChIJb8tsXW1644kRwYQXQPVjSkY", "scope": "GOOGLE", "types": ["point_of_interest", "establishment"], "vicinity": "19 Clarendon Street, Boston"}, "ChIJ96pzeW1644kRLS8tTjPAQmI": {"geometry": {"location": {"lat": 42.344525, "lng": -71.07086699999999}, "viewport": {"northeast": {"lat": 42.34582273029149, "lng": -71.0694689697085}, "southwest": {"lat": 42.3431247697085, "lng": -71.0721669302915}}}, "icon": "https://maps.gstatic.com/mapfiles/place_api/icons/generic_business-71.png", "id": "48c8d75ee9ac34f5b8b99d9939378918d1105bfd", "name": "Calderwood Pavilion (at the Boston Center for the Arts - BCA)", "photos": [{"height": 1932, "html_attributions": ["<a href=\"https://maps.google.com/maps/contrib/112905744743180039567/photos\">sean guerin</a>"], "photo_reference": "CmRaAAAAPPKBRQ1h3mHwsz9IQlwZvED12xywfL7CSOYneHazFj53lDd-Jr8-yiwpstVkzCxbg7X_myCHa4wbcTcOwfqE-7Zzp6CKH6G2YTtdW1amXnSayzMM5dMtcb9sxiIWbAhKEhDCP_lbw8vYKsuW2Lldq9L3GhSIAjE4dbx_Hgit7FWm112uTJksGg", "width": 2576}], "place_id": "ChIJ96pzeW1644kRLS8tTjPAQmI", "plus_code": {"compound_code": "8WVH+RM Boston, Massachusetts, United States", "global_code": "87JC8WVH+RM"}, "rating": 4.7, "reference": "ChIJ96pzeW1644kRLS8tTjPAQmI", "scope": "GOOGLE", "types": ["point_of_interest", "establishment"], "user_ratings_total": 167, "vicinity": "527 Tremont Street, Boston"}, "ChIJT6IZ7LsU44kRtJpNieqRt1w": {"geometry": {"location": {"lat": 42.3446566, "lng": -71.07208109999999}, "viewport": {"northeast": {"lat": 42.3459835302915, "lng": -71.07081461970849}, "southwest": {"lat": 42.3432855697085, "lng": -71.0735125802915}}}, "icon": "https://maps.gstatic.com/mapfiles/place_api/icons/school-71.png", "id": "1617243e0a32d4e3cc19b92cd63a3a43374a5004", "name": "Boston Ballet School", "photos": [{"height": 720, "html_attributions": ["<a href=\"https://maps.google.com/maps/contrib/116024188359604621447/photos\">Sporcut Chris</a>"], "photo_reference": "CmRaAAAA1NQEnSJ_eKfz5JKEs6YN6Y0geKjFWN0-9vWYV7gUoiNadVt2NbwHBq1ZKx8gq2Afo6xkdKLy02P3nrNd40Bi_CCSOaDviWsR0A4XncRlixErhNVNXn8y-SWtMD_52bISEhCUpLFazo3UwABcsdpIr_VmGhQVdkR5hTp-PONgwKAjj-2aO-kgqA", "width": 745}], "place_id": "ChIJT6IZ7LsU44kRtJpNieqRt1w", "plus_code": {"compound_code": "8WVH+V5 Boston, Massachusetts, United States", "global_code": "87JC8WVH+V5"}, "rating": 4.4, "reference": "ChIJT6IZ7LsU44kRtJpNieqRt1w", "scope": "GOOGLE", "types": ["point_of_interest", "establishment"], "user_ratings_total": 33, "vicinity": "19 Clarendon Street, Boston"}, "ChIJKz0HcG1644kRUep57Mzmcow": {"geometry": {"location": {"lat": 42.344691, "lng": -71.0714069}, "viewport": {"northeast": {"lat": 42.3458393302915, "lng": -71.06986576970849}, "southwest": {"lat": 42.3431413697085, "lng": -71.0725637302915}}}, "icon": "https://maps.gstatic.com/mapfiles/place_api/icons/generic_business-71.png", "id": "0721e2e2fa72fc9d441749373b77c452d640cc31", "name": "SpeakEasy Stage Company", "photos": [{"height": 3024, "html_attributions": ["<a href=\"https://maps.google.com/maps/contrib/100444203488619289184/photos\">Chris C</a>"], "photo_reference": "CmRaAAAAT0rjLey7VytKBCyjwcETNPTtlh_RtaslcrPxko05Zp3AJ4CJO2sVzjT-cqHkpXiCCowRtbmSAJkRk84FB3kAR33hBb6rBBfB63_2KmKST4zvWqCRq4HHSYXT-mL03JPDEhB7qHu_O4O1Wca5du35I6WfGhTV4wEbpWx8rnGB4ptztQgIU9v-QQ", "width": 4032}], "place_id": "ChIJKz0HcG1644kRUep57Mzmcow", "plus_code": {"compound_code": "8WVH+VC Boston, Massachusetts, United States", "global_code": "87JC8WVH+VC"}, "rating": 4.9, "reference": "ChIJKz0HcG1644kRUep57Mzmcow", "scope": "GOOGLE", "types": ["point_of_interest", "establishment"], "user_ratings_total": 17, "vicinity": "539 Tremont Street, Boston"}, "ChIJO0GubW1644kRXGunQmdgHJs": {"geometry": {"location": {"lat": 42.344415, "lng": -71.0717839}, "viewport": {"northeast": {"lat": 42.3455885802915, "lng": -71.07026416970851}, "southwest": {"lat": 42.3428906197085, "lng": -71.07296213029151}}}, "icon": "https://maps.gstatic.com/mapfiles/place_api/icons/generic_business-71.png", "id": "c41f588e1b30fa8b4108bfad0f7e13b43a628c03", "name": "South End Strings", "place_id": "ChIJO0GubW1644kRXGunQmdgHJs", "plus_code": {"compound_code": "8WVH+Q7 Boston, Massachusetts, United States", "global_code": "87JC8WVH+Q7"}, "rating": 5, "reference": "ChIJO0GubW1644kRXGunQmdgHJs", "scope": "GOOGLE", "types": ["point_of_interest", "establishment"], "user_ratings_total": 1, "vicinity": "551 Tremont Street # 201, Boston"}, "ChIJ3UFZAnN644kR8buO667LMkI": {"geometry": {"location": {"lat": 42.3444466, "lng": -71.0712908}, "viewport": {"northeast": {"lat": 42.34569888029149, "lng": -71.06984106970849}, "southwest": {"lat": 42.34300091970849, "lng": -71.0725390302915}}}, "icon": "https://maps.gstatic.com/mapfiles/place_api/icons/generic_business-71.png", "id": "e543255f7a994b6ea9e445ed6bb7b48625c562d9", "name": "Boston Gay Men's Chorus", "place_id": "ChIJ3UFZAnN644kR8buO667LMkI", "plus_code": {"compound_code": "8WVH+QF Boston, Massachusetts, United States", "global_code": "87JC8WVH+QF"}, "rating": 4.3, "reference": "ChIJ3UFZAnN644kR8buO667LMkI", "scope": "GOOGLE", "types": ["point_of_interest", "establishment"], "user_ratings_total": 6, "vicinity": "539 Tremont Street, Boston"}, "ChIJ35zOgnJ644kRMCCpHsdLepA": {"geometry": {"location": {"lat": 42.34513999999999, "lng": -71.070849}, "viewport": {"northeast": {"lat": 42.34655618029149, "lng": -71.06953246970849}, "southwest": {"lat": 42.34385821970849, "lng": -71.0722304302915}}}, "icon": "https://maps.gstatic.com/mapfiles/place_api/icons/school-71.png", "id": "a197c574e5df980b04dec15713bb76afee751efc", "name": "Community Music Center of Boston", "opening_hours": {"open_now": true}, "photos": [{"height": 3840, "html_attributions": ["<a href=\"https://maps.google.com/maps/contrib/113269921409178167505/photos\">Community Music Center of Boston</a>"], "photo_reference": "CmRaAAAAcK7PfyCCT645QZCfTYdvdC6MYakUpLTpSK6Uwe7BRm6domXgtx6S-BLXi8rbKjvFFEyLhDD-isiZHVUOPrjZy1IJPlrAxNDQnYq9UZhmje-kcPxMPSFJ-LX2AzA5kAz7EhByWCckPWdQq6yzX93D8wDGGhT1sn664Nxg1ZtFHnCkFOBA318b2g", "width": 5760}], "place_id": "ChIJ35zOgnJ644kRMCCpHsdLepA", "plus_code": {"compound_code": "8WWH+3M Boston, Massachusetts, United States", "global_code": "87JC8WWH+3M"}, "rating": 4.2, "reference": "ChIJ35zOgnJ644kRMCCpHsdLepA", "scope": "GOOGLE", "types": ["point_of_interest", "establishment"], "user_ratings_total": 6, "vicinity": "34 Warren Avenue, Boston"}, "ChIJi6GheW1644kRcZa-qFokzqU": {"geometry": {"location": {"lat": 42.3448989, "lng": -71.0708549}, "viewport": {"northeast": {"lat": 42.34611103029149, "lng": -71.0693061197085}, "southwest": {"lat": 42.3434130697085, "lng": -71.0720040802915}}}, "icon": "https://maps.gstatic.com/mapfiles/place_api/icons/generic_business-71.png", "id": "473e03b00e9119ce5431184ba43cff25b243d35f", "name": "Huntington Theatre Company", "opening_hours": {"open_now": true}, "photos": [{"height": 4032, "html_attributions": ["<a href=\"https://maps.google.com/maps/contrib/117530916230336693936/photos\">Chris Karl</a>"], "photo_reference": "CmRaAAAAhXdC3BvjDuSo1EBp5I7HjgWyNrmijvSWk5SOYlfgEbq5VWYPKQLSLZCUe2KNWTiiZllKvpFSJrMWduhr4eIOpnAMb9xPSqH2eQvHAWiH9Kj_bo5b-8MS6Pj2zGNyahX0EhAGjTHXuJ8214377vBlXdtrGhSmTWo4x9HVnsDx6YccNNa3UNnTdw", "width": 3024}], "place_id": "ChIJi6GheW1644kRcZa-qFokzqU", "plus_code": {"compound_code": "8WVH+XM Boston, Massachusetts, United States", "global_code": "87JC8WVH+XM"}, "rating": 4.8, "reference": "ChIJi6GheW1644kRcZa-qFokzqU", "scope": "GOOGLE", "types": ["point_of_interest", "establishment"], "user_ratings_total": 14, "vicinity": "527 Tremont Street, Boston"}, "ChIJUz7AZG1644kRx2z7KG6j6YE": {"geometry": {"location": {"lat": 42.3446763, "lng": -71.0714203}, "viewport": {"northeast": {"lat": 42.3458272302915, "lng": -71.06988161970851}, "southwest": {"lat": 42.3431292697085, "lng": -71.07257958029152}}}, "icon": "https://maps.gstatic.com/mapfiles/place_api/icons/atm-71.png", "id": "6c00793da00039be229ab76b74deb8884f657585", "name": "Santander Bank ATM", "opening_hours": {"open_now": true}, "photos": [{"height": 2326, "html_attributions": ["<a href=\"https://maps.google.com/maps/contrib/116502978285297169146/photos\">Santander Bank ATM</a>"], "photo_reference": "CmRaAAAAYZiGmpoaGu2uTVLywgDrs2flgVEP4ZY_aIR32zRewcmDg6wtRj-UBaANWc2DJoAolimAV9essXAtV1RlpS6PCbJXSQxQVzoFbT3zoDBQwX2BK_4WCwngzbmQxDohou9cEhCi9WpmZMLCeeO_es9oTojIGhRjHCpI7WKVlz57cLC-6ChUe55eGw", "width": 2326}], "place_id": "ChIJUz7AZG1644kRx2z7KG6j6YE", "plus_code": {"compound_code": "8WVH+VC Boston, Massachusetts, United States", "global_code": "87JC8WVH+VC"}, "reference": "ChIJUz7AZG1644kRx2z7KG6j6YE", "scope": "GOOGLE", "types": ["atm", "insurance_agency", "finance", "point_of_interest", "establishment"], "vicinity": "539 Tremont Street, Boston"}, "ChIJ8UPIkU2K5IkR8aOzwPn1ZgM": {"geometry": {"location": {"lat": 42.34523799999999, "lng": -71.071794}, "viewport": {"northeast": {"lat": 42.3464974802915, "lng": -71.0703996197085}, "southwest": {"lat": 42.3437995197085, "lng": -71.0730975802915}}}, "icon": "https://maps.gstatic.com/mapfiles/place_api/icons/generic_business-71.png", "id": "a3d2f455c8a052ab0221388e0fa2fb060b4b8028", "name": "Mark Dunn", "opening_hours": {"open_now": true}, "photos": [{"height": 640, "html_attributions": ["<a href=\"https://maps.google.com/maps/contrib/102544935112840172246/photos\">Mark Dunn</a>"], "photo_reference": "CmRaAAAAuOOrHC9LzpjpGmmzDM2dMNurMaUHEOFifpxytBPoCZv39FJ4fRsy6-roJIebJX_4C2duDnPgLmejycQawMis_R6VQfspyYVsJhdbayBhT6wall3NWDZbn4fxYWGllVVsEhB1F_H5ThmZvztFoNAQGvDmGhTNINAXehyJt6dLVW6EZAuMmdRY0A", "width": 960}], "place_id": "ChIJ8UPIkU2K5IkR8aOzwPn1ZgM", "plus_code": {"compound_code": "8WWH+37 Boston, Massachusetts, United States", "global_code": "87JC8WWH+37"}, "reference": "ChIJ8UPIkU2K5IkR8aOzwPn1ZgM", "scope": "GOOGLE", "types": ["point_of_interest", "establishment"], "vicinity": "45 Warren Avenue, Boston"}, "ChIJO0GubW1644kR2yLgovg9nPE": {"geometry": {"location": {"lat": 42.344415, "lng": -71.0717839}, "viewport": {"northeast": {"lat": 42.3455885802915, "lng": -71.07026416970851}, "southwest": {"lat": 42.3428906197085, "lng": -71.07296213029151}}}, "icon": "https://maps.gstatic.com/mapfiles/place_api/icons/generic_business-71.png", "id": "6e87e901b623802a8734284f68b2bb0757f21b82", "name": "Art Connection", "place_id": "ChIJO0GubW1644kR2yLgovg9nPE", "plus_code": {"compound_code": "8WVH+Q7 Boston, Massachusetts, United States", "global_code": "87JC8WVH+Q7"}, "rating": 5, "reference": "ChIJO0GubW1644kR2yLgovg9nPE", "scope": "GOOGLE", "types": ["point_of_interest", "establishment"], "user_ratings_total": 1, "vicinity": "551 Tremont Street, Boston"}, "ChIJGzE9DS1l44kRoOhiASS_fHg": {"geometry": {"location": {"lat": 42.3600825, "lng": -71.0588801}, "viewport": {"northeast": {"lat": 42.40081989999999, "lng": -70.749455}, "southwest": {"lat": 42.22788, "lng": -71.191113}}}, "icon": "https://maps.gstatic.com/mapfiles/place_api/icons/geocode-71.png", "id": "06755c25d2b34d13942a4713971756a55b870ced", "name": "Boston", "photos": [{"height": 3024, "html_attributions": ["<a href=\"https://maps.google.com/maps/contrib/104670289779338733432/photos\">Natalia Zalucean</a>"], "photo_reference": "CmRaAAAA6gEF7ZgO8wJECSZZYHEKucy1sFmZYHfFmofTHKHsGB7pcBCuyovUE17C7k4kCRHYqBrmX6KYpdWS0Vkdx9n4qg83CFvl0kjKJ2ax2uNfVSg43oGcrr3t4yBknuQA0CkcEhADsH2sM9sfDAJjAa98MGkTGhQDZ5zorBjFqLNx5ecchfY2cdxbvQ", "width": 4032}], "place_id": "ChIJGzE9DS1l44kRoOhiASS_fHg", "reference": "ChIJGzE9DS1l44kRoOhiASS_fHg", "scope": "GOOGLE", "types": ["locality", "political"], "vicinity": "Boston"}, "ChIJhY8nfG1644kRVqdK1kfn-hY": {"geometry": {"location": {"lat": 42.3448989, "lng": -71.0708549}, "viewport": {"northeast": {"lat": 42.34611103029149, "lng": -71.0693061197085}, "southwest": {"lat": 42.3434130697085, "lng": -71.0720040802915}}}, "icon": "https://maps.gstatic.com/mapfiles/place_api/icons/generic_business-71.png", "id": "6df678a1ac25098c02fcdca01185331be03c4da6", "name": "BCA", "place_id": "ChIJhY8nfG1644kRVqdK1kfn-hY", "plus_code": {"compound_code": "8WVH+XM Boston, Massachusetts, United States", "global_code": "87JC8WVH+XM"}, "rating": 3, "reference": "ChIJhY8nfG1644kRVqdK1kfn-hY", "scope": "GOOGLE", "types": ["point_of_interest", "establishment"], "user_ratings_total": 1, "vicinity": "527 Tremont Street, Boston"}, "ChIJO0GubW1644kRjMtsl7a8cLA": {"geometry": {"location": {"lat": 42.344415, "lng": -71.0717839}, "viewport": {"northeast": {"lat": 42.3455885802915, "lng": -71.07026416970851}, "southwest": {"lat": 42.3428906197085, "lng": -71.07296213029151}}}, "icon": "https://maps.gstatic.com/mapfiles/place_api/icons/shopping-71.png", "id": "d8872a7bef8bc354535b3edaa03e11bb75a2bb37", "name": "Pitaniello", "place_id": "ChIJO0GubW1644kRjMtsl7a8cLA", "plus_code": {"compound_code": "8WVH+Q7 Boston, Massachusetts, United States", "global_code": "87JC8WVH+Q7"}, "reference": "ChIJO0GubW1644kRjMtsl7a8cLA", "scope": "GOOGLE", "types": ["jewelry_store", "store", "point_of_interest", "establishment"], "vicinity": "551 Tremont Street # 316, Boston"}, "ChIJKQ71fm1644kRR944gn3xrmM": {"geometry": {"location": {"lat": 42.3447816, "lng": -71.0708406}, "viewport": {"northeast": {"lat": 42.34602358029149, "lng": -71.06933676970849}, "southwest": {"lat": 42.34332561970849, "lng": -71.07203473029149}}}, "icon": "https://maps.gstatic.com/mapfiles/place_api/icons/atm-71.png", "id": "f63b28742778f0c8dc736ea94f48f31d504f8d1e", "name": "Santander Walk-Up ATM", "opening_hours": {"open_now": true}, "photos": [{"height": 450, "html_attributions": ["<a href=\"https://maps.google.com/maps/contrib/118300082808878505111/photos\">Santander Walk-Up ATM</a>"], "photo_reference": "CmRaAAAAhrel0984H6pOq1lop24u3a6fIWaEFUvIEwgmFtFgoHEI1gJRdmGlrEaFPDadLQPYMvThJCNgKQxp2e18srVPhp6hqFtOVvp43nc1AMzsUcQO1_YHzlSVx0M4NrWMHrM7EhAxj7DjJl8g2XdYDXelm8XYGhSfNSS_o0ziBBA-ou6XUjMTf6C1sA", "width": 450}], "place_id": "ChIJKQ71fm1644kRR944gn3xrmM", "plus_code": {"compound_code": "8WVH+WM Boston, Massachusetts, United States", "global_code": "87JC8WVH+WM"}, "reference": "ChIJKQ71fm1644kRR944gn3xrmM", "scope": "GOOGLE", "types": ["atm", "insurance_agency", "finance", "point_of_interest", "establishment"], "vicinity": "521 Tremont Street, Boston"}, "ChIJxQhAem1644kR47_07DXtwKI": {"geometry": {"location": {"lat": 42.344488, "lng": -71.0710418}, "viewport": {"northeast": {"lat": 42.34583698029149, "lng": -71.06969281970851}, "southwest": {"lat": 42.3431390197085, "lng": -71.07239078029151}}}, "icon": "https://maps.gstatic.com/mapfiles/place_api/icons/generic_business-71.png", "id": "e429e254ccf91002a6be16f138a3058f5875d6b9", "name": "Boston Photo Field Trips Curious Soul Photo School", "opening_hours": {"open_now": true}, "photos": [{"height": 480, "html_attributions": ["<a href=\"https://maps.google.com/maps/contrib/111180436169441250192/photos\">Boston Photo Field Trips Curious Soul Photo School</a>"], "photo_reference": "CmRaAAAApDTQJqFcgcwL6PYYwOz_co6UMMwF66Ik77nPWoMAl8GZcPnJGAxo2buqOb0X8E9RtRDJAsuqXhslX_RHLTxs0oOffOYsQ2yw1JeNrIi_Bo_sEHoaiYcGijkon5d7xICMEhBTL1u5-QRHhioYyVl5v6uRGhR_Ihw5anbpIJsmQV-U4aD0K5qxhw", "width": 720}], "place_id": "ChIJxQhAem1644kR47_07DXtwKI", "plus_code": {"compound_code": "8WVH+QH Boston, Massachusetts, United States", "global_code": "87JC8WVH+QH"}, "rating": 5, "reference": "ChIJxQhAem1644kR47_07DXtwKI", "scope": "GOOGLE", "types": ["point_of_interest", "establishment"], "user_ratings_total": 20, "vicinity": "551 Tremont Street, Studio 402, Boston Center for the Arts, Boston"}, "ChIJxQhAem1644kR7GnXn0eoSR4": {"geometry": {"location": {"lat": 42.344488, "lng": -71.0710418}, "viewport": {"northeast": {"lat": 42.34576758029149, "lng": -71.06962636970849}, "southwest": {"lat": 42.34306961970849, "lng": -71.07232433029151}}}, "icon": "https://maps.gstatic.com/mapfiles/place_api/icons/generic_business-71.png", "id": "c2fc609041916ff1b5cae275f3e6d5dd984c75ce", "name": "Pantos Project Dance", "photos": [{"height": 5433, "html_attributions": ["<a href=\"https://maps.google.com/maps/contrib/101600342123874726378/photos\">Carolyn Breton</a>"], "photo_reference": "CmRaAAAAwk4DolIXO-fF7vqO4AZfzNO37te0VujG0WhsQQxXwzGyS-TaWqbz834MayksG7UBSJ1DeQd6foO5U5XiTReQRqStONMmYT06B-bD3rjX-T8D5i9_VX1ZL_MVPug-ELNbEhB13CiiJqWG32xpUDarWD9iGhRFGi1i0yypENcToeKkY-gpjJvaXw", "width": 4103}], "place_id": "ChIJxQhAem1644kR7GnXn0eoSR4", "plus_code": {"compound_code": "8WVH+QH Boston, Massachusetts, United States", "global_code": "87JC8WVH+QH"}, "reference": "ChIJxQhAem1644kR7GnXn0eoSR4", "scope": "GOOGLE", "types": ["point_of_interest", "establishment"], "vicinity": "Boston Center for the Arts, Tremont Street, Boston"}, "ChIJOxUBcW1644kRaHWypW6qILk": {"geometry": {"location": {"lat": 42.3443616, "lng": -71.0712089}, "viewport": {"northeast": {"lat": 42.3456551802915, "lng": -71.0698022197085}, "southwest": {"lat": 42.3429572197085, "lng": -71.07250018029151}}}, "icon": "https://maps.gstatic.com/mapfiles/place_api/icons/generic_business-71.png", "id": "d307bb5e9e14891ade11b3976425f076ece93540", "name": "Boston Pegasus InfoCorp", "place_id": "ChIJOxUBcW1644kRaHWypW6qILk", "plus_code": {"compound_code": "8WVH+PG Boston, Massachusetts, United States", "global_code": "87JC8WVH+PG"}, "reference": "ChIJOxUBcW1644kRaHWypW6qILk", "scope": "GOOGLE", "types": ["point_of_interest", "establishment"], "vicinity": "547 Tremont Street, Boston"}, "ChIJKz0HcG1644kR1r397miv4hc": {"geometry": {"location": {"lat": 42.3444466, "lng": -71.0712908}, "viewport": {"northeast": {"lat": 42.34569888029149, "lng": -71.06984106970849}, "southwest": {"lat": 42.34300091970849, "lng": -71.0725390302915}}}, "icon": "https://maps.gstatic.com/mapfiles/place_api/icons/school-71.png", "id": "a4c99528d179998b8b3a096ab77c8b574207cbf2", "name": "Anikaya", "place_id": "ChIJKz0HcG1644kR1r397miv4hc", "plus_code": {"compound_code": "8WVH+QF Boston, Massachusetts, United States", "global_code": "87JC8WVH+QF"}, "reference": "ChIJKz0HcG1644kR1r397miv4hc", "scope": "GOOGLE", "types": ["point_of_interest", "establishment"], "vicinity": "539 Tremont Street, Boston"}, "ChIJKQ71fm1644kRTp1hPe_s3xU": {"geometry": {"location": {"lat": 42.3449019, "lng": -71.07070019999999}, "viewport": {"northeast": {"lat": 42.3461578802915, "lng": -71.0691783697085}, "southwest": {"lat": 42.34345991970851, "lng": -71.0718763302915}}}, "icon": "https://maps.gstatic.com/mapfiles/place_api/icons/bank_dollar-71.png", "id": "bb4243acf0c4481966e57b8be573cf92b31b675c", "name": "Santander Bank", "opening_hours": {"open_now": true}, "photos": [{"height": 2326, "html_attributions": ["<a href=\"https://maps.google.com/maps/contrib/109876906446357002389/photos\">Santander Bank</a>"], "photo_reference": "CmRaAAAAKXlzYaMdozJnYkVuu9_SY51rUnwKicbzhdBx6zfCsIYOSj8uKxmAMbkgeyQS-bM4VJcaXoP8zdPemTjVb-JTbi0Uahw0t5r0Vq1AY34200sUP_-felO01_bTxr7p1T_PEhDa8_gi1nBBe3XPb3Ns3_SvGhTZdIstJif1blQbwOo28zRGQLaS2w", "width": 2326}], "place_id": "ChIJKQ71fm1644kRTp1hPe_s3xU", "plus_code": {"compound_code": "8WVH+XP Boston, Massachusetts, United States", "global_code": "87JC8WVH+XP"}, "rating": 3, "reference": "ChIJKQ71fm1644kRTp1hPe_s3xU", "scope": "GOOGLE", "types": ["bank", "insurance_agency", "finance", "point_of_interest", "establishment"], "user_ratings_total": 4, "vicinity": "521 Tremont Street, Boston"}, "ChIJq_C1aW1644kRdP1okSZCFps": {"geometry": {"location": {"lat": 42.3444034, "lng": -71.07196499999999}, "viewport": {"northeast": {"lat": 42.34555143029149, "lng": -71.0704136697085}, "southwest": {"lat": 42.34285346970849, "lng": -71.0731116302915}}}, "icon": "https://maps.gstatic.com/mapfiles/place_api/icons/restaurant-71.png", "id": "bf927ac557da7d6c1531db2713966d1bc14d1aa2", "name": "Banyan Bar + Refuge", "opening_hours": {"open_now": true}, "photos": [{"height": 3024, "html_attributions": ["<a href=\"https://maps.google.com/maps/contrib/114236507370064136083/photos\">Akash Banginwar</a>"], "photo_reference": "CmRaAAAA0-z9cgS4ClBguDBN01m9Cj23abJ_VyRJ0afUQIiiYrceJ0dOQ1abrg4-vHipmUSFOVqE2KKgIRrfB9ejinRegxKhsZHIzRAWSpstGbsZgUv3cwgPWKyVs8tOGCuRl974EhDAx6Z-8pWSSdd_KD8RAYHFGhSupa9yUkjQA914brx_YuzvDFb2tw", "width": 4032}], "place_id": "ChIJq_C1aW1644kRdP1okSZCFps", "plus_code": {"compound_code": "8WVH+Q6 Boston, Massachusetts, United States", "global_code": "87JC8WVH+Q6"}, "price_level": 2, "rating": 4.3, "reference": "ChIJq_C1aW1644kRdP1okSZCFps", "scope": "GOOGLE", "types": ["bar", "restaurant", "point_of_interest", "food", "establishment"], "user_ratings_total": 229, "vicinity": "553 Tremont Street, Boston"}, "ChIJKz0HcG1644kRTbHgnRQkF0A": {"geometry": {"location": {"lat": 42.3444466, "lng": -71.0712908}, "viewport": {"northeast": {"lat": 42.34569888029149, "lng": -71.06984106970849}, "southwest": {"lat": 42.34300091970849, "lng": -71.0725390302915}}}, "icon": "https://maps.gstatic.com/mapfiles/place_api/icons/generic_business-71.png", "id": "a3efbb2bba904297d08df682e9cac9fdc60393e1", "name": "chavez design studio", "place_id": "ChIJKz0HcG1644kRTbHgnRQkF0A", "plus_code": {"compound_code": "8WVH+QF Boston, Massachusetts, United States", "global_code": "87JC8WVH+QF"}, "reference": "ChIJKz0HcG1644kRTbHgnRQkF0A", "scope": "GOOGLE", "types": ["point_of_interest", "establishment"], "vicinity": "539 Tremont Street, Boston"}, "ChIJiRXhbG1644kRSV62TegVIjw": {"geometry": {"location": {"lat": 42.3444905, "lng": -71.0710414}, "viewport": {"northeast": {"lat": 42.3457693302915, "lng": -71.0696252697085}, "southwest": {"lat": 42.3430713697085, "lng": -71.0723232302915}}}, "icon": "https://maps.gstatic.com/mapfiles/place_api/icons/generic_business-71.png", "id": "4ae7414db9372ea21c9fdca5c16e86555c553ec3", "name": "Calderwood Pavilion (at the Boston Center for the Arts )", "place_id": "ChIJiRXhbG1644kRSV62TegVIjw", "plus_code": {"compound_code": "8WVH+QH Boston, Massachusetts, United States", "global_code": "87JC8WVH+QH"}, "reference": "ChIJiRXhbG1644kRSV62TegVIjw", "scope": "GOOGLE", "types": ["movie_theater", "point_of_interest", "establishment"], "vicinity": "647 Tremont Street, Boston"}, "ChIJKz0HcG1644kRdtKPJVl34kk": {"geometry": {"location": {"lat": 42.3443833, "lng": -71.0716321}, "viewport": {"northeast": {"lat": 42.3455939302915, "lng": -71.0701484197085}, "southwest": {"lat": 42.3428959697085, "lng": -71.07284638029151}}}, "icon": "https://maps.gstatic.com/mapfiles/place_api/icons/generic_business-71.png", "id": "40bb8c6e40f041c763bfa943c7481932bb5cb51f", "name": "Artist Studios Building at Boston Center for the Arts", "place_id": "ChIJKz0HcG1644kRdtKPJVl34kk", "plus_code": {"compound_code": "8WVH+Q8 Boston, Massachusetts, United States", "global_code": "87JC8WVH+Q8"}, "reference": "ChIJKz0HcG1644kRdtKPJVl34kk", "scope": "GOOGLE", "types": ["point_of_interest", "establishment"], "vicinity": "551 Tremont Street, Boston"}, "ChIJlSwkb21644kRfnZpJvk8-2M": {"geometry": {"location": {"lat": 42.3443833, "lng": -71.0716321}, "viewport": {"northeast": {"lat": 42.3455939302915, "lng": -71.0701484197085}, "southwest": {"lat": 42.3428959697085, "lng": -71.07284638029151}}}, "icon": "https://maps.gstatic.com/mapfiles/place_api/icons/generic_business-71.png", "id": "f27dc745767c86ae17c514d8f15530c9fb2f47e7", "name": "Alexander Korman", "place_id": "ChIJlSwkb21644kRfnZpJvk8-2M", "plus_code": {"compound_code": "8WVH+Q8 Boston, Massachusetts, United States", "global_code": "87JC8WVH+Q8"}, "reference": "ChIJlSwkb21644kRfnZpJvk8-2M", "scope": "GOOGLE", "types": ["point_of_interest", "establishment"], "vicinity": "551 Tremont Street #309, Boston"}, "ChIJgZ6pgG1644kRLYzhg8GwJbE": {"geometry": {"location": {"lat": 42.34462599999999, "lng": -71.0708619}, "viewport": {"northeast": {"lat": 42.34588868029149, "lng": -71.0694368697085}, "southwest": {"lat": 42.3431907197085, "lng": -71.0721348302915}}}, "icon": "https://maps.gstatic.com/mapfiles/place_api/icons/restaurant-71.png", "id": "5e1746b372740014931bcb33a25d5e03e3cad1cb", "name": "Barcelona Wine Bar South End", "photos": [{"height": 3736, "html_attributions": ["<a href=\"https://maps.google.com/maps/contrib/100111805032011659160/photos\">Barcelona Wine Bar South End</a>"], "photo_reference": "CmRaAAAAuNQNz8sEVg5hh8M18w3E7Hsb5XwtFxDFCFsXg2FeGb5q3XrvNX91cN-M6qcREioAM5Jo4a0V-8kFe3f9KlYNn6lp0obNxn8HDdpLLmVJCwnECjW1KpIoCRIfLqNVc2CHEhDenatzCdUbrnt1ya4t33uiGhTdfFG3Wf8UoR74p9Cs_buw5dzHWQ", "width": 8545}], "place_id": "ChIJgZ6pgG1644kRLYzhg8GwJbE", "plus_code": {"compound_code": "8WVH+VM Boston, Massachusetts, United States", "global_code": "87JC8WVH+VM"}, "price_level": 2, "rating": 4.6, "reference": "ChIJgZ6pgG1644kRLYzhg8GwJbE", "scope": "GOOGLE", "types": ["bar", "restaurant", "point_of_interest", "food", "establishment"], "user_ratings_total": 845, "vicinity": "525 Tremont Street, Boston"}, "ChIJIYBlhHJ644kR7gVeyJl-XqU": {"geometry": {"location": {"lat": 42.345356, "lng": -71.07108699999999}, "viewport": {"northeast": {"lat": 42.34664853029149, "lng": -71.0697107697085}, "southwest": {"lat": 42.3439505697085, "lng": -71.0724087302915}}}, "icon": "https://maps.gstatic.com/mapfiles/place_api/icons/generic_business-71.png", "id": "edd9150dd0593f66ea58480acb0ba03cf40fe41c", "name": "Tinyhood", "photos": [{"height": 1536, "html_attributions": ["<a href=\"https://maps.google.com/maps/contrib/114680675065412629643/photos\">Tinyhood</a>"], "photo_reference": "CmRaAAAAo0J4MH7w-0AIWl6D7BL1sdqVEIA-6ZM6c9_dWlfYJCZsaJd6s-LNCGGVUByvzZw8-n8n87rmn6OrqNexc4BJqi2xhAO1Dkn6GOlJ7uzg-FdIdHN_F7Z0KDQaJ2E3kM8yEhChf1PN-w5NWfTpXg8p-gZUGhRH3TBmzs2AIpkKbRMo1ewTCfda1g", "width": 2048}], "place_id": "ChIJIYBlhHJ644kR7gVeyJl-XqU", "plus_code": {"compound_code": "8WWH+4H Boston, Massachusetts, United States", "global_code": "87JC8WWH+4H"}, "reference": "ChIJIYBlhHJ644kR7gVeyJl-XqU", "scope": "GOOGLE", "types": ["point_of_interest", "establishment"], "vicinity": "23 Warren Avenue, Boston"}, "ChIJ2XRxn3J644kRo36UZr9MV4A": {"geometry": {"location": {"lat": 42.34540620000001, "lng": -71.0717602}, "viewport": {"northeast": {"lat": 42.3467961302915, "lng": -71.0704314697085}, "southwest": {"lat": 42.3440981697085, "lng": -71.0731294302915}}}, "icon": "https://maps.gstatic.com/mapfiles/place_api/icons/generic_business-71.png", "id": "7b682ddd0f4e5256828f27431a6190e14b229549", "name": "Boston Property Database", "place_id": "ChIJ2XRxn3J644kRo36UZr9MV4A", "plus_code": {"compound_code": "8WWH+57 Boston, Massachusetts, United States", "global_code": "87JC8WWH+57"}, "reference": "ChIJ2XRxn3J644kRo36UZr9MV4A", "scope": "GOOGLE", "types": ["real_estate_agency", "point_of_interest", "establishment"], "vicinity": "52 Gray Street # 2, Boston"}}