{"ChIJWSu0RWZ544kRn5QLWeas1H0": {"geometry": {"location": {"lat": 42.30671219999999, "lng": -71.10725740000001}, "viewport": {"northeast": {"lat": 42.30806118029149, "lng": -71.1059084197085}, "southwest": {"lat": 42.3053632197085, "lng": -71.1086063802915}}}, "icon": "https://maps.gstatic.com/mapfiles/place_api/icons/geocode-71.png", "id": "8b2179bb784e41572233472b5134de2e5ded39c2", "name": "3484-3468 Washington St", "place_id": "ChIJWSu0RWZ544kRn5QLWeas1H0", "reference": "ChIJWSu0RWZ544kRn5QLWeas1H0", "scope": "GOOGLE", "types": ["route"], "vicinity": "Boston"}, "ChIJGa6XbGZ544kRSXBjDliYCZI": {"geometry": {"location": {"lat": 42.3076966, "lng": -71.10753}, "viewport": {"northeast": {"lat": 42.30907668029149, "lng": -71.1063053197085}, "southwest": {"lat": 42.3063787197085, "lng": -71.1090032802915}}}, "icon": "https://maps.gstatic.com/mapfiles/place_api/icons/generic_recreational-71.png", "id": "572ee0b55516462fef3d0d097625c204b0457e59", "name": "Scagnoli-Nihill Athletic Complex", "place_id": "ChIJGa6XbGZ544kRSXBjDliYCZI", "reference": "ChIJGa6XbGZ544kRSXBjDliYCZI", "scope": "GOOGLE", "types": ["park", "premise", "point_of_interest", "establishment"], "vicinity": "Boston"}, "ChIJGzE9DS1l44kRoOhiASS_fHg": {"geometry": {"location": {"lat": 42.3600825, "lng": -71.0588801}, "viewport": {"northeast": {"lat": 42.40081989999999, "lng": -70.749455}, "southwest": {"lat": 42.22788, "lng": -71.191113}}}, "icon": "https://maps.gstatic.com/mapfiles/place_api/icons/geocode-71.png", "id": "06755c25d2b34d13942a4713971756a55b870ced", "name": "Boston", "photos": [{"height": 3024, "html_attributions": ["<a href=\"https://maps.google.com/maps/contrib/104670289779338733432/photos\">Natalia Zalucean</a>"], "photo_reference": "CmRaAAAAEHPsyykR17S1wL2cJ6dj6ZoxpRdOgho3VFlQBXA9AVs-BYF3WQQlA7FJOIPPYnycGdwtmhow-bQ65ko0gEdfHR0sfD5fiKZgtK6h1H1tTb6XGthluxOWEnvTdLwA7y7GEhBgLE1SQIcQCOwl65nqLuowGhSIkjI3S3Ya6Znnt6HzyFQR98v-zQ", "width": 4032}], "place_id": "ChIJGzE9DS1l44kRoOhiASS_fHg", "reference": "ChIJGzE9DS1l44kRoOhiASS_fHg", "scope": "GOOGLE", "types": ["locality", "political"], "vicinity": "Boston"}}