{"ChIJLYMresJ544kRA-1u0JmuzJU": {"geometry": {"location": {"lat": 42.3507745, "lng": -71.1215103}, "viewport": {"northeast": {"lat": 42.3521220302915, "lng": -71.1201298197085}, "southwest": {"lat": 42.3494240697085, "lng": -71.12282778029152}}}, "icon": "https://maps.gstatic.com/mapfiles/place_api/icons/geocode-71.png", "id": "ee5b7e19fb4a99939b30253c6f5b50bac50ac2be", "name": "236-222 Babcock St", "place_id": "ChIJLYMresJ544kRA-1u0JmuzJU", "reference": "ChIJLYMresJ544kRA-1u0JmuzJU", "scope": "GOOGLE", "types": ["route"], "vicinity": "Brookline"}, "ChIJk6t0ecJ544kRtk-OJy8nNK8": {"geometry": {"location": {"lat": 42.3507701, "lng": -71.12120019999999}, "viewport": {"northeast": {"lat": 42.3521346302915, "lng": -71.12000436970848}, "southwest": {"lat": 42.3494366697085, "lng": -71.12270233029149}}}, "icon": "https://maps.gstatic.com/mapfiles/place_api/icons/generic_business-71.png", "id": "ab0a687841ba224b927a4f8511449d71756fd81d", "name": "Arbour Hri Hospital: Chirieac Liana I MD", "place_id": "ChIJk6t0ecJ544kRtk-OJy8nNK8", "plus_code": {"compound_code": "9V2H+8G Brookline, Massachusetts, United States", "global_code": "87JC9V2H+8G"}, "reference": "ChIJk6t0ecJ544kRtk-OJy8nNK8", "scope": "GOOGLE", "types": ["doctor", "health", "point_of_interest", "establishment"], "vicinity": "227 Babcock Street, Brookline"}, "ChIJ4bdbeMJ544kRKfswRX4HB60": {"geometry": {"location": {"lat": 42.3507932, "lng": -71.1212268}, "viewport": {"northeast": {"lat": 42.35215618029149, "lng": -71.1200158197085}, "southwest": {"lat": 42.3494582197085, "lng": -71.1227137802915}}}, "icon": "https://maps.gstatic.com/mapfiles/place_api/icons/doctor-71.png", "id": "a18a6068ce9364e6a19c98c5fec3a3174c570120", "name": "HRI Hospital", "opening_hours": {"open_now": true}, "place_id": "ChIJ4bdbeMJ544kRKfswRX4HB60", "plus_code": {"compound_code": "9V2H+8G Brookline, Massachusetts, United States", "global_code": "87JC9V2H+8G"}, "rating": 2.2, "reference": "ChIJ4bdbeMJ544kRKfswRX4HB60", "scope": "GOOGLE", "types": ["hospital", "health", "point_of_interest", "establishment"], "user_ratings_total": 46, "vicinity": "227 Babcock Street, Brookline"}, "ChIJk6t0ecJ544kRk6TG3slgo5M": {"geometry": {"location": {"lat": 42.3507701, "lng": -71.12120019999999}, "viewport": {"northeast": {"lat": 42.3521346302915, "lng": -71.12000436970848}, "southwest": {"lat": 42.3494366697085, "lng": -71.12270233029149}}}, "icon": "https://maps.gstatic.com/mapfiles/place_api/icons/generic_business-71.png", "id": "68ead46cd451ce2d6833530eea006fac84875e12", "name": "Arbour Hri Hospital: Rathore Perveen MD", "place_id": "ChIJk6t0ecJ544kRk6TG3slgo5M", "plus_code": {"compound_code": "9V2H+8G Brookline, Massachusetts, United States", "global_code": "87JC9V2H+8G"}, "reference": "ChIJk6t0ecJ544kRk6TG3slgo5M", "scope": "GOOGLE", "types": ["doctor", "health", "point_of_interest", "establishment"], "vicinity": "227 Babcock Street, Brookline"}, "ChIJk6t0ecJ544kR3LJ_FvFRTOE": {"geometry": {"location": {"lat": 42.3507701, "lng": -71.12120019999999}, "viewport": {"northeast": {"lat": 42.3521346302915, "lng": -71.12000436970848}, "southwest": {"lat": 42.3494366697085, "lng": -71.12270233029149}}}, "icon": "https://maps.gstatic.com/mapfiles/place_api/icons/generic_business-71.png", "id": "a98715b98e3ec45f6c9eb2b2a8840d18b8166017", "name": "Arbour Hri Hospital: Felson Jerry M MD", "place_id": "ChIJk6t0ecJ544kR3LJ_FvFRTOE", "plus_code": {"compound_code": "9V2H+8G Brookline, Massachusetts, United States", "global_code": "87JC9V2H+8G"}, "reference": "ChIJk6t0ecJ544kR3LJ_FvFRTOE", "scope": "GOOGLE", "types": ["doctor", "health", "point_of_interest", "establishment"], "vicinity": "227 Babcock Street, Brookline"}, "ChIJk6t0ecJ544kRkx5A4h1ptzc": {"geometry": {"location": {"lat": 42.3507932, "lng": -71.1212268}, "viewport": {"northeast": {"lat": 42.35215618029149, "lng": -71.1200158197085}, "southwest": {"lat": 42.3494582197085, "lng": -71.1227137802915}}}, "icon": "https://maps.gstatic.com/mapfiles/place_api/icons/generic_business-71.png", "id": "2685744c5a16fc27a9f5121d1544313d2076107c", "name": "Arbour Hri Hospital: Dreyfuss Daniel A MD", "place_id": "ChIJk6t0ecJ544kRkx5A4h1ptzc", "plus_code": {"compound_code": "9V2H+8G Brookline, Massachusetts, United States", "global_code": "87JC9V2H+8G"}, "rating": 5, "reference": "ChIJk6t0ecJ544kRkx5A4h1ptzc", "scope": "GOOGLE", "types": ["doctor", "health", "point_of_interest", "establishment"], "user_ratings_total": 1, "vicinity": "227 Babcock Street, Brookline"}, "ChIJk6t0ecJ544kR7BQCA9tsdyo": {"geometry": {"location": {"lat": 42.3507761, "lng": -71.1212243}, "viewport": {"northeast": {"lat": 42.3521393802915, "lng": -71.12001611970848}, "southwest": {"lat": 42.3494414197085, "lng": -71.1227140802915}}}, "icon": "https://maps.gstatic.com/mapfiles/place_api/icons/generic_business-71.png", "id": "654bd78df67392dc873eb7893cc29ca7132a9a42", "name": "Dr. Elizabethq A. Murphy, MD", "place_id": "ChIJk6t0ecJ544kR7BQCA9tsdyo", "plus_code": {"compound_code": "9V2H+8G Brookline, Massachusetts, United States", "global_code": "87JC9V2H+8G"}, "reference": "ChIJk6t0ecJ544kR7BQCA9tsdyo", "scope": "GOOGLE", "types": ["doctor", "health", "point_of_interest", "establishment"], "vicinity": "227 Babcock Street, Brookline"}, "ChIJNwiyecJ544kRDFhO-cZTCFA": {"geometry": {"location": {"lat": 42.3507761, "lng": -71.1212243}, "viewport": {"northeast": {"lat": 42.3521393802915, "lng": -71.12001611970848}, "southwest": {"lat": 42.3494414197085, "lng": -71.1227140802915}}}, "icon": "https://maps.gstatic.com/mapfiles/place_api/icons/generic_business-71.png", "id": "1c62a35cf0111dfe767ba73991e403bc7a501952", "name": "Dr. Alia Goodheart, MD", "place_id": "ChIJNwiyecJ544kRDFhO-cZTCFA", "plus_code": {"compound_code": "9V2H+8G Brookline, Massachusetts, United States", "global_code": "87JC9V2H+8G"}, "reference": "ChIJNwiyecJ544kRDFhO-cZTCFA", "scope": "GOOGLE", "types": ["doctor", "health", "point_of_interest", "establishment"], "vicinity": "227 Babcock Street, Brookline"}, "ChIJWY44ccJ544kRnUKy47jQdmQ": {"geometry": {"location": {"lat": 42.3507311, "lng": -71.1216716}, "viewport": {"northeast": {"lat": 42.3520746302915, "lng": -71.12024551970849}, "southwest": {"lat": 42.3493766697085, "lng": -71.1229434802915}}}, "icon": "https://maps.gstatic.com/mapfiles/place_api/icons/generic_business-71.png", "id": "ed7c66e9d5cf085c5c86feba6dae0b3d1cbabdd5", "name": "Hamilton Group", "place_id": "ChIJWY44ccJ544kRnUKy47jQdmQ", "plus_code": {"compound_code": "9V2H+78 Brookline, Massachusetts, United States", "global_code": "87JC9V2H+78"}, "reference": "ChIJWY44ccJ544kRnUKy47jQdmQ", "scope": "GOOGLE", "types": ["point_of_interest", "establishment"], "vicinity": "222 Babcock Street, Brookline"}, "ChIJk6t0ecJ544kRFvVjiuoXdSE": {"geometry": {"location": {"lat": 42.3507761, "lng": -71.1212243}, "viewport": {"northeast": {"lat": 42.3521393802915, "lng": -71.12001611970848}, "southwest": {"lat": 42.3494414197085, "lng": -71.1227140802915}}}, "icon": "https://maps.gstatic.com/mapfiles/place_api/icons/generic_business-71.png", "id": "c88b616bc245710ad7ab07dcb1b15e77ce08a50d", "name": "Dr. Raphael M. Weinstein, MD", "place_id": "ChIJk6t0ecJ544kRFvVjiuoXdSE", "plus_code": {"compound_code": "9V2H+8G Brookline, Massachusetts, United States", "global_code": "87JC9V2H+8G"}, "reference": "ChIJk6t0ecJ544kRFvVjiuoXdSE", "scope": "GOOGLE", "types": ["doctor", "health", "point_of_interest", "establishment"], "vicinity": "227 Babcock Street, Brookline"}, "ChIJOXZXfMJ544kRmHfmM0CiX-g": {"geometry": {"location": {"lat": 42.3510711, "lng": -71.12163009999999}, "viewport": {"northeast": {"lat": 42.3524817302915, "lng": -71.1202662697085}, "southwest": {"lat": 42.3497837697085, "lng": -71.1229642302915}}}, "icon": "https://maps.gstatic.com/mapfiles/place_api/icons/generic_business-71.png", "id": "894d55a7510e00eda0e2d07a869d9b4621ec6f2b", "name": "222-230 Babcock Street Apartments", "photos": [{"height": 1944, "html_attributions": ["<a href=\"https://maps.google.com/maps/contrib/112490936188023660798/photos\">Maureen Gilreath</a>"], "photo_reference": "CmRaAAAAgQRTQ39aI3MvcT6ast09PSc5gOA57zG3yCVhyiKOPeZqqEjvOLy4wcqU1e6y1npGmX4czljZbK9ptI0TSFAWPPQmx0-iaw5G46q8JURNtIdmyf-QLw8jPVNGfOs4IcgbEhDp7NgK162p_9L20-4N-16bGhSfew-E_rTpklI9FzBWVZirMzHq2Q", "width": 2592}], "place_id": "ChIJOXZXfMJ544kRmHfmM0CiX-g", "plus_code": {"compound_code": "9V2H+C8 Brookline, Massachusetts, United States", "global_code": "87JC9V2H+C8"}, "reference": "ChIJOXZXfMJ544kRmHfmM0CiX-g", "scope": "GOOGLE", "types": ["point_of_interest", "establishment"], "vicinity": "222-230 Babcock Street, Brookline"}, "ChIJG6AfecJ544kRvxuiYS1h-mM": {"geometry": {"location": {"lat": 42.35075799999999, "lng": -71.1212056}, "viewport": {"northeast": {"lat": 42.35211778029149, "lng": -71.1200086697085}, "southwest": {"lat": 42.3494198197085, "lng": -71.1227066302915}}}, "icon": "https://maps.gstatic.com/mapfiles/place_api/icons/generic_business-71.png", "id": "f513c9d01cc6eaf0c15b86d4ccd56e711f3ba882", "name": "Dr. Anthony Raynes", "place_id": "ChIJG6AfecJ544kRvxuiYS1h-mM", "plus_code": {"compound_code": "9V2H+8G Brookline, Massachusetts, United States", "global_code": "87JC9V2H+8G"}, "reference": "ChIJG6AfecJ544kRvxuiYS1h-mM", "scope": "GOOGLE", "types": ["doctor", "health", "point_of_interest", "establishment"], "vicinity": "227 Babcock Street, Brookline"}, "ChIJoUNl529344kR4_gDWAodra0": {"geometry": {"location": {"lat": 42.3507701, "lng": -71.12120019999999}, "viewport": {"northeast": {"lat": 42.3521346302915, "lng": -71.12000436970848}, "southwest": {"lat": 42.3494366697085, "lng": -71.12270233029149}}}, "icon": "https://maps.gstatic.com/mapfiles/place_api/icons/generic_business-71.png", "id": "4730dfe71d993684c6184dc2f3e767d233d0f5a3", "name": "Scott Haas, PhD", "place_id": "ChIJoUNl529344kR4_gDWAodra0", "plus_code": {"compound_code": "9V2H+8G Brookline, Massachusetts, United States", "global_code": "87JC9V2H+8G"}, "reference": "ChIJoUNl529344kR4_gDWAodra0", "scope": "GOOGLE", "types": ["health", "point_of_interest", "establishment"], "vicinity": "227 Babcock Street, Brookline"}, "ChIJs1-MesJ544kRhaLDVaC7CnM": {"geometry": {"location": {"lat": 42.35048310000001, "lng": -71.1218963}, "viewport": {"northeast": {"lat": 42.3518429802915, "lng": -71.1203574697085}, "southwest": {"lat": 42.3491450197085, "lng": -71.1230554302915}}}, "icon": "https://maps.gstatic.com/mapfiles/place_api/icons/generic_business-71.png", "id": "b884ad75e682e82e166291b63ad0c086164e2264", "name": "Zipcar", "opening_hours": {"open_now": true}, "photos": [{"height": 499, "html_attributions": ["<a href=\"https://maps.google.com/maps/contrib/110597339589589724634/photos\">Zipcar</a>"], "photo_reference": "CmRaAAAAP2flhSUkwcZf5hM-Qsi_JEdbzLA5CYcgs0Xk1hsavrewrVzLAt5dFppG0LgHiBvhxUTcucpS4NZ_dgXUzIb-1zjpzBw7GkQjf5hcVr_KJa01df9cc5Ht5hjWLzYtSRqxEhAsfx48IpV-ZiXPRP9kdDDwGhQASuADugK_qA2sUJAYHBfJbOcvPQ", "width": 499}], "place_id": "ChIJs1-MesJ544kRhaLDVaC7CnM", "plus_code": {"compound_code": "9V2H+56 Brookline, Massachusetts, United States", "global_code": "87JC9V2H+56"}, "reference": "ChIJs1-MesJ544kRhaLDVaC7CnM", "scope": "GOOGLE", "types": ["car_rental", "point_of_interest", "establishment"], "vicinity": "222 Babcock Street, Brookline"}, "ChIJhTRCCGV544kRjPbMFHBQsn8": {"geometry": {"location": {"lat": 42.3502709, "lng": -71.1212011}, "viewport": {"northeast": {"lat": 42.3516075302915, "lng": -71.11999116970848}, "southwest": {"lat": 42.3489095697085, "lng": -71.1226891302915}}}, "icon": "https://maps.gstatic.com/mapfiles/place_api/icons/generic_business-71.png", "id": "d4f28ab4b2d0b8e45da8fb86e4bec9a9a2ff7af8", "name": "HRI Partial Hospitalization Programs", "place_id": "ChIJhTRCCGV544kRjPbMFHBQsn8", "plus_code": {"compound_code": "9V2H+4G Brookline, Massachusetts, United States", "global_code": "87JC9V2H+4G"}, "reference": "ChIJhTRCCGV544kRjPbMFHBQsn8", "scope": "GOOGLE", "types": ["health", "point_of_interest", "establishment"], "vicinity": "209 Babcock Street, Allston"}, "ChIJhZirQQB544kRB9LbXEfedZQ": {"geometry": {"location": {"lat": 42.33176419999999, "lng": -71.1211635}, "viewport": {"northeast": {"lat": 42.3518109, "lng": -71.1056969}, "southwest": {"lat": 42.29459689999999, "lng": -71.1789959}}}, "icon": "https://maps.gstatic.com/mapfiles/place_api/icons/geocode-71.png", "id": "92986b2d1f69af2f2a7e29d34ced8adfa8573beb", "name": "Brookline", "photos": [{"height": 651, "html_attributions": ["<a href=\"https://maps.google.com/maps/contrib/114772942214832951419/photos\">Michael Ahn</a>"], "photo_reference": "CmRaAAAAyqMB4CgXrw1nqHSWvjkkQoC09j7pVRZWnFEGgNwhxX0gQ0Nw8PvZpUv31szLB_h51JaH4vqf7It-TQD4nj-m9T6OJPB4R-fnT8TvEco1j7aTOu7SGgcIs2hfOQ0opMXjEhDW4rV-JebHgCcYxawgycWHGhSSSF4TCJCAhA37H4I1frXUw85oQg", "width": 1608}], "place_id": "ChIJhZirQQB544kRB9LbXEfedZQ", "reference": "ChIJhZirQQB544kRB9LbXEfedZQ", "scope": "GOOGLE", "types": ["locality", "political"], "vicinity": "Brookline"}}