{"ChIJx5c_iY1644kR7GWrEfah1UA": {"geometry": {"location": {"lat": 42.3330741, "lng": -71.0382083}, "viewport": {"northeast": {"lat": 42.3344196302915, "lng": -71.0364906}, "southwest": {"lat": 42.3317216697085, "lng": -71.0399258}}}, "icon": "https://maps.gstatic.com/mapfiles/place_api/icons/geocode-71.png", "id": "19edeb5ac1faf079d4f1bb52ee56b90ce4e3c9a5", "name": "568-538 E 6th St", "place_id": "ChIJx5c_iY1644kR7GWrEfah1UA", "reference": "ChIJx5c_iY1644kR7GWrEfah1UA", "scope": "GOOGLE", "types": ["route"], "vicinity": "Boston"}, "ChIJ8yjTi41644kRgsos6cBJqX0": {"geometry": {"location": {"lat": 42.3332373, "lng": -71.0380302}, "viewport": {"northeast": {"lat": 42.3345069302915, "lng": -71.0366776197085}, "southwest": {"lat": 42.3318089697085, "lng": -71.0393755802915}}}, "icon": "https://maps.gstatic.com/mapfiles/place_api/icons/generic_business-71.png", "id": "2e987c1280bcec5d4d5778c880cd499cd7571a43", "name": "Rosemary Bowman, LICSW", "place_id": "ChIJ8yjTi41644kRgsos6cBJqX0", "plus_code": {"compound_code": "8XM6+7Q Boston, Massachusetts, United States", "global_code": "87JC8XM6+7Q"}, "reference": "ChIJ8yjTi41644kRgsos6cBJqX0", "scope": "GOOGLE", "types": ["doctor", "health", "point_of_interest", "establishment"], "vicinity": "Boston"}, "ChIJGzE9DS1l44kRoOhiASS_fHg": {"geometry": {"location": {"lat": 42.3600825, "lng": -71.0588801}, "viewport": {"northeast": {"lat": 42.40081989999999, "lng": -70.749455}, "southwest": {"lat": 42.22788, "lng": -71.191113}}}, "icon": "https://maps.gstatic.com/mapfiles/place_api/icons/geocode-71.png", "id": "06755c25d2b34d13942a4713971756a55b870ced", "name": "Boston", "photos": [{"height": 3024, "html_attributions": ["<a href=\"https://maps.google.com/maps/contrib/104670289779338733432/photos\">Natalia Zalucean</a>"], "photo_reference": "CmRaAAAA0iPgdn8_LK1yFNo6h9P6hte3ZTlOnxGC8Ib7hdnYvQQBHKACC3uW8RWfcKU17By6Xl1S5Z9SizaqBqs3oCTQHCz8pBZzXCFucER4e6S6hvXhFDABtxOueJTCk5f8x99tEhBjXjNuyaDetw4mmBNDctmUGhTnd3BFpbe9FzxWsKvOhBjINXTimg", "width": 4032}], "place_id": "ChIJGzE9DS1l44kRoOhiASS_fHg", "reference": "ChIJGzE9DS1l44kRoOhiASS_fHg", "scope": "GOOGLE", "types": ["locality", "political"], "vicinity": "Boston"}}