{"ChIJMzscA4l544kR-n8J8UmAlmI": {"geometry": {"location": {"lat": 42.3334681, "lng": -71.101015}, "viewport": {"northeast": {"lat": 42.3348170302915, "lng": -71.09966596970851}, "southwest": {"lat": 42.3321190697085, "lng": -71.10236393029152}}}, "icon": "https://maps.gstatic.com/mapfiles/place_api/icons/geocode-71.png", "id": "2a4bc45c321e04c5be7da9c9b3626784cafca00b", "name": "81-127 St Alphonsus St", "place_id": "ChIJMzscA4l544kR-n8J8UmAlmI", "reference": "ChIJMzscA4l544kR-n8J8UmAlmI", "scope": "GOOGLE", "types": ["route"], "vicinity": "Boston"}, "ChIJEXeL5Ih544kRjGzg8ylzpGQ": {"geometry": {"location": {"lat": 42.3335574, "lng": -71.10064799999999}, "viewport": {"northeast": {"lat": 42.3349510802915, "lng": -71.0994239697085}, "southwest": {"lat": 42.3322531197085, "lng": -71.1021219302915}}}, "icon": "https://maps.gstatic.com/mapfiles/place_api/icons/school-71.png", "id": "9979332e5a5e4f778ac668ad146949fcbe3eb863", "name": "Our Lady of Perpetual Help Mission Grammar School", "photos": [{"height": 1836, "html_attributions": ["<a href=\"https://maps.google.com/maps/contrib/116636534777777206540/photos\">Thomas Graham</a>"], "photo_reference": "CmRaAAAAw1BhywihSCYmlCieSpiYBrTqnqchqVXbGHW16JPbI-ahTMNy7fVmH3POaAEkRTU7B2zAvwtE5wbienNOUnMKAn7glObJdNoUsRPVJTTm-f4K8GYm3zWDQ_ZlEe749MiqEhBx7QBBrJxXHkXAVnhJo_1-GhRPUWmy5_DTBS9THpfiDjsjJhZHPA", "width": 3264}], "place_id": "ChIJEXeL5Ih544kRjGzg8ylzpGQ", "plus_code": {"compound_code": "8VMX+CP Boston, Massachusetts, United States", "global_code": "87JC8VMX+CP"}, "rating": 3.4, "reference": "ChIJEXeL5Ih544kRjGzg8ylzpGQ", "scope": "GOOGLE", "types": ["point_of_interest", "school", "establishment"], "user_ratings_total": 7, "vicinity": "94 Saint Alphonsus Street, Boston"}, "ChIJ13zX34h544kRz4a7IctnVAk": {"geometry": {"location": {"lat": 42.3335034, "lng": -71.101778}, "viewport": {"northeast": {"lat": 42.3347711802915, "lng": -71.10047831970849}, "southwest": {"lat": 42.3320732197085, "lng": -71.1031762802915}}}, "icon": "https://maps.gstatic.com/mapfiles/place_api/icons/school-71.png", "id": "8bb1f80806cd2d39212e37b6e2786b89c43696a3", "name": "Franklin Square House Day Care", "opening_hours": {"open_now": true}, "place_id": "ChIJ13zX34h544kRz4a7IctnVAk", "plus_code": {"compound_code": "8VMX+C7 Boston, Massachusetts, United States", "global_code": "87JC8VMX+C7"}, "rating": 5, "reference": "ChIJ13zX34h544kRz4a7IctnVAk", "scope": "GOOGLE", "types": ["point_of_interest", "establishment"], "user_ratings_total": 1, "vicinity": "1575 Tremont Street, Roxbury Crossing"}, "ChIJ13zX34h544kRU1IEaHQAJds": {"geometry": {"location": {"lat": 42.3334361, "lng": -71.1016954}, "viewport": {"northeast": {"lat": 42.33472048029149, "lng": -71.10038561970849}, "southwest": {"lat": 42.3320225197085, "lng": -71.1030835802915}}}, "icon": "https://maps.gstatic.com/mapfiles/place_api/icons/generic_business-71.png", "id": "4195909dda9464ef4552e9d2a48f4bd5e23389e7", "name": "The Longwood", "opening_hours": {"open_now": true}, "photos": [{"height": 399, "html_attributions": ["<a href=\"https://maps.google.com/maps/contrib/109269532025641141109/photos\">The Longwood</a>"], "photo_reference": "CmRaAAAArSWMSDF2F7WIN-ad7BB6vK0q40UEjDMUuotIFsDTtZdVMa4waH_0uEZpei95FLd19JTqPNhgLbHZMNQdLn-CiWE7FR3W5Y5AaxqT6uBdToW4d9sEVUO0aCFI7fRwgx7fEhAgDGaeKdqyn-TJvhGtl2CGGhSLKzOJx13HizVqqfhxsXuxEhs32Q", "width": 600}], "place_id": "ChIJ13zX34h544kRU1IEaHQAJds", "plus_code": {"compound_code": "8VMX+98 Boston, Massachusetts, United States", "global_code": "87JC8VMX+98"}, "rating": 4.2, "reference": "ChIJ13zX34h544kRU1IEaHQAJds", "scope": "GOOGLE", "types": ["point_of_interest", "establishment"], "user_ratings_total": 6, "vicinity": "1575 Tremont Street, Boston"}, "ChIJk5mtD4l544kRPOGIX-DE8tc": {"geometry": {"location": {"lat": 42.33420510000001, "lng": -71.1008744}, "viewport": {"northeast": {"lat": 42.3355485802915, "lng": -71.09950906970849}, "southwest": {"lat": 42.3328506197085, "lng": -71.10220703029151}}}, "icon": "https://maps.gstatic.com/mapfiles/place_api/icons/generic_business-71.png", "id": "47bad0c11d56abcf370972a4a7c2dbef7f4ea7ea", "name": "CityView at Longwood Apartments", "opening_hours": {"open_now": true}, "photos": [{"height": 1080, "html_attributions": ["<a href=\"https://maps.google.com/maps/contrib/101245574691765628160/photos\">CityView at Longwood Apartments</a>"], "photo_reference": "CmRaAAAAi8brdejrQwR9p0XLqk4AdB79pk_mjDcW1oax_y3epxSt-wnNQkalvk0U5yGFnOmEz-8foPmNMGx9M8Vkz6DfrUl2L5Xx9FSOI3ef4jpRXajHXObw4gi46C4Wf_LKDCWUEhAfxspnFKMTikY9wRyFOHGrGhS5qACtgYfBHjYg3BCePJcZGkBBMA", "width": 1920}], "place_id": "ChIJk5mtD4l544kRPOGIX-DE8tc", "plus_code": {"compound_code": "8VMX+MM Boston, Massachusetts, United States", "global_code": "87JC8VMX+MM"}, "rating": 3.5, "reference": "ChIJk5mtD4l544kRPOGIX-DE8tc", "scope": "GOOGLE", "types": ["point_of_interest", "establishment"], "user_ratings_total": 83, "vicinity": "75 Saint Alphonsus Street, Roxbury Crossing"}, "ChIJk5mtD4l544kRGyHY73Adeag": {"geometry": {"location": {"lat": 42.33419200000001, "lng": -71.100887}, "viewport": {"northeast": {"lat": 42.3355341802915, "lng": -71.09951796970849}, "southwest": {"lat": 42.3328362197085, "lng": -71.10221593029151}}}, "icon": "https://maps.gstatic.com/mapfiles/place_api/icons/generic_business-71.png", "id": "c62ea007af4d0278e4fa966924c4187df81f33df", "name": "Dr. Jennifer J. Hong, DMD", "place_id": "ChIJk5mtD4l544kRGyHY73Adeag", "plus_code": {"compound_code": "8VMX+MJ Boston, Massachusetts, United States", "global_code": "87JC8VMX+MJ"}, "reference": "ChIJk5mtD4l544kRGyHY73Adeag", "scope": "GOOGLE", "types": ["dentist", "health", "point_of_interest", "establishment"], "vicinity": "75 Saint Alphonsus Street, Boston"}, "ChIJk5mtD4l544kRDpe-GuUiaTA": {"geometry": {"location": {"lat": 42.33419200000001, "lng": -71.100887}, "viewport": {"northeast": {"lat": 42.3355341802915, "lng": -71.09951796970849}, "southwest": {"lat": 42.3328362197085, "lng": -71.10221593029151}}}, "icon": "https://maps.gstatic.com/mapfiles/place_api/icons/generic_business-71.png", "id": "6448a92c5e5287b78dca4beac8b44321cc703f08", "name": "Dr. Yu-Jung Y. Chen, DDS", "place_id": "ChIJk5mtD4l544kRDpe-GuUiaTA", "plus_code": {"compound_code": "8VMX+MJ Boston, Massachusetts, United States", "global_code": "87JC8VMX+MJ"}, "reference": "ChIJk5mtD4l544kRDpe-GuUiaTA", "scope": "GOOGLE", "types": ["doctor", "health", "point_of_interest", "establishment"], "vicinity": "75 Saint Alphonsus Street, Boston"}, "ChIJGzE9DS1l44kRoOhiASS_fHg": {"geometry": {"location": {"lat": 42.3600825, "lng": -71.0588801}, "viewport": {"northeast": {"lat": 42.40081989999999, "lng": -70.749455}, "southwest": {"lat": 42.22788, "lng": -71.191113}}}, "icon": "https://maps.gstatic.com/mapfiles/place_api/icons/geocode-71.png", "id": "06755c25d2b34d13942a4713971756a55b870ced", "name": "Boston", "photos": [{"height": 3024, "html_attributions": ["<a href=\"https://maps.google.com/maps/contrib/104670289779338733432/photos\">Natalia Zalucean</a>"], "photo_reference": "CmRaAAAAeZwo3rKQ8mejFwgtYJ1N7DgYEeHEyhk9XIa1RL7KfrU5184l-6b5iewc_pMHYnvvN0iYb-ba8HiF9IyGkofd5dF41SOpJDLHFglJl_x2hl_MoABya1nv1QEE2SdgWZlFEhAhUQWfsFyC9ygunO0dIyBOGhSxh0BtVqBdHfqaYIoMkY6QJDbQPQ", "width": 4032}], "place_id": "ChIJGzE9DS1l44kRoOhiASS_fHg", "reference": "ChIJGzE9DS1l44kRoOhiASS_fHg", "scope": "GOOGLE", "types": ["locality", "political"], "vicinity": "Boston"}}