{"ChIJ26x2qa1744kRUxc5QQY6O0Y": {"geometry": {"location": {"lat": 42.3119048, "lng": -71.0591049}, "viewport": {"northeast": {"lat": 42.31364565000005, "lng": -71.0577814197085}, "southwest": {"lat": 42.31017104999995, "lng": -71.06047938029151}}}, "icon": "https://maps.gstatic.com/mapfiles/place_api/icons/geocode-71.png", "id": "5fdebdab6b255b117e216e75c7dca17b9d8b9b26", "name": "87-129 Pleasant St", "place_id": "ChIJ26x2qa1744kRUxc5QQY6O0Y", "reference": "ChIJ26x2qa1744kRUxc5QQY6O0Y", "scope": "GOOGLE", "types": ["route"], "vicinity": "Boston"}, "ChIJJRGTU6x744kRCWOIpuGeQsk": {"geometry": {"location": {"lat": 42.31147199999999, "lng": -71.058593}, "viewport": {"northeast": {"lat": 42.3128107802915, "lng": -71.05715431970849}, "southwest": {"lat": 42.3101128197085, "lng": -71.05985228029151}}}, "icon": "https://maps.gstatic.com/mapfiles/place_api/icons/generic_business-71.png", "id": "50de229ccaf046eb223ab52b72671288b99b7872", "name": "Boys & Girls Clubs of Dorchester | Colonel Daniel Marr Boys & Girls Clubhouse", "photos": [{"height": 1536, "html_attributions": ["<a href=\"https://maps.google.com/maps/contrib/104945857402819476896/photos\">September Rogers</a>"], "photo_reference": "CmRaAAAAFY9Gl4PhHyOtf9Fk2HskupQ6zIJoDRT2BQXaeO4b3lKFomlvmcEJOf6VkMfwBECcFsdIJPw9f9l_Ur4NXWfKj4oOYDVctWXQaXBn-7YTtQXpLmXLGEhJjuZL4BxMcZ37EhDLoy5EISbye7PXypZldMZiGhR1bI9U9lPprl7lHvZRqxScbTpZZQ", "width": 1536}], "place_id": "ChIJJRGTU6x744kRCWOIpuGeQsk", "plus_code": {"compound_code": "8W6R+HH Boston, Massachusetts, United States", "global_code": "87JC8W6R+HH"}, "rating": 4.4, "reference": "ChIJJRGTU6x744kRCWOIpuGeQsk", "scope": "GOOGLE", "types": ["point_of_interest", "establishment"], "user_ratings_total": 19, "vicinity": "35 Deer Street, Dorchester"}, "ChIJJRGTU6x744kROatLV1jMIoA": {"geometry": {"location": {"lat": 42.31152799999999, "lng": -71.058571}, "viewport": {"northeast": {"lat": 42.31286623029149, "lng": -71.05713711970849}, "southwest": {"lat": 42.31016826970849, "lng": -71.0598350802915}}}, "icon": "https://maps.gstatic.com/mapfiles/place_api/icons/school-71.png", "id": "13a34740dc5d9fe83a1969772ba5d930241d692d", "name": "Colonel Daniel Marr & Boys Clb", "photos": [{"height": 581, "html_attributions": ["<a href=\"https://maps.google.com/maps/contrib/115554877978614568435/photos\">Lisa Valenti</a>"], "photo_reference": "CmRaAAAAE3g0FfA7eQrNEdmfsO1NyVPcfWr5UGYmFefDw9WeBBoMUwMyt03kyKnAYFp74N-xf4q8vvJq3bK2dVRcN7f_2Cno0Xq6BAdi2CR3gkKeTQAHGOTrTZLL9f032t9R7y7pEhAyUbzmBZKdHP6Tk6jGTzquGhQCTA3kel7Ftfg-p3AAtfkTzJAJBA", "width": 1032}], "place_id": "ChIJJRGTU6x744kROatLV1jMIoA", "plus_code": {"compound_code": "8W6R+JH Boston, Massachusetts, United States", "global_code": "87JC8W6R+JH"}, "reference": "ChIJJRGTU6x744kROatLV1jMIoA", "scope": "GOOGLE", "types": ["point_of_interest", "establishment"], "vicinity": "35 Deer Street, Dorchester"}, "ChIJD3GFtq1744kRLLew3HrdcTI": {"geometry": {"location": {"lat": 42.31105700000001, "lng": -71.059105}, "viewport": {"northeast": {"lat": 42.3124313802915, "lng": -71.0578859697085}, "southwest": {"lat": 42.30973341970851, "lng": -71.0605839302915}}}, "icon": "https://maps.gstatic.com/mapfiles/place_api/icons/lodging-71.png", "id": "bea0fa0873962b8b34f279cb34dd0dcc9d203011", "name": "Pine Street Inn", "place_id": "ChIJD3GFtq1744kRLLew3HrdcTI", "plus_code": {"compound_code": "8W6R+C9 Boston, Massachusetts, United States", "global_code": "87JC8W6R+C9"}, "reference": "ChIJD3GFtq1744kRLLew3HrdcTI", "scope": "GOOGLE", "types": ["lodging", "point_of_interest", "establishment"], "vicinity": "136 Pleasant Street, Dorchester"}, "ChIJAQDwUqx744kRdRNT1WXaiDE": {"geometry": {"location": {"lat": 42.3114902, "lng": -71.0585517}, "viewport": {"northeast": {"lat": 42.3128301302915, "lng": -71.0571314697085}, "southwest": {"lat": 42.3101321697085, "lng": -71.05982943029151}}}, "icon": "https://maps.gstatic.com/mapfiles/place_api/icons/generic_business-71.png", "id": "f5df99de162fbfc00f5ecd0cce9b948043ee3aa5", "name": "The Anointed Church", "place_id": "ChIJAQDwUqx744kRdRNT1WXaiDE", "plus_code": {"compound_code": "8W6R+HH Boston, Massachusetts, United States", "global_code": "87JC8W6R+HH"}, "reference": "ChIJAQDwUqx744kRdRNT1WXaiDE", "scope": "GOOGLE", "types": ["point_of_interest", "establishment"], "vicinity": "35 Deer Street, Boston"}, "ChIJYcTjUqx744kRxxhYSHEDdTY": {"geometry": {"location": {"lat": 42.3115182, "lng": -71.0585712}, "viewport": {"northeast": {"lat": 42.3128565302915, "lng": -71.0571383197085}, "southwest": {"lat": 42.3101585697085, "lng": -71.05983628029152}}}, "icon": "https://maps.gstatic.com/mapfiles/place_api/icons/school-71.png", "id": "cb894e572df7c0aa3c22093a387ba5920ff4a85a", "name": "BGC Savin Hill", "place_id": "ChIJYcTjUqx744kRxxhYSHEDdTY", "plus_code": {"compound_code": "8W6R+JH Boston, Massachusetts, United States", "global_code": "87JC8W6R+JH"}, "reference": "ChIJYcTjUqx744kRxxhYSHEDdTY", "scope": "GOOGLE", "types": ["university", "point_of_interest", "establishment"], "vicinity": "Deer Street, Dorchester"}, "ChIJW2ZPUKx744kRW4qJjUIOoq0": {"geometry": {"location": {"lat": 42.3113981, "lng": -71.0580897}, "viewport": {"northeast": {"lat": 42.3127159302915, "lng": -71.05648951970849}, "southwest": {"lat": 42.3100179697085, "lng": -71.0591874802915}}}, "icon": "https://maps.gstatic.com/mapfiles/place_api/icons/shopping-71.png", "id": "dbe5b026cee75b3f3b5f8877abd060896506f7e6", "name": "Nhu Lan Baguette", "opening_hours": {"open_now": true}, "photos": [{"height": 1836, "html_attributions": ["<a href=\"https://maps.google.com/maps/contrib/106398696255881404080/photos\">Nadine Nelson</a>"], "photo_reference": "CmRaAAAA_bD0DewY-OyN1poLZoTbaCrtMO2Lrjzs7Gdzr4yluMCoNUU3hMHNiwbGCDyuFI-GGScAcsCGqgC142pUGQCH4PnM-5FE5t3NBHrIgRLIjDDDRgtqX8FnURQ7CewQz4tgEhD_DWW-ukifwkViKzbt21m9GhTamnPXrBsUKZDckRfVg_P-twVxEQ", "width": 3264}], "place_id": "ChIJW2ZPUKx744kRW4qJjUIOoq0", "plus_code": {"compound_code": "8W6R+HQ Boston, Massachusetts, United States", "global_code": "87JC8W6R+HQ"}, "price_level": 1, "rating": 4.1, "reference": "ChIJW2ZPUKx744kRW4qJjUIOoq0", "scope": "GOOGLE", "types": ["meal_takeaway", "store", "restaurant", "point_of_interest", "food", "establishment"], "user_ratings_total": 28, "vicinity": "1155 Dorchester Avenue, Dorchester"}, "ChIJOUmmT6x744kRfx-HyLsl5Jk": {"geometry": {"location": {"lat": 42.3111605, "lng": -71.0580804}, "viewport": {"northeast": {"lat": 42.3125315302915, "lng": -71.05692376970849}, "southwest": {"lat": 42.3098335697085, "lng": -71.0596217302915}}}, "icon": "https://maps.gstatic.com/mapfiles/place_api/icons/shopping-71.png", "id": "b5c62ad8843bbfb068603d7c90031d4741f1b75c", "name": "Lucky Supermarket", "place_id": "ChIJOUmmT6x744kRfx-HyLsl5Jk", "plus_code": {"compound_code": "8W6R+FQ Boston, Massachusetts, United States", "global_code": "87JC8W6R+FQ"}, "rating": 4, "reference": "ChIJOUmmT6x744kRfx-HyLsl5Jk", "scope": "GOOGLE", "types": ["supermarket", "grocery_or_supermarket", "store", "point_of_interest", "food", "establishment"], "user_ratings_total": 2, "vicinity": "Dorchester"}, "ChIJ8X7MtK1744kRAstPJQ1YqEw": {"geometry": {"location": {"lat": 42.31100190000001, "lng": -71.0587374}, "viewport": {"northeast": {"lat": 42.31236278029149, "lng": -71.05735441970849}, "southwest": {"lat": 42.30966481970849, "lng": -71.06005238029151}}}, "icon": "https://maps.gstatic.com/mapfiles/place_api/icons/generic_recreational-71.png", "id": "f1634110a72b096a25da53f43cf19a080aa9b6ca", "name": "Deer Street Park", "place_id": "ChIJ8X7MtK1744kRAstPJQ1YqEw", "reference": "ChIJ8X7MtK1744kRAstPJQ1YqEw", "scope": "GOOGLE", "types": ["park", "premise", "point_of_interest", "establishment"], "vicinity": "Boston"}, "ChIJT7s8-ax744kRgffd7RYzc3w": {"geometry": {"location": {"lat": 42.3121723, "lng": -71.0584124}, "viewport": {"northeast": {"lat": 42.3134590302915, "lng": -71.05689796970849}, "southwest": {"lat": 42.3107610697085, "lng": -71.05959593029151}}}, "icon": "https://maps.gstatic.com/mapfiles/place_api/icons/generic_recreational-71.png", "id": "b8513066012e50273d78450632703563d82ccfaa", "name": "Melvinside Play Area", "place_id": "ChIJT7s8-ax744kRgffd7RYzc3w", "reference": "ChIJT7s8-ax744kRgffd7RYzc3w", "scope": "GOOGLE", "types": ["park", "premise", "point_of_interest", "establishment"], "vicinity": "Boston"}, "ChIJyYYotq1744kR1pCz2woVlqY": {"geometry": {"location": {"lat": 42.31090999999999, "lng": -71.0591785}, "viewport": {"northeast": {"lat": 42.3122548302915, "lng": -71.0578542697085}, "southwest": {"lat": 42.3095568697085, "lng": -71.0605522302915}}}, "icon": "https://maps.gstatic.com/mapfiles/place_api/icons/generic_recreational-71.png", "id": "d6419f6ed18789c147846b5ec8c2d61b52dd9d39", "name": "Paul Sullivan House Community Garden", "place_id": "ChIJyYYotq1744kR1pCz2woVlqY", "reference": "ChIJyYYotq1744kR1pCz2woVlqY", "scope": "GOOGLE", "types": ["park", "premise", "point_of_interest", "establishment"], "vicinity": "Boston"}, "ChIJGzE9DS1l44kRoOhiASS_fHg": {"geometry": {"location": {"lat": 42.3600825, "lng": -71.0588801}, "viewport": {"northeast": {"lat": 42.40081989999999, "lng": -70.749455}, "southwest": {"lat": 42.22788, "lng": -71.191113}}}, "icon": "https://maps.gstatic.com/mapfiles/place_api/icons/geocode-71.png", "id": "06755c25d2b34d13942a4713971756a55b870ced", "name": "Boston", "photos": [{"height": 3024, "html_attributions": ["<a href=\"https://maps.google.com/maps/contrib/104670289779338733432/photos\">Natalia Zalucean</a>"], "photo_reference": "CmRaAAAA35wSUmDLBcpAXlYWLyhTH_d3QIYs4-R2FSPhbyIAe3nas_Gq-gNWKlhqKbeS1_OlYrbKQUQzGhgqwt_gSo3aOjWMzdjes4nXm4ZIG3LfcgQ8OUAK0dLSuw3DIkkB-BVrEhB9X3wqyTrpVULO6fq1koZVGhTL0kn7FbVR6jQiwiNViUXeU6G3Hg", "width": 4032}], "place_id": "ChIJGzE9DS1l44kRoOhiASS_fHg", "reference": "ChIJGzE9DS1l44kRoOhiASS_fHg", "scope": "GOOGLE", "types": ["locality", "political"], "vicinity": "Boston"}}