{"ChIJCduJYYN744kRWGBIcIlYl1g": {"geometry": {"location": {"lat": 42.2838243, "lng": -71.05559579999999}, "viewport": {"northeast": {"lat": 42.28517323029151, "lng": -71.05424681970848}, "southwest": {"lat": 42.28247526970851, "lng": -71.05694478029149}}}, "icon": "https://maps.gstatic.com/mapfiles/place_api/icons/geocode-71.png", "id": "be1b4014edc350fc2fae86265a81221be3ff3abb", "name": "772-750 Adams St", "place_id": "ChIJCduJYYN744kRWGBIcIlYl1g", "reference": "ChIJCduJYYN744kRWGBIcIlYl1g", "scope": "GOOGLE", "types": ["route"], "vicinity": "Boston"}, "ChIJldYKYoN744kRdVEgJM2HF1U": {"geometry": {"location": {"lat": 42.283694, "lng": -71.055758}, "viewport": {"northeast": {"lat": 42.2850328302915, "lng": -71.0543527197085}, "southwest": {"lat": 42.2823348697085, "lng": -71.05705068029151}}}, "icon": "https://maps.gstatic.com/mapfiles/place_api/icons/generic_business-71.png", "id": "83bdd32ed19595c8d0714397429b28c1056c6461", "name": "Mackenzie - Udoji Insurance Agency Inc.", "opening_hours": {"open_now": true}, "photos": [{"height": 1179, "html_attributions": ["<a href=\"https://maps.google.com/maps/contrib/105895197806839152106/photos\">Mackenzie - Udoji Insurance Agency Inc.</a>"], "photo_reference": "CmRaAAAA_I8U5v_TA10FRVxXjg9k9HEI4DWU5X5pDsmsbx67fIZVOOnUwKlnre3uGm1-aCP69fS8d08MmpW2gO3wSGDFjNrDUo23M4yzysDe-IXrXZmCS4xry8uG_PVs56_jZQxZEhDKzWsG75GpM3usQA7pnY9JGhQRl5cmmny83cySQya819q0dsX4wA", "width": 1766}], "place_id": "ChIJldYKYoN744kRdVEgJM2HF1U", "plus_code": {"compound_code": "7WMV+FM Boston, Massachusetts, United States", "global_code": "87JC7WMV+FM"}, "rating": 5, "reference": "ChIJldYKYoN744kRdVEgJM2HF1U", "scope": "GOOGLE", "types": ["insurance_agency", "point_of_interest", "establishment"], "user_ratings_total": 1, "vicinity": "771 Adams Street, Dorchester"}, "ChIJr0cn_3N844kRPOa99QIUF3A": {"geometry": {"location": {"lat": 42.28346459999999, "lng": -71.05587419999999}, "viewport": {"northeast": {"lat": 42.2848007802915, "lng": -71.05444706970849}, "southwest": {"lat": 42.2821028197085, "lng": -71.0571450302915}}}, "icon": "https://maps.gstatic.com/mapfiles/place_api/icons/generic_business-71.png", "id": "9c169ea6ee5ad029f1f5b7e5820ad8d3cde3dff5", "name": "Aidan's Barber Shop", "opening_hours": {"open_now": true}, "place_id": "ChIJr0cn_3N844kRPOa99QIUF3A", "plus_code": {"compound_code": "7WMV+9M Boston, Massachusetts, United States", "global_code": "87JC7WMV+9M"}, "rating": 4.5, "reference": "ChIJr0cn_3N844kRPOa99QIUF3A", "scope": "GOOGLE", "types": ["hair_care", "health", "point_of_interest", "establishment"], "user_ratings_total": 39, "vicinity": "779 Adams Street, Dorchester Center"}, "ChIJldYKYoN744kRAP0i--OsObk": {"geometry": {"location": {"lat": 42.2836941, "lng": -71.055773}, "viewport": {"northeast": {"lat": 42.2850316302915, "lng": -71.05436061970849}, "southwest": {"lat": 42.2823336697085, "lng": -71.05705858029151}}}, "icon": "https://maps.gstatic.com/mapfiles/place_api/icons/generic_business-71.png", "id": "e24681636322e6bc590a3aee45af584dceb9eda5", "name": "Joe Glynn Cleaners", "opening_hours": {"open_now": true}, "photos": [{"height": 608, "html_attributions": ["<a href=\"https://maps.google.com/maps/contrib/109202217978620343830/photos\">Joe Glynn Cleaners</a>"], "photo_reference": "CmRaAAAAc-NjYip5jrySq_G4vpmnKdCdiuH-SowaOBElZ_QgUIR1Ld84UrwFQkEPqPIuazCxXdhUznvIvDMKTsS2hLCgD1ESLeUjc9DLO5i2MmUY8plht-6dnACNr7aOZGECBcktEhAhQKk90mZCqaOoXipiRmzHGhQDhwTX9sEZdWAuDrVsDRVD5cIRHA", "width": 1080}], "place_id": "ChIJldYKYoN744kRAP0i--OsObk", "plus_code": {"compound_code": "7WMV+FM Boston, Massachusetts, United States", "global_code": "87JC7WMV+FM"}, "rating": 3, "reference": "ChIJldYKYoN744kRAP0i--OsObk", "scope": "GOOGLE", "types": ["laundry", "point_of_interest", "establishment"], "user_ratings_total": 10, "vicinity": "773 Adams Street, Dorchester"}, "ChIJJ05wgoR744kRBXSEJtW_2is": {"geometry": {"location": {"lat": 42.28337, "lng": -71.055838}, "viewport": {"northeast": {"lat": 42.2847111802915, "lng": -71.05444171970849}, "southwest": {"lat": 42.2820132197085, "lng": -71.0571396802915}}}, "icon": "https://maps.gstatic.com/mapfiles/place_api/icons/restaurant-71.png", "id": "ba7216fb265ecb631a6f74d05a4c4f732544a584", "name": "Adam's Fish Market", "opening_hours": {"open_now": false}, "photos": [{"height": 296, "html_attributions": ["<a href=\"https://maps.google.com/maps/contrib/110291924971631478152/photos\">Ken K</a>"], "photo_reference": "CmRaAAAAhCIBuNda8g-3Ld_0H5WFnMhX1GPYmbS4B32sJzM-1ViqRNJtn6_F6cQ8SYMDvXMUoq_jWPnas20yiEUkD4_n01c1nQcOK6oO-Q_y2WKbt7S7DQj0Wb8JrcjPzB80srwyEhDVpayHqEX5SH8Vs8j2WGqbGhStEqxdI3oGJBis-U4ZprpQQXJLQw", "width": 446}], "place_id": "ChIJJ05wgoR744kRBXSEJtW_2is", "plus_code": {"compound_code": "7WMV+8M Boston, Massachusetts, United States", "global_code": "87JC7WMV+8M"}, "rating": 4.2, "reference": "ChIJJ05wgoR744kRBXSEJtW_2is", "scope": "GOOGLE", "types": ["restaurant", "point_of_interest", "food", "establishment"], "user_ratings_total": 19, "vicinity": "783 Adams Street, Dorchester"}, "ChIJ7eaoYoN744kR_deiJWAsfV0": {"geometry": {"location": {"lat": 42.2833783, "lng": -71.0558967}, "viewport": {"northeast": {"lat": 42.28471463029149, "lng": -71.0544712697085}, "southwest": {"lat": 42.2820166697085, "lng": -71.0571692302915}}}, "icon": "https://maps.gstatic.com/mapfiles/place_api/icons/shopping-71.png", "id": "0f724ecc70d37fe0cb96c65e1ea3db26f999d00c", "name": "Casali's Market", "opening_hours": {"open_now": true}, "photos": [{"height": 496, "html_attributions": ["<a href=\"https://maps.google.com/maps/contrib/100164055334221068067/photos\">Casali&#39;s Market</a>"], "photo_reference": "CmRaAAAAFFKhztQ9lFZI0lLHMzOKWw1WTfRIlmPmxvp-gIowLhqoPVXp2wXI8-NlfPWCxpwGzkNVhlvYRlKNvEq9ZWjz_AwYI6H_-cH0EN-e8kl7cbjNVdXJERoHcQZzFVj-iMVGEhDIr-3h-HcUh1e_zdj-BfqCGhR8qLkN7Q8KQjwtz3o4_2Bnpm9ncQ", "width": 779}], "place_id": "ChIJ7eaoYoN744kR_deiJWAsfV0", "plus_code": {"compound_code": "7WMV+9J Boston, Massachusetts, United States", "global_code": "87JC7WMV+9J"}, "rating": 4.5, "reference": "ChIJ7eaoYoN744kR_deiJWAsfV0", "scope": "GOOGLE", "types": ["convenience_store", "grocery_or_supermarket", "store", "point_of_interest", "food", "establishment"], "user_ratings_total": 2, "vicinity": "775 Adams Street, Dorchester Center"}, "ChIJldYKYoN744kR09gn8qq1tAI": {"geometry": {"location": {"lat": 42.283758, "lng": -71.0557394}, "viewport": {"northeast": {"lat": 42.2850966302915, "lng": -71.0543329697085}, "southwest": {"lat": 42.2823986697085, "lng": -71.0570309302915}}}, "icon": "https://maps.gstatic.com/mapfiles/place_api/icons/generic_business-71.png", "id": "a7827f6e6a6b7c7a942e9c44c48abf896c9cf617", "name": "Sifakis John a DMD", "place_id": "ChIJldYKYoN744kR09gn8qq1tAI", "plus_code": {"compound_code": "7WMV+GP Boston, Massachusetts, United States", "global_code": "87JC7WMV+GP"}, "reference": "ChIJldYKYoN744kR09gn8qq1tAI", "scope": "GOOGLE", "types": ["dentist", "health", "point_of_interest", "establishment"], "vicinity": "771 Adams Street # 9, Dorchester"}, "ChIJHTKHYoN744kRxZME0TLOVFo": {"geometry": {"location": {"lat": 42.28368399999999, "lng": -71.055696}, "viewport": {"northeast": {"lat": 42.28503123029149, "lng": -71.0543374697085}, "southwest": {"lat": 42.2823332697085, "lng": -71.0570354302915}}}, "icon": "https://maps.gstatic.com/mapfiles/place_api/icons/bus-71.png", "id": "a29d7f8fb7562106079e80e096267151e2f499a3", "name": "Adams St @ Minot St", "place_id": "ChIJHTKHYoN744kRxZME0TLOVFo", "plus_code": {"compound_code": "7WMV+FP Boston, Massachusetts, United States", "global_code": "87JC7WMV+FP"}, "reference": "ChIJHTKHYoN744kRxZME0TLOVFo", "scope": "GOOGLE", "types": ["bus_station", "transit_station", "point_of_interest", "establishment"], "vicinity": "United States"}, "ChIJwcGqJTZ744kR-c5MIpk-CZQ": {"geometry": {"location": {"lat": 42.2840322, "lng": -71.055712}, "viewport": {"northeast": {"lat": 42.2853654302915, "lng": -71.0542758197085}, "southwest": {"lat": 42.2826674697085, "lng": -71.05697378029151}}}, "icon": "https://maps.gstatic.com/mapfiles/place_api/icons/gas_station-71.png", "id": "30a2d18c0f2e428dbcac7138590eac12ee68e5ab", "name": "Adams Village Auto Service", "photos": [{"height": 1644, "html_attributions": ["<a href=\"https://maps.google.com/maps/contrib/107632684406941916115/photos\">dwr phlip</a>"], "photo_reference": "CmRaAAAAJDT2myS1WEkcj54mBwC5XzmRtEe5jW3d5sIvB558aLVKZvGDuoSOex6OLl79qkfchm0kNZF3gcMYLv-ImxB7mdcUEnjDfgOF68Xtt7Zoa8ncv7QEYDAef1_fR9cADI4lEhDboING8EmGXzm8up7sRI0aGhSzrXGcrKoQIMsmC6ZU00-hb7shig", "width": 2512}], "place_id": "ChIJwcGqJTZ744kR-c5MIpk-CZQ", "plus_code": {"compound_code": "7WMV+JP Boston, Massachusetts, United States", "global_code": "87JC7WMV+JP"}, "rating": 4, "reference": "ChIJwcGqJTZ744kR-c5MIpk-CZQ", "scope": "GOOGLE", "types": ["gas_station", "point_of_interest", "establishment"], "user_ratings_total": 1, "vicinity": "761 Adams Street, Dorchester"}, "ChIJlydsYYN744kRTP559gEivyk": {"geometry": {"location": {"lat": 42.2838731, "lng": -71.0554422}, "viewport": {"northeast": {"lat": 42.28523378029151, "lng": -71.0541581197085}, "southwest": {"lat": 42.28253581970851, "lng": -71.05685608029152}}}, "icon": "https://maps.gstatic.com/mapfiles/place_api/icons/generic_business-71.png", "id": "e29769f47529a39d474f652b1fc08930657e0474", "name": "Village Touch", "place_id": "ChIJlydsYYN744kRTP559gEivyk", "plus_code": {"compound_code": "7WMV+GR Boston, Massachusetts, United States", "global_code": "87JC7WMV+GR"}, "rating": 5, "reference": "ChIJlydsYYN744kRTP559gEivyk", "scope": "GOOGLE", "types": ["beauty_salon", "point_of_interest", "establishment"], "user_ratings_total": 1, "vicinity": "756 Adams Street, Dorchester"}, "ChIJYx27YoN744kR5lbZNG0dWqY": {"geometry": {"location": {"lat": 42.2835835, "lng": -71.05566499999999}, "viewport": {"northeast": {"lat": 42.28492718029149, "lng": -71.05428376970849}, "southwest": {"lat": 42.2822292197085, "lng": -71.0569817302915}}}, "icon": "https://maps.gstatic.com/mapfiles/place_api/icons/generic_business-71.png", "id": "1f870ea2ce7d524302459f4234ffeaaa8bade070", "name": "Adams St @ Minot St", "place_id": "ChIJYx27YoN744kR5lbZNG0dWqY", "plus_code": {"compound_code": "7WMV+CP Boston, Massachusetts, United States", "global_code": "87JC7WMV+CP"}, "reference": "ChIJYx27YoN744kR5lbZNG0dWqY", "scope": "GOOGLE", "types": ["transit_station", "point_of_interest", "establishment"], "vicinity": "United States"}, "ChIJ_Q1HfYN744kReqvu3PvYFmM": {"geometry": {"location": {"lat": 42.283483, "lng": -71.055634}, "viewport": {"northeast": {"lat": 42.2848361802915, "lng": -71.0543109697085}, "southwest": {"lat": 42.2821382197085, "lng": -71.0570089302915}}}, "icon": "https://maps.gstatic.com/mapfiles/place_api/icons/bus-71.png", "id": "feb5a76a5740a5fdd3430c50b414ed5ef63db032", "name": "Adams St @ Minot St", "place_id": "ChIJ_Q1HfYN744kReqvu3PvYFmM", "plus_code": {"compound_code": "7WMV+9P Boston, Massachusetts, United States", "global_code": "87JC7WMV+9P"}, "reference": "ChIJ_Q1HfYN744kReqvu3PvYFmM", "scope": "GOOGLE", "types": ["bus_station", "transit_station", "point_of_interest", "establishment"], "vicinity": "United States"}, "ChIJGzE9DS1l44kRoOhiASS_fHg": {"geometry": {"location": {"lat": 42.3600825, "lng": -71.0588801}, "viewport": {"northeast": {"lat": 42.40081989999999, "lng": -70.749455}, "southwest": {"lat": 42.22788, "lng": -71.191113}}}, "icon": "https://maps.gstatic.com/mapfiles/place_api/icons/geocode-71.png", "id": "06755c25d2b34d13942a4713971756a55b870ced", "name": "Boston", "photos": [{"height": 3024, "html_attributions": ["<a href=\"https://maps.google.com/maps/contrib/104670289779338733432/photos\">Natalia Zalucean</a>"], "photo_reference": "CmRaAAAA37WWTI0AkfHhkrCf533R1qZ86Mz8R9_884l847KUh4nIg4SZb2wgd69HvH9oHmkTmeLZNjWB7Qz0zfgvI9Bd1FqK3pOzhDHiIWoxU5a4FlUaSQ9rh4QRGQQTwti09sXUEhAD8IyJwnbQmN3AohIbc2cSGhQ76kKMsNKJboi9nMFRsQ6j687RCA", "width": 4032}], "place_id": "ChIJGzE9DS1l44kRoOhiASS_fHg", "reference": "ChIJGzE9DS1l44kRoOhiASS_fHg", "scope": "GOOGLE", "types": ["locality", "political"], "vicinity": "Boston"}}