{"ChIJLSjhqWx644kRYR-iP4U5Wp0": {"geometry": {"location": {"lat": 42.34062470000001, "lng": -71.0730887}, "viewport": {"northeast": {"lat": 42.3419736302915, "lng": -71.07173971970849}, "southwest": {"lat": 42.3392756697085, "lng": -71.07443768029151}}}, "icon": "https://maps.gstatic.com/mapfiles/place_api/icons/geocode-71.png", "id": "3e3a440c2034970359af25f6a12d6a5864a0cf18", "name": "404-380 Shawmut Ave", "place_id": "ChIJLSjhqWx644kRYR-iP4U5Wp0", "reference": "ChIJLSjhqWx644kRYR-iP4U5Wp0", "scope": "GOOGLE", "types": ["route"], "vicinity": "Boston"}, "ChIJN3j8r2x644kRkdQ4pyi5bGw": {"geometry": {"location": {"lat": 42.341135, "lng": -71.07283699999999}, "viewport": {"northeast": {"lat": 42.3425341302915, "lng": -71.07154481970849}, "southwest": {"lat": 42.33983616970851, "lng": -71.0742427802915}}}, "icon": "https://maps.gstatic.com/mapfiles/place_api/icons/worship_general-71.png", "id": "46267b79a86ea06c3b04a467a87ad37a2177bf1e", "name": "South End Neighborhood Church", "place_id": "ChIJN3j8r2x644kRkdQ4pyi5bGw", "plus_code": {"compound_code": "8WRG+FV Boston, Massachusetts, United States", "global_code": "87JC8WRG+FV"}, "rating": 5, "reference": "ChIJN3j8r2x644kRkdQ4pyi5bGw", "scope": "GOOGLE", "types": ["church", "place_of_worship", "point_of_interest", "establishment"], "user_ratings_total": 1, "vicinity": "2 San Juan Street, Boston"}, "ChIJ4wiNVGt644kRNzt62Tryvpw": {"geometry": {"location": {"lat": 42.3406013, "lng": -71.0733729}, "viewport": {"northeast": {"lat": 42.3419048802915, "lng": -71.0719703697085}, "southwest": {"lat": 42.3392069197085, "lng": -71.07466833029152}}}, "icon": "https://maps.gstatic.com/mapfiles/place_api/icons/generic_business-71.png", "id": "954d94d913c70655f319b4a39f26e9896a11b071", "name": "Inquilinos Boricuas en Acci\u00f3n", "opening_hours": {"open_now": true}, "photos": [{"height": 315, "html_attributions": ["<a href=\"https://maps.google.com/maps/contrib/107975204282851276136/photos\">Inquilinos Boricuas en Acci\u00f3n</a>"], "photo_reference": "CmRaAAAA5htlisRYqstsU3ISj7zBJgpbH8OIysGCFzxiZCB2U6SgpVQ0MggRXw6uCQuXlgkQeC2C3M1y0XzerfPG2sYY3E8rZ_auXQFH1ZaMJRfEubHUfM7TaB-3eydbfu2UbbYGEhAQ8HhAJauM5no20y0iXgxKGhQd2xYG9ZzrHeXXvmkAFaDhyT7zaA", "width": 851}], "place_id": "ChIJ4wiNVGt644kRNzt62Tryvpw", "plus_code": {"compound_code": "8WRG+6M Boston, Massachusetts, United States", "global_code": "87JC8WRG+6M"}, "rating": 5, "reference": "ChIJ4wiNVGt644kRNzt62Tryvpw", "scope": "GOOGLE", "types": ["point_of_interest", "school", "establishment"], "user_ratings_total": 1, "vicinity": "405 Shawmut Avenue, Boston"}, "ChIJN3j8r2x644kRnn70hpQomL8": {"geometry": {"location": {"lat": 42.341135, "lng": -71.07283699999999}, "viewport": {"northeast": {"lat": 42.3425341302915, "lng": -71.07154481970849}, "southwest": {"lat": 42.33983616970851, "lng": -71.0742427802915}}}, "icon": "https://maps.gstatic.com/mapfiles/place_api/icons/generic_business-71.png", "id": "b18fa52f7e4c5f2e38787a0f44805cca4fa3a573", "name": "Emmanuel Gospel Center", "photos": [{"height": 2560, "html_attributions": ["<a href=\"https://maps.google.com/maps/contrib/101909656934730725968/photos\">Len</a>"], "photo_reference": "CmRaAAAApQztyNHXkpWAvs2c4GAuXBb0M-F9bxuKxxtw8dcGLQyuibgWU4wp7P14JGtq7qo8IUyR9kdUyP9KC01Mk5QOeGtLeuKC_a6iAsCMnlAutOjiCnxGGUFq7kijCVjsPtoLEhAibxKDJesWky6wmKU-HB28GhSJH-whu-fqu7nkIcGT7MO6vM7H3w", "width": 1440}], "place_id": "ChIJN3j8r2x644kRnn70hpQomL8", "plus_code": {"compound_code": "8WRG+FV Boston, Massachusetts, United States", "global_code": "87JC8WRG+FV"}, "rating": 4.8, "reference": "ChIJN3j8r2x644kRnn70hpQomL8", "scope": "GOOGLE", "types": ["point_of_interest", "establishment"], "user_ratings_total": 12, "vicinity": "2 San Juan Street, Boston"}, "ChIJN3j8r2x644kR4BBOTNmP_dk": {"geometry": {"location": {"lat": 42.341135, "lng": -71.07283699999999}, "viewport": {"northeast": {"lat": 42.3425341302915, "lng": -71.07154481970849}, "southwest": {"lat": 42.33983616970851, "lng": -71.0742427802915}}}, "icon": "https://maps.gstatic.com/mapfiles/place_api/icons/generic_business-71.png", "id": "adc86a03f32c0a11e8a9cd55ce9ef6ca9d9181b3", "name": "Youth Violence Sytems Project", "place_id": "ChIJN3j8r2x644kR4BBOTNmP_dk", "plus_code": {"compound_code": "8WRG+FV Boston, Massachusetts, United States", "global_code": "87JC8WRG+FV"}, "reference": "ChIJN3j8r2x644kR4BBOTNmP_dk", "scope": "GOOGLE", "types": ["point_of_interest", "establishment"], "vicinity": "2 San Juan Street, Boston"}, "ChIJp-r_sWx644kRfod9y2Quhq8": {"geometry": {"location": {"lat": 42.3412265, "lng": -71.0730719}, "viewport": {"northeast": {"lat": 42.3425607302915, "lng": -71.07170616970848}, "southwest": {"lat": 42.3398627697085, "lng": -71.07440413029148}}}, "icon": "https://maps.gstatic.com/mapfiles/place_api/icons/school-71.png", "id": "e09e033d857407ec3da19a8b06131e7e1835e508", "name": "Big Sister Little Sister Babysitting Services", "place_id": "ChIJp-r_sWx644kRfod9y2Quhq8", "plus_code": {"compound_code": "8WRG+FQ Boston, Massachusetts, United States", "global_code": "87JC8WRG+FQ"}, "rating": 5, "reference": "ChIJp-r_sWx644kRfod9y2Quhq8", "scope": "GOOGLE", "types": ["school", "point_of_interest", "establishment"], "user_ratings_total": 1, "vicinity": "48 San Juan Street, Boston"}, "ChIJ9bHlpWx644kRGVIiGteiVuY": {"geometry": {"location": {"lat": 42.3408757, "lng": -71.0727278}, "viewport": {"northeast": {"lat": 42.34223798029149, "lng": -71.0713949197085}, "southwest": {"lat": 42.3395400197085, "lng": -71.07409288029152}}}, "icon": "https://maps.gstatic.com/mapfiles/place_api/icons/generic_business-71.png", "id": "10e02971a9075dbe2cb6b5949a2853e016c6a774", "name": "Community Sickle Cell Support", "place_id": "ChIJ9bHlpWx644kRGVIiGteiVuY", "plus_code": {"compound_code": "8WRG+9W Boston, Massachusetts, United States", "global_code": "87JC8WRG+9W"}, "reference": "ChIJ9bHlpWx644kRGVIiGteiVuY", "scope": "GOOGLE", "types": ["point_of_interest", "establishment"], "vicinity": "387 Shawmut Avenue, Boston"}, "ChIJGzE9DS1l44kRoOhiASS_fHg": {"geometry": {"location": {"lat": 42.3600825, "lng": -71.0588801}, "viewport": {"northeast": {"lat": 42.40081989999999, "lng": -70.749455}, "southwest": {"lat": 42.22788, "lng": -71.191113}}}, "icon": "https://maps.gstatic.com/mapfiles/place_api/icons/geocode-71.png", "id": "06755c25d2b34d13942a4713971756a55b870ced", "name": "Boston", "photos": [{"height": 3024, "html_attributions": ["<a href=\"https://maps.google.com/maps/contrib/104670289779338733432/photos\">Natalia Zalucean</a>"], "photo_reference": "CmRaAAAAOeA2yR8GYVJ1uGJTTtEd5TCziTJK_BKQm0Vz7MSjrHCI90GAcH2lai0eDTW7Itdtbl2oRf1XDmrLxzyVxs9oUDoKcA_lBIslee9ckC2p86Ajtt2D5ORbnK2a8D6rYj7IEhCsKmFm4mp_4lbkwfqHtoQdGhSf6rKt7fNNqV4SSK8SO0qqNmoO2w", "width": 4032}], "place_id": "ChIJGzE9DS1l44kRoOhiASS_fHg", "reference": "ChIJGzE9DS1l44kRoOhiASS_fHg", "scope": "GOOGLE", "types": ["locality", "political"], "vicinity": "Boston"}}