{"ChIJc0cYN6Nw44kRWAszAXSXSeQ": {"geometry": {"location": {"lat": 42.3646758, "lng": -71.07773399999999}, "viewport": {"northeast": {"lat": 42.36602463029151, "lng": -71.07638471970849}, "southwest": {"lat": 42.36332666970851, "lng": -71.0790826802915}}}, "icon": "https://maps.gstatic.com/mapfiles/place_api/icons/geocode-71.png", "id": "9be8413b826e99913a4930d567aae228fb990ea6", "name": "Edwin H Land Boulevard", "place_id": "ChIJc0cYN6Nw44kRWAszAXSXSeQ", "reference": "ChIJc0cYN6Nw44kRWAszAXSXSeQ", "scope": "GOOGLE", "types": ["route"], "vicinity": "Cambridge"}, "ChIJoRToLr1w44kRwkj1uewgIpk": {"geometry": {"location": {"lat": 42.364611, "lng": -71.0773768}, "viewport": {"northeast": {"lat": 42.3658095802915, "lng": -71.0757439197085}, "southwest": {"lat": 42.3631116197085, "lng": -71.0784418802915}}}, "icon": "https://maps.gstatic.com/mapfiles/place_api/icons/generic_business-71.png", "id": "c7b9fe9e212efbc489804d9b012311efe4de069a", "name": "Esplanade Management Office", "place_id": "ChIJoRToLr1w44kRwkj1uewgIpk", "plus_code": {"compound_code": "9W7F+R2 Cambridge, Massachusetts, United States", "global_code": "87JC9W7F+R2"}, "reference": "ChIJoRToLr1w44kRwkj1uewgIpk", "scope": "GOOGLE", "types": ["point_of_interest", "establishment"], "vicinity": "75 Cambridge Parkway, Cambridge"}, "ChIJiZLN2rxw44kR-Ryg7E4pYl8": {"geometry": {"location": {"lat": 42.3652363, "lng": -71.0778316}, "viewport": {"northeast": {"lat": 42.3668849802915, "lng": -71.0764094197085}, "southwest": {"lat": 42.3641870197085, "lng": -71.0791073802915}}}, "icon": "https://maps.gstatic.com/mapfiles/place_api/icons/generic_business-71.png", "id": "5307b0f0bbe38b50e0ee91bd2951387765ae64eb", "name": "Vista Travel Inc.", "opening_hours": {"open_now": true}, "photos": [{"height": 960, "html_attributions": ["<a href=\"https://maps.google.com/maps/contrib/107384365886271840227/photos\">Vista Travel Inc.</a>"], "photo_reference": "CmRaAAAAdocBNKIT9HXYzKr1wpZw2a6CXNo9ntuj3-lOn-H8RvC9-42yfgwW67sDqrJZV-mtvaadqPo-h3JrBn2zB4UY4POzXKfdxFFsGR4_9rDbFnl4l11hGDGf-g_nIwpjkAJhEhCSlIA2fMDjAnL8q-lN_yWDGhTjdZKYc2FgsmhKSPCEM0XfeeIKdQ", "width": 960}], "place_id": "ChIJiZLN2rxw44kR-Ryg7E4pYl8", "plus_code": {"compound_code": "9W8C+3V Cambridge, Massachusetts, United States", "global_code": "87JC9W8C+3V"}, "rating": 5, "reference": "ChIJiZLN2rxw44kR-Ryg7E4pYl8", "scope": "GOOGLE", "types": ["travel_agency", "point_of_interest", "establishment"], "user_ratings_total": 1, "vicinity": "10 Rogers Street Suite 1B, Cambridge"}, "ChIJW8KyNKNw44kRjVRW9Xg4DKI": {"geometry": {"location": {"lat": 42.365274, "lng": -71.07765429999999}, "viewport": {"northeast": {"lat": 42.36654953029149, "lng": -71.0763254697085}, "southwest": {"lat": 42.36385156970849, "lng": -71.0790234302915}}}, "icon": "https://maps.gstatic.com/mapfiles/place_api/icons/generic_business-71.png", "id": "8b5cf29d43be9cbd5722723153ba6c927d3a0cf2", "name": "SMILE LINE Dental Medicine", "opening_hours": {"open_now": false}, "place_id": "ChIJW8KyNKNw44kRjVRW9Xg4DKI", "plus_code": {"compound_code": "9W8C+4W Cambridge, Massachusetts, United States", "global_code": "87JC9W8C+4W"}, "rating": 5, "reference": "ChIJW8KyNKNw44kRjVRW9Xg4DKI", "scope": "GOOGLE", "types": ["dentist", "health", "point_of_interest", "establishment"], "user_ratings_total": 4, "vicinity": "11 Binney Street, Cambridge"}, "ChIJW8KyNKNw44kRw4V8QKUJIEo": {"geometry": {"location": {"lat": 42.365274, "lng": -71.07765429999999}, "viewport": {"northeast": {"lat": 42.36654953029149, "lng": -71.0763254697085}, "southwest": {"lat": 42.36385156970849, "lng": -71.0790234302915}}}, "icon": "https://maps.gstatic.com/mapfiles/place_api/icons/generic_business-71.png", "id": "6b75241a77b2a8ffa8f12fcd62e47ee776c6be28", "name": "Kosmidis Gregory P DMD", "opening_hours": {"open_now": false}, "place_id": "ChIJW8KyNKNw44kRw4V8QKUJIEo", "plus_code": {"compound_code": "9W8C+4W Cambridge, Massachusetts, United States", "global_code": "87JC9W8C+4W"}, "rating": 5, "reference": "ChIJW8KyNKNw44kRw4V8QKUJIEo", "scope": "GOOGLE", "types": ["dentist", "health", "point_of_interest", "establishment"], "user_ratings_total": 1, "vicinity": "11 Binney Street, Cambridge"}, "ChIJObZ-y7xw44kRQHI1IMOkiFc": {"geometry": {"location": {"lat": 42.365274, "lng": -71.07765429999999}, "viewport": {"northeast": {"lat": 42.36654953029149, "lng": -71.0763254697085}, "southwest": {"lat": 42.36385156970849, "lng": -71.0790234302915}}}, "icon": "https://maps.gstatic.com/mapfiles/place_api/icons/generic_business-71.png", "id": "8f1fb5ac75cca7c3f255155fd9b29906ce5e7fa0", "name": "SMILE LINE DENTAL MEDICINE", "place_id": "ChIJObZ-y7xw44kRQHI1IMOkiFc", "plus_code": {"compound_code": "9W8C+4W Cambridge, Massachusetts, United States", "global_code": "87JC9W8C+4W"}, "reference": "ChIJObZ-y7xw44kRQHI1IMOkiFc", "scope": "GOOGLE", "types": ["dentist", "health", "point_of_interest", "establishment"], "vicinity": "11 Binney Street, Cambridge"}, "ChIJX8wwy6Vw44kRh2xoiWSOOsU": {"geometry": {"location": {"lat": 42.3736158, "lng": -71.10973349999999}, "viewport": {"northeast": {"lat": 42.4043839, "lng": -71.06548719999999}, "southwest": {"lat": 42.3523968, "lng": -71.16033209999999}}}, "icon": "https://maps.gstatic.com/mapfiles/place_api/icons/geocode-71.png", "id": "6d2faadca7159347cc68b047055a94b00fec6032", "name": "Cambridge", "photos": [{"height": 2000, "html_attributions": ["<a href=\"https://maps.google.com/maps/contrib/115519834423791060860/photos\">Luca Raggi</a>"], "photo_reference": "CmRaAAAAx3wY9Ro4AFXcBA2Cu5vKKsbMxKaocxcR8_c1aVfSSflf4XUJ4qqZlBs9Kuy9Vlw9Ppe-WGuzwQ5Jd6REF09sxF3JU6I7oWjNsoJfvyKW0rPLekQmwxXXMEji5-k7_rkwEhAnRmGYYBl1MFNbp9F8KBCrGhRloTJAKNXyzdQ4LNN_jtPHbhsJHw", "width": 3008}], "place_id": "ChIJX8wwy6Vw44kRh2xoiWSOOsU", "reference": "ChIJX8wwy6Vw44kRh2xoiWSOOsU", "scope": "GOOGLE", "types": ["locality", "political"], "vicinity": "Cambridge"}}