{"ChIJI24LJnx544kRHDg5Ah4XLxg": {"geometry": {"location": {"lat": 42.3165765, "lng": -71.1011151}, "viewport": {"northeast": {"lat": 42.31792548029149, "lng": -71.09976611970849}, "southwest": {"lat": 42.31522751970849, "lng": -71.1024640802915}}}, "icon": "https://maps.gstatic.com/mapfiles/place_api/icons/geocode-71.png", "id": "e9f33620f8354cf0b00e72bdd9d48b8cd0623805", "name": "162 School St", "place_id": "ChIJI24LJnx544kRHDg5Ah4XLxg", "reference": "ChIJI24LJnx544kRHDg5Ah4XLxg", "scope": "GOOGLE", "types": ["route"], "vicinity": "Boston"}, "ChIJp8U-Inx544kRD62WwuJzOec": {"geometry": {"location": {"lat": 42.316592, "lng": -71.1016609}, "viewport": {"northeast": {"lat": 42.3180124802915, "lng": -71.1000846197085}, "southwest": {"lat": 42.3153145197085, "lng": -71.1027825802915}}}, "icon": "https://maps.gstatic.com/mapfiles/place_api/icons/school-71.png", "id": "f3fab261f49ab71f259d613c0042f905e3095113", "name": "Mendell Elementary School", "place_id": "ChIJp8U-Inx544kRD62WwuJzOec", "plus_code": {"compound_code": "8V8X+J8 Boston, Massachusetts, United States", "global_code": "87JC8V8X+J8"}, "rating": 4.4, "reference": "ChIJp8U-Inx544kRD62WwuJzOec", "scope": "GOOGLE", "types": ["school", "point_of_interest", "establishment"], "user_ratings_total": 7, "vicinity": "164 School Street, Boston"}, "ChIJGzE9DS1l44kRoOhiASS_fHg": {"geometry": {"location": {"lat": 42.3600825, "lng": -71.0588801}, "viewport": {"northeast": {"lat": 42.40081989999999, "lng": -70.749455}, "southwest": {"lat": 42.22788, "lng": -71.191113}}}, "icon": "https://maps.gstatic.com/mapfiles/place_api/icons/geocode-71.png", "id": "06755c25d2b34d13942a4713971756a55b870ced", "name": "Boston", "photos": [{"height": 3024, "html_attributions": ["<a href=\"https://maps.google.com/maps/contrib/104670289779338733432/photos\">Natalia Zalucean</a>"], "photo_reference": "CmRaAAAAKaagNPnPzkoIKzLm2XkPzbaCUfSW_RD6ugldwo1WHJKPLJeeRMk9gp8ybD3CFgEzemCvdMKiuUNrkF0N9zWK24ZLAU-UyqaZTAwRXcsBA-oD2Xzqjf1sMlzFdnb9T7PWEhB4qk36KQ5se2P4b4UgipbgGhSkxu0PETZ6qoroIP2rC32YcYNyUg", "width": 4032}], "place_id": "ChIJGzE9DS1l44kRoOhiASS_fHg", "reference": "ChIJGzE9DS1l44kRoOhiASS_fHg", "scope": "GOOGLE", "types": ["locality", "political"], "vicinity": "Boston"}}