{"ChIJI2PJByZ644kRkxBNKxkMN3s": {"geometry": {"location": {"lat": 42.3299944, "lng": -71.0917307}, "viewport": {"northeast": {"lat": 42.3313433302915, "lng": -71.09038171970849}, "southwest": {"lat": 42.3286453697085, "lng": -71.09307968029151}}}, "icon": "https://maps.gstatic.com/mapfiles/place_api/icons/geocode-71.png", "id": "839d1e4e42bd35370854e7afe6dda4b2b8decfcf", "name": "4-2 Centre St", "place_id": "ChIJI2PJByZ644kRkxBNKxkMN3s", "reference": "ChIJI2PJByZ644kRkxBNKxkMN3s", "scope": "GOOGLE", "types": ["route"], "vicinity": "Boston"}, "ChIJB6ut5CV644kRep90klPblqU": {"geometry": {"location": {"lat": 42.3300439, "lng": -71.0917071}, "viewport": {"northeast": {"lat": 42.3313814802915, "lng": -71.0903539697085}, "southwest": {"lat": 42.3286835197085, "lng": -71.09305193029151}}}, "icon": "https://maps.gstatic.com/mapfiles/place_api/icons/generic_business-71.png", "id": "48ab1e45ffe9c6f371e89c9d8e93e6aaa19ed3f7", "name": "1767 Milestones", "photos": [{"height": 4160, "html_attributions": ["<a href=\"https://maps.google.com/maps/contrib/112849360916066946002/photos\">Jonathan Correia</a>"], "photo_reference": "CmRaAAAAjbTljKCuPe2VOEkqYfA9Y_1w1qOlQHZj6Ithnn-QR9t84zZ8ftvLeyTDMewpD0FcBTvsZHIiduu3dDcXim-xtXyfLx3ttr-dGxl-a6WIRI2zB53-uoNO92ua9YNnQ7ZsEhDjboiVIwRpIGRhEopYBbb4GhSIXrGsO8rHkKCTlKK9ySSVj2PgMg", "width": 2340}], "place_id": "ChIJB6ut5CV644kRep90klPblqU", "plus_code": {"compound_code": "8WJ5+28 Boston, Massachusetts, United States", "global_code": "87JC8WJ5+28"}, "rating": 5, "reference": "ChIJB6ut5CV644kRep90klPblqU", "scope": "GOOGLE", "types": ["point_of_interest", "establishment"], "user_ratings_total": 2, "vicinity": "Centre Street, Boston"}, "ChIJM_kL3iV644kRnvV4J88UBF4": {"geometry": {"location": {"lat": 42.3305905, "lng": -71.09120759999999}, "viewport": {"northeast": {"lat": 42.3317029802915, "lng": -71.0898023697085}, "southwest": {"lat": 42.3290050197085, "lng": -71.0925003302915}}}, "icon": "https://maps.gstatic.com/mapfiles/place_api/icons/school-71.png", "id": "9d4a79948ecb4b2a763d0a015de373a0060ccbc2", "name": "James P Timilty Middle School", "photos": [{"height": 600, "html_attributions": ["<a href=\"https://maps.google.com/maps/contrib/107125680967826818233/photos\">Pramod AGHARI</a>"], "photo_reference": "CmRaAAAAlQ7nxc55q5O94yQb4qe3PLbbM8Z880A4Vb98YVyZjbAblGK8C0foj_eeZtUi1agh6wB1ocWyoNzYJgae1-JNvvAxFNtCSJNGC2YsWtpdDKU-87Rsi9KKGjhitwt2wCTEEhA47wCKJIACzEKH6pwd8S85GhTR7XabD-HKp5q4z2MZvKzHB1VvEQ", "width": 800}], "place_id": "ChIJM_kL3iV644kRnvV4J88UBF4", "plus_code": {"compound_code": "8WJ5+6G Boston, Massachusetts, United States", "global_code": "87JC8WJ5+6G"}, "rating": 3.9, "reference": "ChIJM_kL3iV644kRnvV4J88UBF4", "scope": "GOOGLE", "types": ["school", "point_of_interest", "establishment"], "user_ratings_total": 21, "vicinity": "205 Roxbury Street, Roxbury"}, "ChIJE6cJBiZ644kR__4x-rLIeI0": {"geometry": {"location": {"lat": 42.33005929999999, "lng": -71.09197739999999}, "viewport": {"northeast": {"lat": 42.3313551302915, "lng": -71.09060906970849}, "southwest": {"lat": 42.3286571697085, "lng": -71.0933070302915}}}, "icon": "https://maps.gstatic.com/mapfiles/place_api/icons/generic_business-71.png", "id": "f020054479467533728605400c067f54cd08959b", "name": "Foreign Car Specialists", "opening_hours": {"open_now": true}, "photos": [{"height": 3024, "html_attributions": ["<a href=\"https://maps.google.com/maps/contrib/114124617657018940900/photos\">gerard mclean</a>"], "photo_reference": "CmRaAAAABVQco-7QgaVX-3jYhDGG5WvmLkrOO4VuQlR5-4zg_e948MnsEM5-_75cRbNEnAG5Mekg7tS67PnRRXH6HRZ2PwvPS5xOE2jjzEOO7w60NvEwZXPh_qP66piaLAUgVfzaEhDp6lunyrGUEktmKt4UxXAXGhQodN5g5ehY5l6zv17YOEp7mADQHg", "width": 5376}], "place_id": "ChIJE6cJBiZ644kR__4x-rLIeI0", "plus_code": {"compound_code": "8WJ5+26 Boston, Massachusetts, United States", "global_code": "87JC8WJ5+26"}, "rating": 4.5, "reference": "ChIJE6cJBiZ644kR__4x-rLIeI0", "scope": "GOOGLE", "types": ["car_repair", "point_of_interest", "establishment"], "user_ratings_total": 20, "vicinity": "3 Centre Street, Boston"}, "ChIJf4kL_SV644kR-C7Y2tfb21o": {"geometry": {"location": {"lat": 42.32981059999999, "lng": -71.0914334}, "viewport": {"northeast": {"lat": 42.3311410302915, "lng": -71.0900261197085}, "southwest": {"lat": 42.3284430697085, "lng": -71.09272408029152}}}, "icon": "https://maps.gstatic.com/mapfiles/place_api/icons/generic_business-71.png", "id": "7e4713f24fe31424cf6c50607fd8c42c21162391", "name": "Roxbury Highlands", "place_id": "ChIJf4kL_SV644kR-C7Y2tfb21o", "plus_code": {"compound_code": "8WH5+WC Boston, Massachusetts, United States", "global_code": "87JC8WH5+WC"}, "rating": 5, "reference": "ChIJf4kL_SV644kR-C7Y2tfb21o", "scope": "GOOGLE", "types": ["real_estate_agency", "point_of_interest", "establishment"], "user_ratings_total": 1, "vicinity": "1 Highland Street, Roxbury"}, "ChIJAQDQ5CV644kRZ30G14VE3-0": {"geometry": {"location": {"lat": 42.3300061, "lng": -71.09086409999999}, "viewport": {"northeast": {"lat": 42.33135508029149, "lng": -71.0895151197085}, "southwest": {"lat": 42.3286571197085, "lng": -71.0922130802915}}}, "icon": "https://maps.gstatic.com/mapfiles/place_api/icons/generic_business-71.png", "id": "12b9d38ef23f3c2b394811c9e3d0d6f0b8330470", "name": "I-Power 617 Radio Show", "place_id": "ChIJAQDQ5CV644kRZ30G14VE3-0", "plus_code": {"compound_code": "8WJ5+2M Boston, Massachusetts, United States", "global_code": "87JC8WJ5+2M"}, "rating": 3, "reference": "ChIJAQDQ5CV644kRZ30G14VE3-0", "scope": "GOOGLE", "types": ["point_of_interest", "establishment"], "user_ratings_total": 1, "vicinity": "John Eliot Square, Roxbury"}, "ChIJASlz5iV644kRPEyk9nS3EMM": {"geometry": {"location": {"lat": 42.33049, "lng": -71.090687}, "viewport": {"northeast": {"lat": 42.33168423029149, "lng": -71.0893018197085}, "southwest": {"lat": 42.32898626970849, "lng": -71.0919997802915}}}, "icon": "https://maps.gstatic.com/mapfiles/place_api/icons/generic_business-71.png", "id": "108db8e8436eb92e29d13e95dd01f394e77d3f3e", "name": "Discover Roxbury", "photos": [{"height": 2048, "html_attributions": ["<a href=\"https://maps.google.com/maps/contrib/105595914534930580390/photos\">Discover Roxbury</a>"], "photo_reference": "CmRaAAAALR8qyvYefoMOxGqbcpcEOIWxDtzSXsraRpEVeWD8Cr4RQ0OrB8NDUqdBJTtrUAZgFW7drrAw7fgV_Q2jtjHIkn3BEfSwHWefBV5mu_b1bM18kmPNt56BEv9tbXIkQf1BEhAVgI1aVy9kqPJG1nS6oGn2GhQwU1plhPu5tK37vQ4RGOy36M6Gqw", "width": 1358}], "place_id": "ChIJASlz5iV644kRPEyk9nS3EMM", "plus_code": {"compound_code": "8WJ5+5P Boston, Massachusetts, United States", "global_code": "87JC8WJ5+5P"}, "rating": 1, "reference": "ChIJASlz5iV644kRPEyk9nS3EMM", "scope": "GOOGLE", "types": ["art_gallery", "travel_agency", "finance", "point_of_interest", "establishment"], "user_ratings_total": 1, "vicinity": "183 Roxbury Street, Roxbury"}, "ChIJxXo2-yV644kRuZfY8OjMTBg": {"geometry": {"location": {"lat": 42.3300061, "lng": -71.09086409999999}, "viewport": {"northeast": {"lat": 42.3312752802915, "lng": -71.0895773197085}, "southwest": {"lat": 42.3285773197085, "lng": -71.0922752802915}}}, "icon": "https://maps.gstatic.com/mapfiles/place_api/icons/generic_recreational-71.png", "id": "b1d572d83ddfbea2cc3870f91dfcea43b3178c61", "name": "John Eliot Square", "photos": [{"height": 4032, "html_attributions": ["<a href=\"https://maps.google.com/maps/contrib/104924382358268850904/photos\">Jason Courtemanche</a>"], "photo_reference": "CmRaAAAAHM5IF2ttqOMuk63x1l6e_DCsb0xTaMdoWnTnp00vNqwcQTn_Lv7Zf4FGQQCZ5Pvl4XzXwGomPZeixSTSLvGGFb42CSFSXB41vfr-5iTqOH7ujWOsDZ4KOm23V0WrK27FEhAuHYxk3PFdAye2CpopG9zWGhRI8ggJ_AlQj5B-7CJdtrDtXFqTMw", "width": 3024}], "place_id": "ChIJxXo2-yV644kRuZfY8OjMTBg", "plus_code": {"compound_code": "8WJ5+2M Boston, Massachusetts, United States", "global_code": "87JC8WJ5+2M"}, "rating": 4, "reference": "ChIJxXo2-yV644kRuZfY8OjMTBg", "scope": "GOOGLE", "types": ["park", "point_of_interest", "establishment"], "user_ratings_total": 25, "vicinity": "42 Centre Street, Boston"}, "ChIJ9_6k4iV644kR-1ut4W-UMiA": {"geometry": {"location": {"lat": 42.330096, "lng": -71.091343}, "viewport": {"northeast": {"lat": 42.33145258029149, "lng": -71.08999631970849}, "southwest": {"lat": 42.3287546197085, "lng": -71.09269428029151}}}, "icon": "https://maps.gstatic.com/mapfiles/place_api/icons/bus-71.png", "id": "dac87b5f3b5765353185ae06abb4dc820b6fad22", "name": "205 Roxbury St", "place_id": "ChIJ9_6k4iV644kR-1ut4W-UMiA", "plus_code": {"compound_code": "8WJ5+2F Boston, Massachusetts, United States", "global_code": "87JC8WJ5+2F"}, "rating": 5, "reference": "ChIJ9_6k4iV644kR-1ut4W-UMiA", "scope": "GOOGLE", "types": ["bus_station", "transit_station", "point_of_interest", "establishment"], "user_ratings_total": 1, "vicinity": "United States"}, "ChIJR1qsByZ644kR3KyUf5naFag": {"geometry": {"location": {"lat": 42.32996199999999, "lng": -71.09154699999999}, "viewport": {"northeast": {"lat": 42.33134308029149, "lng": -71.09020971970848}, "southwest": {"lat": 42.3286451197085, "lng": -71.0929076802915}}}, "icon": "https://maps.gstatic.com/mapfiles/place_api/icons/bus-71.png", "id": "e4fa1bbe70276948f074bb6b34f305f703f20b30", "name": "42A John Eliot Sq", "place_id": "ChIJR1qsByZ644kR3KyUf5naFag", "plus_code": {"compound_code": "8WH5+X9 Boston, Massachusetts, United States", "global_code": "87JC8WH5+X9"}, "reference": "ChIJR1qsByZ644kR3KyUf5naFag", "scope": "GOOGLE", "types": ["bus_station", "transit_station", "point_of_interest", "establishment"], "vicinity": "United States"}, "ChIJf4kL_SV644kRDL2mWNbeslU": {"geometry": {"location": {"lat": 42.32981059999999, "lng": -71.0914334}, "viewport": {"northeast": {"lat": 42.3311410302915, "lng": -71.0900261197085}, "southwest": {"lat": 42.3284430697085, "lng": -71.09272408029152}}}, "icon": "https://maps.gstatic.com/mapfiles/place_api/icons/generic_business-71.png", "id": "cdfc3e77cb0c5f8476acab4d21f0026945d8839d", "name": "Weld Management", "place_id": "ChIJf4kL_SV644kRDL2mWNbeslU", "plus_code": {"compound_code": "8WH5+WC Boston, Massachusetts, United States", "global_code": "87JC8WH5+WC"}, "reference": "ChIJf4kL_SV644kRDL2mWNbeslU", "scope": "GOOGLE", "types": ["general_contractor", "point_of_interest", "establishment"], "vicinity": "1 Highland Street, Roxbury"}, "ChIJDTU8_CV644kRDd1GaY_fJE4": {"geometry": {"location": {"lat": 42.3297649, "lng": -71.0911084}, "viewport": {"northeast": {"lat": 42.3311636802915, "lng": -71.08972056970849}, "southwest": {"lat": 42.3284657197085, "lng": -71.0924185302915}}}, "icon": "https://maps.gstatic.com/mapfiles/place_api/icons/shopping-71.png", "id": "04a3f0be2e39a7dc8e94651585e0ae82cc2b54fe", "name": "ROXBURY MINI MARKET", "opening_hours": {"open_now": true}, "place_id": "ChIJDTU8_CV644kRDd1GaY_fJE4", "plus_code": {"compound_code": "8WH5+WH Boston, Massachusetts, United States", "global_code": "87JC8WH5+WH"}, "reference": "ChIJDTU8_CV644kRDd1GaY_fJE4", "scope": "GOOGLE", "types": ["convenience_store", "store", "point_of_interest", "food", "establishment"], "vicinity": "42B John Eliot Square, Roxbury"}, "ChIJqwYuXy9644kRNJYklskCrPk": {"geometry": {"location": {"lat": 42.329748, "lng": -71.0911339}, "viewport": {"northeast": {"lat": 42.3311572302915, "lng": -71.08973796970848}, "southwest": {"lat": 42.3284592697085, "lng": -71.0924359302915}}}, "icon": "https://maps.gstatic.com/mapfiles/place_api/icons/generic_business-71.png", "id": "12a323917af51e6015509bb9aae4e10bc5ada784", "name": "Marcus Garvey Associates", "place_id": "ChIJqwYuXy9644kRNJYklskCrPk", "plus_code": {"compound_code": "8WH5+VG Boston, Massachusetts, United States", "global_code": "87JC8WH5+VG"}, "rating": 4.3, "reference": "ChIJqwYuXy9644kRNJYklskCrPk", "scope": "GOOGLE", "types": ["point_of_interest", "establishment"], "user_ratings_total": 3, "vicinity": "44 John Eliot Square # 2, Roxbury"}, "ChIJZz77EiZ644kR7BE9Cjsk1u0": {"geometry": {"location": {"lat": 42.33089389999999, "lng": -71.09193189999999}, "viewport": {"northeast": {"lat": 42.3320369802915, "lng": -71.09092406970849}, "southwest": {"lat": 42.3293390197085, "lng": -71.0936220302915}}}, "icon": "https://maps.gstatic.com/mapfiles/place_api/icons/generic_recreational-71.png", "id": "e9f32746a7c874ff22c97d36511c5f60689a4797", "name": "Jeep Jones Park", "photos": [{"height": 2048, "html_attributions": ["<a href=\"https://maps.google.com/maps/contrib/116812581955404722053/photos\">Marko Mircetic</a>"], "photo_reference": "CmRaAAAAtkOS6f7PS0_8XeodUmtlITza9SPmmMpuv3-sK7KN_w-dxaKmfF_e-CbL35zW5tMKKiokMRqvIDVZs9QRJLt6U2X5OssreiB4bJG-g1mjzM6O6lqKMSq64_cnv-CP_KcHEhDlpJ_FUny4rHANh1BF7xk9GhTh4Mvpi03pZTzlFdGp7tHI9Rty8w", "width": 1536}], "place_id": "ChIJZz77EiZ644kR7BE9Cjsk1u0", "reference": "ChIJZz77EiZ644kR7BE9Cjsk1u0", "scope": "GOOGLE", "types": ["park", "premise", "point_of_interest", "establishment"], "vicinity": "Boston"}, "ChIJGzE9DS1l44kRoOhiASS_fHg": {"geometry": {"location": {"lat": 42.3600825, "lng": -71.0588801}, "viewport": {"northeast": {"lat": 42.40081989999999, "lng": -70.749455}, "southwest": {"lat": 42.22788, "lng": -71.191113}}}, "icon": "https://maps.gstatic.com/mapfiles/place_api/icons/geocode-71.png", "id": "06755c25d2b34d13942a4713971756a55b870ced", "name": "Boston", "photos": [{"height": 3024, "html_attributions": ["<a href=\"https://maps.google.com/maps/contrib/104670289779338733432/photos\">Natalia Zalucean</a>"], "photo_reference": "CmRaAAAA7FGiMdrjWMTA434-fMUGcRdU7rVc9eiWNu-_0DNtkKoM7lGZzSgE9dJ7r2Kh-wM4fW6NKuxd-RuyW40QKID8AUPEYk0SduHEqxhwSsmTuynPEkh3c92D6VwMID_fqGWkEhAnGRVKgS4VIBzTFGiKg9SzGhRWD-3bv8o0BwO6AtWOeCX6TyJ9JA", "width": 4032}], "place_id": "ChIJGzE9DS1l44kRoOhiASS_fHg", "reference": "ChIJGzE9DS1l44kRoOhiASS_fHg", "scope": "GOOGLE", "types": ["locality", "political"], "vicinity": "Boston"}}