{"ChIJNc3BqZFw44kRzb12DVo5tFw": {"geometry": {"location": {"lat": 42.3656585, "lng": -71.0645627}, "viewport": {"northeast": {"lat": 42.36700063029149, "lng": -71.0632035197085}, "southwest": {"lat": 42.36430266970849, "lng": -71.0659014802915}}}, "icon": "https://maps.gstatic.com/mapfiles/place_api/icons/geocode-71.png", "id": "edcac59be9e1061549786d0a82787c079ecb9d56", "name": "Nashua Street", "place_id": "ChIJNc3BqZFw44kRzb12DVo5tFw", "reference": "ChIJNc3BqZFw44kRzb12DVo5tFw", "scope": "GOOGLE", "types": ["route"], "vicinity": "Boston"}, "ChIJVwcKHpFw44kRE5quyPdy5Zk": {"geometry": {"location": {"lat": 42.3657388, "lng": -71.0656698}, "viewport": {"northeast": {"lat": 42.3671193802915, "lng": -71.06430816970848}, "southwest": {"lat": 42.3644214197085, "lng": -71.0670061302915}}}, "icon": "https://maps.gstatic.com/mapfiles/place_api/icons/generic_business-71.png", "id": "1830ed8637376bfbd740a31f063dbf5b37f50f0d", "name": "Amy Lowell Apartments", "opening_hours": {"open_now": true}, "photos": [{"height": 2448, "html_attributions": ["<a href=\"https://maps.google.com/maps/contrib/107339110650704596910/photos\">Amy Lowell Apartments</a>"], "photo_reference": "CmRaAAAAW2CMw-tyfTBH1bqluPAQ7G3mKBpWyfo2U7s6pYEa_GOJJVn5dFPht9MRWR1lFCNrSnaBGePX9Fh7KQH9akHO6LgyNv0Zo9h5FD-W-sqnvhji82mDl5bGTivxMadJxOLqEhAj0_IPMiWAD2Dm5FEUsTYrGhQZcaF-3QcxZUVYrhK9AFUay5ddfQ", "width": 3264}], "place_id": "ChIJVwcKHpFw44kRE5quyPdy5Zk", "plus_code": {"compound_code": "9W8M+7P Boston, Massachusetts, United States", "global_code": "87JC9W8M+7P"}, "rating": 4.2, "reference": "ChIJVwcKHpFw44kRE5quyPdy5Zk", "scope": "GOOGLE", "types": ["point_of_interest", "establishment"], "user_ratings_total": 6, "vicinity": "65 Martha Road, Boston"}, "ChIJ2fX_iElw44kRzGUY5uXHhco": {"geometry": {"location": {"lat": 42.3656481, "lng": -71.06555999999999}, "viewport": {"northeast": {"lat": 42.3670629302915, "lng": -71.0641999197085}, "southwest": {"lat": 42.3643649697085, "lng": -71.0668978802915}}}, "icon": "https://maps.gstatic.com/mapfiles/place_api/icons/generic_business-71.png", "id": "9ba1f05d5866fd79c1ca64325a6455e890838fcc", "name": "Hetal Shah", "place_id": "ChIJ2fX_iElw44kRzGUY5uXHhco", "plus_code": {"compound_code": "9W8M+7Q Boston, Massachusetts, United States", "global_code": "87JC9W8M+7Q"}, "reference": "ChIJ2fX_iElw44kRzGUY5uXHhco", "scope": "GOOGLE", "types": ["point_of_interest", "establishment"], "vicinity": "65 Martha Road #4b, Boston"}, "ChIJoZZ0qZFw44kRzCh030iJBJ0": {"geometry": {"location": {"lat": 42.3656223, "lng": -71.0644291}, "viewport": {"northeast": {"lat": 42.3670079802915, "lng": -71.0631149697085}, "southwest": {"lat": 42.3643100197085, "lng": -71.0658129302915}}}, "icon": "https://maps.gstatic.com/mapfiles/place_api/icons/generic_recreational-71.png", "id": "b7a237b25cb3e72321557aab3600d73859b026e5", "name": "The NERO People's Garden", "photos": [{"height": 480, "html_attributions": ["<a href=\"https://maps.google.com/maps/contrib/104363568801873192443/photos\">Dennis Anderson</a>"], "photo_reference": "CmRaAAAA4aC1-TezaCPI-yJcSxlcftMt_Ve17L80k3qNx7XhH7VT0PXAUYkt3CzvL6T-CQ00xSdtDwAE8grVX205dJcsWE0iz2BrPdLHP9xSWOPVLwMlfSJZq-GlGR4cpfxlM2K8EhCBZagwl2ZaMi1qVta_ok5RGhQsjZf3Xi7OiwsA3bpAPmMQc3n8cw", "width": 640}], "place_id": "ChIJoZZ0qZFw44kRzCh030iJBJ0", "plus_code": {"compound_code": "9W8P+66 Boston, Massachusetts, United States", "global_code": "87JC9W8P+66"}, "reference": "ChIJoZZ0qZFw44kRzCh030iJBJ0", "scope": "GOOGLE", "types": ["park", "point_of_interest", "establishment"], "vicinity": "100 Nashua Street, Boston"}, "ChIJHwUpqJFw44kRx9Tp3jzcguM": {"geometry": {"location": {"lat": 42.3656787, "lng": -71.06472649999999}, "viewport": {"northeast": {"lat": 42.3671096302915, "lng": -71.06327051970848}, "southwest": {"lat": 42.3644116697085, "lng": -71.0659684802915}}}, "icon": "https://maps.gstatic.com/mapfiles/place_api/icons/generic_recreational-71.png", "id": "84b1149cf519cb0a1fb5b606f2b5eb139e148879", "name": "West End Park", "place_id": "ChIJHwUpqJFw44kRx9Tp3jzcguM", "reference": "ChIJHwUpqJFw44kRx9Tp3jzcguM", "scope": "GOOGLE", "types": ["park", "premise", "point_of_interest", "establishment"], "vicinity": "Boston"}, "ChIJ8QgLwZBw44kRuD8g7weqdu8": {"geometry": {"location": {"lat": 42.3647715, "lng": -71.0659336}, "viewport": {"northeast": {"lat": 42.3660343, "lng": -71.06500249999999}, "southwest": {"lat": 42.3631783, "lng": -71.0691343}}}, "icon": "https://maps.gstatic.com/mapfiles/place_api/icons/generic_recreational-71.png", "id": "77ee83b4bcad1203c14d8d5bb8e636ee5b7b883e", "name": "Thoreau Path", "place_id": "ChIJ8QgLwZBw44kRuD8g7weqdu8", "reference": "ChIJ8QgLwZBw44kRuD8g7weqdu8", "scope": "GOOGLE", "types": ["park", "premise", "point_of_interest", "establishment"], "vicinity": "Boston"}, "ChIJGzE9DS1l44kRoOhiASS_fHg": {"geometry": {"location": {"lat": 42.3600825, "lng": -71.0588801}, "viewport": {"northeast": {"lat": 42.40081989999999, "lng": -70.749455}, "southwest": {"lat": 42.22788, "lng": -71.191113}}}, "icon": "https://maps.gstatic.com/mapfiles/place_api/icons/geocode-71.png", "id": "06755c25d2b34d13942a4713971756a55b870ced", "name": "Boston", "photos": [{"height": 3024, "html_attributions": ["<a href=\"https://maps.google.com/maps/contrib/104670289779338733432/photos\">Natalia Zalucean</a>"], "photo_reference": "CmRaAAAA5b5XBirVLLn3BESLKIOI0AVVJOXk0Oo1BV8FXBI3F-Itx4LT1m-kb_UjdeCVp1evXU1y-Nm-LOgHzFs2_AnpQ6oeLsB_Q0-mr1SIPsabP0L8oplrgKSM5PoYwqC4SX6jEhCf9_zDLHsmoTOZJNUs5nO9GhTHUkGCz3XGd488IYvG7yph224X9Q", "width": 4032}], "place_id": "ChIJGzE9DS1l44kRoOhiASS_fHg", "reference": "ChIJGzE9DS1l44kRoOhiASS_fHg", "scope": "GOOGLE", "types": ["locality", "political"], "vicinity": "Boston"}}