{"ChIJAziWU5p544kRyIpJ8iTZB40": {"geometry": {"location": {"lat": 42.330904, "lng": -71.112634}, "viewport": {"northeast": {"lat": 42.3322536802915, "lng": -71.11128171970849}, "southwest": {"lat": 42.3295557197085, "lng": -71.1139796802915}}}, "icon": "https://maps.gstatic.com/mapfiles/place_api/icons/geocode-71.png", "id": "be96ee1639812f57df6593f0b131146b1287515e", "name": "38-10 Jamaicaway", "place_id": "ChIJAziWU5p544kRyIpJ8iTZB40", "reference": "ChIJAziWU5p544kRyIpJ8iTZB40", "scope": "GOOGLE", "types": ["route"], "vicinity": "Boston"}, "ChIJQdA_9Jp544kRD7ZBP4sQDMg": {"geometry": {"location": {"lat": 42.33146900000001, "lng": -71.112127}, "viewport": {"northeast": {"lat": 42.3328452302915, "lng": -71.11065881970849}, "southwest": {"lat": 42.3301472697085, "lng": -71.1133567802915}}}, "icon": "https://maps.gstatic.com/mapfiles/place_api/icons/restaurant-71.png", "id": "1111bd80f788c3ce6acb0c6b8f542397259b2952", "name": "Healthy Wok", "opening_hours": {"open_now": false}, "photos": [{"height": 3024, "html_attributions": ["<a href=\"https://maps.google.com/maps/contrib/116559876056675137497/photos\">Shelby Nathanson</a>"], "photo_reference": "CmRaAAAAxOhTaRRMuKVKMDPbLXXLt85Gnr-yqSYIR0Yey9h6uY1iLTxg46AFsRMjdkPLsK6UEhI7YZhK6KxG6DDs_9pt-vSjIFmU4Nx63CFLftBQuy05Iq1HI720Q7iTIU8BDuOTEhB7UivA0RqEUR-7S-lgF0K8GhQjzby9_1U_Uvpb7qUq2CQbL9A8EQ", "width": 4032}], "place_id": "ChIJQdA_9Jp544kRD7ZBP4sQDMg", "plus_code": {"compound_code": "8VJQ+H4 Boston, Massachusetts, United States", "global_code": "87JC8VJQ+H4"}, "price_level": 1, "rating": 3.3, "reference": "ChIJQdA_9Jp544kRD7ZBP4sQDMg", "scope": "GOOGLE", "types": ["restaurant", "point_of_interest", "food", "establishment"], "user_ratings_total": 136, "vicinity": "23 South Huntington Avenue, Jamaica Plain"}, "ChIJzx1s95p544kR6cRg3iL04DU": {"geometry": {"location": {"lat": 42.3312369, "lng": -71.111921}, "viewport": {"northeast": {"lat": 42.3326014302915, "lng": -71.11050271970849}, "southwest": {"lat": 42.3299034697085, "lng": -71.1132006802915}}}, "icon": "https://maps.gstatic.com/mapfiles/place_api/icons/generic_business-71.png", "id": "3bfb8d4d0a525c773c0a92d1afce969a8b286e23", "name": "Walter Huntington Apartments", "photos": [{"height": 2160, "html_attributions": ["<a href=\"https://maps.google.com/maps/contrib/110404624926522769988/photos\">Prasad Raut</a>"], "photo_reference": "CmRaAAAAJXxHeov5VsyWLGlRabhzya8OAAIi7SDu2qalHMniu5qA7SHy0S82pvz70D2cP5TOLZDFi3geJWqX6K8r0nJybzSHFosFjuQa3gQYATOKVaRGNh7sNRoBbOP8z12Ad2AsEhCg2trYyy0lWvpe8pGBPI5IGhQ728wSDcxqQYAROgbNhNbssVS6XA", "width": 3840}], "place_id": "ChIJzx1s95p544kR6cRg3iL04DU", "plus_code": {"compound_code": "8VJQ+F6 Boston, Massachusetts, United States", "global_code": "87JC8VJQ+F6"}, "rating": 4.8, "reference": "ChIJzx1s95p544kR6cRg3iL04DU", "scope": "GOOGLE", "types": ["point_of_interest", "establishment"], "user_ratings_total": 6, "vicinity": "33-37 South Huntington Avenue, Jamaica Plain"}, "ChIJVVXFWZp544kRQ4QdLG4tYNk": {"geometry": {"location": {"lat": 42.3313002, "lng": -71.1124043}, "viewport": {"northeast": {"lat": 42.3326149302915, "lng": -71.11123571970849}, "southwest": {"lat": 42.3299169697085, "lng": -71.1139336802915}}}, "icon": "https://maps.gstatic.com/mapfiles/place_api/icons/generic_business-71.png", "id": "beaca38a7ab54f0a791174de46b422eebfdd7d36", "name": "Orpha Rivera", "place_id": "ChIJVVXFWZp544kRQ4QdLG4tYNk", "plus_code": {"compound_code": "8VJQ+G2 Boston, Massachusetts, United States", "global_code": "87JC8VJQ+G2"}, "reference": "ChIJVVXFWZp544kRQ4QdLG4tYNk", "scope": "GOOGLE", "types": ["point_of_interest", "establishment"], "vicinity": "10 Jamaicaway, Boston"}, "ChIJgXGNWpp544kRXFAVqfts_h4": {"geometry": {"location": {"lat": 42.3313002, "lng": -71.1124043}, "viewport": {"northeast": {"lat": 42.3326149302915, "lng": -71.11123571970849}, "southwest": {"lat": 42.3299169697085, "lng": -71.1139336802915}}}, "icon": "https://maps.gstatic.com/mapfiles/place_api/icons/generic_business-71.png", "id": "ffd942dbf04bf9a65c3f81a03d7e3e5667b2f4d2", "name": "Dr. Andrew Hines-Peralta, MD", "place_id": "ChIJgXGNWpp544kRXFAVqfts_h4", "plus_code": {"compound_code": "8VJQ+G2 Boston, Massachusetts, United States", "global_code": "87JC8VJQ+G2"}, "reference": "ChIJgXGNWpp544kRXFAVqfts_h4", "scope": "GOOGLE", "types": ["doctor", "health", "point_of_interest", "establishment"], "vicinity": "10 Jamaicaway, Jamaica Plain"}, "ChIJbUh_wWl544kR0Yb6Sc53vSo": {"geometry": {"location": {"lat": 42.3311036, "lng": -71.1119685}, "viewport": {"northeast": {"lat": 42.33247868029149, "lng": -71.1105034197085}, "southwest": {"lat": 42.32978071970849, "lng": -71.11320138029151}}}, "icon": "https://maps.gstatic.com/mapfiles/place_api/icons/generic_business-71.png", "id": "9851de0eedeb586740fab3bdc25001bf58d7341b", "name": "Nails On Huntington", "opening_hours": {"open_now": true}, "photos": [{"height": 2612, "html_attributions": ["<a href=\"https://maps.google.com/maps/contrib/107257578070660349935/photos\">Nails On Huntington</a>"], "photo_reference": "CmRaAAAA2esFIg7zsQi1SqDr2kDX_bud_N1qUL7PS30lSdLbFWx__ynNCGRsYIxBRRmY8wigrZ93Z4uMb-vQn1fb7HchvzrrldL_T4872pm6U4jFtdj7HoTfJ4CUbB7nY6wfVAU9EhDvhfeOvrSDICM0AW64sNcZGhT8hNXOVFUTjUjLgLBMXuYXclUqNA", "width": 2624}], "place_id": "ChIJbUh_wWl544kR0Yb6Sc53vSo", "plus_code": {"compound_code": "8VJQ+C6 Boston, Massachusetts, United States", "global_code": "87JC8VJQ+C6"}, "rating": 5, "reference": "ChIJbUh_wWl544kR0Yb6Sc53vSo", "scope": "GOOGLE", "types": ["beauty_salon", "point_of_interest", "establishment"], "user_ratings_total": 6, "vicinity": "39 South Huntington Avenue, Boston"}, "ChIJqxFQ95p544kRattD8Qg3_FQ": {"geometry": {"location": {"lat": 42.3312017, "lng": -71.1118436}, "viewport": {"northeast": {"lat": 42.3325597302915, "lng": -71.11045446970849}, "southwest": {"lat": 42.32986176970851, "lng": -71.11315243029149}}}, "icon": "https://maps.gstatic.com/mapfiles/place_api/icons/lodging-71.png", "id": "c44d3fed1aec1bff97548c3c3a37533c74860310", "name": "Global Luxury Suites at Longwood", "photos": [{"height": 864, "html_attributions": ["<a href=\"https://maps.google.com/maps/contrib/101615132358695517078/photos\">aishwarya avachat</a>"], "photo_reference": "CmRaAAAA53XYXmAytaY4XSVdJvvHv17PpY5nclqUs7d7TjDRq7MKzSdYyiFAQQzECRuNjliktAwF0TWV2eUS5w1f4yLvq6_5-u4U9mQS2WnSz0MjZTlYckeMw5WoaBC7UUlz1jcmEhBtD-Minv2gyqw9GFJZ92e7GhTWfve2QvDgnOWK-cZKLpPaOnJNsw", "width": 1152}], "place_id": "ChIJqxFQ95p544kRattD8Qg3_FQ", "plus_code": {"compound_code": "8VJQ+F7 Boston, Massachusetts, United States", "global_code": "87JC8VJQ+F7"}, "rating": 2.8, "reference": "ChIJqxFQ95p544kRattD8Qg3_FQ", "scope": "GOOGLE", "types": ["lodging", "point_of_interest", "establishment"], "user_ratings_total": 12, "vicinity": "35 South Huntington Avenue, Boston"}, "ChIJgXGNWpp544kRz_8o6HZDDeA": {"geometry": {"location": {"lat": 42.3312578, "lng": -71.112442}, "viewport": {"northeast": {"lat": 42.33257503029151, "lng": -71.1112479697085}, "southwest": {"lat": 42.32987706970851, "lng": -71.11394593029151}}}, "icon": "https://maps.gstatic.com/mapfiles/place_api/icons/generic_business-71.png", "id": "52f910eee717b7b6912043c701e61534bd386370", "name": "10 Jamaicaway", "place_id": "ChIJgXGNWpp544kRz_8o6HZDDeA", "plus_code": {"compound_code": "8VJQ+G2 Boston, Massachusetts, United States", "global_code": "87JC8VJQ+G2"}, "reference": "ChIJgXGNWpp544kRz_8o6HZDDeA", "scope": "GOOGLE", "types": ["point_of_interest", "establishment"], "vicinity": "10 Jamaicaway, Jamaica Plain"}, "ChIJM4c-nOx544kR4knvSU5NdTk": {"geometry": {"location": {"lat": 42.330659, "lng": -71.111766}, "viewport": {"northeast": {"lat": 42.3320319802915, "lng": -71.1103099197085}, "southwest": {"lat": 42.3293340197085, "lng": -71.1130078802915}}}, "icon": "https://maps.gstatic.com/mapfiles/place_api/icons/generic_business-71.png", "id": "f62c97bcc3b4b5b0ef90613bc7384c835d85c987", "name": "NEBH", "place_id": "ChIJM4c-nOx544kR4knvSU5NdTk", "plus_code": {"compound_code": "8VJQ+77 Boston, Massachusetts, United States", "global_code": "87JC8VJQ+77"}, "reference": "ChIJM4c-nOx544kR4knvSU5NdTk", "scope": "GOOGLE", "types": ["doctor", "health", "point_of_interest", "establishment"], "vicinity": "125 Parker Hill Avenue, Boston"}, "ChIJGzE9DS1l44kRoOhiASS_fHg": {"geometry": {"location": {"lat": 42.3600825, "lng": -71.0588801}, "viewport": {"northeast": {"lat": 42.40081989999999, "lng": -70.749455}, "southwest": {"lat": 42.22788, "lng": -71.191113}}}, "icon": "https://maps.gstatic.com/mapfiles/place_api/icons/geocode-71.png", "id": "06755c25d2b34d13942a4713971756a55b870ced", "name": "Boston", "photos": [{"height": 3024, "html_attributions": ["<a href=\"https://maps.google.com/maps/contrib/104670289779338733432/photos\">Natalia Zalucean</a>"], "photo_reference": "CmRaAAAATrbM2oYbbhVKUu2uEfGaYNdI5cR9GxOGgpageXhrf2ujA73L6KLYVu1iQgP-4UM3sjJIu6n4czDPyNTJX3cpcuJug7ML5xJaHyV74rNjg66gpiCF2sSg_u6e7Bkzlan9EhAeyH5qX7PxtHMNwUn9Acm-GhQAb2D1uMEv-mEr1HaWPkJKC-EZ9w", "width": 4032}], "place_id": "ChIJGzE9DS1l44kRoOhiASS_fHg", "reference": "ChIJGzE9DS1l44kRoOhiASS_fHg", "scope": "GOOGLE", "types": ["locality", "political"], "vicinity": "Boston"}}