{"ChIJSeNnJ8p544kRmA4GB3ejGwQ": {"geometry": {"location": {"lat": 42.348807, "lng": -71.13890359999999}, "viewport": {"northeast": {"lat": 42.3499838802915, "lng": -71.13652909999999}, "southwest": {"lat": 42.3472859197085, "lng": -71.14127109999998}}}, "icon": "https://maps.gstatic.com/mapfiles/place_api/icons/geocode-71.png", "id": "0fc5fa7dbd32f473db3eaa89d58187220d1a64f3", "name": "Commonwealth Avenue", "place_id": "ChIJSeNnJ8p544kRmA4GB3ejGwQ", "reference": "ChIJSeNnJ8p544kRmA4GB3ejGwQ", "scope": "GOOGLE", "types": ["route"], "vicinity": "Boston"}, "ChIJqcewk8l544kRRHBG-xnwXxA": {"geometry": {"location": {"lat": 42.3482411, "lng": -71.1379963}, "viewport": {"northeast": {"lat": 42.34965818029149, "lng": -71.13660636970849}, "southwest": {"lat": 42.34696021970849, "lng": -71.13930433029151}}}, "icon": "https://maps.gstatic.com/mapfiles/place_api/icons/generic_business-71.png", "id": "0e9a9f707ac36aed439ec1d2957e33de9e23e8b7", "name": "Christopher Kokoras Insurance Agency,Inc", "opening_hours": {"open_now": true}, "photos": [{"height": 340, "html_attributions": ["<a href=\"https://maps.google.com/maps/contrib/111785589283727232938/photos\">Christopher Kokoras Insurance Agency,Inc</a>"], "photo_reference": "CmRaAAAAKHI6Att4ZmfF6rYqRb80ClW_cFzaQaue8TgiLFX-xUheREv-exuhtD5ZrPbmlieewbKrpYq1EnE3Der-spCWcxG4Lwi-YcA3s158lA16Bym4daTRQWefo1uVG5aFvdY-EhBRduxDnQSfIAA2J581VJ_KGhTxqDMEWnwoHqzgrm19LokWVPVbyw", "width": 497}], "place_id": "ChIJqcewk8l544kRRHBG-xnwXxA", "plus_code": {"compound_code": "8VX6+7R Boston, Massachusetts, United States", "global_code": "87JC8VX6+7R"}, "reference": "ChIJqcewk8l544kRRHBG-xnwXxA", "scope": "GOOGLE", "types": ["insurance_agency", "point_of_interest", "establishment"], "vicinity": "1394 Commonwealth Avenue, Allston"}, "ChIJeeKP7cl544kRBqd8CSCoMQM": {"geometry": {"location": {"lat": 42.3479634, "lng": -71.1381906}, "viewport": {"northeast": {"lat": 42.34928478029151, "lng": -71.1367547197085}, "southwest": {"lat": 42.34658681970851, "lng": -71.13945268029151}}}, "icon": "https://maps.gstatic.com/mapfiles/place_api/icons/shopping-71.png", "id": "3520c3356aaf3828555c9d4fbe1c9695eb5ace18", "name": "Allston Convenience Store", "opening_hours": {"open_now": true}, "place_id": "ChIJeeKP7cl544kRBqd8CSCoMQM", "plus_code": {"compound_code": "8VX6+5P Boston, Massachusetts, United States", "global_code": "87JC8VX6+5P"}, "rating": 4.2, "reference": "ChIJeeKP7cl544kRBqd8CSCoMQM", "scope": "GOOGLE", "types": ["convenience_store", "store", "point_of_interest", "food", "establishment"], "user_ratings_total": 9, "vicinity": "165 Allston Street, Allston"}, "ChIJIQAu7sl544kRMffWHewgovw": {"geometry": {"location": {"lat": 42.3477521, "lng": -71.1383158}, "viewport": {"northeast": {"lat": 42.3490706802915, "lng": -71.1368840697085}, "southwest": {"lat": 42.3463727197085, "lng": -71.1395820302915}}}, "icon": "https://maps.gstatic.com/mapfiles/place_api/icons/restaurant-71.png", "id": "2c6697f09615740e32a6353cd06a76ebb0461a48", "name": "Charlie's Pizza & Cafe", "opening_hours": {"open_now": true}, "photos": [{"height": 426, "html_attributions": ["<a href=\"https://maps.google.com/maps/contrib/110593997651287505266/photos\">Charlie&#39;s Pizza &amp; Cafe</a>"], "photo_reference": "CmRaAAAAwzPy9SQxNFSg2l03qRRDdaIjfqFt-lp1aWvaluRsmjZgWYgi5TAIawsQTW8hqMpLIhgnJf09jW4OBpYcamhZYXZGCexf3bx5lfUD4_qGVAUAARu-fI_L9AwSgT04ei27EhBqdoYlw0jT6-sPp5HIiGbAGhRx9FGrb6I0c5BMU-GsOYHMAPLy2w", "width": 640}], "place_id": "ChIJIQAu7sl544kRMffWHewgovw", "plus_code": {"compound_code": "8VX6+4M Boston, Massachusetts, United States", "global_code": "87JC8VX6+4M"}, "price_level": 1, "rating": 4.1, "reference": "ChIJIQAu7sl544kRMffWHewgovw", "scope": "GOOGLE", "types": ["restaurant", "point_of_interest", "food", "establishment"], "user_ratings_total": 138, "vicinity": "3603, 177 Allston Street, Allston"}, "ChIJp4otIcp544kRvjliSNpgv_s": {"geometry": {"location": {"lat": 42.3485311, "lng": -71.1391206}, "viewport": {"northeast": {"lat": 42.3499648802915, "lng": -71.1377623697085}, "southwest": {"lat": 42.3472669197085, "lng": -71.1404603302915}}}, "icon": "https://maps.gstatic.com/mapfiles/place_api/icons/restaurant-71.png", "id": "5f345862f67b00d50b3100ab5b479d2ac34418f5", "name": "Ittoku", "opening_hours": {"open_now": false}, "photos": [{"height": 3036, "html_attributions": ["<a href=\"https://maps.google.com/maps/contrib/112275715594884093340/photos\">William Guo</a>"], "photo_reference": "CmRaAAAAMaDrMQSR3tWg8ifIzOFNuB3975sX8lkhu_NWs1_Y8HpKAjw0pspbvIU0pf9ee6YJCLcnrQ0xwA9qlXkpK6CQ-ZbQ6RL2hnwg8-g0E6JIEIc1kYR9SOE-_BIBWuVv2qHjEhC6_qB4_3x2o5kUfERje20EGhQS3Bix_YaAABJS8fTwRGDj1X1YZw", "width": 4048}], "place_id": "ChIJp4otIcp544kRvjliSNpgv_s", "plus_code": {"compound_code": "8VX6+C9 Boston, Massachusetts, United States", "global_code": "87JC8VX6+C9"}, "price_level": 2, "rating": 4.7, "reference": "ChIJp4otIcp544kRvjliSNpgv_s", "scope": "GOOGLE", "types": ["restaurant", "point_of_interest", "food", "establishment"], "user_ratings_total": 382, "vicinity": "1414 Commonwealth Avenue, Boston"}, "ChIJb1EwjMl544kRn3zmu-B3Oq4": {"geometry": {"location": {"lat": 42.34847269999999, "lng": -71.1382868}, "viewport": {"northeast": {"lat": 42.3498144302915, "lng": -71.1369420697085}, "southwest": {"lat": 42.3471164697085, "lng": -71.1396400302915}}}, "icon": "https://maps.gstatic.com/mapfiles/place_api/icons/generic_business-71.png", "id": "afa08216ff7fa5556d8a1f0c68560ac4d80fb08c", "name": "Stacy Kennedy, MPH", "place_id": "ChIJb1EwjMl544kRn3zmu-B3Oq4", "plus_code": {"compound_code": "8VX6+9M Boston, Massachusetts, United States", "global_code": "87JC8VX6+9M"}, "reference": "ChIJb1EwjMl544kRn3zmu-B3Oq4", "scope": "GOOGLE", "types": ["doctor", "health", "point_of_interest", "establishment"], "vicinity": "1404 Commonwealth Avenue Suite 4, Brighton, MA 02135, Allston"}, "ChIJvdrn8cl544kR0mCPRdjmVDU": {"geometry": {"location": {"lat": 42.3477643, "lng": -71.1383299}, "viewport": {"northeast": {"lat": 42.34907958029149, "lng": -71.13688921970848}, "southwest": {"lat": 42.3463816197085, "lng": -71.1395871802915}}}, "icon": "https://maps.gstatic.com/mapfiles/place_api/icons/generic_business-71.png", "id": "e336d3299451170db553b223dee58bbe9e193dee", "name": "Linh Cleaners", "opening_hours": {"open_now": true}, "place_id": "ChIJvdrn8cl544kR0mCPRdjmVDU", "plus_code": {"compound_code": "8VX6+4M Boston, Massachusetts, United States", "global_code": "87JC8VX6+4M"}, "rating": 3.9, "reference": "ChIJvdrn8cl544kR0mCPRdjmVDU", "scope": "GOOGLE", "types": ["laundry", "point_of_interest", "establishment"], "user_ratings_total": 7, "vicinity": "171 Allston Street, Allston"}, "ChIJ56gRyMl544kRaM7myegzumc": {"geometry": {"location": {"lat": 42.3478526, "lng": -71.13818780000001}, "viewport": {"northeast": {"lat": 42.3491823302915, "lng": -71.1367818197085}, "southwest": {"lat": 42.3464843697085, "lng": -71.13947978029151}}}, "icon": "https://maps.gstatic.com/mapfiles/place_api/icons/generic_business-71.png", "id": "4cb8cbde3c67375434774f4ec6501027c9d6709c", "name": "Allston Street Laundramat", "opening_hours": {"open_now": true}, "place_id": "ChIJ56gRyMl544kRaM7myegzumc", "plus_code": {"compound_code": "8VX6+4P Boston, Massachusetts, United States", "global_code": "87JC8VX6+4P"}, "rating": 5, "reference": "ChIJ56gRyMl544kRaM7myegzumc", "scope": "GOOGLE", "types": ["laundry", "point_of_interest", "establishment"], "user_ratings_total": 1, "vicinity": "5 Scottfield Road, Boston"}, "ChIJa4z47cl544kROOQx2VF3fww": {"geometry": {"location": {"lat": 42.3478552, "lng": -71.1381627}, "viewport": {"northeast": {"lat": 42.3491882302915, "lng": -71.1367664197085}, "southwest": {"lat": 42.3464902697085, "lng": -71.1394643802915}}}, "icon": "https://maps.gstatic.com/mapfiles/place_api/icons/generic_business-71.png", "id": "0266401bffdfc4bd55a954b807f9249b31dee58e", "name": "Allston St. Laundromat", "opening_hours": {"open_now": true}, "place_id": "ChIJa4z47cl544kROOQx2VF3fww", "plus_code": {"compound_code": "8VX6+4P Boston, Massachusetts, United States", "global_code": "87JC8VX6+4P"}, "rating": 1, "reference": "ChIJa4z47cl544kROOQx2VF3fww", "scope": "GOOGLE", "types": ["laundry", "point_of_interest", "establishment"], "user_ratings_total": 1, "vicinity": "171 Allston Street, Allston"}, "ChIJGzE9DS1l44kRoOhiASS_fHg": {"geometry": {"location": {"lat": 42.3600825, "lng": -71.0588801}, "viewport": {"northeast": {"lat": 42.40081989999999, "lng": -70.749455}, "southwest": {"lat": 42.22788, "lng": -71.191113}}}, "icon": "https://maps.gstatic.com/mapfiles/place_api/icons/geocode-71.png", "id": "06755c25d2b34d13942a4713971756a55b870ced", "name": "Boston", "photos": [{"height": 3024, "html_attributions": ["<a href=\"https://maps.google.com/maps/contrib/104670289779338733432/photos\">Natalia Zalucean</a>"], "photo_reference": "CmRaAAAAb208nhdMDUpDdZLPmE6BRhMpJdhwonhFgkLERE-tafR9gSgocHIGQT_QGMgnadZHVAEpzukV0xqVGKEmT1om-HHuyR6BRis_wIaRg7GQ-v3AcKJMS4yuR8o6GiaWSTRwEhDp5tOpfcL-FMmaTcEVSzYYGhSyUkKdQheSVxr7myNL_Bwz5gwjOg", "width": 4032}], "place_id": "ChIJGzE9DS1l44kRoOhiASS_fHg", "reference": "ChIJGzE9DS1l44kRoOhiASS_fHg", "scope": "GOOGLE", "types": ["locality", "political"], "vicinity": "Boston"}}