{"ChIJl3Pmxl1644kRn22d7zspgi8": {"geometry": {"location": {"lat": 42.3315091, "lng": -71.0569816}, "viewport": {"northeast": {"lat": 42.3328580802915, "lng": -71.0556326697085}, "southwest": {"lat": 42.3301601197085, "lng": -71.05833063029151}}}, "icon": "https://maps.gstatic.com/mapfiles/place_api/icons/geocode-71.png", "id": "8689a1dae01c3d4c6b0c70d35df8056660b42cc4", "name": "528-496 Dorchester Ave", "place_id": "ChIJl3Pmxl1644kRn22d7zspgi8", "reference": "ChIJl3Pmxl1644kRn22d7zspgi8", "scope": "GOOGLE", "types": ["route"], "vicinity": "Boston"}, "ChIJxX2Bxl1644kRwsSybrOUW7g": {"geometry": {"location": {"lat": 42.3313921, "lng": -71.05676150000001}, "viewport": {"northeast": {"lat": 42.3327399302915, "lng": -71.0555214697085}, "southwest": {"lat": 42.3300419697085, "lng": -71.0582194302915}}}, "icon": "https://maps.gstatic.com/mapfiles/place_api/icons/school-71.png", "id": "a07d7ac4d852a5b48128c0cd03198904bb888f4b", "name": "T-Guide Auto School", "opening_hours": {"open_now": false}, "place_id": "ChIJxX2Bxl1644kRwsSybrOUW7g", "plus_code": {"compound_code": "8WJV+H7 Boston, Massachusetts, United States", "global_code": "87JC8WJV+H7"}, "rating": 2.5, "reference": "ChIJxX2Bxl1644kRwsSybrOUW7g", "scope": "GOOGLE", "types": ["point_of_interest", "establishment"], "user_ratings_total": 14, "vicinity": "522 Dorchester Avenue a, Boston"}, "ChIJSSoUxF1644kRXmIZ5ciwaqQ": {"geometry": {"location": {"lat": 42.3315114, "lng": -71.0567636}, "viewport": {"northeast": {"lat": 42.3328592302915, "lng": -71.05552366970849}, "southwest": {"lat": 42.3301612697085, "lng": -71.05822163029151}}}, "icon": "https://maps.gstatic.com/mapfiles/place_api/icons/generic_business-71.png", "id": "40f247d3cd65dd43ef597bba0f04f3420f342297", "name": "Express It Delivery", "opening_hours": {"open_now": true}, "photos": [{"height": 486, "html_attributions": ["<a href=\"https://maps.google.com/maps/contrib/106407297255653154220/photos\">Express It Delivery</a>"], "photo_reference": "CmRaAAAAJeoEZFgQkEDWion7DQ0y99M5zu7_4CJEYmODbgtPrm9sRuo4WalKZUM39FvFzL3btpmIX3E07vFYLnTulpSfhOv62bYFhUhG-HBGk-0-bou3aihv4C68dBeS1tuRzjCXEhBYpReqNGeomaRlo-ZLbBbMGhT68pwOSghA_IJzTjpArcicMe9hqA", "width": 720}], "place_id": "ChIJSSoUxF1644kRXmIZ5ciwaqQ", "plus_code": {"compound_code": "8WJV+J7 Boston, Massachusetts, United States", "global_code": "87JC8WJV+J7"}, "reference": "ChIJSSoUxF1644kRXmIZ5ciwaqQ", "scope": "GOOGLE", "types": ["point_of_interest", "establishment"], "vicinity": "518 Dorchester Avenue, Boston"}, "ChIJ5e7CxV1644kRgIcIy2SmtsM": {"geometry": {"location": {"lat": 42.3313618, "lng": -71.05677969999999}, "viewport": {"northeast": {"lat": 42.3327097302915, "lng": -71.05553026970848}, "southwest": {"lat": 42.3300117697085, "lng": -71.05822823029149}}}, "icon": "https://maps.gstatic.com/mapfiles/place_api/icons/generic_business-71.png", "id": "6d671feedb66263f0153a8aee3b200c63fd75b65", "name": "Gorham Plastering", "opening_hours": {"open_now": true}, "place_id": "ChIJ5e7CxV1644kRgIcIy2SmtsM", "plus_code": {"compound_code": "8WJV+G7 Boston, Massachusetts, United States", "global_code": "87JC8WJV+G7"}, "reference": "ChIJ5e7CxV1644kRgIcIy2SmtsM", "scope": "GOOGLE", "types": ["general_contractor", "point_of_interest", "establishment"], "vicinity": "524 Dorchester Avenue, Boston"}, "ChIJhcVjwV1644kRe-yGy_gIJjM": {"geometry": {"location": {"lat": 42.3316136, "lng": -71.0568066}, "viewport": {"northeast": {"lat": 42.3329616802915, "lng": -71.0555461197085}, "southwest": {"lat": 42.3302637197085, "lng": -71.05824408029152}}}, "icon": "https://maps.gstatic.com/mapfiles/place_api/icons/generic_business-71.png", "id": "c8d938b5cbbfe03c4eafde0a44682a9418c3729a", "name": "Bay State Realty Solutions, LLC", "opening_hours": {"open_now": true}, "place_id": "ChIJhcVjwV1644kRe-yGy_gIJjM", "plus_code": {"compound_code": "8WJV+J7 Boston, Massachusetts, United States", "global_code": "87JC8WJV+J7"}, "reference": "ChIJhcVjwV1644kRe-yGy_gIJjM", "scope": "GOOGLE", "types": ["finance", "general_contractor", "point_of_interest", "establishment"], "vicinity": "514 Dorchester Avenue, South Boston"}, "ChIJV8Yqd2J644kRt7NxrxLoBFk": {"geometry": {"location": {"lat": 42.3310372, "lng": -71.0567642}, "viewport": {"northeast": {"lat": 42.33244578029149, "lng": -71.0554170197085}, "southwest": {"lat": 42.3297478197085, "lng": -71.0581149802915}}}, "icon": "https://maps.gstatic.com/mapfiles/place_api/icons/generic_business-71.png", "id": "0f18d441cc59bf9e925d162e414e2c6ef6d5267f", "name": "Liberty Tax Service", "opening_hours": {"open_now": true}, "photos": [{"height": 315, "html_attributions": ["<a href=\"https://maps.google.com/maps/contrib/117545372554100282325/photos\">Liberty Tax Service</a>"], "photo_reference": "CmRaAAAA9EbR1pFfc1yRHAFeaQz5rqTHEEmxTLOBj_oGjiTixoYQI5uLcFcOAWdavvYFZ_HCI3GbSyuwrhhseQxtKobuSzsvurg_DQJaO2HV4hAa_Alep2hwjGqwz-AgUMRbIHjGEhDoejbFXdQkv2VrOtrGvScZGhTf5i1CpTTmvO0sAw4jEPe1szPVRQ", "width": 560}], "place_id": "ChIJV8Yqd2J644kRt7NxrxLoBFk", "plus_code": {"compound_code": "8WJV+C7 Boston, Massachusetts, United States", "global_code": "87JC8WJV+C7"}, "rating": 3, "reference": "ChIJV8Yqd2J644kRt7NxrxLoBFk", "scope": "GOOGLE", "types": ["accounting", "finance", "point_of_interest", "establishment"], "user_ratings_total": 2, "vicinity": "536 Dorchester Avenue, Boston"}, "ChIJxX2Bxl1644kRall_lqEdIGo": {"geometry": {"location": {"lat": 42.3313921, "lng": -71.05676150000001}, "viewport": {"northeast": {"lat": 42.3327399302915, "lng": -71.0555214697085}, "southwest": {"lat": 42.3300419697085, "lng": -71.0582194302915}}}, "icon": "https://maps.gstatic.com/mapfiles/place_api/icons/post_office-71.png", "id": "b2880747c35f3bdf2250427c34523e0ef2ed446f", "name": "Boston Letter Carrier MBA", "place_id": "ChIJxX2Bxl1644kRall_lqEdIGo", "plus_code": {"compound_code": "8WJV+H7 Boston, Massachusetts, United States", "global_code": "87JC8WJV+H7"}, "reference": "ChIJxX2Bxl1644kRall_lqEdIGo", "scope": "GOOGLE", "types": ["post_office", "moving_company", "finance", "point_of_interest", "establishment"], "vicinity": "522 Dorchester Avenue, South Boston"}, "ChIJwQX2w11644kRtAX2EtEuihI": {"geometry": {"location": {"lat": 42.3314502, "lng": -71.05676249999999}, "viewport": {"northeast": {"lat": 42.3327980302915, "lng": -71.0555225197085}, "southwest": {"lat": 42.3301000697085, "lng": -71.05822048029151}}}, "icon": "https://maps.gstatic.com/mapfiles/place_api/icons/generic_business-71.png", "id": "a8815464d09404336c51a212501339726bb59593", "name": "Boston Typogpl Union", "place_id": "ChIJwQX2w11644kRtAX2EtEuihI", "plus_code": {"compound_code": "8WJV+H7 Boston, Massachusetts, United States", "global_code": "87JC8WJV+H7"}, "reference": "ChIJwQX2w11644kRtAX2EtEuihI", "scope": "GOOGLE", "types": ["point_of_interest", "establishment"], "vicinity": "520 Dorchester Avenue, South Boston"}, "ChIJSSoUxF1644kRpE4KLWHKCd0": {"geometry": {"location": {"lat": 42.3315114, "lng": -71.0567636}, "viewport": {"northeast": {"lat": 42.3328592302915, "lng": -71.05552366970849}, "southwest": {"lat": 42.3301612697085, "lng": -71.05822163029151}}}, "icon": "https://maps.gstatic.com/mapfiles/place_api/icons/generic_business-71.png", "id": "6015002db1b6defee956cc922b41a26ef048f5cb", "name": "Dinh Express", "place_id": "ChIJSSoUxF1644kRpE4KLWHKCd0", "plus_code": {"compound_code": "8WJV+J7 Boston, Massachusetts, United States", "global_code": "87JC8WJV+J7"}, "reference": "ChIJSSoUxF1644kRpE4KLWHKCd0", "scope": "GOOGLE", "types": ["point_of_interest", "establishment"], "vicinity": "518 Dorchester Avenue, Boston"}, "ChIJBx9nwV1644kRcx6LgCeYIzQ": {"geometry": {"location": {"lat": 42.33166749999999, "lng": -71.05685439999999}, "viewport": {"northeast": {"lat": 42.3330158302915, "lng": -71.05557051970848}, "southwest": {"lat": 42.3303178697085, "lng": -71.05826848029149}}}, "icon": "https://maps.gstatic.com/mapfiles/place_api/icons/generic_business-71.png", "id": "150c7fc59f9fc6c6ef8657a202661bfef74658d8", "name": "Masis Staffing Solutions", "place_id": "ChIJBx9nwV1644kRcx6LgCeYIzQ", "plus_code": {"compound_code": "8WJV+M7 Boston, Massachusetts, United States", "global_code": "87JC8WJV+M7"}, "reference": "ChIJBx9nwV1644kRcx6LgCeYIzQ", "scope": "GOOGLE", "types": ["point_of_interest", "establishment"], "vicinity": "510 Dorchester Avenue, Boston"}, "ChIJZ_8Ny11644kRn0Wpovz7dDU": {"geometry": {"location": {"lat": 42.3310372, "lng": -71.0567642}, "viewport": {"northeast": {"lat": 42.33244578029149, "lng": -71.0554170197085}, "southwest": {"lat": 42.3297478197085, "lng": -71.0581149802915}}}, "icon": "https://maps.gstatic.com/mapfiles/place_api/icons/shopping-71.png", "id": "e2f6b177517a78eb5d72dcee66f3a772b7dd9e85", "name": "Groove Factory Studios", "place_id": "ChIJZ_8Ny11644kRn0Wpovz7dDU", "plus_code": {"compound_code": "8WJV+C7 Boston, Massachusetts, United States", "global_code": "87JC8WJV+C7"}, "reference": "ChIJZ_8Ny11644kRn0Wpovz7dDU", "scope": "GOOGLE", "types": ["electronics_store", "home_goods_store", "store", "point_of_interest", "establishment"], "vicinity": "536 Dorchester Avenue, South Boston"}, "ChIJZ5c-y11644kRj3MexsTWy9k": {"geometry": {"location": {"lat": 42.331049, "lng": -71.0568467}, "viewport": {"northeast": {"lat": 42.3324509802915, "lng": -71.05549931970849}, "southwest": {"lat": 42.3297530197085, "lng": -71.0581972802915}}}, "icon": "https://maps.gstatic.com/mapfiles/place_api/icons/shopping-71.png", "id": "d53cc96f1d651125d7e57cc73faa697612dc68d2", "name": "Galaxy Pharmacy", "opening_hours": {"open_now": true}, "photos": [{"height": 960, "html_attributions": ["<a href=\"https://maps.google.com/maps/contrib/115657973363839208712/photos\">Galaxy Pharmacy</a>"], "photo_reference": "CmRaAAAAPpj_oAC3INq1YHnVwBexUwe2lHjsjDVD798zSHWy2dG7MYuJE6M4px1UrWXogzCbhsRVHmMflUsBNoGdE7luHq9QG67Im0D0X4EurzLt6wQtNDXNHSq3Y9CI4jj48nlSEhCklZrtH9eMGCSrljJnhSP2GhT_KyrA1F5_VXo9BsmvFqIzY38BOw", "width": 1280}], "place_id": "ChIJZ5c-y11644kRj3MexsTWy9k", "plus_code": {"compound_code": "8WJV+C7 Boston, Massachusetts, United States", "global_code": "87JC8WJV+C7"}, "rating": 4.5, "reference": "ChIJZ5c-y11644kRj3MexsTWy9k", "scope": "GOOGLE", "types": ["pharmacy", "store", "health", "point_of_interest", "establishment"], "user_ratings_total": 4, "vicinity": "534 Dorchester Avenue, Boston"}, "ChIJZ_8Ny11644kRgkixdQ-L9jA": {"geometry": {"location": {"lat": 42.3310212, "lng": -71.0568425}, "viewport": {"northeast": {"lat": 42.33236943029149, "lng": -71.0555583197085}, "southwest": {"lat": 42.3296714697085, "lng": -71.0582562802915}}}, "icon": "https://maps.gstatic.com/mapfiles/place_api/icons/generic_business-71.png", "id": "6ea9c257046511373a15dd9b693b37350dee2e75", "name": "Pierce Chiropractic-Ma", "place_id": "ChIJZ_8Ny11644kRgkixdQ-L9jA", "plus_code": {"compound_code": "8WJV+C7 Boston, Massachusetts, United States", "global_code": "87JC8WJV+C7"}, "reference": "ChIJZ_8Ny11644kRgkixdQ-L9jA", "scope": "GOOGLE", "types": ["health", "point_of_interest", "establishment"], "vicinity": "536 Dorchester Avenue, Boston"}, "ChIJGzE9DS1l44kRoOhiASS_fHg": {"geometry": {"location": {"lat": 42.3600825, "lng": -71.0588801}, "viewport": {"northeast": {"lat": 42.40081989999999, "lng": -70.749455}, "southwest": {"lat": 42.22788, "lng": -71.191113}}}, "icon": "https://maps.gstatic.com/mapfiles/place_api/icons/geocode-71.png", "id": "06755c25d2b34d13942a4713971756a55b870ced", "name": "Boston", "photos": [{"height": 3024, "html_attributions": ["<a href=\"https://maps.google.com/maps/contrib/104670289779338733432/photos\">Natalia Zalucean</a>"], "photo_reference": "CmRaAAAAcQA0ACEkM-0lbBQhcRzd5jQBI08XEU_lMEVR6l5bpT0FN6Ae3Kkx25SL8b_CNb8gTisW2a__hjmV-GJSOmtAbBA6SxLsuVCOS8tTo3wkwld-Cn53cdmKZ-gm7Ph_N4yJEhATscUA76hbGrHG2QqUsnzfGhRxgW_-XkqNMj7lcLvNDk11H4H-aw", "width": 4032}], "place_id": "ChIJGzE9DS1l44kRoOhiASS_fHg", "reference": "ChIJGzE9DS1l44kRoOhiASS_fHg", "scope": "GOOGLE", "types": ["locality", "political"], "vicinity": "Boston"}}