{"ChIJuTnM7n5w44kReVVdOUT9KwA": {"geometry": {"location": {"lat": 42.35335239999999, "lng": -71.045706}, "viewport": {"northeast": {"lat": 42.3547013302915, "lng": -71.0443570197085}, "southwest": {"lat": 42.3520033697085, "lng": -71.0470549802915}}}, "icon": "https://maps.gstatic.com/mapfiles/place_api/icons/geocode-71.png", "id": "af10ce753e72fec6bb2314b3fd23142d8619bd23", "name": "Fan Pier Boulevard", "place_id": "ChIJuTnM7n5w44kReVVdOUT9KwA", "reference": "ChIJuTnM7n5w44kReVVdOUT9KwA", "scope": "GOOGLE", "types": ["route"], "vicinity": "Boston"}, "ChIJhYADfSiG44kR4lamKLQVl7s": {"geometry": {"location": {"lat": 42.3533101, "lng": -71.0453335}, "viewport": {"northeast": {"lat": 42.3545603802915, "lng": -71.04377581970849}, "southwest": {"lat": 42.3518624197085, "lng": -71.0464737802915}}}, "icon": "https://maps.gstatic.com/mapfiles/place_api/icons/generic_business-71.png", "id": "015b0dbe4fa5f8ddac0d706e39308bb45fec332b", "name": "Nasuni Corporation", "opening_hours": {"open_now": true}, "place_id": "ChIJhYADfSiG44kR4lamKLQVl7s", "plus_code": {"compound_code": "9X33+8V Boston, Massachusetts, United States", "global_code": "87JC9X33+8V"}, "rating": 5, "reference": "ChIJhYADfSiG44kR4lamKLQVl7s", "scope": "GOOGLE", "types": ["point_of_interest", "establishment"], "user_ratings_total": 3, "vicinity": "1 Marina Park Drive, Boston"}, "ChIJ-zHb6H5w44kR1uFLwAQxEmA": {"geometry": {"location": {"lat": 42.35324899999999, "lng": -71.04563}, "viewport": {"northeast": {"lat": 42.3544624302915, "lng": -71.0439805197085}, "southwest": {"lat": 42.3517644697085, "lng": -71.0466784802915}}}, "icon": "https://maps.gstatic.com/mapfiles/place_api/icons/generic_business-71.png", "id": "40812f00d7e643b114fea69b464d4a23a495bd78", "name": "SailTime Boston", "opening_hours": {"open_now": true}, "photos": [{"height": 1150, "html_attributions": ["<a href=\"https://maps.google.com/maps/contrib/104595117705966419775/photos\">SailTime Boston</a>"], "photo_reference": "CmRaAAAAamYBOWIii-OSndcvOTLbxFjuw6v-Z9p_BoMqwJwHoYK1kzNU6UqD37wghk38N4qgwAtJVUsOYwbO-mke7cGTIfRq8YvDy0i6-6pZrPFbWTR0GF-Kc3qGKAZIqzxhRopkEhCr9efq1__rNSxDW0AJR3yZGhRMQvq1U4dzRzbv4kIrqqvYgiI31w", "width": 2048}], "place_id": "ChIJ-zHb6H5w44kR1uFLwAQxEmA", "plus_code": {"compound_code": "9X33+7P Boston, Massachusetts, United States", "global_code": "87JC9X33+7P"}, "rating": 3.5, "reference": "ChIJ-zHb6H5w44kR1uFLwAQxEmA", "scope": "GOOGLE", "types": ["store", "point_of_interest", "establishment"], "user_ratings_total": 2, "vicinity": "1 Marina Park Drive, Boston"}, "ChIJSSgplX5w44kR40YitttjjPY": {"geometry": {"location": {"lat": 42.3537329, "lng": -71.04548439999999}, "viewport": {"northeast": {"lat": 42.3550679302915, "lng": -71.04414726970849}, "southwest": {"lat": 42.3523699697085, "lng": -71.0468452302915}}}, "icon": "https://maps.gstatic.com/mapfiles/place_api/icons/generic_business-71.png", "id": "243d5125bac32664ca77f44d869605c47ed7c546", "name": "Vertex", "photos": [{"height": 2340, "html_attributions": ["<a href=\"https://maps.google.com/maps/contrib/107944494291277878653/photos\">Eucariz Land</a>"], "photo_reference": "CmRaAAAAuHyGRrNBMZ0e3Vq6Cknu0MSbvuuNzyecijckNxYd7fgQzZmzGK1q5IjYMCvg7VzY5eNZbEMtc8VUD7jDYLqpYAVXNXrIVUuopFFRxQGtvEIMyJanMOj11tBjn9rRsBszEhAGu8wzipQAW6Txh2DxIbfJGhTgSVLVJ8PRbrwU1k15RuqUFMCBpw", "width": 4160}], "place_id": "ChIJSSgplX5w44kR40YitttjjPY", "plus_code": {"compound_code": "9X33+FR Boston, Massachusetts, United States", "global_code": "87JC9X33+FR"}, "rating": 5, "reference": "ChIJSSgplX5w44kR40YitttjjPY", "scope": "GOOGLE", "types": ["point_of_interest", "establishment"], "user_ratings_total": 1, "vicinity": "11 Bond Drive, Boston"}, "ChIJ3f0-3n5w44kRbEnzTOjgUeY": {"geometry": {"location": {"lat": 42.3536046, "lng": -71.0459876}, "viewport": {"northeast": {"lat": 42.35506298029149, "lng": -71.0445457197085}, "southwest": {"lat": 42.3523650197085, "lng": -71.04724368029152}}}, "icon": "https://maps.gstatic.com/mapfiles/place_api/icons/school-71.png", "id": "aac298a46266db968785dabe12d9ea63e877d21a", "name": "Bright Horizons at Fan Pier", "opening_hours": {"open_now": true}, "photos": [{"height": 328, "html_attributions": ["<a href=\"https://maps.google.com/maps/contrib/117988915211705267844/photos\">Bright Horizons at Fan Pier</a>"], "photo_reference": "CmRaAAAAhPgeiAXLvcjT_wp1fjIjns7blPGW0ygT4D95WhZk4E7oyaXSkzsDZ3RJD8Mk_sP3UrLBEUMIBaHWOBrjGMPkkcFUxxv8iZV5XJ2NRNpeaby2cf4aZghXBF36aeuvzmKeEhCldQedRoWaDqEHckjay-SQGhTxk24V2yNNCQ2a0Pw9JcX5KJg-CA", "width": 438}], "place_id": "ChIJ3f0-3n5w44kRbEnzTOjgUeY", "plus_code": {"compound_code": "9X33+CJ Boston, Massachusetts, United States", "global_code": "87JC9X33+CJ"}, "rating": 5, "reference": "ChIJ3f0-3n5w44kRbEnzTOjgUeY", "scope": "GOOGLE", "types": ["point_of_interest", "school", "establishment"], "user_ratings_total": 1, "vicinity": "19 Bond Drive, Boston"}, "ChIJlS678X5w44kRj4IogckkDYI": {"geometry": {"location": {"lat": 42.3534302, "lng": -71.0462}, "viewport": {"northeast": {"lat": 42.3546364802915, "lng": -71.04483026970848}, "southwest": {"lat": 42.3519385197085, "lng": -71.0475282302915}}}, "icon": "https://maps.gstatic.com/mapfiles/place_api/icons/restaurant-71.png", "id": "7957d791039732ce3f6f19df125eb3fe9d6b72df", "name": "Committee", "opening_hours": {"open_now": true}, "photos": [{"height": 3024, "html_attributions": ["<a href=\"https://maps.google.com/maps/contrib/114123917133803020488/photos\">Skylar Jia</a>"], "photo_reference": "CmRaAAAAxioMcPo1D6JZMxQ8GXMcKJ1wnCOpxuYsxdC97iJZ85Ku7PEd5sAUEZLsVm7DU1fay2OL_L7FCjM_zRdR3MlBdJw-XZKrF65E-HWxUCBUyn8OCDBz5admdZKygpHixpY1EhDgI1FeCO7XlB-zu2iGzMmDGhSew1A6jRBsZYOy2NV6s1_k2mD5oA", "width": 4032}], "place_id": "ChIJlS678X5w44kRj4IogckkDYI", "plus_code": {"compound_code": "9X33+9G Boston, Massachusetts, United States", "global_code": "87JC9X33+9G"}, "price_level": 2, "rating": 4.4, "reference": "ChIJlS678X5w44kRj4IogckkDYI", "scope": "GOOGLE", "types": ["restaurant", "point_of_interest", "food", "establishment"], "user_ratings_total": 689, "vicinity": "50 Northern Avenue, Boston"}, "ChIJlS678X5w44kRkEJST6m14Bw": {"geometry": {"location": {"lat": 42.3534302, "lng": -71.0462}, "viewport": {"northeast": {"lat": 42.3546771302915, "lng": -71.04493471970848}, "southwest": {"lat": 42.3519791697085, "lng": -71.0476326802915}}}, "icon": "https://maps.gstatic.com/mapfiles/place_api/icons/generic_business-71.png", "id": "15c2693baa74368508e33648f335a256896d722a", "name": "orkambihcp", "place_id": "ChIJlS678X5w44kRkEJST6m14Bw", "plus_code": {"compound_code": "9X33+9G Boston, Massachusetts, United States", "global_code": "87JC9X33+9G"}, "reference": "ChIJlS678X5w44kRkEJST6m14Bw", "scope": "GOOGLE", "types": ["point_of_interest", "establishment"], "vicinity": "50 Northern Avenue, Boston"}, "ChIJKd-glH5w44kRXl7k3c7iCc8": {"geometry": {"location": {"lat": 42.35418110000001, "lng": -71.0457493}, "viewport": {"northeast": {"lat": 42.3553930302915, "lng": -71.04451666970849}, "southwest": {"lat": 42.3526950697085, "lng": -71.04721463029149}}}, "icon": "https://maps.gstatic.com/mapfiles/place_api/icons/generic_business-71.png", "id": "d406a961a3a4d5bef513aaa82524f0c52463579e", "name": "Vertex Pharmaceuticals", "place_id": "ChIJKd-glH5w44kRXl7k3c7iCc8", "plus_code": {"compound_code": "9X33+MP Boston, Massachusetts, United States", "global_code": "87JC9X33+MP"}, "rating": 5, "reference": "ChIJKd-glH5w44kRXl7k3c7iCc8", "scope": "GOOGLE", "types": ["point_of_interest", "establishment"], "user_ratings_total": 1, "vicinity": "19 Bond Drive, Boston"}, "ChIJf0MW8R1dXEARrzf71p7Z7aU": {"geometry": {"location": {"lat": 42.3542227, "lng": -71.0456835}, "viewport": {"northeast": {"lat": 42.3556813302915, "lng": -71.04423986970849}, "southwest": {"lat": 42.3529833697085, "lng": -71.04693783029151}}}, "icon": "https://maps.gstatic.com/mapfiles/place_api/icons/generic_business-71.png", "id": "ee8990a2fc8a33922a951ae8ddf8912a352393b4", "name": "Community Boat Building", "opening_hours": {"open_now": true}, "photos": [{"height": 1371, "html_attributions": ["<a href=\"https://maps.google.com/maps/contrib/112169765009496673433/photos\">Community Boat Building</a>"], "photo_reference": "CmRaAAAALiVEhpTSFIFqgYD1FZffpADV0vpl7eGGqFUj0Lq00sEMhv5h-C4Gl1REC_qhQi4IXuRTSOf0wD6YHjN_LUGwfCBAGcTw48dM8Rc5PlWK1HQK8jd6DWQjW8s4rrY082OAEhB7voj0mBqi-0eRP50XmFd5GhQI661KxY3vVZzfr-EeFHfa2rsn8w", "width": 2048}], "place_id": "ChIJf0MW8R1dXEARrzf71p7Z7aU", "plus_code": {"compound_code": "9X33+MP Boston, Massachusetts, United States", "global_code": "87JC9X33+MP"}, "rating": 5, "reference": "ChIJf0MW8R1dXEARrzf71p7Z7aU", "scope": "GOOGLE", "types": ["point_of_interest", "establishment"], "user_ratings_total": 2, "vicinity": "21 Liberty Drive, Boston"}, "ChIJFUw8Qruc44kRluWpg1GCYtI": {"geometry": {"location": {"lat": 42.3532778, "lng": -71.0453357}, "viewport": {"northeast": {"lat": 42.3545323802915, "lng": -71.0437871697085}, "southwest": {"lat": 42.3518344197085, "lng": -71.0464851302915}}}, "icon": "https://maps.gstatic.com/mapfiles/place_api/icons/generic_business-71.png", "id": "6c691ac335236506dd69d6b025ba014a31891226", "name": "Battery Ventures", "place_id": "ChIJFUw8Qruc44kRluWpg1GCYtI", "plus_code": {"compound_code": "9X33+8V Boston, Massachusetts, United States", "global_code": "87JC9X33+8V"}, "rating": 5, "reference": "ChIJFUw8Qruc44kRluWpg1GCYtI", "scope": "GOOGLE", "types": ["point_of_interest", "establishment"], "user_ratings_total": 2, "vicinity": "1 Marina Park Drive Suite 1100, Boston"}, "ChIJs1Qd8X5w44kRs8rd6FyTSyM": {"geometry": {"location": {"lat": 42.353354, "lng": -71.046266}, "viewport": {"northeast": {"lat": 42.35463458029149, "lng": -71.0449578197085}, "southwest": {"lat": 42.3519366197085, "lng": -71.0476557802915}}}, "icon": "https://maps.gstatic.com/mapfiles/place_api/icons/restaurant-71.png", "id": "aa0a8489cb074c8f6c8fd1bd2162dc6a2698876d", "name": "B.GOOD", "opening_hours": {"open_now": true}, "photos": [{"height": 3280, "html_attributions": ["<a href=\"https://maps.google.com/maps/contrib/105045323320194341096/photos\">B.GOOD</a>"], "photo_reference": "CmRZAAAAYRC5NaQuB5UQ3-5y8_DXrbZUvxfrgzSIRo972ybz8i2teDClypo3gBT0YIqq0kmeuMToDYJZxNTjqKLemSEOMBvI2Nj2K3Umnh1ym-R0q_x555UeSoWk7lEbTsumAHKqEhBodgm74BdRu1R9_VTcNzRxGhQJ4qIF9efbRpJ-iuOkTVbocWwkfQ", "width": 4928}], "place_id": "ChIJs1Qd8X5w44kRs8rd6FyTSyM", "plus_code": {"compound_code": "9X33+8F Boston, Massachusetts, United States", "global_code": "87JC9X33+8F"}, "price_level": 2, "rating": 3.6, "reference": "ChIJs1Qd8X5w44kRs8rd6FyTSyM", "scope": "GOOGLE", "types": ["restaurant", "point_of_interest", "food", "establishment"], "user_ratings_total": 74, "vicinity": "50 Northern Avenue, Boston"}, "ChIJX7Xv_9xnXEARBNKqoHRs3FM": {"geometry": {"location": {"lat": 42.3532499, "lng": -71.0453544}, "viewport": {"northeast": {"lat": 42.3545085302915, "lng": -71.04380506970848}, "southwest": {"lat": 42.3518105697085, "lng": -71.0465030302915}}}, "icon": "https://maps.gstatic.com/mapfiles/place_api/icons/generic_business-71.png", "id": "7e5b503ced46bbf2edb146f9df2c7758ab8a99db", "name": "Gunderson Dettmer Stough", "photos": [{"height": 2268, "html_attributions": ["<a href=\"https://maps.google.com/maps/contrib/104551484641649767407/photos\">Hector Hernandez</a>"], "photo_reference": "CmRaAAAA9nj_3Np__TmgW3xhmCzE5pyzwBhue3ZZh0CKNHet-Kf7e-y-Uvs3GiywE1tqFRgOjHbE7-aHuRy_eY2batQd07YREw9-9qS9aSscn-EkxG6a1PXOXFtu8XPhGKwA7n-ZEhDPPOC_jHnEXOwHCO1up2BlGhRwPI4QHysCEyrTgH9EbcOPPNS5Yw", "width": 4032}], "place_id": "ChIJX7Xv_9xnXEARBNKqoHRs3FM", "plus_code": {"compound_code": "9X33+7V Boston, Massachusetts, United States", "global_code": "87JC9X33+7V"}, "rating": 5, "reference": "ChIJX7Xv_9xnXEARBNKqoHRs3FM", "scope": "GOOGLE", "types": ["lawyer", "point_of_interest", "establishment"], "user_ratings_total": 4, "vicinity": "One Marina Park Drive Suite 900, Boston"}, "ChIJlS678X5w44kRp_n0E6ehXZw": {"geometry": {"location": {"lat": 42.3534302, "lng": -71.0462}, "viewport": {"northeast": {"lat": 42.3546771302915, "lng": -71.04493471970848}, "southwest": {"lat": 42.3519791697085, "lng": -71.0476326802915}}}, "icon": "https://maps.gstatic.com/mapfiles/place_api/icons/generic_business-71.png", "id": "081d38ea679841c8a6e32da00ac6ec9a133adf16", "name": "Kalydeco", "place_id": "ChIJlS678X5w44kRp_n0E6ehXZw", "plus_code": {"compound_code": "9X33+9G Boston, Massachusetts, United States", "global_code": "87JC9X33+9G"}, "reference": "ChIJlS678X5w44kRp_n0E6ehXZw", "scope": "GOOGLE", "types": ["doctor", "health", "point_of_interest", "establishment"], "vicinity": "50 Northern Avenue, Boston"}, "ChIJ6a5y8n5w44kR-Uhe0S1nVrg": {"geometry": {"location": {"lat": 42.3533985, "lng": -71.04638240000001}, "viewport": {"northeast": {"lat": 42.3546868802915, "lng": -71.04508311970851}, "southwest": {"lat": 42.3519889197085, "lng": -71.04778108029151}}}, "icon": "https://maps.gstatic.com/mapfiles/place_api/icons/generic_business-71.png", "id": "0373690e18ba4afa7775590e0bfd45804af7b12c", "name": "Vertex Pharmaceuticals", "photos": [{"height": 2988, "html_attributions": ["<a href=\"https://maps.google.com/maps/contrib/102055379888537794634/photos\">Mark Kemper</a>"], "photo_reference": "CmRaAAAAL7JNclYDPBbqsjbe7TjVYQvZlxlguOdg4RPugXIvq8a03s6zpjESeZ-rkXx4B9IkLqk2lEIqDtrr8BAb7NRfmTeNbwNbBjVSKOIwH0R7oYK3aB98X8uOqgmNd3Ve0jkREhBs0t6xa7g3QgZBJx8GyTEaGhQSqmbyCZHoopaEzC7BOqvghPCNsQ", "width": 5312}], "place_id": "ChIJ6a5y8n5w44kR-Uhe0S1nVrg", "plus_code": {"compound_code": "9X33+9C Boston, Massachusetts, United States", "global_code": "87JC9X33+9C"}, "rating": 4.7, "reference": "ChIJ6a5y8n5w44kR-Uhe0S1nVrg", "scope": "GOOGLE", "types": ["health", "point_of_interest", "establishment"], "user_ratings_total": 31, "vicinity": "50 Northern Avenue, Boston"}, "ChIJD7-B7X5w44kRzcXa6gtwzF0": {"geometry": {"location": {"lat": 42.3535429, "lng": -71.0456617}, "viewport": {"northeast": {"lat": 42.3548718302915, "lng": -71.04427011970849}, "southwest": {"lat": 42.3521738697085, "lng": -71.0469680802915}}}, "icon": "https://maps.gstatic.com/mapfiles/place_api/icons/shopping-71.png", "id": "7ae975cb86fa82752320a25e9c8e0a98726feb48", "name": "Frank Anthony's Gourmet Market", "opening_hours": {"open_now": true}, "photos": [{"height": 583, "html_attributions": ["<a href=\"https://maps.google.com/maps/contrib/110199319467713420020/photos\">Frank Anthony&#39;s Gourmet Market</a>"], "photo_reference": "CmRaAAAAX_M0au2h5Mk927-lZZ6fWtFZLzNcEnvtYWAX_vuxntVrBwN7tsX-0cPHuYQj1r_2yKT49z_nG6g_yJBsmWWnsJV6qigVUDfwsAXDwSdHtV0MgfaKWDBLfFL9RAvkokSkEhBL-1hJ9csjaAdx2CHuu53dGhSxFpImOIV1xbRBKJhcXjB223bSSg", "width": 1037}], "place_id": "ChIJD7-B7X5w44kRzcXa6gtwzF0", "plus_code": {"compound_code": "9X33+CP Boston, Massachusetts, United States", "global_code": "87JC9X33+CP"}, "price_level": 2, "rating": 3.9, "reference": "ChIJD7-B7X5w44kRzcXa6gtwzF0", "scope": "GOOGLE", "types": ["convenience_store", "liquor_store", "store", "restaurant", "point_of_interest", "food", "establishment"], "user_ratings_total": 29, "vicinity": "9 Fan Pier Boulevard, Boston"}, "ChIJoUONkn5w44kR326l13K2RpE": {"geometry": {"location": {"lat": 42.35400599999999, "lng": -71.045931}, "viewport": {"northeast": {"lat": 42.3553109802915, "lng": -71.0446193697085}, "southwest": {"lat": 42.3526130197085, "lng": -71.0473173302915}}}, "icon": "https://maps.gstatic.com/mapfiles/place_api/icons/school-71.png", "id": "612a85e9a99cf2102f4e6578b8c231d0cc3bd5e7", "name": "CorePower Yoga", "opening_hours": {"open_now": true}, "photos": [{"height": 1512, "html_attributions": ["<a href=\"https://maps.google.com/maps/contrib/109110189147779422048/photos\">CorePower Yoga</a>"], "photo_reference": "CmRaAAAAZEoHoQ2r9XvW-WiKFl27xbFlFPBHg8llJmTvM09m20BAC3oA_fD13AE_xhj7edkdzmMbpzX5QwkvGM8jSIalgs3n0VU_b-YH6voyJv2uYQ_Q4WGJIuylVkFB0pxqeaVUEhCdTo-VcG14azr6K0xLT1GbGhQfPXhiNPUxKWvMCZP8H7xTT0Y8YA", "width": 2016}], "place_id": "ChIJoUONkn5w44kR326l13K2RpE", "plus_code": {"compound_code": "9X33+JJ Boston, Massachusetts, United States", "global_code": "87JC9X33+JJ"}, "rating": 4, "reference": "ChIJoUONkn5w44kR326l13K2RpE", "scope": "GOOGLE", "types": ["gym", "health", "point_of_interest", "establishment"], "user_ratings_total": 6, "vicinity": "20 Bond Drive, Boston"}, "ChIJw818ln5w44kRsMitX7VfAno": {"geometry": {"location": {"lat": 42.3540395, "lng": -71.04549039999999}, "viewport": {"northeast": {"lat": 42.3553339302915, "lng": -71.04401231970849}, "southwest": {"lat": 42.3526359697085, "lng": -71.04671028029149}}}, "icon": "https://maps.gstatic.com/mapfiles/place_api/icons/generic_business-71.png", "id": "7fb2d0e1e58bcd60346e988834fcba54c3262af2", "name": "Fan Pier Parking Lots", "photos": [{"height": 3024, "html_attributions": ["<a href=\"https://maps.google.com/maps/contrib/102742739622626315926/photos\">Joaqu\u00edn manuel Carrion</a>"], "photo_reference": "CmRaAAAAdYoyMRZv-bslsssLWdjsC5LNs030KbrULmiv0MepymV-G2g4kB574tpX5N5bbcUHlJwJS4PFnEiCl_gVh7RPs5hebZseZwmI3g4A7j1d2ZVzezb99nsW5lf7V2AqKplOEhDvuFjpN_Gzo-3k08yV9uM5GhRv2XaxCicqdam5SmhhHM4OreVweA", "width": 4032}], "place_id": "ChIJw818ln5w44kRsMitX7VfAno", "plus_code": {"compound_code": "9X33+JR Boston, Massachusetts, United States", "global_code": "87JC9X33+JR"}, "reference": "ChIJw818ln5w44kRsMitX7VfAno", "scope": "GOOGLE", "types": ["parking", "point_of_interest", "establishment"], "vicinity": "28-52 Northern Ave, Boston"}, "ChIJlS678X5w44kR0byp73YcoTo": {"geometry": {"location": {"lat": 42.3534302, "lng": -71.0462}, "viewport": {"northeast": {"lat": 42.3546771302915, "lng": -71.04493471970848}, "southwest": {"lat": 42.3519791697085, "lng": -71.0476326802915}}}, "icon": "https://maps.gstatic.com/mapfiles/place_api/icons/generic_business-71.png", "id": "56f48667caacd83dcaebd8417f7cc1568e6b6c0f", "name": "Aarthi work", "place_id": "ChIJlS678X5w44kR0byp73YcoTo", "plus_code": {"compound_code": "9X33+9G Boston, Massachusetts, United States", "global_code": "87JC9X33+9G"}, "reference": "ChIJlS678X5w44kR0byp73YcoTo", "scope": "GOOGLE", "types": ["point_of_interest", "establishment"], "vicinity": "50 Pier Four Boulevard, Boston"}, "ChIJv-i54IVx44kRJCfUX-9QKW0": {"geometry": {"location": {"lat": 42.3533206, "lng": -71.04538660000001}, "viewport": {"northeast": {"lat": 42.35456043029149, "lng": -71.0438068697085}, "southwest": {"lat": 42.35186246970849, "lng": -71.04650483029151}}}, "icon": "https://maps.gstatic.com/mapfiles/place_api/icons/generic_business-71.png", "id": "b5f44e697cb59c54b32501cb611699bd4b26ca34", "name": "StableLogic Inc", "opening_hours": {"open_now": true}, "place_id": "ChIJv-i54IVx44kRJCfUX-9QKW0", "plus_code": {"compound_code": "9X33+8R Boston, Massachusetts, United States", "global_code": "87JC9X33+8R"}, "reference": "ChIJv-i54IVx44kRJCfUX-9QKW0", "scope": "GOOGLE", "types": ["point_of_interest", "establishment"], "vicinity": "1 Marina Park Drive Suite 1410, Boston"}, "ChIJGzE9DS1l44kRoOhiASS_fHg": {"geometry": {"location": {"lat": 42.3600825, "lng": -71.0588801}, "viewport": {"northeast": {"lat": 42.40081989999999, "lng": -70.749455}, "southwest": {"lat": 42.22788, "lng": -71.191113}}}, "icon": "https://maps.gstatic.com/mapfiles/place_api/icons/geocode-71.png", "id": "06755c25d2b34d13942a4713971756a55b870ced", "name": "Boston", "photos": [{"height": 3024, "html_attributions": ["<a href=\"https://maps.google.com/maps/contrib/104670289779338733432/photos\">Natalia Zalucean</a>"], "photo_reference": "CmRaAAAAbRieIXb2pcKSYHvHFN5Fv_NP47DLl0jMsxb0aJknrxDUysN7cUx-wdVy5w7v7GaOkU-9AVgjbQR6qMkt5EJyTITNg-zyBQ03wXLztlnpkOiGuRfS2j8Flf_rRoIGudAAEhDKhgmxBNECc0xwTF1RPj5DGhTn2MZxIfBju6NvCYbNQRyYkf8O5A", "width": 4032}], "place_id": "ChIJGzE9DS1l44kRoOhiASS_fHg", "reference": "ChIJGzE9DS1l44kRoOhiASS_fHg", "scope": "GOOGLE", "types": ["locality", "political"], "vicinity": "Boston"}, "ChIJVQXA6H5w44kRc6QUsOKyEW4": {"geometry": {"location": {"lat": 42.353208, "lng": -71.04560099999999}, "viewport": {"northeast": {"lat": 42.3544317802915, "lng": -71.04397441970849}, "southwest": {"lat": 42.3517338197085, "lng": -71.0466723802915}}}, "icon": "https://maps.gstatic.com/mapfiles/place_api/icons/generic_business-71.png", "id": "9945ae1b6b061e67961c55e18d0b33869cf73635", "name": "Relay Technology Management, Inc.", "photos": [{"height": 368, "html_attributions": ["<a href=\"https://maps.google.com/maps/contrib/110460164458027298394/photos\">Relay Technology Management, Inc.</a>"], "photo_reference": "CmRaAAAAshHzgtF6NGeEWfLcN_-3aZKTXyUAfjX7I5zqeu2woFr0ivrHB0kCUKtEz7bB7-qwQvwoyb3Wb2RDsv-JHj5LdQ-eRqPOBgeG0A-N3nxxaplPsNRGJDp5-3Dj-5pNMRYuEhC5OJAGRhYHCBnlFVdHHVJ-GhSX1MAal1jws7PY86sURcx8dPkQyA", "width": 473}], "place_id": "ChIJVQXA6H5w44kRc6QUsOKyEW4", "plus_code": {"compound_code": "9X33+7Q Boston, Massachusetts, United States", "global_code": "87JC9X33+7Q"}, "reference": "ChIJVQXA6H5w44kRc6QUsOKyEW4", "scope": "GOOGLE", "types": ["health", "point_of_interest", "establishment"], "vicinity": "1 Marina Park Drive, Boston"}, "ChIJBwKl1x9644kRBLCvBL1GMUw": {"geometry": {"location": {"lat": 42.35323899999999, "lng": -71.04537599999999}, "viewport": {"northeast": {"lat": 42.35449553029149, "lng": -71.0438220697085}, "southwest": {"lat": 42.35179756970849, "lng": -71.0465200302915}}}, "icon": "https://maps.gstatic.com/mapfiles/place_api/icons/generic_business-71.png", "id": "c67e96a0d0ea83f5d2f61e4f071ec2f559aaf77d", "name": "Mark Hebert", "opening_hours": {"open_now": true}, "photos": [{"height": 798, "html_attributions": ["<a href=\"https://maps.google.com/maps/contrib/108067159383915509603/photos\">Mark Hebert</a>"], "photo_reference": "CmRaAAAAUZ5XKtvolPwNMAPUvWPy-ipTHh4VV_hZhG9Mwo-Xo38FKNjuV9WDcQ5N2t0meXGeQfUbHVn5jJtqla2xiLs-ooB21iygs9YU0cpEMZuXvh6H2VgcgbSP_gE-kT_FMOe7EhC-haXeUzxcFrOlaUoIn6MqGhQiZ99nPjsyPtDKCVik5Mmi8go8PQ", "width": 798}], "place_id": "ChIJBwKl1x9644kRBLCvBL1GMUw", "plus_code": {"compound_code": "9X33+7R Boston, Massachusetts, United States", "global_code": "87JC9X33+7R"}, "reference": "ChIJBwKl1x9644kRBLCvBL1GMUw", "scope": "GOOGLE", "types": ["lawyer", "point_of_interest", "establishment"], "vicinity": "1 Marina Park Drive, Boston"}, "ChIJyTQtmH5w44kRxPOI3Tt4uwE": {"geometry": {"location": {"lat": 42.35424249999999, "lng": -71.0454939}, "viewport": {"northeast": {"lat": 42.35566208029149, "lng": -71.04408321970848}, "southwest": {"lat": 42.3529641197085, "lng": -71.0467811802915}}}, "icon": "https://maps.gstatic.com/mapfiles/place_api/icons/generic_business-71.png", "id": "20d6b5ad44313feb59dd83ca3d60d243c1b906ee", "name": "Public parking", "photos": [{"height": 5312, "html_attributions": ["<a href=\"https://maps.google.com/maps/contrib/114204838137983253855/photos\">Yofityolife Boot Camp</a>"], "photo_reference": "CmRaAAAAbhbcOuGewyGkdv_vEWLGJarQ83LvxlB57qfrRkpPHVwzIq__tISO512weK6r95SMWcbWVMw4wfeY3fDuVgYBP1bzSdmGNhf58S5y75HEaa11PzpvD6CZXHlkeS-a-61QEhCTVZWQW1XKyZyKXBbPQijJGhS3RT4Udmpp50F8x-ITTiZvLJNnnA", "width": 2988}], "place_id": "ChIJyTQtmH5w44kRxPOI3Tt4uwE", "plus_code": {"compound_code": "9X33+MR Boston, Massachusetts, United States", "global_code": "87JC9X33+MR"}, "rating": 3, "reference": "ChIJyTQtmH5w44kRxPOI3Tt4uwE", "scope": "GOOGLE", "types": ["parking", "point_of_interest", "establishment"], "user_ratings_total": 4, "vicinity": "21 Liberty Drive, Boston"}}