{"ChIJiWMU_8R544kR6_V2zgEjraQ": {"geometry": {"location": {"lat": 42.3526614, "lng": -71.1297424}, "viewport": {"northeast": {"lat": 42.3540103802915, "lng": -71.1283934197085}, "southwest": {"lat": 42.3513124197085, "lng": -71.13109138029151}}}, "icon": "https://maps.gstatic.com/mapfiles/place_api/icons/geocode-71.png", "id": "2f704de7310d78c068b42e688a8965675a9c2d61", "name": "106-82 Hwy 20", "place_id": "ChIJiWMU_8R544kR6_V2zgEjraQ", "reference": "ChIJiWMU_8R544kR6_V2zgEjraQ", "scope": "GOOGLE", "types": ["route"], "vicinity": "Boston"}, "ChIJD_CDWMR544kRxgerRuvqU74": {"geometry": {"location": {"lat": 42.35249899999999, "lng": -71.129043}, "viewport": {"northeast": {"lat": 42.3538869802915, "lng": -71.1276856697085}, "southwest": {"lat": 42.3511890197085, "lng": -71.1303836302915}}}, "icon": "https://maps.gstatic.com/mapfiles/place_api/icons/restaurant-71.png", "id": "dfd42911e6cea819ad05cfe428086a152affaed6", "name": "Shabu-Zen", "opening_hours": {"open_now": true}, "photos": [{"height": 3024, "html_attributions": ["<a href=\"https://maps.google.com/maps/contrib/111171236233499450031/photos\">Artem Saitgareev</a>"], "photo_reference": "CmRaAAAA3rEc6WVYaavd96TvkeYxaY0dU9gcX0sY0JPSeVuWAfD_3QzfEPevWPh2QyzdIYHAncJdPTgzGo6gGX1pTHXamDegC3jumXBx1jG8C15zVOADXfAQD891xivtAz1J_IC9EhAU3Oafbiufx986SSqlnm9sGhSljjq6IFxsVZWjl_iZGQsJQ9J3aA", "width": 4032}], "place_id": "ChIJD_CDWMR544kRxgerRuvqU74", "plus_code": {"compound_code": "9V2C+X9 Boston, Massachusetts, United States", "global_code": "87JC9V2C+X9"}, "price_level": 2, "rating": 4.5, "reference": "ChIJD_CDWMR544kRxgerRuvqU74", "scope": "GOOGLE", "types": ["restaurant", "point_of_interest", "food", "establishment"], "user_ratings_total": 541, "vicinity": "80 Brighton Avenue, Allston"}, "ChIJOcRn8cR544kRA0j5G-n3H24": {"geometry": {"location": {"lat": 42.35287539999999, "lng": -71.1289764}, "viewport": {"northeast": {"lat": 42.35413168029149, "lng": -71.12764821970849}, "southwest": {"lat": 42.3514337197085, "lng": -71.13034618029151}}}, "icon": "https://maps.gstatic.com/mapfiles/place_api/icons/generic_business-71.png", "id": "17d89e605114fd25713f0d0b01d251b0cdcfd94b", "name": "Stephanie J. Creary, MS", "place_id": "ChIJOcRn8cR544kRA0j5G-n3H24", "plus_code": {"compound_code": "9V3C+5C Boston, Massachusetts, United States", "global_code": "87JC9V3C+5C"}, "reference": "ChIJOcRn8cR544kRA0j5G-n3H24", "scope": "GOOGLE", "types": ["doctor", "health", "point_of_interest", "establishment"], "vicinity": "75 Brighton Avenue, Allston"}, "ChIJv_xXVcR544kRfG1qQNPTdcw": {"geometry": {"location": {"lat": 42.3524168, "lng": -71.12988159999999}, "viewport": {"northeast": {"lat": 42.3538930302915, "lng": -71.1285050197085}, "southwest": {"lat": 42.3511950697085, "lng": -71.1312029802915}}}, "icon": "https://maps.gstatic.com/mapfiles/place_api/icons/atm-71.png", "id": "bf0febd852165b7881188c0714d5ec22d1319dbc", "name": "Cardtronics ATM", "place_id": "ChIJv_xXVcR544kRfG1qQNPTdcw", "plus_code": {"compound_code": "9V2C+X2 Boston, Massachusetts, United States", "global_code": "87JC9V2C+X2"}, "reference": "ChIJv_xXVcR544kRfG1qQNPTdcw", "scope": "GOOGLE", "types": ["atm", "finance", "point_of_interest", "establishment"], "vicinity": "100 Brighton Avenue, Allston"}, "ChIJLSZFX8R544kRseGXGaSx-Wc": {"geometry": {"location": {"lat": 42.352439, "lng": -71.1288263}, "viewport": {"northeast": {"lat": 42.35384388029149, "lng": -71.12746531970849}, "southwest": {"lat": 42.35114591970849, "lng": -71.13016328029151}}}, "icon": "https://maps.gstatic.com/mapfiles/place_api/icons/restaurant-71.png", "id": "64e03eb9f7f4efafc7c482dd233d5bc2957556b1", "name": "OliToki", "opening_hours": {"open_now": true}, "photos": [{"height": 4048, "html_attributions": ["<a href=\"https://maps.google.com/maps/contrib/116005252563815795331/photos\">Yu Hu</a>"], "photo_reference": "CmRaAAAAjVktE1pFrnHMJ3_W0npojdlbSCXTeYwqXfxO-17y5YK6rdhLIIYxYnAWhYMimWJrOXXrCDqEPAsQC_0Iq2-uLzQPLdOEZarQFUaDI-MvjybemG0tIVuvNF0dRQlWS_QIEhBDlIL0UpsRTjz6oKWtb9UiGhTlP7qnJUpCSucs9GGyH_fMmd5YxQ", "width": 3036}], "place_id": "ChIJLSZFX8R544kRseGXGaSx-Wc", "plus_code": {"compound_code": "9V2C+XF Boston, Massachusetts, United States", "global_code": "87JC9V2C+XF"}, "price_level": 1, "rating": 4.3, "reference": "ChIJLSZFX8R544kRseGXGaSx-Wc", "scope": "GOOGLE", "types": ["restaurant", "point_of_interest", "food", "establishment"], "user_ratings_total": 72, "vicinity": "76 Brighton Avenue, Boston"}, "ChIJVyFlX8R544kR6O_e8xttytQ": {"geometry": {"location": {"lat": 42.3524356, "lng": -71.1287612}, "viewport": {"northeast": {"lat": 42.35383838029151, "lng": -71.12740066970849}, "southwest": {"lat": 42.35114041970851, "lng": -71.1300986302915}}}, "icon": "https://maps.gstatic.com/mapfiles/place_api/icons/restaurant-71.png", "id": "854ed545dea44b4ad8a8b8a657cc6394a9521960", "name": "Dolphin Bay", "opening_hours": {"open_now": true}, "photos": [{"height": 3024, "html_attributions": ["<a href=\"https://maps.google.com/maps/contrib/104012238354121082252/photos\">Steven Thiem</a>"], "photo_reference": "CmRaAAAAgEgiX8JC6P9Wt5QYcOogWKtILcIzDgeEHkbQVkET4Ze3_qG7FHA-r8GSpGGa8BTn2nZr6em9OvdI4SnlU3dcz2xVs-cAqjhEXzfsT6emyCPDOze_uG_1LTh8gOYj2QV7EhAXF0sG7RbIme0VSoUdpQLVGhQ0x_o9nCKz2vlVYNkzuRQt09Xxpw", "width": 4032}], "place_id": "ChIJVyFlX8R544kR6O_e8xttytQ", "plus_code": {"compound_code": "9V2C+XF Boston, Massachusetts, United States", "global_code": "87JC9V2C+XF"}, "rating": 4.3, "reference": "ChIJVyFlX8R544kR6O_e8xttytQ", "scope": "GOOGLE", "types": ["restaurant", "point_of_interest", "food", "establishment"], "user_ratings_total": 154, "vicinity": "72 Brighton Avenue, Allston"}, "ChIJqSrD88R544kRvCutp37f3RM": {"geometry": {"location": {"lat": 42.352773, "lng": -71.1288592}, "viewport": {"northeast": {"lat": 42.3540721302915, "lng": -71.12752141970849}, "southwest": {"lat": 42.3513741697085, "lng": -71.13021938029149}}}, "icon": "https://maps.gstatic.com/mapfiles/place_api/icons/generic_business-71.png", "id": "7349f40eb65e5b9f3fde3907e8008d4214a342ec", "name": "Constantine Finehouse Music", "place_id": "ChIJqSrD88R544kRvCutp37f3RM", "plus_code": {"compound_code": "9V3C+4F Boston, Massachusetts, United States", "global_code": "87JC9V3C+4F"}, "rating": 5, "reference": "ChIJqSrD88R544kRvCutp37f3RM", "scope": "GOOGLE", "types": ["point_of_interest", "establishment"], "user_ratings_total": 1, "vicinity": "73 Brighton Avenue # 6, Allston"}, "ChIJp7rU8MR544kRkG3MAq54wlE": {"geometry": {"location": {"lat": 42.352862, "lng": -71.129139}, "viewport": {"northeast": {"lat": 42.3541344802915, "lng": -71.12780716970849}, "southwest": {"lat": 42.3514365197085, "lng": -71.1305051302915}}}, "icon": "https://maps.gstatic.com/mapfiles/place_api/icons/generic_business-71.png", "id": "f47cb39ba94f4e1151beb41867a1e208914a0a37", "name": "Delany Real Estate", "place_id": "ChIJp7rU8MR544kRkG3MAq54wlE", "plus_code": {"compound_code": "9V3C+48 Boston, Massachusetts, United States", "global_code": "87JC9V3C+48"}, "reference": "ChIJp7rU8MR544kRkG3MAq54wlE", "scope": "GOOGLE", "types": ["real_estate_agency", "point_of_interest", "establishment"], "vicinity": "79 Brighton Avenue, Allston"}, "ChIJPUEZVcR544kRj6dLohT8TZY": {"geometry": {"location": {"lat": 42.3525327, "lng": -71.1298864}, "viewport": {"northeast": {"lat": 42.3539527302915, "lng": -71.1285220197085}, "southwest": {"lat": 42.3512547697085, "lng": -71.1312199802915}}}, "icon": "https://maps.gstatic.com/mapfiles/place_api/icons/shopping-71.png", "id": "914a424418c12f7e2102410f1d8994741302d7b9", "name": "Speedway", "opening_hours": {"open_now": true}, "photos": [{"height": 2592, "html_attributions": ["<a href=\"https://maps.google.com/maps/contrib/116884885678490934004/photos\">Michael Gaman</a>"], "photo_reference": "CmRaAAAAKNusKZ5MoCLrboptfSeUpAeMiOL6kVQkSxCqRKZd9u4XGFAmdx53oR8HQLQANj9ljBcXoAGETdb2g32BBKidMDdETln5hUaISwRl-MIWxMrzJ7u_3HadbaHD2lacT7EZEhBl-qrwbQLGd9kUAm16DbIUGhShQXG1fJCPN69VcoANu-6rJHfcFw", "width": 4608}], "place_id": "ChIJPUEZVcR544kRj6dLohT8TZY", "plus_code": {"compound_code": "9V3C+22 Boston, Massachusetts, United States", "global_code": "87JC9V3C+22"}, "price_level": 2, "rating": 1.6, "reference": "ChIJPUEZVcR544kRj6dLohT8TZY", "scope": "GOOGLE", "types": ["convenience_store", "gas_station", "store", "point_of_interest", "food", "establishment"], "user_ratings_total": 12, "vicinity": "100 Brighton Avenue, Allston"}, "ChIJi7-PX8R544kR8w6JSycaLAU": {"geometry": {"location": {"lat": 42.3524153, "lng": -71.1286453}, "viewport": {"northeast": {"lat": 42.3538213802915, "lng": -71.1272840697085}, "southwest": {"lat": 42.3511234197085, "lng": -71.12998203029152}}}, "icon": "https://maps.gstatic.com/mapfiles/place_api/icons/restaurant-71.png", "id": "9c9dd7b563ccf9b7a5360a96ca50288aa143fef1", "name": "Pot Bar", "opening_hours": {"open_now": true}, "photos": [{"height": 1749, "html_attributions": ["<a href=\"https://maps.google.com/maps/contrib/101386391687143666477/photos\">Andy Lee</a>"], "photo_reference": "CmRaAAAAB5RhVEmFv6gl9PEzuHicPfAFDnujG5X1sDj3OHYBvFZ1pZilT-Ec38FtbB4bLbfVrigwSXqSTNmCa5EOaes8Hr3em9mFgfkLy2JP3XO_eivVxAT6zTktn2DP1olmEZ7HEhAP2Vh5uQbb1GsNK3k--eExGhQ0jyN5pDF2etVk7Ht4gkQIRPrzgQ", "width": 5918}], "place_id": "ChIJi7-PX8R544kR8w6JSycaLAU", "plus_code": {"compound_code": "9V2C+XG Boston, Massachusetts, United States", "global_code": "87JC9V2C+XG"}, "rating": 4.7, "reference": "ChIJi7-PX8R544kR8w6JSycaLAU", "scope": "GOOGLE", "types": ["restaurant", "point_of_interest", "food", "establishment"], "user_ratings_total": 12, "vicinity": "70 Brighton Avenue, Allston"}, "ChIJGzE9DS1l44kRoOhiASS_fHg": {"geometry": {"location": {"lat": 42.3600825, "lng": -71.0588801}, "viewport": {"northeast": {"lat": 42.40081989999999, "lng": -70.749455}, "southwest": {"lat": 42.22788, "lng": -71.191113}}}, "icon": "https://maps.gstatic.com/mapfiles/place_api/icons/geocode-71.png", "id": "06755c25d2b34d13942a4713971756a55b870ced", "name": "Boston", "photos": [{"height": 3024, "html_attributions": ["<a href=\"https://maps.google.com/maps/contrib/104670289779338733432/photos\">Natalia Zalucean</a>"], "photo_reference": "CmRaAAAAVnG5gfyf1lmZaQQbEdrFkS4tih5iotmbT7d3qQVAU7X_OAKuA4J-sWYTtnretjIUZWKDSwCbHylCartmphRbWi3xfGFs2STqNWJbB2ZFvRo7b8gh1fl6FtpK-FkLNPqpEhCVLgO7IQoqYu3nztN_LoaEGhQUE54vFpJWHAgsxgwiNNNgc_vyfg", "width": 4032}], "place_id": "ChIJGzE9DS1l44kRoOhiASS_fHg", "reference": "ChIJGzE9DS1l44kRoOhiASS_fHg", "scope": "GOOGLE", "types": ["locality", "political"], "vicinity": "Boston"}}