{"ChIJm6Q5Knd544kR2yrIY3x7S8E": {"geometry": {"location": {"lat": 42.3189509, "lng": -71.11203979999999}, "viewport": {"northeast": {"lat": 42.3202998302915, "lng": -71.1106907697085}, "southwest": {"lat": 42.3176018697085, "lng": -71.1133887302915}}}, "icon": "https://maps.gstatic.com/mapfiles/place_api/icons/geocode-71.png", "id": "cc0e66e3577c826639b877e31c05407fedd84d72", "name": "473-485 Centre St", "place_id": "ChIJm6Q5Knd544kR2yrIY3x7S8E", "reference": "ChIJm6Q5Knd544kR2yrIY3x7S8E", "scope": "GOOGLE", "types": ["route"], "vicinity": "Boston"}, "ChIJLeAnL3d544kR-5ySCmGnFT4": {"geometry": {"location": {"lat": 42.3190914, "lng": -71.1116234}, "viewport": {"northeast": {"lat": 42.3204891302915, "lng": -71.1104063697085}, "southwest": {"lat": 42.3177911697085, "lng": -71.1131043302915}}}, "icon": "https://maps.gstatic.com/mapfiles/place_api/icons/restaurant-71.png", "id": "a3848fe92736f9ef992d34fe7a7f7be3ced050d1", "name": "Tres Gatos", "opening_hours": {"open_now": false}, "photos": [{"height": 2992, "html_attributions": ["<a href=\"https://maps.google.com/maps/contrib/107434327236012173327/photos\">Pierre Baduel</a>"], "photo_reference": "CmRaAAAA7XJMU7mNnizvb9uy50QXUoVCgEDmJcRYPwGAHNMmsbcRPvaCNaFmAUvFR9v0WUuytyY1EeF0UxiD6c6K8V8dv4YHc9Ru5MSb97IKrXJuOSpN-AHkhrseZYb5CAFt8ox0EhC-I6sUQ1D0jhl2lTJ9LD7hGhTkfyYA4agg5EJw87kyxXvHj4LFmQ", "width": 4000}], "place_id": "ChIJLeAnL3d544kR-5ySCmGnFT4", "plus_code": {"compound_code": "8V9Q+J9 Boston, Massachusetts, United States", "global_code": "87JC8V9Q+J9"}, "price_level": 2, "rating": 4.6, "reference": "ChIJLeAnL3d544kR-5ySCmGnFT4", "scope": "GOOGLE", "types": ["book_store", "bar", "electronics_store", "home_goods_store", "store", "restaurant", "point_of_interest", "food", "establishment"], "user_ratings_total": 311, "vicinity": "2056, 470 Centre Street, Boston"}, "ChIJP5HqKHd544kRoPzuzF45ons": {"geometry": {"location": {"lat": 42.3194573, "lng": -71.1121447}, "viewport": {"northeast": {"lat": 42.3207413802915, "lng": -71.1106201697085}, "southwest": {"lat": 42.3180434197085, "lng": -71.1133181302915}}}, "icon": "https://maps.gstatic.com/mapfiles/place_api/icons/shopping-71.png", "id": "c3460d416daa3c3224e073d95be56bf92a3e941f", "name": "CVS", "opening_hours": {"open_now": true}, "photos": [{"height": 800, "html_attributions": ["<a href=\"https://maps.google.com/maps/contrib/111051662387399708021/photos\">CVS</a>"], "photo_reference": "CmRaAAAAuv_ACJUZVnmdJz74GhRIRaA51-diAW6FQGCrypf1wTyEx2hB_6pUvqjojtsu1oblQOmWv2aulibUYZZQAONBSe3Lx6VOy4eruRJvU0ecVVrHVwQTXmSWxN5eXN-KVK-JEhBHw8Y9hIZVKO7uu1uJANM9GhRo-GNT-NUQj1XgzLjJSHrtaDb_Wg", "width": 1067}], "place_id": "ChIJP5HqKHd544kRoPzuzF45ons", "plus_code": {"compound_code": "8V9Q+Q4 Boston, Massachusetts, United States", "global_code": "87JC8V9Q+Q4"}, "rating": 3.4, "reference": "ChIJP5HqKHd544kRoPzuzF45ons", "scope": "GOOGLE", "types": ["convenience_store", "store", "health", "point_of_interest", "food", "establishment"], "user_ratings_total": 19, "vicinity": "467 Centre Street, Jamaica Plain"}, "ChIJa_0EJnd544kRa2c_Fvqimdc": {"geometry": {"location": {"lat": 42.31946689999999, "lng": -71.1118487}, "viewport": {"northeast": {"lat": 42.3207938302915, "lng": -71.11044001970849}, "southwest": {"lat": 42.3180958697085, "lng": -71.1131379802915}}}, "icon": "https://maps.gstatic.com/mapfiles/place_api/icons/shopping-71.png", "id": "6d7d1b29f5561a5589d0991704d021b7be369f89", "name": "JP Knit & Stitch", "opening_hours": {"open_now": false}, "place_id": "ChIJa_0EJnd544kRa2c_Fvqimdc", "plus_code": {"compound_code": "8V9Q+Q7 Boston, Massachusetts, United States", "global_code": "87JC8V9Q+Q7"}, "rating": 4.3, "reference": "ChIJa_0EJnd544kRa2c_Fvqimdc", "scope": "GOOGLE", "types": ["store", "point_of_interest", "establishment"], "user_ratings_total": 36, "vicinity": "461 Centre Street, Jamaica Plain"}, "ChIJZ5jKKnd544kRYvvEanrzgWY": {"geometry": {"location": {"lat": 42.31870070000001, "lng": -71.1119136}, "viewport": {"northeast": {"lat": 42.3200936802915, "lng": -71.11068251970849}, "southwest": {"lat": 42.3173957197085, "lng": -71.1133804802915}}}, "icon": "https://maps.gstatic.com/mapfiles/place_api/icons/generic_business-71.png", "id": "065ff36788c306f96c2e4ba6ba8185dd2c8c5309", "name": "Jamaica Plain Rentals & Sales LLC", "opening_hours": {"open_now": true}, "photos": [{"height": 1536, "html_attributions": ["<a href=\"https://maps.google.com/maps/contrib/114562845924159779227/photos\">Jamaica Plain Rentals &amp; Sales LLC</a>"], "photo_reference": "CmRaAAAAU-eYlXgyFR-XlY8UlqZoqZ3mqQ00u6eOJ-A625sTL2mY3ruzknmjvI-8lYYiZQA6lhiQYUkYMHm256k4sOcFYyHsagvufarNoDw2tILTPcdTflvfvV0ZhoMbFqK0Kt8nEhDKyhMd_DklosB6gQsjGxp-GhTVLG2kpze1cuJh4VALHo8CrOFOmQ", "width": 2048}], "place_id": "ChIJZ5jKKnd544kRYvvEanrzgWY", "plus_code": {"compound_code": "8V9Q+F6 Boston, Massachusetts, United States", "global_code": "87JC8V9Q+F6"}, "rating": 5, "reference": "ChIJZ5jKKnd544kRYvvEanrzgWY", "scope": "GOOGLE", "types": ["real_estate_agency", "point_of_interest", "establishment"], "user_ratings_total": 4, "vicinity": "480 Centre Street, Jamaica Plain"}, "ChIJRwz0JXd544kRfgPs9GhrBv8": {"geometry": {"location": {"lat": 42.3192665, "lng": -71.11167329999999}, "viewport": {"northeast": {"lat": 42.3206393802915, "lng": -71.1103889697085}, "southwest": {"lat": 42.3179414197085, "lng": -71.1130869302915}}}, "icon": "https://maps.gstatic.com/mapfiles/place_api/icons/restaurant-71.png", "id": "072198236593184bc2bea6fe94efd13671d8dd0e", "name": "Acapulco Restaurant", "opening_hours": {"open_now": false}, "photos": [{"height": 1365, "html_attributions": ["<a href=\"https://maps.google.com/maps/contrib/104111246635874032234/photos\">ZAGAT</a>"], "photo_reference": "CmRaAAAAmO7q5dickz3sME5VZjmY9uzT6IQMseCipG_V4t9Mongctnkah8BPuSfXfxfyKxnO5upH-mFoJNwYRu_nM8f4EHZ2EsPLF1_XCb_58w69h7NRKP-n2Dd3V7pjRfdqdXhSEhAGz552okPzBkhSzfcvf__rGhQKWOwj1psR1MvumN-MR6KEfMJRMg", "width": 2048}], "place_id": "ChIJRwz0JXd544kRfgPs9GhrBv8", "plus_code": {"compound_code": "8V9Q+P8 Boston, Massachusetts, United States", "global_code": "87JC8V9Q+P8"}, "price_level": 2, "rating": 4.1, "reference": "ChIJRwz0JXd544kRfgPs9GhrBv8", "scope": "GOOGLE", "types": ["restaurant", "point_of_interest", "food", "establishment"], "user_ratings_total": 70, "vicinity": "464 Centre Street, Jamaica Plain"}, "ChIJw943JHd544kRyPi77-CTSJM": {"geometry": {"location": {"lat": 42.319357, "lng": -71.111564}, "viewport": {"northeast": {"lat": 42.3207369802915, "lng": -71.11029891970848}, "southwest": {"lat": 42.3180390197085, "lng": -71.1129968802915}}}, "icon": "https://maps.gstatic.com/mapfiles/place_api/icons/generic_business-71.png", "id": "f55f7c6d2cd8d2a258cf7cab3148cb4b673a065d", "name": "Zesto's Pizza and Grille", "opening_hours": {"open_now": true}, "photos": [{"height": 3984, "html_attributions": ["<a href=\"https://maps.google.com/maps/contrib/105141661723265428535/photos\">Andre Alba</a>"], "photo_reference": "CmRaAAAA2cabHjoXxDC8GVhokVbwGCPfIQQ4FSPl7JXQNzT1Tv-ZFSi2ivlzKzMMsKEtra9eiScu3TsS9hMAQeULyKwG7jpqSnG--AvYtf2qn-MYHHo6H8ZrzIYmHXugyIBkq-mhEhAdsbYm_hK4xuCRQ6y4hTK-GhRfN49CB2sVoy9X9s-habpF3Jr_Jw", "width": 2988}], "place_id": "ChIJw943JHd544kRyPi77-CTSJM", "plus_code": {"compound_code": "8V9Q+P9 Boston, Massachusetts, United States", "global_code": "87JC8V9Q+P9"}, "price_level": 2, "rating": 4.2, "reference": "ChIJw943JHd544kRyPi77-CTSJM", "scope": "GOOGLE", "types": ["meal_delivery", "meal_takeaway", "restaurant", "point_of_interest", "food", "establishment"], "user_ratings_total": 29, "vicinity": "460 Centre Street, Jamaica Plain"}, "ChIJrypJ1nZ544kRFCdir1tYySg": {"geometry": {"location": {"lat": 42.31918, "lng": -71.11228799999999}, "viewport": {"northeast": {"lat": 42.3204694302915, "lng": -71.1107777197085}, "southwest": {"lat": 42.3177714697085, "lng": -71.1134756802915}}}, "icon": "https://maps.gstatic.com/mapfiles/place_api/icons/generic_business-71.png", "id": "d7b274d709697b177e111d79a8b9ba07a7082c44", "name": "Morrison's Auto Rite", "opening_hours": {"open_now": true}, "photos": [{"height": 1363, "html_attributions": ["<a href=\"https://maps.google.com/maps/contrib/115897872993127139954/photos\">Morrison&#39;s Auto Rite</a>"], "photo_reference": "CmRaAAAAYc8v26Vaf4y5JFHBe3e00nlhY3apGhmeCf4cMsPMRHY2-YMvI8sBiwSJG-dV-8YEKV9BjnCej1njckVpPOmStjyMnj-DfwIs5nvKhde2APXsX0ay_RrtBSTgry-I_cn5EhDqnsJpizkn3iYUB1A_nQ9eGhSot1HS4Q7kA_vVO_yOFqH7AEAj3Q", "width": 2048}], "place_id": "ChIJrypJ1nZ544kRFCdir1tYySg", "plus_code": {"compound_code": "8V9Q+M3 Boston, Massachusetts, United States", "global_code": "87JC8V9Q+M3"}, "rating": 4.8, "reference": "ChIJrypJ1nZ544kRFCdir1tYySg", "scope": "GOOGLE", "types": ["car_repair", "point_of_interest", "establishment"], "user_ratings_total": 99, "vicinity": "475 Centre Street, Jamaica Plain"}, "ChIJY4njKnd544kRhmem8RivcDo": {"geometry": {"location": {"lat": 42.318813, "lng": -71.11200869999999}, "viewport": {"northeast": {"lat": 42.32018033029149, "lng": -71.1107094197085}, "southwest": {"lat": 42.3174823697085, "lng": -71.1134073802915}}}, "icon": "https://maps.gstatic.com/mapfiles/place_api/icons/generic_business-71.png", "id": "697c28b6f28b922433c3a5c0bd48afdf82133580", "name": "Ramon Vasquez Insurance Agency", "opening_hours": {"open_now": true}, "photos": [{"height": 565, "html_attributions": ["<a href=\"https://maps.google.com/maps/contrib/114507508707784887287/photos\">Ramon Vasquez Insurance Agency</a>"], "photo_reference": "CmRaAAAAucW3X-jILf0-10uphYC1zf8065NFsvGJazVMrHfyUhQRzJTfZnuXm9kQ9yetk70aDh6rDiFEp925onxkMwWDAxJbx0bO8HwkkBW-JRkfQCTeXhP4HXM-vSVwYzrA_9XlEhAQ8Vd9ZXhOztbS_Irl6Zb2GhQs3cJzJDg2TlTPwfWI_flYj9ewgg", "width": 848}], "place_id": "ChIJY4njKnd544kRhmem8RivcDo", "plus_code": {"compound_code": "8V9Q+G5 Boston, Massachusetts, United States", "global_code": "87JC8V9Q+G5"}, "rating": 4.3, "reference": "ChIJY4njKnd544kRhmem8RivcDo", "scope": "GOOGLE", "types": ["point_of_interest", "establishment"], "user_ratings_total": 6, "vicinity": "340 Centre Street, Boston"}, "ChIJ6WzKJ3d544kRPzPsN0W4A_k": {"geometry": {"location": {"lat": 42.3194249, "lng": -71.1121041}, "viewport": {"northeast": {"lat": 42.3207182302915, "lng": -71.11060456970849}, "southwest": {"lat": 42.31802026970851, "lng": -71.11330253029149}}}, "icon": "https://maps.gstatic.com/mapfiles/place_api/icons/atm-71.png", "id": "fbdababb3ce6fb3546a36451412f4651b8ad5978", "name": "Santander Bank ATM", "opening_hours": {"open_now": true}, "photos": [{"height": 2326, "html_attributions": ["<a href=\"https://maps.google.com/maps/contrib/118256297831144797750/photos\">Santander Bank ATM</a>"], "photo_reference": "CmRaAAAAM2Yl63BkoT9tLqKVPeDOdQsH8psqWs8izijvGKrTep6dtGqcYlaZQqs5S0PJNQzUfFrMuoksXnoRAq_I0L_7FFXzNSuPvXVVFAkgx7PIDhiuAlN2-gcCsps3s8hjlbPwEhCaShgWaqNkZKITb7uQyIlBGhTNIVz2YSCCUlOL5gJLKcGGp1hbOQ", "width": 2326}], "place_id": "ChIJ6WzKJ3d544kRPzPsN0W4A_k", "plus_code": {"compound_code": "8V9Q+Q5 Boston, Massachusetts, United States", "global_code": "87JC8V9Q+Q5"}, "rating": 5, "reference": "ChIJ6WzKJ3d544kRPzPsN0W4A_k", "scope": "GOOGLE", "types": ["atm", "insurance_agency", "finance", "point_of_interest", "establishment"], "user_ratings_total": 1, "vicinity": "467 Centre Street, Jamaica Plain"}, "ChIJ6WzKJ3d544kRgiEi4kaLwhE": {"geometry": {"location": {"lat": 42.3194401, "lng": -71.11212569999999}, "viewport": {"northeast": {"lat": 42.32072873029151, "lng": -71.1106134197085}, "southwest": {"lat": 42.31803076970851, "lng": -71.1133113802915}}}, "icon": "https://maps.gstatic.com/mapfiles/place_api/icons/generic_business-71.png", "id": "6629970ac006bce42d7f53068cc66fe62ce16126", "name": "MoneyGram", "opening_hours": {"open_now": true}, "photos": [{"height": 300, "html_attributions": ["<a href=\"https://maps.google.com/maps/contrib/100340776307785879494/photos\">MoneyGram</a>"], "photo_reference": "CmRaAAAAnZGRl_H3j225w5JFLQys0xIqMt9R0SR56_cW1GwZkhmb1A48oyITmzsNDkhEv6kcHYT76ipkrTjqdmIgoqfY8AsFa5sj_u1zG6AVTvVQWYKaxoFVNKJfNc_9-1gAHmsWEhDNNtRVg4uOUNRvi5g1GAx_GhSOMcDg_CV5DAOGJVMUEAKDA2UWWg", "width": 300}], "place_id": "ChIJ6WzKJ3d544kRgiEi4kaLwhE", "plus_code": {"compound_code": "8V9Q+Q4 Boston, Massachusetts, United States", "global_code": "87JC8V9Q+Q4"}, "reference": "ChIJ6WzKJ3d544kRgiEi4kaLwhE", "scope": "GOOGLE", "types": ["finance", "point_of_interest", "establishment"], "vicinity": "467 Centre Street, Jamaica Plain"}, "ChIJhVeIJ3d544kRewElAiBPNxI": {"geometry": {"location": {"lat": 42.319439, "lng": -71.1121611}, "viewport": {"northeast": {"lat": 42.3207224802915, "lng": -71.1106349697085}, "southwest": {"lat": 42.3180245197085, "lng": -71.1133329302915}}}, "icon": "https://maps.gstatic.com/mapfiles/place_api/icons/generic_business-71.png", "id": "85c3629494a2f6eb4d2b2f9a8a54560abe649118", "name": "CVS Photo", "opening_hours": {"open_now": true}, "photos": [{"height": 666, "html_attributions": ["<a href=\"https://maps.google.com/maps/contrib/106356115436573517200/photos\">CVS Photo</a>"], "photo_reference": "CmRaAAAAZUrZWiA6RJY2HpjyIyoPULRrfnUZ4uPO0e1LVyMKToEzPqQuR64ghiIStp7upjOTfCt41WxlGpUC9JuC_9nw-MaZDzmU8_NuGvPSLtYUVXJd6DDj__ehJ79x4sJKrI0xEhAXyFShz4DPWo23gSMZTdjuGhR-9KMuDyOHQ7PFb7UhW5dg1l9_bw", "width": 1000}], "place_id": "ChIJhVeIJ3d544kRewElAiBPNxI", "plus_code": {"compound_code": "8V9Q+Q4 Boston, Massachusetts, United States", "global_code": "87JC8V9Q+Q4"}, "reference": "ChIJhVeIJ3d544kRewElAiBPNxI", "scope": "GOOGLE", "types": ["electronics_store", "home_goods_store", "store", "point_of_interest", "establishment"], "vicinity": "467 Centre Street, Jamaica Plain"}, "ChIJhVeIJ3d544kRadpce8AIC-g": {"geometry": {"location": {"lat": 42.319439, "lng": -71.1121611}, "viewport": {"northeast": {"lat": 42.3207224802915, "lng": -71.1106349697085}, "southwest": {"lat": 42.3180245197085, "lng": -71.1133329302915}}}, "icon": "https://maps.gstatic.com/mapfiles/place_api/icons/shopping-71.png", "id": "ccc8eaa5cfe3e9e9cc3e0b4da037ec3d3c293863", "name": "CVS Pharmacy", "opening_hours": {"open_now": true}, "photos": [{"height": 667, "html_attributions": ["<a href=\"https://maps.google.com/maps/contrib/102333500069268091803/photos\">CVS Pharmacy</a>"], "photo_reference": "CmRaAAAABm0z5_frd3j91wLOBFxpLsRTHGhIwkw7L_KQ6KQHyrdiChGlDYm9_0zgOcHnrdsDcLBQmJIDx60Br6nClFBs6FNYHHsfvBmFfcgq9CnW2l6QsthnpQh3kit2nESVXDQdEhAxxPJ18TRmC44kIwE1xhcjGhSrKtpEpNMNYOPYKLt3LvmzRFxTBQ", "width": 1000}], "place_id": "ChIJhVeIJ3d544kRadpce8AIC-g", "plus_code": {"compound_code": "8V9Q+Q4 Boston, Massachusetts, United States", "global_code": "87JC8V9Q+Q4"}, "rating": 3.5, "reference": "ChIJhVeIJ3d544kRadpce8AIC-g", "scope": "GOOGLE", "types": ["pharmacy", "store", "health", "point_of_interest", "establishment"], "user_ratings_total": 4, "vicinity": "467 Centre Street, Jamaica Plain"}, "ChIJ4w-lKnd544kRTiH2V9m-u5o": {"geometry": {"location": {"lat": 42.3187, "lng": -71.11191889999999}, "viewport": {"northeast": {"lat": 42.3200922802915, "lng": -71.11068586970849}, "southwest": {"lat": 42.3173943197085, "lng": -71.11338383029151}}}, "icon": "https://maps.gstatic.com/mapfiles/place_api/icons/generic_business-71.png", "id": "4b466925e2291cd3921a1b41564aa50d14835b93", "name": "Rachael Kulik, Broker", "opening_hours": {"open_now": true}, "photos": [{"height": 1536, "html_attributions": ["<a href=\"https://maps.google.com/maps/contrib/111830234181653537077/photos\">Rachael Kulik, Broker</a>"], "photo_reference": "CmRaAAAAJ39Jw9OHXpu8p_qiKdCdsSsv96w02RIGC9qh0G0pgZdGqUdQl7AcUN9unFuwPuxd2otXDer9dsfv2n7gJ61fOsnRy42TbRNi_itcCseE_sn5VQWGgmEJ0yMHlMhGXKf9EhB-CD-3BGX5881sQZIrYhxkGhR4EkUkFs-KKUmN_aateX6FbnvjUA", "width": 2048}], "place_id": "ChIJ4w-lKnd544kRTiH2V9m-u5o", "plus_code": {"compound_code": "8V9Q+F6 Boston, Massachusetts, United States", "global_code": "87JC8V9Q+F6"}, "reference": "ChIJ4w-lKnd544kRTiH2V9m-u5o", "scope": "GOOGLE", "types": ["point_of_interest", "establishment"], "vicinity": "480 Centre Street, Jamaica Plain"}, "ChIJGy55KnF544kRRisMCSCIc2g": {"geometry": {"location": {"lat": 42.318554, "lng": -71.1120699}, "viewport": {"northeast": {"lat": 42.3199386302915, "lng": -71.11081641970848}, "southwest": {"lat": 42.3172406697085, "lng": -71.1135143802915}}}, "icon": "https://maps.gstatic.com/mapfiles/place_api/icons/restaurant-71.png", "id": "b0811823c34b89a1d2ab7f7a48fb48d69707b1c4", "name": "Ideal Cafe & Pizza", "opening_hours": {"open_now": true}, "photos": [{"height": 5312, "html_attributions": ["<a href=\"https://maps.google.com/maps/contrib/102794247886704228964/photos\">sheetal hemrom</a>"], "photo_reference": "CmRaAAAAElY9ylNn56L1cXTm-30nF4R1ExrkG-b6QsOedgOUrRAG_mHrb4yphOVmxtxc1hj6c_23Ga7R4EXJqK4ei06iRefygHw2VJWpw5KGZ-5fTrljm7VUS5yJwpWauZpUh37BEhA4-jfei3GYUDLrHOR74F_NGhTDO39IX_igRRATdAPWikINO1fjQg", "width": 2988}], "place_id": "ChIJGy55KnF544kRRisMCSCIc2g", "plus_code": {"compound_code": "8V9Q+C5 Boston, Massachusetts, United States", "global_code": "87JC8V9Q+C5"}, "price_level": 1, "rating": 4.4, "reference": "ChIJGy55KnF544kRRisMCSCIc2g", "scope": "GOOGLE", "types": ["meal_takeaway", "restaurant", "point_of_interest", "food", "establishment"], "user_ratings_total": 41, "vicinity": "484 Centre Street, Jamaica Plain"}, "ChIJD27xMXd544kR143F4KuuDtU": {"geometry": {"location": {"lat": 42.31892699999999, "lng": -71.111364}, "viewport": {"northeast": {"lat": 42.32023393029149, "lng": -71.11005371970849}, "southwest": {"lat": 42.31753596970849, "lng": -71.11275168029151}}}, "icon": "https://maps.gstatic.com/mapfiles/place_api/icons/generic_business-71.png", "id": "aa58beb6355df374196737939a202a6e6ce03280", "name": "Petrichor Performance Collective", "opening_hours": {"open_now": true}, "photos": [{"height": 500, "html_attributions": ["<a href=\"https://maps.google.com/maps/contrib/104650852961993005656/photos\">Petrichor Performance Collective</a>"], "photo_reference": "CmRaAAAAPzyKPAdV1qPryZXi4VSnB9jMvUNle3kkzOYaQ5wDc8c5J6k6-2PKmLLDBNwc6ctoUolOwINP76eto6MqRXJKiOirBPvabbtNYwTTFWSaKMzoRaHHPbeuRxoN23g5LQWeEhAo31Su61sAgg6vYdufUJl4GhSdH8LXaA3tvKmVXK5Z_ydIjCWRvw", "width": 750}], "place_id": "ChIJD27xMXd544kR143F4KuuDtU", "plus_code": {"compound_code": "8V9Q+HF Boston, Massachusetts, United States", "global_code": "87JC8V9Q+HF"}, "reference": "ChIJD27xMXd544kR143F4KuuDtU", "scope": "GOOGLE", "types": ["point_of_interest", "establishment"], "vicinity": "10 Roseway Street #2, Jamaica Plain"}, "ChIJ31zYK3d544kR7cl2PcJWvbk": {"geometry": {"location": {"lat": 42.318993, "lng": -71.111932}, "viewport": {"northeast": {"lat": 42.32035133029149, "lng": -71.1106084197085}, "southwest": {"lat": 42.3176533697085, "lng": -71.1133063802915}}}, "icon": "https://maps.gstatic.com/mapfiles/place_api/icons/bus-71.png", "id": "c1273e009c49ff426e5c7ab7dc9d414f0a1b1f9e", "name": "Centre St @ Roseway St", "place_id": "ChIJ31zYK3d544kR7cl2PcJWvbk", "plus_code": {"compound_code": "8V9Q+H6 Boston, Massachusetts, United States", "global_code": "87JC8V9Q+H6"}, "reference": "ChIJ31zYK3d544kR7cl2PcJWvbk", "scope": "GOOGLE", "types": ["bus_station", "transit_station", "point_of_interest", "establishment"], "vicinity": "United States"}, "ChIJsQ4aVaJ544kRCHm95we0TPo": {"geometry": {"location": {"lat": 42.3185965, "lng": -71.1120871}, "viewport": {"northeast": {"lat": 42.3199742802915, "lng": -71.11081521970848}, "southwest": {"lat": 42.3172763197085, "lng": -71.1135131802915}}}, "icon": "https://maps.gstatic.com/mapfiles/place_api/icons/generic_business-71.png", "id": "ef7023c93e0e4cad7caa28e1489573b0ce530bbc", "name": "482 Internacional Hair Studio", "opening_hours": {"open_now": true}, "photos": [{"height": 2449, "html_attributions": ["<a href=\"https://maps.google.com/maps/contrib/102865692672777511800/photos\">482 Internacional Hair Studio</a>"], "photo_reference": "CmRaAAAAWkBY2mkvFzQ1ZQQwZ8N_yEJsOwyDHgPWBlcXaAz0Ulu_fwTCoodDI81r7QnMhJsWW36M86yYayLfKQbiL_fl5iTd19u94SMBgJCNRviQicZBFIAwuQLFhjIymM_N-Z9bEhAHbbxVyJ-Ok0kBWdA-YkLoGhRvFMrwk4vANq1hOA89tolj3p7k_g", "width": 2448}], "place_id": "ChIJsQ4aVaJ544kRCHm95we0TPo", "plus_code": {"compound_code": "8V9Q+C5 Boston, Massachusetts, United States", "global_code": "87JC8V9Q+C5"}, "reference": "ChIJsQ4aVaJ544kRCHm95we0TPo", "scope": "GOOGLE", "types": ["hair_care", "point_of_interest", "establishment"], "vicinity": "482 Centre Street, Boston"}, "ChIJ-8hi1XB544kRNeNcDsUE-Bs": {"geometry": {"location": {"lat": 42.3185965, "lng": -71.1120871}, "viewport": {"northeast": {"lat": 42.3199742802915, "lng": -71.11081521970848}, "southwest": {"lat": 42.3172763197085, "lng": -71.1135131802915}}}, "icon": "https://maps.gstatic.com/mapfiles/place_api/icons/generic_business-71.png", "id": "ab40852ecad5456f29a8e828352b0959a7becd21", "name": "Amp Hair Studios", "place_id": "ChIJ-8hi1XB544kRNeNcDsUE-Bs", "plus_code": {"compound_code": "8V9Q+C5 Boston, Massachusetts, United States", "global_code": "87JC8V9Q+C5"}, "rating": 4, "reference": "ChIJ-8hi1XB544kRNeNcDsUE-Bs", "scope": "GOOGLE", "types": ["beauty_salon", "hair_care", "point_of_interest", "establishment"], "user_ratings_total": 3, "vicinity": "482 Centre Street, Jamaica Plain"}, "ChIJGzE9DS1l44kRoOhiASS_fHg": {"geometry": {"location": {"lat": 42.3600825, "lng": -71.0588801}, "viewport": {"northeast": {"lat": 42.40081989999999, "lng": -70.749455}, "southwest": {"lat": 42.22788, "lng": -71.191113}}}, "icon": "https://maps.gstatic.com/mapfiles/place_api/icons/geocode-71.png", "id": "06755c25d2b34d13942a4713971756a55b870ced", "name": "Boston", "photos": [{"height": 3024, "html_attributions": ["<a href=\"https://maps.google.com/maps/contrib/104670289779338733432/photos\">Natalia Zalucean</a>"], "photo_reference": "CmRaAAAA4byKoGF5bdIEx_F_ramg2NNwHuvPE3ctfPcCB4t7C9spnsrqszru-V4hCKKJRw-Q11SkjkUudGb0m21bpwBQsGZN2uyV2-sODYphZwvm17YyQqYMT6r3OW_NWCS9jlzoEhCJLaivt1_c8ToL5C0gYMAOGhT6axUNhezaAWWVIySh_JbbiqA8nw", "width": 4032}], "place_id": "ChIJGzE9DS1l44kRoOhiASS_fHg", "reference": "ChIJGzE9DS1l44kRoOhiASS_fHg", "scope": "GOOGLE", "types": ["locality", "political"], "vicinity": "Boston"}, "ChIJ2WdcKnF544kRTJPz4DshpKE": {"geometry": {"location": {"lat": 42.3185338, "lng": -71.1121489}, "viewport": {"northeast": {"lat": 42.3199087302915, "lng": -71.11086946970849}, "southwest": {"lat": 42.3172107697085, "lng": -71.11356743029151}}}, "icon": "https://maps.gstatic.com/mapfiles/place_api/icons/generic_business-71.png", "id": "04aa5617febf7a3bc4ca9d9f20a5b538a53e491e", "name": "PS Nail & Spa", "opening_hours": {"open_now": true}, "photos": [{"height": 4032, "html_attributions": ["<a href=\"https://maps.google.com/maps/contrib/117717889987616487523/photos\">Norma De La Cruz</a>"], "photo_reference": "CmRaAAAAo2TbRbrPCCZeX3TTxMEOncgcD-chzGBd6b19rly2jOUNByhVXyft9jbfqHwBhSBgkDXhFHTxBLt9uYJ82TTP5OZkE3Cz0U0l9_J-Lor763AtqeM4fqYztCLbPE_B9g-3EhB9r2ikUdsR0BNiuWB4WoU1GhTRNm3aknGZZa1rdDwPySx2-lfT1Q", "width": 3024}], "place_id": "ChIJ2WdcKnF544kRTJPz4DshpKE", "plus_code": {"compound_code": "8V9Q+C4 Boston, Massachusetts, United States", "global_code": "87JC8V9Q+C4"}, "rating": 4.1, "reference": "ChIJ2WdcKnF544kRTJPz4DshpKE", "scope": "GOOGLE", "types": ["beauty_salon", "spa", "point_of_interest", "establishment"], "user_ratings_total": 71, "vicinity": "486 Centre Street, Jamaica Plain"}}