{"ChIJGzE9DS1l44kRoOhiASS_fHg": {"geometry": {"location": {"lat": 42.3600825, "lng": -71.0588801}, "viewport": {"northeast": {"lat": 42.40081989999999, "lng": -70.749455}, "southwest": {"lat": 42.22788, "lng": -71.191113}}}, "icon": "https://maps.gstatic.com/mapfiles/place_api/icons/geocode-71.png", "id": "06755c25d2b34d13942a4713971756a55b870ced", "name": "Boston", "photos": [{"height": 3024, "html_attributions": ["<a href=\"https://maps.google.com/maps/contrib/104670289779338733432/photos\">Natalia Zalucean</a>"], "photo_reference": "CmRaAAAAuzZTq0FvZSqmKhzIi5x6Vrxu78FKh1h8PKvH90JDMtlAqjBqmULA3aQangejjryhS8pujC4NpPXZXdITc2oQ7KejexpdjM7oKFDQb130muk7bzhoIZhP3oDVa8fudm-TEhDUhnnVYU2JqL9IvEX-fcSMGhT3jBeW8GVbrN-uAuTxADhkZSwHTQ", "width": 4032}], "place_id": "ChIJGzE9DS1l44kRoOhiASS_fHg", "reference": "ChIJGzE9DS1l44kRoOhiASS_fHg", "scope": "GOOGLE", "types": ["locality", "political"], "vicinity": "Boston"}, "ChIJuSE6cN1744kRbsBOIxFkqGU": {"geometry": {"location": {"lat": 42.3010094, "lng": -71.0877295}, "viewport": {"northeast": {"lat": 42.3023253302915, "lng": -71.08645156970849}, "southwest": {"lat": 42.2996273697085, "lng": -71.08914953029151}}}, "icon": "https://maps.gstatic.com/mapfiles/place_api/icons/generic_recreational-71.png", "id": "8ceb82c872eefa6841d7e563c11dea991bbe43a3", "name": "Refectory Hill", "place_id": "ChIJuSE6cN1744kRbsBOIxFkqGU", "plus_code": {"compound_code": "8W26+CW Boston, Massachusetts, United States", "global_code": "87JC8W26+CW"}, "reference": "ChIJuSE6cN1744kRbsBOIxFkqGU", "scope": "GOOGLE", "types": ["park", "point_of_interest", "establishment"], "vicinity": "1 Circuit Drive, Boston"}, "ChIJh-CN2yx644kRI8h5WPc98wQ": {"geometry": {"location": {"lat": 42.31519779999999, "lng": -71.0913748}, "viewport": {"northeast": {"lat": 42.335885, "lng": -71.06649519999999}, "southwest": {"lat": 42.29179790000001, "lng": -71.1067612}}}, "icon": "https://maps.gstatic.com/mapfiles/place_api/icons/geocode-71.png", "id": "33d978342c31fa28698809200432caaeeab1c79d", "name": "Roxbury", "photos": [{"height": 5312, "html_attributions": ["<a href=\"https://maps.google.com/maps/contrib/108141736953672835093/photos\">Warriorprincess4916</a>"], "photo_reference": "CmRaAAAAc_XeT3eYPe3xMsDNTZehQP53o2CADiCBKmU_SrvN_KOHpnEUN-Gxh-AhOoSxjAvjmF_dvnmbNyne99DdmiicuFLMCEy3D5Ugali2xSMKZ6iumfizvvKVeJTgkSDLcHd6EhAYHkzjkQLgdmncT_iLcsZ2GhSokZNbWA7eBoKTh78YtDJBRhyOVg", "width": 2988}], "place_id": "ChIJh-CN2yx644kRI8h5WPc98wQ", "reference": "ChIJh-CN2yx644kRI8h5WPc98wQ", "scope": "GOOGLE", "types": ["neighborhood", "political"], "vicinity": "Dorchester Center"}}