{"ChIJXzunBUh644kRFWRiMf8acGQ": {"geometry": {"location": {"lat": 42.32586980000001, "lng": -71.0729419}, "viewport": {"northeast": {"lat": 42.3272178802915, "lng": -71.07159196970849}, "southwest": {"lat": 42.3245199197085, "lng": -71.0742899302915}}}, "icon": "https://maps.gstatic.com/mapfiles/place_api/icons/geocode-71.png", "id": "f03135f0dbb355902d15697ffd2d4d1f650a9f7b", "name": "44-28 Magazine St", "place_id": "ChIJXzunBUh644kRFWRiMf8acGQ", "reference": "ChIJXzunBUh644kRFWRiMf8acGQ", "scope": "GOOGLE", "types": ["route"], "vicinity": "Boston"}, "ChIJ5T4iBkh644kRZz6f-New7kU": {"geometry": {"location": {"lat": 42.3260987, "lng": -71.07278769999999}, "viewport": {"northeast": {"lat": 42.3274332802915, "lng": -71.07145831970848}, "southwest": {"lat": 42.3247353197085, "lng": -71.0741562802915}}}, "icon": "https://maps.gstatic.com/mapfiles/place_api/icons/generic_business-71.png", "id": "4be2731f6a9a004cae116b1b544b843fdf34a3cb", "name": "Eagle Realty Associates Inc", "place_id": "ChIJ5T4iBkh644kRZz6f-New7kU", "plus_code": {"compound_code": "8WGG+CV Boston, Massachusetts, United States", "global_code": "87JC8WGG+CV"}, "reference": "ChIJ5T4iBkh644kRZz6f-New7kU", "scope": "GOOGLE", "types": ["real_estate_agency", "point_of_interest", "establishment"], "vicinity": "75 George Street, Roxbury"}, "ChIJTVcVG0h644kRQOqR_OnMc7k": {"geometry": {"location": {"lat": 42.32562739999999, "lng": -71.07303689999999}, "viewport": {"northeast": {"lat": 42.32701988029149, "lng": -71.07173166970848}, "southwest": {"lat": 42.3243219197085, "lng": -71.0744296302915}}}, "icon": "https://maps.gstatic.com/mapfiles/place_api/icons/generic_recreational-71.png", "id": "80aef7927a508387e1b135f8f766d967e2278f06", "name": "Magazine Street Community Garden", "place_id": "ChIJTVcVG0h644kRQOqR_OnMc7k", "reference": "ChIJTVcVG0h644kRQOqR_OnMc7k", "scope": "GOOGLE", "types": ["park", "premise", "point_of_interest", "establishment"], "vicinity": "Boston"}, "ChIJGzE9DS1l44kRoOhiASS_fHg": {"geometry": {"location": {"lat": 42.3600825, "lng": -71.0588801}, "viewport": {"northeast": {"lat": 42.40081989999999, "lng": -70.749455}, "southwest": {"lat": 42.22788, "lng": -71.191113}}}, "icon": "https://maps.gstatic.com/mapfiles/place_api/icons/geocode-71.png", "id": "06755c25d2b34d13942a4713971756a55b870ced", "name": "Boston", "photos": [{"height": 3024, "html_attributions": ["<a href=\"https://maps.google.com/maps/contrib/104670289779338733432/photos\">Natalia Zalucean</a>"], "photo_reference": "CmRaAAAA3q9s4xR9ZgPAxsKhGp8ytALPPOW5CH3nmcW_U44bcEw0Dic9Bz5fnab4zE4qHKRV8w2Vjie_7RO5RWGDX7jCOsytB7LnGmCr7DW0fKAcXQm6Cid016fDelMrTQliRMR-EhDIAlAVNRTRry-cAushtOhvGhRN0f9iv061g4IN8bROS5mm1Lzgqw", "width": 4032}], "place_id": "ChIJGzE9DS1l44kRoOhiASS_fHg", "reference": "ChIJGzE9DS1l44kRoOhiASS_fHg", "scope": "GOOGLE", "types": ["locality", "political"], "vicinity": "Boston"}}