{"ChIJ3wBGgAp544kRYBBBqMXo4ks": {"geometry": {"location": {"lat": 42.3253255, "lng": -71.123969}, "viewport": {"northeast": {"lat": 42.32680635000005, "lng": -71.12233034999997}, "southwest": {"lat": 42.32396214999995, "lng": -71.12542255000001}}}, "icon": "https://maps.gstatic.com/mapfiles/place_api/icons/geocode-71.png", "id": "8b1f100b9f04090522b4e15ae13d6c01d09eb2ea", "name": "132-86 Chestnut St", "place_id": "ChIJ3wBGgAp544kRYBBBqMXo4ks", "reference": "ChIJ3wBGgAp544kRYBBBqMXo4ks", "scope": "GOOGLE", "types": ["route"], "vicinity": "Brookline"}, "ChIJvYlZfwp544kRXfuYtaJDvBs": {"geometry": {"location": {"lat": 42.3256514, "lng": -71.1244969}, "viewport": {"northeast": {"lat": 42.3269506302915, "lng": -71.1232401697085}, "southwest": {"lat": 42.32425266970851, "lng": -71.1259381302915}}}, "icon": "https://maps.gstatic.com/mapfiles/place_api/icons/generic_business-71.png", "id": "d0af488ed1b7800e44afff97f4a546a2bbc5ca58", "name": "Susan F. Sherman, PT", "place_id": "ChIJvYlZfwp544kRXfuYtaJDvBs", "plus_code": {"compound_code": "8VGG+76 Brookline, Massachusetts, United States", "global_code": "87JC8VGG+76"}, "reference": "ChIJvYlZfwp544kRXfuYtaJDvBs", "scope": "GOOGLE", "types": ["physiotherapist", "health", "point_of_interest", "establishment"], "vicinity": "99 Chestnut St Suite 4, Brookline, MA 024457585, Brookline"}, "ChIJhZirQQB544kRB9LbXEfedZQ": {"geometry": {"location": {"lat": 42.33176419999999, "lng": -71.1211635}, "viewport": {"northeast": {"lat": 42.3518109, "lng": -71.1056969}, "southwest": {"lat": 42.29459689999999, "lng": -71.1789959}}}, "icon": "https://maps.gstatic.com/mapfiles/place_api/icons/geocode-71.png", "id": "92986b2d1f69af2f2a7e29d34ced8adfa8573beb", "name": "Brookline", "photos": [{"height": 651, "html_attributions": ["<a href=\"https://maps.google.com/maps/contrib/114772942214832951419/photos\">Michael Ahn</a>"], "photo_reference": "CmRaAAAAzbCF7bCc1SQmgOWra2d8XuFf_j9oWLXyXpoYpywF2YabGGagyGx7kkBgqEJvnyFTYQEqNSz5sqQ-8sDF_jnK000ZYlYbW1Gl6XUaGT23BKL91HDkEQchdraXkP-YdyN2EhBz9McFW5O0y6nBQpUjLj-rGhQmlK3rkxaMb244HoJBIiois6e2fw", "width": 1608}], "place_id": "ChIJhZirQQB544kRB9LbXEfedZQ", "reference": "ChIJhZirQQB544kRB9LbXEfedZQ", "scope": "GOOGLE", "types": ["locality", "political"], "vicinity": "Brookline"}}