{"ChIJ3dmI0rx544kRb6g8IjbXtgI": {"geometry": {"location": {"lat": 42.3352567, "lng": -71.1247613}, "viewport": {"northeast": {"lat": 42.3366231802915, "lng": -71.1233864197085}, "southwest": {"lat": 42.3339252197085, "lng": -71.1260843802915}}}, "icon": "https://maps.gstatic.com/mapfiles/place_api/icons/geocode-71.png", "id": "27b46b1b1f43df1d6defa1441fef487941ecb9af", "name": "452-430 Washington St", "place_id": "ChIJ3dmI0rx544kRb6g8IjbXtgI", "reference": "ChIJ3dmI0rx544kRb6g8IjbXtgI", "scope": "GOOGLE", "types": ["route"], "vicinity": "Brookline"}, "ChIJrZDiLKN544kRE08FHpxgf-g": {"geometry": {"location": {"lat": 42.3349085, "lng": -71.1245433}, "viewport": {"northeast": {"lat": 42.3362894302915, "lng": -71.1232521197085}, "southwest": {"lat": 42.3335914697085, "lng": -71.1259500802915}}}, "icon": "https://maps.gstatic.com/mapfiles/place_api/icons/school-71.png", "id": "ecbf284a1ef2a08ddd70f04b2a23cd07bfa839a4", "name": "Little Feet Daycare", "photos": [{"height": 1536, "html_attributions": ["<a href=\"https://maps.google.com/maps/contrib/106986308248035079330/photos\">Little Feet Daycare</a>"], "photo_reference": "CmRaAAAAP0r2pBQfZ4a9VZetVzFx3XUhNv0IdkXa20Y3Z8rOfx-q6s9Uf__QhKKk6kXEmyGgKPYvJIab-636woyGuQFzUWlkACjq93UmuiE8ydce-myCAokYTDNGbAVXnvwgzM9OEhCHAXriGRTYWyB09fCy_HZrGhQ8m_AKN0o9aJ3fkVFKTVarAp0bjA", "width": 2048}], "place_id": "ChIJrZDiLKN544kRE08FHpxgf-g", "plus_code": {"compound_code": "8VMG+X5 Brookline, Massachusetts, United States", "global_code": "87JC8VMG+X5"}, "rating": 5, "reference": "ChIJrZDiLKN544kRE08FHpxgf-g", "scope": "GOOGLE", "types": ["point_of_interest", "establishment"], "user_ratings_total": 19, "vicinity": "18 Greenough Circle, Brookline"}, "ChIJrR9KzLx544kRprbaQ7fXCdg": {"geometry": {"location": {"lat": 42.3354104, "lng": -71.1250069}, "viewport": {"northeast": {"lat": 42.3367719802915, "lng": -71.12367471970849}, "southwest": {"lat": 42.3340740197085, "lng": -71.1263726802915}}}, "icon": "https://maps.gstatic.com/mapfiles/place_api/icons/generic_business-71.png", "id": "5f5a62a9f0ff25ddf2641b80cb42fb70c4e8964f", "name": "Brookline Symphony Orchestra", "place_id": "ChIJrR9KzLx544kRprbaQ7fXCdg", "plus_code": {"compound_code": "8VPF+5X Brookline, Massachusetts, United States", "global_code": "87JC8VPF+5X"}, "reference": "ChIJrR9KzLx544kRprbaQ7fXCdg", "scope": "GOOGLE", "types": ["point_of_interest", "establishment"], "vicinity": "12 Greenough Street #1, Brookline"}, "ChIJrxBq0rx544kRHBnNgVpwt-U": {"geometry": {"location": {"lat": 42.3354357, "lng": -71.1249127}, "viewport": {"northeast": {"lat": 42.3367941302915, "lng": -71.1235439197085}, "southwest": {"lat": 42.3340961697085, "lng": -71.1262418802915}}}, "icon": "https://maps.gstatic.com/mapfiles/place_api/icons/generic_business-71.png", "id": "3870c5c6085fa9f4327cc37623f4636129d4dc82", "name": "Sinha Bharati MD", "place_id": "ChIJrxBq0rx544kRHBnNgVpwt-U", "plus_code": {"compound_code": "8VPG+52 Brookline, Massachusetts, United States", "global_code": "87JC8VPG+52"}, "reference": "ChIJrxBq0rx544kRHBnNgVpwt-U", "scope": "GOOGLE", "types": ["doctor", "health", "point_of_interest", "establishment"], "vicinity": "429 Washington Street # 2, Brookline"}, "ChIJX1H3NaN544kRuWjz_G68G2k": {"geometry": {"location": {"lat": 42.33489970000001, "lng": -71.12535780000002}, "viewport": {"northeast": {"lat": 42.3363089802915, "lng": -71.1240897197085}, "southwest": {"lat": 42.3336110197085, "lng": -71.12678768029151}}}, "icon": "https://maps.gstatic.com/mapfiles/place_api/icons/generic_business-71.png", "id": "c0997bd214a59581c076c506e73b5b1f6ef971d4", "name": "Allegro Tours", "place_id": "ChIJX1H3NaN544kRuWjz_G68G2k", "plus_code": {"compound_code": "8VMF+XV Brookline, Massachusetts, United States", "global_code": "87JC8VMF+XV"}, "reference": "ChIJX1H3NaN544kRuWjz_G68G2k", "scope": "GOOGLE", "types": ["travel_agency", "point_of_interest", "establishment"], "vicinity": "16 Greenough Street, Brookline"}, "ChIJdeg0z7x544kRb4qHzN-pqdI": {"geometry": {"location": {"lat": 42.3357686, "lng": -71.1250748}, "viewport": {"northeast": {"lat": 42.3370782802915, "lng": -71.12368771970849}, "southwest": {"lat": 42.3343803197085, "lng": -71.12638568029149}}}, "icon": "https://maps.gstatic.com/mapfiles/place_api/icons/generic_business-71.png", "id": "86f9d1c25752afe7bd08d04e6d1184af888cbf64", "name": "Local Sightings", "place_id": "ChIJdeg0z7x544kRb4qHzN-pqdI", "plus_code": {"compound_code": "8VPF+8X Brookline, Massachusetts, United States", "global_code": "87JC8VPF+8X"}, "reference": "ChIJdeg0z7x544kRb4qHzN-pqdI", "scope": "GOOGLE", "types": ["point_of_interest", "establishment"], "vicinity": "441 Washington Street # 2, Brookline"}, "ChIJYRnc0rx544kRPNlWmLFUMGc": {"geometry": {"location": {"lat": 42.3351461, "lng": -71.1245555}, "viewport": {"northeast": {"lat": 42.3365043802915, "lng": -71.12319726970848}, "southwest": {"lat": 42.3338064197085, "lng": -71.1258952302915}}}, "icon": "https://maps.gstatic.com/mapfiles/place_api/icons/generic_business-71.png", "id": "54dd344b6f39cb1bcfcaae95332cce4ea5fc519c", "name": "Julia Z. Halevy, Dott", "place_id": "ChIJYRnc0rx544kRPNlWmLFUMGc", "plus_code": {"compound_code": "8VPG+35 Brookline, Massachusetts, United States", "global_code": "87JC8VPG+35"}, "reference": "ChIJYRnc0rx544kRPNlWmLFUMGc", "scope": "GOOGLE", "types": ["health", "point_of_interest", "establishment"], "vicinity": "403 Washington Street, Brookline, MA 02446, Brookline"}, "ChIJcSfl0rx544kRYclxlXYuEiE": {"geometry": {"location": {"lat": 42.335239, "lng": -71.124648}, "viewport": {"northeast": {"lat": 42.33657643029149, "lng": -71.12331356970849}, "southwest": {"lat": 42.3338784697085, "lng": -71.12601153029149}}}, "icon": "https://maps.gstatic.com/mapfiles/place_api/icons/bus-71.png", "id": "6cbe732431716ce711c9b35af59c448e1e43e09c", "name": "Washington St opp Greenough St", "place_id": "ChIJcSfl0rx544kRYclxlXYuEiE", "plus_code": {"compound_code": "8VPG+34 Brookline, Massachusetts, United States", "global_code": "87JC8VPG+34"}, "reference": "ChIJcSfl0rx544kRYclxlXYuEiE", "scope": "GOOGLE", "types": ["bus_station", "transit_station", "point_of_interest", "establishment"], "vicinity": "United States"}, "ChIJa74yLaN544kRzlK5QOKBZZw": {"geometry": {"location": {"lat": 42.33512899999999, "lng": -71.12466700000002}, "viewport": {"northeast": {"lat": 42.3364874302915, "lng": -71.12330736970848}, "southwest": {"lat": 42.33378946970851, "lng": -71.1260053302915}}}, "icon": "https://maps.gstatic.com/mapfiles/place_api/icons/bus-71.png", "id": "4c1dfcb34d18e7c21f41bebdb72eee93e73549a0", "name": "Washington St @ Greenough Circle", "place_id": "ChIJa74yLaN544kRzlK5QOKBZZw", "plus_code": {"compound_code": "8VPG+34 Brookline, Massachusetts, United States", "global_code": "87JC8VPG+34"}, "reference": "ChIJa74yLaN544kRzlK5QOKBZZw", "scope": "GOOGLE", "types": ["bus_station", "transit_station", "point_of_interest", "establishment"], "vicinity": "United States"}, "ChIJhZirQQB544kRB9LbXEfedZQ": {"geometry": {"location": {"lat": 42.33176419999999, "lng": -71.1211635}, "viewport": {"northeast": {"lat": 42.3518109, "lng": -71.1056969}, "southwest": {"lat": 42.29459689999999, "lng": -71.1789959}}}, "icon": "https://maps.gstatic.com/mapfiles/place_api/icons/geocode-71.png", "id": "92986b2d1f69af2f2a7e29d34ced8adfa8573beb", "name": "Brookline", "photos": [{"height": 651, "html_attributions": ["<a href=\"https://maps.google.com/maps/contrib/114772942214832951419/photos\">Michael Ahn</a>"], "photo_reference": "CmRaAAAAYukDswVYj-Z_rYBx-KkNVLTHvETzWZpYIADTADfJiXuZd5J9BNvaBr8JuC27miTBvFPk02MGbuMSWiizfWVwqHXFQzLzndqgZV-AdZORknkha6i8XV7tKMchde7HTe10EhDJE6cHphyZqeBoxIj6v2RiGhTeqDHAbthjwajk883ns31rDBZKhQ", "width": 1608}], "place_id": "ChIJhZirQQB544kRB9LbXEfedZQ", "reference": "ChIJhZirQQB544kRB9LbXEfedZQ", "scope": "GOOGLE", "types": ["locality", "political"], "vicinity": "Brookline"}}