{"ChIJDYRrbzV444kRGtTf9J0cZ94": {"geometry": {"location": {"lat": 42.3490657, "lng": -71.1468135}, "viewport": {"northeast": {"lat": 42.3504168802915, "lng": -71.1454735697085}, "southwest": {"lat": 42.3477189197085, "lng": -71.1481715302915}}}, "icon": "https://maps.gstatic.com/mapfiles/place_api/icons/geocode-71.png", "id": "1deaf30dc6f3d0a1e7d764a9bd4bd88584d80a46", "name": "23-7 Nevins St", "place_id": "ChIJDYRrbzV444kRGtTf9J0cZ94", "reference": "ChIJDYRrbzV444kRGtTf9J0cZ94", "scope": "GOOGLE", "types": ["route"], "vicinity": "Boston"}, "ChIJXTX3SDV444kRCuZFqNle4c0": {"geometry": {"location": {"lat": 42.3490395, "lng": -71.1455727}, "viewport": {"northeast": {"lat": 42.3506275302915, "lng": -71.1441213197085}, "southwest": {"lat": 42.3479295697085, "lng": -71.14681928029151}}}, "icon": "https://maps.gstatic.com/mapfiles/place_api/icons/school-71.png", "id": "4fb4a9b9a04f2315f554a748f2c49a6c4c06d117", "name": "Brighton High School", "photos": [{"height": 2368, "html_attributions": ["<a href=\"https://maps.google.com/maps/contrib/110681864730344953614/photos\">Chao-Lin Liu</a>"], "photo_reference": "CmRaAAAALM-8fWkWECTr2fJ37BQwG04vjWzKyMr_6PQNnd7Hkc2ITc-KP6Ty-I3QjsxOtdHgiZnxc5Lpj2kmrVb5xIGXwvvzuX6HmFW-tyqKw_TUWC5VSB8zjY6HDW3majOqiU7vEhDUOxbovgIV8-qDQqP3_lQgGhQvUZZMpnpgp2wYNLUVKfd2q8Ke9Q", "width": 4224}], "place_id": "ChIJXTX3SDV444kRCuZFqNle4c0", "plus_code": {"compound_code": "8VX3+JQ Boston, Massachusetts, United States", "global_code": "87JC8VX3+JQ"}, "rating": 3.9, "reference": "ChIJXTX3SDV444kRCuZFqNle4c0", "scope": "GOOGLE", "types": ["point_of_interest", "school", "establishment"], "user_ratings_total": 15, "vicinity": "25 Warren Street, Brighton"}, "ChIJXTX3SDV444kRuXpZtBzIna8": {"geometry": {"location": {"lat": 42.34901, "lng": -71.1454665}, "viewport": {"northeast": {"lat": 42.3506001302915, "lng": -71.1440142197085}, "southwest": {"lat": 42.3479021697085, "lng": -71.1467121802915}}}, "icon": "https://maps.gstatic.com/mapfiles/place_api/icons/civic_building-71.png", "id": "3eaaccaf907bd8e92dc734ce3f2ccc3922b5f676", "name": "Boston Public Health Commn", "place_id": "ChIJXTX3SDV444kRuXpZtBzIna8", "plus_code": {"compound_code": "8VX3+JR Boston, Massachusetts, United States", "global_code": "87JC8VX3+JR"}, "reference": "ChIJXTX3SDV444kRuXpZtBzIna8", "scope": "GOOGLE", "types": ["local_government_office", "health", "point_of_interest", "establishment"], "vicinity": "25 Warren Street, Brighton"}, "ChIJqRfDUTV444kRdNCyEB8gJ4M": {"geometry": {"location": {"lat": 42.34870530000001, "lng": -71.1455015}, "viewport": {"northeast": {"lat": 42.34980918029151, "lng": -71.1442015697085}, "southwest": {"lat": 42.34711121970851, "lng": -71.1468995302915}}}, "icon": "https://maps.gstatic.com/mapfiles/place_api/icons/generic_business-71.png", "id": "c04cd27dfb916a715290046a1cb729465cb316c5", "name": "Anne W. Bishop, CNP", "place_id": "ChIJqRfDUTV444kRdNCyEB8gJ4M", "plus_code": {"compound_code": "8VX3+FQ Boston, Massachusetts, United States", "global_code": "87JC8VX3+FQ"}, "reference": "ChIJqRfDUTV444kRdNCyEB8gJ4M", "scope": "GOOGLE", "types": ["doctor", "health", "point_of_interest", "establishment"], "vicinity": "Brighton"}, "ChIJRTZSkTV444kRUov970y-yDI": {"geometry": {"location": {"lat": 42.3491435, "lng": -71.14657059999999}, "viewport": {"northeast": {"lat": 42.3505578302915, "lng": -71.14522881970849}, "southwest": {"lat": 42.3478598697085, "lng": -71.1479267802915}}}, "icon": "https://maps.gstatic.com/mapfiles/place_api/icons/generic_business-71.png", "id": "d4659cd601ba80118ea370d167469957afcffbfa", "name": "Dr. Martin L. Gelman", "place_id": "ChIJRTZSkTV444kRUov970y-yDI", "plus_code": {"compound_code": "8VX3+M9 Boston, Massachusetts, United States", "global_code": "87JC8VX3+M9"}, "rating": 2, "reference": "ChIJRTZSkTV444kRUov970y-yDI", "scope": "GOOGLE", "types": ["doctor", "health", "point_of_interest", "establishment"], "user_ratings_total": 1, "vicinity": "11 Nevins Street, Brighton"}, "ChIJNdevhEp444kRBdL7o_gr9H8": {"geometry": {"location": {"lat": 42.3491435, "lng": -71.14657059999999}, "viewport": {"northeast": {"lat": 42.3505578302915, "lng": -71.14522881970849}, "southwest": {"lat": 42.3478598697085, "lng": -71.1479267802915}}}, "icon": "https://maps.gstatic.com/mapfiles/place_api/icons/generic_business-71.png", "id": "525e96e7fa9a329d4170bb0f197b11eb249eab96", "name": "Enrique Testa", "place_id": "ChIJNdevhEp444kRBdL7o_gr9H8", "plus_code": {"compound_code": "8VX3+M9 Boston, Massachusetts, United States", "global_code": "87JC8VX3+M9"}, "reference": "ChIJNdevhEp444kRBdL7o_gr9H8", "scope": "GOOGLE", "types": ["doctor", "health", "point_of_interest", "establishment"], "vicinity": "11 Nevins Street #407, Brighton"}, "ChIJGzE9DS1l44kRoOhiASS_fHg": {"geometry": {"location": {"lat": 42.3600825, "lng": -71.0588801}, "viewport": {"northeast": {"lat": 42.40081989999999, "lng": -70.749455}, "southwest": {"lat": 42.22788, "lng": -71.191113}}}, "icon": "https://maps.gstatic.com/mapfiles/place_api/icons/geocode-71.png", "id": "06755c25d2b34d13942a4713971756a55b870ced", "name": "Boston", "photos": [{"height": 3024, "html_attributions": ["<a href=\"https://maps.google.com/maps/contrib/104670289779338733432/photos\">Natalia Zalucean</a>"], "photo_reference": "CmRaAAAAXfhODsjFxR3ctNtbrr4u4n4Qj3g6hKKUPRjxGMLzcYngczV7gwfjSX1MTiTUz5cYhOAz4q6ArBvYabvkVb4ZP_6_DRMP0xl1w9gjoD8wkbnfzGTBzMAGe2_ks6AsTsSPEhB4q-3rk-IVXgKmlvVj-ai9GhSq3UEAVF2k1QB1iWttMqICWCsFiA", "width": 4032}], "place_id": "ChIJGzE9DS1l44kRoOhiASS_fHg", "reference": "ChIJGzE9DS1l44kRoOhiASS_fHg", "scope": "GOOGLE", "types": ["locality", "political"], "vicinity": "Boston"}}