{"ChIJQ0Lv2o5544kR8721udvFNk8": {"geometry": {"location": {"lat": 42.33452339999999, "lng": -71.10414209999999}, "viewport": {"northeast": {"lat": 42.33587618029149, "lng": -71.1027956197085}, "southwest": {"lat": 42.33317821970849, "lng": -71.10549358029151}}}, "icon": "https://maps.gstatic.com/mapfiles/place_api/icons/geocode-71.png", "id": "dcd593696220b996ab896a052a320a2c8a8e0138", "name": "Huntington Avenue", "place_id": "ChIJQ0Lv2o5544kR8721udvFNk8", "reference": "ChIJQ0Lv2o5544kR8721udvFNk8", "scope": "GOOGLE", "types": ["route"], "vicinity": "Boston"}, "ChIJK2kOXo5544kRosauWQwNkZ4": {"geometry": {"location": {"lat": 42.33453859999999, "lng": -71.1040123}, "viewport": {"northeast": {"lat": 42.3356904802915, "lng": -71.10297736970848}, "southwest": {"lat": 42.3329925197085, "lng": -71.10567533029149}}}, "icon": "https://maps.gstatic.com/mapfiles/place_api/icons/generic_business-71.png", "id": "1b4b59f60a88458853206342f16a150d51426d0c", "name": "Dr. Ivan Soto-Arape", "place_id": "ChIJK2kOXo5544kRosauWQwNkZ4", "plus_code": {"compound_code": "8VMW+R9 Boston, Massachusetts, United States", "global_code": "87JC8VMW+R9"}, "reference": "ChIJK2kOXo5544kRosauWQwNkZ4", "scope": "GOOGLE", "types": ["doctor", "health", "point_of_interest", "establishment"], "vicinity": "15 Francis Street, Boston"}, "ChIJkQdvxI5544kRSymO7lb-iFI": {"geometry": {"location": {"lat": 42.334832, "lng": -71.104315}, "viewport": {"northeast": {"lat": 42.33616173029149, "lng": -71.10286446970849}, "southwest": {"lat": 42.3334637697085, "lng": -71.1055624302915}}}, "icon": "https://maps.gstatic.com/mapfiles/place_api/icons/generic_business-71.png", "id": "87091ecc878af30e03040d7cc09703840b324ddb", "name": "Moore Francis D MD", "place_id": "ChIJkQdvxI5544kRSymO7lb-iFI", "plus_code": {"compound_code": "8VMW+W7 Boston, Massachusetts, United States", "global_code": "87JC8VMW+W7"}, "reference": "ChIJkQdvxI5544kRSymO7lb-iFI", "scope": "GOOGLE", "types": ["doctor", "health", "point_of_interest", "establishment"], "vicinity": "20 Shattuck Street, Boston"}, "ChIJZRQ0345544kR_t2fF1OLmIk": {"geometry": {"location": {"lat": 42.3341328, "lng": -71.104272}, "viewport": {"northeast": {"lat": 42.3355392802915, "lng": -71.10295996970851}, "southwest": {"lat": 42.33284131970851, "lng": -71.10565793029151}}}, "icon": "https://maps.gstatic.com/mapfiles/place_api/icons/shopping-71.png", "id": "ca546d49a528df57a2dc770d20767734aa61dd08", "name": "7-Eleven", "opening_hours": {"open_now": true}, "photos": [{"height": 588, "html_attributions": ["<a href=\"https://maps.google.com/maps/contrib/109665874103459537861/photos\">7-Eleven</a>"], "photo_reference": "CmRaAAAA1QPl5vQtYCNCQwyHm2NacudDst0tEA0s1SgpTs4VWtEpRk6QDqLEI1SNaTiERP0V9FvIdkR6--l6XCeuwinb7F6Q2qHHeVyv4EHbNwGj78y-Ov3wlEjYgFZxG34g3QT0EhC5NEMGJPoEime5a9geHuW9GhQYfkCULABVvkouG6QQ55HuCMoo1Q", "width": 864}], "place_id": "ChIJZRQ0345544kR_t2fF1OLmIk", "plus_code": {"compound_code": "8VMW+M7 Boston, Massachusetts, United States", "global_code": "87JC8VMW+M7"}, "price_level": 1, "rating": 3.2, "reference": "ChIJZRQ0345544kR_t2fF1OLmIk", "scope": "GOOGLE", "types": ["convenience_store", "store", "point_of_interest", "food", "establishment"], "user_ratings_total": 11, "vicinity": "722 Huntington Avenue, Boston"}, "ChIJe8Aa2Y5544kRWCbSNZzgOAU": {"geometry": {"location": {"lat": 42.3341861, "lng": -71.1042205}, "viewport": {"northeast": {"lat": 42.3355772802915, "lng": -71.10290496970849}, "southwest": {"lat": 42.3328793197085, "lng": -71.1056029302915}}}, "icon": "https://maps.gstatic.com/mapfiles/place_api/icons/generic_business-71.png", "id": "e7d970fb373f6840c7580133c540ff3bb1985fee", "name": "Dr. Susanne J. Goldie, MD", "place_id": "ChIJe8Aa2Y5544kRWCbSNZzgOAU", "plus_code": {"compound_code": "8VMW+M8 Boston, Massachusetts, United States", "global_code": "87JC8VMW+M8"}, "reference": "ChIJe8Aa2Y5544kRWCbSNZzgOAU", "scope": "GOOGLE", "types": ["doctor", "health", "point_of_interest", "establishment"], "vicinity": "718 Huntington Avenue, Boston"}, "ChIJkQdvxI5544kRoOB924VNr_0": {"geometry": {"location": {"lat": 42.334832, "lng": -71.104315}, "viewport": {"northeast": {"lat": 42.33616173029149, "lng": -71.10286446970849}, "southwest": {"lat": 42.3334637697085, "lng": -71.1055624302915}}}, "icon": "https://maps.gstatic.com/mapfiles/place_api/icons/generic_business-71.png", "id": "55fc7a14fb053e0eebefb4b8021c6916f4095b44", "name": "Chen Frederick Y MD", "place_id": "ChIJkQdvxI5544kRoOB924VNr_0", "plus_code": {"compound_code": "8VMW+W7 Boston, Massachusetts, United States", "global_code": "87JC8VMW+W7"}, "reference": "ChIJkQdvxI5544kRoOB924VNr_0", "scope": "GOOGLE", "types": ["doctor", "health", "point_of_interest", "establishment"], "vicinity": "20 Shattuck Street, Boston"}, "ChIJkQdvxI5544kREAylBT8TZVk": {"geometry": {"location": {"lat": 42.334832, "lng": -71.104315}, "viewport": {"northeast": {"lat": 42.33616173029149, "lng": -71.10286446970849}, "southwest": {"lat": 42.3334637697085, "lng": -71.1055624302915}}}, "icon": "https://maps.gstatic.com/mapfiles/place_api/icons/generic_business-71.png", "id": "e84710f0babf04833ec3a4242a7495880a7f4bd0", "name": "Tien Amy L MD", "place_id": "ChIJkQdvxI5544kREAylBT8TZVk", "plus_code": {"compound_code": "8VMW+W7 Boston, Massachusetts, United States", "global_code": "87JC8VMW+W7"}, "reference": "ChIJkQdvxI5544kREAylBT8TZVk", "scope": "GOOGLE", "types": ["doctor", "health", "point_of_interest", "establishment"], "vicinity": "20 Shattuck Street, Boston"}, "ChIJkQdvxI5544kR8j40Sgp2DhI": {"geometry": {"location": {"lat": 42.334832, "lng": -71.104315}, "viewport": {"northeast": {"lat": 42.33616173029149, "lng": -71.10286446970849}, "southwest": {"lat": 42.3334637697085, "lng": -71.1055624302915}}}, "icon": "https://maps.gstatic.com/mapfiles/place_api/icons/generic_business-71.png", "id": "8341eae4f165a158fc246361ae7ee38dcb90263a", "name": "Guo Lifei MD", "place_id": "ChIJkQdvxI5544kR8j40Sgp2DhI", "plus_code": {"compound_code": "8VMW+W7 Boston, Massachusetts, United States", "global_code": "87JC8VMW+W7"}, "reference": "ChIJkQdvxI5544kR8j40Sgp2DhI", "scope": "GOOGLE", "types": ["doctor", "health", "point_of_interest", "establishment"], "vicinity": "20 Shattuck Street, Boston"}, "ChIJkQdvxI5544kRJ2nkK5Yki_I": {"geometry": {"location": {"lat": 42.334832, "lng": -71.104315}, "viewport": {"northeast": {"lat": 42.33616173029149, "lng": -71.10286446970849}, "southwest": {"lat": 42.3334637697085, "lng": -71.1055624302915}}}, "icon": "https://maps.gstatic.com/mapfiles/place_api/icons/generic_business-71.png", "id": "76513e09a96a2c4530cde5f4c1049504e8f7b4d9", "name": "Dr. Mark W. Feinberg, MD", "place_id": "ChIJkQdvxI5544kRJ2nkK5Yki_I", "plus_code": {"compound_code": "8VMW+W7 Boston, Massachusetts, United States", "global_code": "87JC8VMW+W7"}, "reference": "ChIJkQdvxI5544kRJ2nkK5Yki_I", "scope": "GOOGLE", "types": ["doctor", "health", "point_of_interest", "establishment"], "vicinity": "20 Shattuck Street, Boston"}, "ChIJkQdvxI5544kRBJN28Tov2z4": {"geometry": {"location": {"lat": 42.334832, "lng": -71.104315}, "viewport": {"northeast": {"lat": 42.33616173029149, "lng": -71.10286446970849}, "southwest": {"lat": 42.3334637697085, "lng": -71.1055624302915}}}, "icon": "https://maps.gstatic.com/mapfiles/place_api/icons/generic_business-71.png", "id": "e8f206b23b4a994e6038e996e8c6346aa0adf0e0", "name": "Pomahac Bohdan MD", "place_id": "ChIJkQdvxI5544kRBJN28Tov2z4", "plus_code": {"compound_code": "8VMW+W7 Boston, Massachusetts, United States", "global_code": "87JC8VMW+W7"}, "reference": "ChIJkQdvxI5544kRBJN28Tov2z4", "scope": "GOOGLE", "types": ["doctor", "health", "point_of_interest", "establishment"], "vicinity": "20 Shattuck Street, Boston"}, "ChIJd4b2iI5544kRicbljwdVDxE": {"geometry": {"location": {"lat": 42.33472080000001, "lng": -71.10428809999999}, "viewport": {"northeast": {"lat": 42.3361292802915, "lng": -71.10285101970848}, "southwest": {"lat": 42.3334313197085, "lng": -71.10554898029149}}}, "icon": "https://maps.gstatic.com/mapfiles/place_api/icons/generic_business-71.png", "id": "ae9c91edc9c851aeb5c0385e171e35d386dcebe6", "name": "Brigham & Women's Hospital : Department of Infectious Disease", "place_id": "ChIJd4b2iI5544kRicbljwdVDxE", "plus_code": {"compound_code": "8VMW+V7 Boston, Massachusetts, United States", "global_code": "87JC8VMW+V7"}, "reference": "ChIJd4b2iI5544kRicbljwdVDxE", "scope": "GOOGLE", "types": ["doctor", "health", "point_of_interest", "establishment"], "vicinity": "15 Francis Street, Boston"}, "ChIJkQdvxI5544kRYRp4GGsqET0": {"geometry": {"location": {"lat": 42.334832, "lng": -71.104315}, "viewport": {"northeast": {"lat": 42.33616173029149, "lng": -71.10286446970849}, "southwest": {"lat": 42.3334637697085, "lng": -71.1055624302915}}}, "icon": "https://maps.gstatic.com/mapfiles/place_api/icons/generic_business-71.png", "id": "3e63fcfb181badbf6fa0f9d6568667b68bba349f", "name": "Nguyen Binh T MD", "place_id": "ChIJkQdvxI5544kRYRp4GGsqET0", "plus_code": {"compound_code": "8VMW+W7 Boston, Massachusetts, United States", "global_code": "87JC8VMW+W7"}, "reference": "ChIJkQdvxI5544kRYRp4GGsqET0", "scope": "GOOGLE", "types": ["doctor", "health", "point_of_interest", "establishment"], "vicinity": "20 Shattuck Street, Boston"}, "ChIJkQdvxI5544kRouHof0wn5Vo": {"geometry": {"location": {"lat": 42.334832, "lng": -71.104315}, "viewport": {"northeast": {"lat": 42.33616173029149, "lng": -71.10286446970849}, "southwest": {"lat": 42.3334637697085, "lng": -71.1055624302915}}}, "icon": "https://maps.gstatic.com/mapfiles/place_api/icons/school-71.png", "id": "ad1feafe3971f579366bec23f6c5754b1ca489f2", "name": "Cardiovascular Research Institute", "place_id": "ChIJkQdvxI5544kRouHof0wn5Vo", "plus_code": {"compound_code": "8VMW+W7 Boston, Massachusetts, United States", "global_code": "87JC8VMW+W7"}, "reference": "ChIJkQdvxI5544kRouHof0wn5Vo", "scope": "GOOGLE", "types": ["point_of_interest", "establishment"], "vicinity": "20 Shattuck Street # 1319, Boston"}, "ChIJswUez45544kRJqVM9KcoAr8": {"geometry": {"location": {"lat": 42.334681, "lng": -71.103758}, "viewport": {"northeast": {"lat": 42.3360449802915, "lng": -71.10241991970848}, "southwest": {"lat": 42.3333470197085, "lng": -71.10511788029149}}}, "icon": "https://maps.gstatic.com/mapfiles/place_api/icons/generic_business-71.png", "id": "ae060aa7dcbcd38d8b555f1d6c69f639337146a9", "name": "Zipcar", "opening_hours": {"open_now": true}, "photos": [{"height": 499, "html_attributions": ["<a href=\"https://maps.google.com/maps/contrib/104267066475183401745/photos\">Zipcar</a>"], "photo_reference": "CmRaAAAAVM7tVJgKxzbXIYjzQ7V6ioxGd_lGwq2_Q2PIWQNNnbAj5t4hxO4b66l4JerM9kGf5xDZ9YADGQpoERCmszcCSPbJdqiVz-5NHTBHLWrW-qjtRb4UexUvG_DMQK57ieCXEhAHSg_0Q_OWOHDUMdHW8YsPGhTtfWeTTE6-Du1lXZcZM3IHnlCJEQ", "width": 499}], "place_id": "ChIJswUez45544kRJqVM9KcoAr8", "plus_code": {"compound_code": "8VMW+VF Boston, Massachusetts, United States", "global_code": "87JC8VMW+VF"}, "rating": 5, "reference": "ChIJswUez45544kRJqVM9KcoAr8", "scope": "GOOGLE", "types": ["car_rental", "point_of_interest", "establishment"], "user_ratings_total": 1, "vicinity": "713 Huntington Avenue, Boston"}, "ChIJkQdvxI5544kR_ak93Yp2e-0": {"geometry": {"location": {"lat": 42.334832, "lng": -71.104315}, "viewport": {"northeast": {"lat": 42.33616173029149, "lng": -71.10286446970849}, "southwest": {"lat": 42.3334637697085, "lng": -71.1055624302915}}}, "icon": "https://maps.gstatic.com/mapfiles/place_api/icons/generic_business-71.png", "id": "7ca1552f80206fb19c1d07d615919479d099c57c", "name": "Mokashi Suyog MD", "place_id": "ChIJkQdvxI5544kR_ak93Yp2e-0", "plus_code": {"compound_code": "8VMW+W7 Boston, Massachusetts, United States", "global_code": "87JC8VMW+W7"}, "reference": "ChIJkQdvxI5544kR_ak93Yp2e-0", "scope": "GOOGLE", "types": ["doctor", "health", "point_of_interest", "establishment"], "vicinity": "20 Shattuck Street, Boston"}, "ChIJe8Aa2Y5544kRQ4K5-nvmJcY": {"geometry": {"location": {"lat": 42.3341861, "lng": -71.1042205}, "viewport": {"northeast": {"lat": 42.3355772802915, "lng": -71.10290496970849}, "southwest": {"lat": 42.3328793197085, "lng": -71.1056029302915}}}, "icon": "https://maps.gstatic.com/mapfiles/place_api/icons/civic_building-71.png", "id": "22bb68451524c92bb1500c212523d3a9841afafe", "name": "Program In Health Decision Sci", "place_id": "ChIJe8Aa2Y5544kRQ4K5-nvmJcY", "plus_code": {"compound_code": "8VMW+M8 Boston, Massachusetts, United States", "global_code": "87JC8VMW+M8"}, "reference": "ChIJe8Aa2Y5544kRQ4K5-nvmJcY", "scope": "GOOGLE", "types": ["point_of_interest", "establishment"], "vicinity": "718 Huntington Avenue, Boston"}, "ChIJu_zqII9544kRJohE-AHCglI": {"geometry": {"location": {"lat": 42.3339908, "lng": -71.10447649999999}, "viewport": {"northeast": {"lat": 42.3353697302915, "lng": -71.1031143197085}, "southwest": {"lat": 42.3326717697085, "lng": -71.1058122802915}}}, "icon": "https://maps.gstatic.com/mapfiles/place_api/icons/generic_business-71.png", "id": "8af2ede5ee6be236923179329b35fecee12c10c3", "name": "septic services in boston | local plumbing pros in boston | portable toilet services in boston | quick fix septic", "place_id": "ChIJu_zqII9544kRJohE-AHCglI", "plus_code": {"compound_code": "8VMW+H6 Boston, Massachusetts, United States", "global_code": "87JC8VMW+H6"}, "reference": "ChIJu_zqII9544kRJohE-AHCglI", "scope": "GOOGLE", "types": ["point_of_interest", "establishment"], "vicinity": "1636 Tremont Street, Boston"}, "ChIJGUgb2o5544kRDysdu_uCiF8": {"geometry": {"location": {"lat": 42.3342872, "lng": -71.1038858}, "viewport": {"northeast": {"lat": 42.3356944302915, "lng": -71.1025795697085}, "southwest": {"lat": 42.3329964697085, "lng": -71.1052775302915}}}, "icon": "https://maps.gstatic.com/mapfiles/place_api/icons/generic_business-71.png", "id": "287fb5be4394757a2eb3d3d72272170a16907a36", "name": "Nails Spa By Time", "opening_hours": {"open_now": true}, "photos": [{"height": 1080, "html_attributions": ["<a href=\"https://maps.google.com/maps/contrib/106656757212598532235/photos\">Andie Smidler</a>"], "photo_reference": "CmRaAAAAsDRmxBDu7XREt2nm6cCRYdHwTQ04xuITcsIUz1GexvuaSB_1xpCnOBlUF7oCHRNlHOeC8feaAcWsGu0xyab7p4shxeJ8vhHrJIBnYlRFMJE9CqcbCP8HFe2aRnPcTNjxEhB2EnHQk6bCp_uKhGPjKKwuGhTXcjs0EK3st7yfQPR1iyBPVHTdBg", "width": 1920}], "place_id": "ChIJGUgb2o5544kRDysdu_uCiF8", "plus_code": {"compound_code": "8VMW+PC Boston, Massachusetts, United States", "global_code": "87JC8VMW+PC"}, "rating": 3.5, "reference": "ChIJGUgb2o5544kRDysdu_uCiF8", "scope": "GOOGLE", "types": ["beauty_salon", "point_of_interest", "establishment"], "user_ratings_total": 53, "vicinity": "712 Huntington Avenue, Boston"}, "ChIJyxyn2o5544kR0Igj98Q7oQY": {"geometry": {"location": {"lat": 42.33453859999999, "lng": -71.1040123}, "viewport": {"northeast": {"lat": 42.3356904802915, "lng": -71.10297736970848}, "southwest": {"lat": 42.3329925197085, "lng": -71.10567533029149}}}, "icon": "https://maps.gstatic.com/mapfiles/place_api/icons/generic_business-71.png", "id": "86387a0ef3dbd7fe73737a2f4d0615bb68598162", "name": "Dr. Paul Dieffenbach", "place_id": "ChIJyxyn2o5544kR0Igj98Q7oQY", "plus_code": {"compound_code": "8VMW+R9 Boston, Massachusetts, United States", "global_code": "87JC8VMW+R9"}, "reference": "ChIJyxyn2o5544kR0Igj98Q7oQY", "scope": "GOOGLE", "types": ["doctor", "health", "point_of_interest", "establishment"], "vicinity": "15 Francis Street, Boston"}, "ChIJGzE9DS1l44kRoOhiASS_fHg": {"geometry": {"location": {"lat": 42.3600825, "lng": -71.0588801}, "viewport": {"northeast": {"lat": 42.40081989999999, "lng": -70.749455}, "southwest": {"lat": 42.22788, "lng": -71.191113}}}, "icon": "https://maps.gstatic.com/mapfiles/place_api/icons/geocode-71.png", "id": "06755c25d2b34d13942a4713971756a55b870ced", "name": "Boston", "photos": [{"height": 3024, "html_attributions": ["<a href=\"https://maps.google.com/maps/contrib/104670289779338733432/photos\">Natalia Zalucean</a>"], "photo_reference": "CmRaAAAAf41krvuUivvkc9nJ4j5T61-QDDqGoCspZEI77lEtAQ3ZAEmJjmlRYqeHIJl_dMrjDHw0giGafgVDpNFjEnRQ2x9zyD_Z-u5PV22K70NstnU3si6T2mHhtbWt94iebC_kEhCMhUQ-bN9maejCYYPrmLmqGhTuIdJZLDFGLiDBKe23hlN8TfITeA", "width": 4032}], "place_id": "ChIJGzE9DS1l44kRoOhiASS_fHg", "reference": "ChIJGzE9DS1l44kRoOhiASS_fHg", "scope": "GOOGLE", "types": ["locality", "political"], "vicinity": "Boston"}, "ChIJ4WbpclV544kRDQb0u5PvLKU": {"geometry": {"location": {"lat": 42.3344536, "lng": -71.1045939}, "viewport": {"northeast": {"lat": 42.3357681802915, "lng": -71.10321971970849}, "southwest": {"lat": 42.3330702197085, "lng": -71.1059176802915}}}, "icon": "https://maps.gstatic.com/mapfiles/place_api/icons/generic_business-71.png", "id": "1099f2982759e8bc0dae7406c532b05d6393e7a5", "name": "Blue Bike Hub", "place_id": "ChIJ4WbpclV544kRDQb0u5PvLKU", "plus_code": {"compound_code": "8VMW+Q5 Boston, Massachusetts, United States", "global_code": "87JC8VMW+Q5"}, "reference": "ChIJ4WbpclV544kRDQb0u5PvLKU", "scope": "GOOGLE", "types": ["point_of_interest", "establishment"], "vicinity": "Boston"}, "ChIJ-8yo0Y5544kR9JaiwJfdaTc": {"geometry": {"location": {"lat": 42.3343984, "lng": -71.1037647}, "viewport": {"northeast": {"lat": 42.3357814302915, "lng": -71.1024407197085}, "southwest": {"lat": 42.3330834697085, "lng": -71.1051386802915}}}, "icon": "https://maps.gstatic.com/mapfiles/place_api/icons/generic_business-71.png", "id": "dfb78ba622f8611f27636d0c27a4559d4c4f73e2", "name": "Dr. Rebecca Y. Chen, DDS", "place_id": "ChIJ-8yo0Y5544kR9JaiwJfdaTc", "plus_code": {"compound_code": "8VMW+QF Boston, Massachusetts, United States", "global_code": "87JC8VMW+QF"}, "reference": "ChIJ-8yo0Y5544kR9JaiwJfdaTc", "scope": "GOOGLE", "types": ["dentist", "health", "point_of_interest", "establishment"], "vicinity": "706 Huntington Avenue, Boston"}, "ChIJsWWJxY5544kR4meyy7AuYSo": {"geometry": {"location": {"lat": 42.3347906, "lng": -71.1040173}, "viewport": {"northeast": {"lat": 42.33611793029149, "lng": -71.1026858197085}, "southwest": {"lat": 42.3334199697085, "lng": -71.1053837802915}}}, "icon": "https://maps.gstatic.com/mapfiles/place_api/icons/generic_business-71.png", "id": "95ad202ba12879626381563b0f31dc687fa775f0", "name": "Countway Lot", "place_id": "ChIJsWWJxY5544kR4meyy7AuYSo", "plus_code": {"compound_code": "8VMW+W9 Boston, Massachusetts, United States", "global_code": "87JC8VMW+W9"}, "reference": "ChIJsWWJxY5544kR4meyy7AuYSo", "scope": "GOOGLE", "types": ["parking", "point_of_interest", "establishment"], "vicinity": "713 Huntington Avenue, Roxbury Crossing"}, "ChIJkQdvxI5544kR5vZlS5vyMUo": {"geometry": {"location": {"lat": 42.334832, "lng": -71.104315}, "viewport": {"northeast": {"lat": 42.33616173029149, "lng": -71.10286446970849}, "southwest": {"lat": 42.3334637697085, "lng": -71.1055624302915}}}, "icon": "https://maps.gstatic.com/mapfiles/place_api/icons/generic_business-71.png", "id": "11e530ff379d5c419d883667bae269230aa9f098", "name": "Caterson Edward J MD", "place_id": "ChIJkQdvxI5544kR5vZlS5vyMUo", "plus_code": {"compound_code": "8VMW+W7 Boston, Massachusetts, United States", "global_code": "87JC8VMW+W7"}, "reference": "ChIJkQdvxI5544kR5vZlS5vyMUo", "scope": "GOOGLE", "types": ["doctor", "health", "point_of_interest", "establishment"], "vicinity": "20 Shattuck Street, Boston"}, "ChIJATBJ0Y5544kRyPzoBYcksvs": {"geometry": {"location": {"lat": 42.334263, "lng": -71.10370300000001}, "viewport": {"northeast": {"lat": 42.33570788029151, "lng": -71.10242441970848}, "southwest": {"lat": 42.33300991970851, "lng": -71.10512238029149}}}, "icon": "https://maps.gstatic.com/mapfiles/place_api/icons/generic_business-71.png", "id": "43e2145a515ae940459e1eaff919ce7120b69952", "name": "Frawley-Delle Apartments", "place_id": "ChIJATBJ0Y5544kRyPzoBYcksvs", "plus_code": {"compound_code": "8VMW+PG Boston, Massachusetts, United States", "global_code": "87JC8VMW+PG"}, "rating": 5, "reference": "ChIJATBJ0Y5544kRyPzoBYcksvs", "scope": "GOOGLE", "types": ["point_of_interest", "establishment"], "user_ratings_total": 1, "vicinity": "706 Huntington Avenue, Boston"}, "ChIJATBJ0Y5544kRyx4tciiFeOo": {"geometry": {"location": {"lat": 42.334263, "lng": -71.10370300000001}, "viewport": {"northeast": {"lat": 42.33570788029151, "lng": -71.10242441970848}, "southwest": {"lat": 42.33300991970851, "lng": -71.10512238029149}}}, "icon": "https://maps.gstatic.com/mapfiles/place_api/icons/generic_business-71.png", "id": "883074c52a8be5633a809e9968e45a83b5b918a9", "name": "Huntington Apartments", "place_id": "ChIJATBJ0Y5544kRyx4tciiFeOo", "plus_code": {"compound_code": "8VMW+PG Boston, Massachusetts, United States", "global_code": "87JC8VMW+PG"}, "rating": 5, "reference": "ChIJATBJ0Y5544kRyx4tciiFeOo", "scope": "GOOGLE", "types": ["point_of_interest", "establishment"], "user_ratings_total": 1, "vicinity": "706 Huntington Avenue, Boston"}, "ChIJy66c-Lx544kRIzXXoY-sHUY": {"geometry": {"location": {"lat": 42.3340477, "lng": -71.1039304}, "viewport": {"northeast": {"lat": 42.3355371802915, "lng": -71.1026927197085}, "southwest": {"lat": 42.3328392197085, "lng": -71.1053906802915}}}, "icon": "https://maps.gstatic.com/mapfiles/place_api/icons/generic_business-71.png", "id": "2d45c6a2849124a43da64c30496c24580dec2b7c", "name": "KeyMe", "opening_hours": {"open_now": true}, "photos": [{"height": 608, "html_attributions": ["<a href=\"https://maps.google.com/maps/contrib/113389607102648180925/photos\">KeyMe</a>"], "photo_reference": "CmRaAAAANvHAXBGw4oAJ08kNX7HNeziqQH-n4oM1vUN_Md8vHLxSzNqOKIIQV-SDMaM43Bp1BZVnuMyZjWQn39V-xv9aGwLqjO9ET_dXWjslyR3RdKysjJZ7hIrjS1WGb0-veoE1EhAhmtuFvLRS6OP-Q7MJ8iCkGhRx078hch4UuwO12pyW1wzZgdf6mg", "width": 1080}], "place_id": "ChIJy66c-Lx544kRIzXXoY-sHUY", "plus_code": {"compound_code": "8VMW+JC Boston, Massachusetts, United States", "global_code": "87JC8VMW+JC"}, "reference": "ChIJy66c-Lx544kRIzXXoY-sHUY", "scope": "GOOGLE", "types": ["locksmith", "point_of_interest", "establishment"], "vicinity": "722 Huntington Avenue, Boston"}, "ChIJPcfl545544kRZL4CL8meSs8": {"geometry": {"location": {"lat": 42.3346781, "lng": -71.1048084}, "viewport": {"northeast": {"lat": 42.3358726802915, "lng": -71.10334631970849}, "southwest": {"lat": 42.3331747197085, "lng": -71.1060442802915}}}, "icon": "https://maps.gstatic.com/mapfiles/place_api/icons/generic_business-71.png", "id": "1a1919591725ae1eddd5f70b13d05f859c8940ae", "name": "Peter Bent Brigham Hospital", "photos": [{"height": 2988, "html_attributions": ["<a href=\"https://maps.google.com/maps/contrib/108673997735356660062/photos\">Taniya Justus</a>"], "photo_reference": "CmRaAAAAAGACa90ELHKXM6A_2SMt7oHHMaQBp2Nyjom06apmy1TBnLB49WgLR42e3Bz1eUMl8FW8BsF9GKsGR1RhqGk5qol03kwCNtdBNwUSbuozwNNCK3bivuubBb9M44vApZGrEhCglLdDXdyAXBc9ayeGmpLJGhTTRbeo1-zh8pqaB0k9Mtuc43-IDw", "width": 5312}], "place_id": "ChIJPcfl545544kRZL4CL8meSs8", "plus_code": {"compound_code": "8VMW+V3 Boston, Massachusetts, United States", "global_code": "87JC8VMW+V3"}, "rating": 5, "reference": "ChIJPcfl545544kRZL4CL8meSs8", "scope": "GOOGLE", "types": ["doctor", "health", "point_of_interest", "establishment"], "user_ratings_total": 4, "vicinity": "2115 Tremont Street, Boston"}}