{"ChIJfQ6Fwjd644kR-hzUwZhuzkY": {"geometry": {"location": {"lat": 42.3253228, "lng": -71.0744125}, "viewport": {"northeast": {"lat": 42.32668153029149, "lng": -71.07306741970848}, "southwest": {"lat": 42.3239835697085, "lng": -71.0757653802915}}}, "icon": "https://maps.gstatic.com/mapfiles/place_api/icons/geocode-71.png", "id": "1d37137e6c3f0f2171a3f360060ba45a1529ea94", "name": "14-2 Magazine St", "place_id": "ChIJfQ6Fwjd644kR-hzUwZhuzkY", "reference": "ChIJfQ6Fwjd644kR-hzUwZhuzkY", "scope": "GOOGLE", "types": ["route"], "vicinity": "Boston"}, "ChIJS0Ru0jd644kRnE4IiFSXu_Q": {"geometry": {"location": {"lat": 42.3243704, "lng": -71.074139}, "viewport": {"northeast": {"lat": 42.3256736802915, "lng": -71.0728942697085}, "southwest": {"lat": 42.3229757197085, "lng": -71.0755922302915}}}, "icon": "https://maps.gstatic.com/mapfiles/place_api/icons/generic_business-71.png", "id": "2d4df8ae9057544ea97d22941ced5c811d45429b", "name": "Dudley Inn", "place_id": "ChIJS0Ru0jd644kRnE4IiFSXu_Q", "plus_code": {"compound_code": "8WFG+P8 Boston, Massachusetts, United States", "global_code": "87JC8WFG+P8"}, "rating": 3.7, "reference": "ChIJS0Ru0jd644kRnE4IiFSXu_Q", "scope": "GOOGLE", "types": ["point_of_interest", "establishment"], "user_ratings_total": 3, "vicinity": "434 Dudley Street, Boston"}, "ChIJIfwgwTd644kR1PX19GvLqis": {"geometry": {"location": {"lat": 42.3252696, "lng": -71.07386129999999}, "viewport": {"northeast": {"lat": 42.3267025802915, "lng": -71.07255496970848}, "southwest": {"lat": 42.3240046197085, "lng": -71.0752529302915}}}, "icon": "https://maps.gstatic.com/mapfiles/place_api/icons/generic_business-71.png", "id": "246621d00b6aa575498de8c42ff919fb56d835b7", "name": "Our Lady of Guadalupe Friary", "place_id": "ChIJIfwgwTd644kR1PX19GvLqis", "plus_code": {"compound_code": "8WGG+4F Boston, Massachusetts, United States", "global_code": "87JC8WGG+4F"}, "rating": 5, "reference": "ChIJIfwgwTd644kR1PX19GvLqis", "scope": "GOOGLE", "types": ["point_of_interest", "establishment"], "user_ratings_total": 1, "vicinity": "3 Magazine Street, Boston"}, "ChIJd0_20Td644kRd1HjqkRMuEg": {"geometry": {"location": {"lat": 42.324532, "lng": -71.0742686}, "viewport": {"northeast": {"lat": 42.32583788029149, "lng": -71.0730237197085}, "southwest": {"lat": 42.3231399197085, "lng": -71.07572168029151}}}, "icon": "https://maps.gstatic.com/mapfiles/place_api/icons/generic_business-71.png", "id": "ec401801c7d06d9cc4ff6583aa6868e2c4c8e09f", "name": "Out For Good, Inc.", "opening_hours": {"open_now": true}, "photos": [{"height": 1536, "html_attributions": ["<a href=\"https://maps.google.com/maps/contrib/102716192820114162344/photos\">Out For Good, Inc.</a>"], "photo_reference": "CmRaAAAAfdT_mvEi6Bqqri9F6UUrTrs7lq3_z67x23bML9L85De9lUiIHTFDipHcjugiZt7OVDTsPVQCfJe8ja8mgTnqRdbR5wCIUWA-dkJa9sl7ip20rugCcxzrwKXdLkFlEW2PEhAJ0ZPgpXDrbWrHqCZPhL8GGhQkpYzsGObVoHyRkF9TU9S7fs82Qg", "width": 2048}], "place_id": "ChIJd0_20Td644kRd1HjqkRMuEg", "plus_code": {"compound_code": "8WFG+R7 Boston, Massachusetts, United States", "global_code": "87JC8WFG+R7"}, "reference": "ChIJd0_20Td644kRd1HjqkRMuEg", "scope": "GOOGLE", "types": ["point_of_interest", "establishment"], "vicinity": "432 Dudley Street, Roxbury"}, "ChIJLeS-wjd644kRG3GVpBdQehA": {"geometry": {"location": {"lat": 42.3253073, "lng": -71.0744007}, "viewport": {"northeast": {"lat": 42.32664283029149, "lng": -71.07304606970848}, "southwest": {"lat": 42.32394486970849, "lng": -71.0757440302915}}}, "icon": "https://maps.gstatic.com/mapfiles/place_api/icons/generic_business-71.png", "id": "aa7419a98be4aca88671bd5f3b0aaf41d20ae853", "name": "Franciscan Sisters", "place_id": "ChIJLeS-wjd644kRG3GVpBdQehA", "plus_code": {"compound_code": "8WGG+46 Boston, Massachusetts, United States", "global_code": "87JC8WGG+46"}, "reference": "ChIJLeS-wjd644kRG3GVpBdQehA", "scope": "GOOGLE", "types": ["point_of_interest", "establishment"], "vicinity": "11 Magazine Street, Roxbury"}, "ChIJl8mN3BN744kRtCBdSKbvfC4": {"geometry": {"location": {"lat": 42.32451889999999, "lng": -71.0742672}, "viewport": {"northeast": {"lat": 42.3258678802915, "lng": -71.07291821970848}, "southwest": {"lat": 42.3231699197085, "lng": -71.07561618029149}}}, "icon": "https://maps.gstatic.com/mapfiles/place_api/icons/generic_business-71.png", "id": "81d2b8016345f15426139ab5517fd210a6dafe22", "name": "Himbis of Rari", "place_id": "ChIJl8mN3BN744kRtCBdSKbvfC4", "plus_code": {"compound_code": "8WFG+R7 Boston, Massachusetts, United States", "global_code": "87JC8WFG+R7"}, "reference": "ChIJl8mN3BN744kRtCBdSKbvfC4", "scope": "GOOGLE", "types": ["general_contractor", "point_of_interest", "establishment"], "vicinity": "432 Dudley Street #161, Boston"}, "ChIJGzE9DS1l44kRoOhiASS_fHg": {"geometry": {"location": {"lat": 42.3600825, "lng": -71.0588801}, "viewport": {"northeast": {"lat": 42.40081989999999, "lng": -70.749455}, "southwest": {"lat": 42.22788, "lng": -71.191113}}}, "icon": "https://maps.gstatic.com/mapfiles/place_api/icons/geocode-71.png", "id": "06755c25d2b34d13942a4713971756a55b870ced", "name": "Boston", "photos": [{"height": 3024, "html_attributions": ["<a href=\"https://maps.google.com/maps/contrib/104670289779338733432/photos\">Natalia Zalucean</a>"], "photo_reference": "CmRaAAAATdicN2WV7r8qyZpcD9Ts3woqTzBohGu6ITh8SxZmRQnxui-3JZCoNFC-Bhe6GUjU3st6cP6-G3mZXlH2iAOvBo8AjulnO1CNAgOKW4JgtEVNxadxXmIuKu31bS10K_yOEhAIUvTWTLtFey_Cy9ffKULqGhRUXIri9DwxUvC2j0OozEqDwyRgXg", "width": 4032}], "place_id": "ChIJGzE9DS1l44kRoOhiASS_fHg", "reference": "ChIJGzE9DS1l44kRoOhiASS_fHg", "scope": "GOOGLE", "types": ["locality", "political"], "vicinity": "Boston"}}