{"ChIJpSa7Sgx644kRCdqASbZ-hvI": {"geometry": {"location": {"lat": 42.3486226, "lng": -71.07795879999999}, "viewport": {"northeast": {"lat": 42.34996648029149, "lng": -71.07660146970849}, "southwest": {"lat": 42.34726851970849, "lng": -71.0792994302915}}}, "icon": "https://maps.gstatic.com/mapfiles/place_api/icons/geocode-71.png", "id": "3f8b61432fc9e008e88e720ecc55a38118eb8575", "name": "1-51 Huntington Ave", "place_id": "ChIJpSa7Sgx644kRCdqASbZ-hvI", "reference": "ChIJpSa7Sgx644kRCdqASbZ-hvI", "scope": "GOOGLE", "types": ["route"], "vicinity": "Boston"}, "ChIJ18tV0g1644kRl6RkJ1NwY-A": {"geometry": {"location": {"lat": 42.348566, "lng": -71.078896}, "viewport": {"northeast": {"lat": 42.3498768802915, "lng": -71.07759851970849}, "southwest": {"lat": 42.3471789197085, "lng": -71.0802964802915}}}, "icon": "https://maps.gstatic.com/mapfiles/place_api/icons/lodging-71.png", "id": "c88458fc5312c27a758b72daa5fa16f6eaa34856", "name": "Courtyard Boston Copley Square Hotel", "opening_hours": {"open_now": true}, "photos": [{"height": 4377, "html_attributions": ["<a href=\"https://maps.google.com/maps/contrib/114644646266522328557/photos\">Courtyard Boston Copley Square Hotel</a>"], "photo_reference": "CmRaAAAADsxxWSXRUlk0tN3yggiTMoVbRbgCge0h-I2LGLPq3d0RqIFx0IvVfhNBjqigDKQEyZI-durL2vbU67O0plPGZSPIAqnLFP30rrSfiXQfXOg92VjYgbr2AIARU0BpnwmxEhB4dEHw__L5qesRM4VVaBh4GhR0jtLD8xGAJJBfI_v-F_j7HTNwsA", "width": 6566}], "place_id": "ChIJ18tV0g1644kRl6RkJ1NwY-A", "plus_code": {"compound_code": "8WXC+CC Boston, Massachusetts, United States", "global_code": "87JC8WXC+CC"}, "rating": 4.1, "reference": "ChIJ18tV0g1644kRl6RkJ1NwY-A", "scope": "GOOGLE", "types": ["parking", "lodging", "point_of_interest", "establishment"], "user_ratings_total": 218, "vicinity": "88 Exeter Street, Boston"}, "ChIJMR2XfQx644kRJ18HxGPOhg8": {"geometry": {"location": {"lat": 42.34830669999999, "lng": -71.0786177}, "viewport": {"northeast": {"lat": 42.3496235802915, "lng": -71.0773559197085}, "southwest": {"lat": 42.3469256197085, "lng": -71.0800538802915}}}, "icon": "https://maps.gstatic.com/mapfiles/place_api/icons/lodging-71.png", "id": "99872494cc7f8aba30c59da2752d60ccceac87e4", "name": "Copley Square Hotel", "opening_hours": {"open_now": true}, "photos": [{"height": 2048, "html_attributions": ["<a href=\"https://maps.google.com/maps/contrib/104483786586431037159/photos\">Copley Square Hotel</a>"], "photo_reference": "CmRaAAAAGfFpQK7UBPmCWyVpEPPTbibOUfnmSYRXBOGrMGGDyZwD80LNBAcuThh6vIIDb8LwjvtA5h-Ookzr28xztV5TZ4cERj-EWf1cEV-bSSki3Dj7vzQI2d5C9YN9JSoprkqdEhCQgOb_6nHjxtRD43Kh8hhMGhRoifUJqmr1_JDL86NxtXfrgvEpqA", "width": 1978}], "place_id": "ChIJMR2XfQx644kRJ18HxGPOhg8", "plus_code": {"compound_code": "8WXC+8H Boston, Massachusetts, United States", "global_code": "87JC8WXC+8H"}, "rating": 4.1, "reference": "ChIJMR2XfQx644kRJ18HxGPOhg8", "scope": "GOOGLE", "types": ["lodging", "point_of_interest", "establishment"], "user_ratings_total": 498, "vicinity": "47 Huntington Avenue, Boston"}, "ChIJt0c8Twx644kRU7qhHYey8hU": {"geometry": {"location": {"lat": 42.3488379, "lng": -71.0779083}, "viewport": {"northeast": {"lat": 42.3502626302915, "lng": -71.0764848197085}, "southwest": {"lat": 42.3475646697085, "lng": -71.07918278029152}}}, "icon": "https://maps.gstatic.com/mapfiles/place_api/icons/restaurant-71.png", "id": "491dd79f93f64b64735f9d9c9b49f200752df6fd", "name": "Sorellina", "opening_hours": {"open_now": false}, "photos": [{"height": 683, "html_attributions": ["<a href=\"https://maps.google.com/maps/contrib/114880235407595215569/photos\">Sorellina</a>"], "photo_reference": "CmRaAAAAdeiRLpopLE7otXh8Iu900bKWgzFOzOQX9pHLT5QJJU4WzfJ71olJ2VSuK_vB8WfVwzowbz4sdD0-zHYIDW9wmED-OoDVjeTc0IjEImI06R3sLltUjDHQ3S9ZZZSKWogREhADr9PjedLgJqO2GMuzCWenGhQz3mH-gWjWMqjPCy0sUO8lMsqOwA", "width": 1024}], "place_id": "ChIJt0c8Twx644kRU7qhHYey8hU", "plus_code": {"compound_code": "8WXC+GR Boston, Massachusetts, United States", "global_code": "87JC8WXC+GR"}, "price_level": 4, "rating": 4.5, "reference": "ChIJt0c8Twx644kRU7qhHYey8hU", "scope": "GOOGLE", "types": ["restaurant", "point_of_interest", "food", "establishment"], "user_ratings_total": 259, "vicinity": "1 Huntington Avenue, Boston"}, "ChIJnyV00Q1644kRFPMavMw595A": {"geometry": {"location": {"lat": 42.34823529999999, "lng": -71.0787527}, "viewport": {"northeast": {"lat": 42.3495793302915, "lng": -71.07747636970849}, "southwest": {"lat": 42.3468813697085, "lng": -71.0801743302915}}}, "icon": "https://maps.gstatic.com/mapfiles/place_api/icons/bar-71.png", "id": "f14091e0bfcc75a0ffe3431b6d9bfb0668eb2443", "name": "Storyville", "opening_hours": {"open_now": false}, "photos": [{"height": 4096, "html_attributions": ["<a href=\"https://maps.google.com/maps/contrib/108361418302447226008/photos\">rhonda campbell</a>"], "photo_reference": "CmRaAAAAYPLdgjXpI-5rTHN0l3KdLBiSz5a8Yq0kNgvgbsk-2stSqFc6XCuZ5lyXbP_WxL3WyS6X4vsxVBDcGIISH63qjKPu-tzRi6l3e9K6hxor9jj7eML-OsoSavqc7LdnAQNVEhBsuqa2lLdGsXh1-pB9ICNbGhSa-s9KItz7YS55OR3Q7Bnfcpqkjw", "width": 2304}], "place_id": "ChIJnyV00Q1644kRFPMavMw595A", "plus_code": {"compound_code": "8WXC+7F Boston, Massachusetts, United States", "global_code": "87JC8WXC+7F"}, "price_level": 2, "rating": 3.3, "reference": "ChIJnyV00Q1644kRFPMavMw595A", "scope": "GOOGLE", "types": ["night_club", "bar", "restaurant", "point_of_interest", "food", "establishment"], "user_ratings_total": 86, "vicinity": "90 Exeter Street, Boston"}, "ChIJl0g-QQx644kRILImfDtaq20": {"geometry": {"location": {"lat": 42.348956, "lng": -71.07886239999999}, "viewport": {"northeast": {"lat": 42.3506576802915, "lng": -71.07755616970849}, "southwest": {"lat": 42.34795971970851, "lng": -71.08025413029151}}}, "icon": "https://maps.gstatic.com/mapfiles/place_api/icons/school-71.png", "id": "acfe422ca9a55c6293f2a50b7097ea76c8f51dd3", "name": "ASA College Planning Center", "opening_hours": {"open_now": true}, "place_id": "ChIJl0g-QQx644kRILImfDtaq20", "plus_code": {"compound_code": "8WXC+HF Boston, Massachusetts, United States", "global_code": "87JC8WXC+HF"}, "rating": 3.7, "reference": "ChIJl0g-QQx644kRILImfDtaq20", "scope": "GOOGLE", "types": ["university", "point_of_interest", "establishment"], "user_ratings_total": 3, "vicinity": "700 Boylston Street, Boston"}, "ChIJXzlUzg1644kRy_8po1eQUFc": {"geometry": {"location": {"lat": 42.3482929, "lng": -71.0786231}, "viewport": {"northeast": {"lat": 42.34956493029149, "lng": -71.0772255197085}, "southwest": {"lat": 42.34686696970849, "lng": -71.07992348029151}}}, "icon": "https://maps.gstatic.com/mapfiles/place_api/icons/bar-71.png", "id": "6a72a3dbc19c3fe7f8dd3820fbc4396d3d0ae80b", "name": "Minibar", "opening_hours": {"open_now": false}, "photos": [{"height": 1536, "html_attributions": ["<a href=\"https://maps.google.com/maps/contrib/100691869505764266709/photos\">Floyydd Mumford</a>"], "photo_reference": "CmRaAAAAlyJG-ztblSXSnWjaArhm5o1zFqUobMQCkNYjd-SccIshwOdOU50KimZsfP2m3QPYDXh4nwxhPWKBjR_0S3yXqswfJv2NAu_7aCK-dlt4bTp7erPnlf9QvYlHXt3vtaaPEhAllNTgOOtGeOVZOBXhAZXRGhTyETj6FZD8CR4nFJNPxUgePNbAgw", "width": 2048}], "place_id": "ChIJXzlUzg1644kRy_8po1eQUFc", "plus_code": {"compound_code": "8WXC+8H Boston, Massachusetts, United States", "global_code": "87JC8WXC+8H"}, "price_level": 2, "rating": 4, "reference": "ChIJXzlUzg1644kRy_8po1eQUFc", "scope": "GOOGLE", "types": ["bar", "night_club", "restaurant", "point_of_interest", "food", "establishment"], "user_ratings_total": 123, "vicinity": "51 Huntington Avenue, Boston"}, "ChIJt0c8Twx644kRY4H5egmWjpg": {"geometry": {"location": {"lat": 42.3486664, "lng": -71.07822380000002}, "viewport": {"northeast": {"lat": 42.3499569302915, "lng": -71.0767868697085}, "southwest": {"lat": 42.3472589697085, "lng": -71.0794848302915}}}, "icon": "https://maps.gstatic.com/mapfiles/place_api/icons/generic_business-71.png", "id": "3b5f6d897e833491256e0275338005795b5986dd", "name": "Trinity Place Condominiums", "photos": [{"height": 4048, "html_attributions": ["<a href=\"https://maps.google.com/maps/contrib/114803208330835603049/photos\">James Brenner</a>"], "photo_reference": "CmRaAAAAPn5zIezgRIiOEr-fjLYwFx_zzOV9FY4rSjUM3DnLc9OfDjZgnBeOEoqKtAO6GMYyq1WXjW97dypokDul-y6QSMnqvRW7f6E93mGIhcpGR1uc5upSOWjKtq1eECP2lYVyEhBR6gaxCVQ5GaB-lSX__ejLGhSlDjsh_hh7TzvbIN0yUoJ3mO2bLg", "width": 3036}], "place_id": "ChIJt0c8Twx644kRY4H5egmWjpg", "plus_code": {"compound_code": "8WXC+FP Boston, Massachusetts, United States", "global_code": "87JC8WXC+FP"}, "reference": "ChIJt0c8Twx644kRY4H5egmWjpg", "scope": "GOOGLE", "types": ["general_contractor", "point_of_interest", "establishment"], "vicinity": "1 Huntington Avenue, Boston"}, "ChIJnbI9Twx644kR3WNfAcPSFy4": {"geometry": {"location": {"lat": 42.3486664, "lng": -71.07822380000002}, "viewport": {"northeast": {"lat": 42.3499705802915, "lng": -71.0767701697085}, "southwest": {"lat": 42.3472726197085, "lng": -71.07946813029152}}}, "icon": "https://maps.gstatic.com/mapfiles/place_api/icons/generic_business-71.png", "id": "2949e8d253383fa02d08c8edee47933f50030b61", "name": "Alternative Asset Management Inc", "place_id": "ChIJnbI9Twx644kR3WNfAcPSFy4", "plus_code": {"compound_code": "8WXC+FP Boston, Massachusetts, United States", "global_code": "87JC8WXC+FP"}, "reference": "ChIJnbI9Twx644kR3WNfAcPSFy4", "scope": "GOOGLE", "types": ["finance", "point_of_interest", "establishment"], "vicinity": "1 Huntington Avenue # 206, Boston"}, "ChIJt0c8Twx644kRAUgu8CwOM7c": {"geometry": {"location": {"lat": 42.3486982, "lng": -71.0782134}, "viewport": {"northeast": {"lat": 42.3499835302915, "lng": -71.07676861970849}, "southwest": {"lat": 42.3472855697085, "lng": -71.0794665802915}}}, "icon": "https://maps.gstatic.com/mapfiles/place_api/icons/generic_business-71.png", "id": "0983069a3215dbae21d776158edb1fd58b48d5bb", "name": "Bodyscapes: Bralower Michael MD", "place_id": "ChIJt0c8Twx644kRAUgu8CwOM7c", "plus_code": {"compound_code": "8WXC+FP Boston, Massachusetts, United States", "global_code": "87JC8WXC+FP"}, "reference": "ChIJt0c8Twx644kRAUgu8CwOM7c", "scope": "GOOGLE", "types": ["doctor", "health", "point_of_interest", "establishment"], "vicinity": "1 Huntington Avenue, Boston"}, "ChIJl2IURQx644kRJqLPjMbSTAI": {"geometry": {"location": {"lat": 42.3486982, "lng": -71.0782134}, "viewport": {"northeast": {"lat": 42.3501531302915, "lng": -71.0769161697085}, "southwest": {"lat": 42.3474551697085, "lng": -71.0796141302915}}}, "icon": "https://maps.gstatic.com/mapfiles/place_api/icons/generic_business-71.png", "id": "11cfdebf6adb61414aa9e99088314ccc676fd987", "name": "NBC News", "place_id": "ChIJl2IURQx644kRJqLPjMbSTAI", "plus_code": {"compound_code": "8WXC+FP Boston, Massachusetts, United States", "global_code": "87JC8WXC+FP"}, "rating": 3.9, "reference": "ChIJl2IURQx644kRJqLPjMbSTAI", "scope": "GOOGLE", "types": ["point_of_interest", "establishment"], "user_ratings_total": 7, "vicinity": "1 Blagden Street, Boston"}, "ChIJt0c8Twx644kR9IRGLQgtQsc": {"geometry": {"location": {"lat": 42.3486664, "lng": -71.07822380000002}, "viewport": {"northeast": {"lat": 42.3499701302915, "lng": -71.0767707197085}, "southwest": {"lat": 42.3472721697085, "lng": -71.07946868029151}}}, "icon": "https://maps.gstatic.com/mapfiles/place_api/icons/generic_business-71.png", "id": "5b19e1ac18b2826f8b7e317a7da830e61d5d9fea", "name": "RSA Media", "photos": [{"height": 1152, "html_attributions": ["<a href=\"https://maps.google.com/maps/contrib/102593237619762192371/photos\">RSA Media</a>"], "photo_reference": "CmRaAAAADpSaZh9c8dtFGh1w-KE4c4v3qdivu8qo_dPGA1H47YBunHQgfrt6tEb2L51FPEmTOuqeyCIF6l4VOx63IsamtXipWtbJ2F-vh9z8LbsuJHfIdzj1GbslAIEtO1IMDLNeEhDeuSQlPTp-EckJBW079-GeGhTPjhJIQIM6YWPXqgMeZR2aD5to9g", "width": 2048}], "place_id": "ChIJt0c8Twx644kR9IRGLQgtQsc", "plus_code": {"compound_code": "8WXC+FP Boston, Massachusetts, United States", "global_code": "87JC8WXC+FP"}, "reference": "ChIJt0c8Twx644kR9IRGLQgtQsc", "scope": "GOOGLE", "types": ["point_of_interest", "establishment"], "vicinity": "1 Huntington Avenue # 1104, Boston"}, "ChIJWc5ZNQx644kRn5ADKDUaV4w": {"geometry": {"location": {"lat": 42.3486982, "lng": -71.0782134}, "viewport": {"northeast": {"lat": 42.3499835302915, "lng": -71.07676861970849}, "southwest": {"lat": 42.3472855697085, "lng": -71.0794665802915}}}, "icon": "https://maps.gstatic.com/mapfiles/place_api/icons/generic_business-71.png", "id": "842c050b293b3e87ffb2607bd0297f6d27dd547f", "name": "Raymond Properties", "place_id": "ChIJWc5ZNQx644kRn5ADKDUaV4w", "plus_code": {"compound_code": "8WXC+FP Boston, Massachusetts, United States", "global_code": "87JC8WXC+FP"}, "reference": "ChIJWc5ZNQx644kRn5ADKDUaV4w", "scope": "GOOGLE", "types": ["real_estate_agency", "point_of_interest", "establishment"], "vicinity": "25 Huntington Avenue, Boston"}, "ChIJ74FhSQx644kRpkIzf0IhWlc": {"geometry": {"location": {"lat": 42.3486982, "lng": -71.0782134}, "viewport": {"northeast": {"lat": 42.3499835302915, "lng": -71.07676861970849}, "southwest": {"lat": 42.3472855697085, "lng": -71.0794665802915}}}, "icon": "https://maps.gstatic.com/mapfiles/place_api/icons/generic_business-71.png", "id": "ca18411358b09ac653e58dd2ecceb9e74d5d4825", "name": "Swope Jeffrey", "place_id": "ChIJ74FhSQx644kRpkIzf0IhWlc", "plus_code": {"compound_code": "8WXC+FP Boston, Massachusetts, United States", "global_code": "87JC8WXC+FP"}, "reference": "ChIJ74FhSQx644kRpkIzf0IhWlc", "scope": "GOOGLE", "types": ["lawyer", "point_of_interest", "establishment"], "vicinity": "111 Huntington Avenue, Boston"}, "ChIJZ2HcNAx644kR-JeJIE_bXKY": {"geometry": {"location": {"lat": 42.3486664, "lng": -71.0782239}, "viewport": {"northeast": {"lat": 42.3499568802915, "lng": -71.0767869197085}, "southwest": {"lat": 42.3472589197085, "lng": -71.0794848802915}}}, "icon": "https://maps.gstatic.com/mapfiles/place_api/icons/generic_business-71.png", "id": "6e7c36db2916290e1ed96d5ec3d8dc4a120c3377", "name": "Trinity Dental", "opening_hours": {"open_now": true}, "photos": [{"height": 695, "html_attributions": ["<a href=\"https://maps.google.com/maps/contrib/112831837647081448423/photos\">Trinity Dental</a>"], "photo_reference": "CmRaAAAA0qoReN7ytEG5Yql5SIgCnktmh4a09P14vZ3NohB46G6I10e5ywwwgHUQHq91zoVxjfIsnhOTCV7zOv3p9yeJj51CJRf4WtmwWgXFCUjbVZOnSAKjJ1Bgb9GK3hCyZSk_EhD_oLZ0Uqrn1DT3x3wF0gpJGhR5WkJePB9YEniQohEUNkxKFnKIZg", "width": 1200}], "place_id": "ChIJZ2HcNAx644kR-JeJIE_bXKY", "plus_code": {"compound_code": "8WXC+FP Boston, Massachusetts, United States", "global_code": "87JC8WXC+FP"}, "rating": 5, "reference": "ChIJZ2HcNAx644kR-JeJIE_bXKY", "scope": "GOOGLE", "types": ["dentist", "health", "point_of_interest", "establishment"], "user_ratings_total": 27, "vicinity": "1 Huntington Avenue Unit B, Boston"}, "ChIJETGJNQx644kRz1CpjHIbotY": {"geometry": {"location": {"lat": 42.3487713, "lng": -71.0780257}, "viewport": {"northeast": {"lat": 42.3500224302915, "lng": -71.07668501970849}, "southwest": {"lat": 42.3473244697085, "lng": -71.0793829802915}}}, "icon": "https://maps.gstatic.com/mapfiles/place_api/icons/generic_business-71.png", "id": "bb9775004fd064abc88a822b97abf5d227d4cfac", "name": "Leading Minds Executive Coaching", "opening_hours": {"open_now": true}, "photos": [{"height": 480, "html_attributions": ["<a href=\"https://maps.google.com/maps/contrib/101076289903651530788/photos\">Leading Minds Executive Coaching</a>"], "photo_reference": "CmRaAAAA73VdY1yPk2UQEAoXO6hORljw0TsBeLLYP3w5yJS-AtJahVryVqHhCLXXwFOeRbJLshEb_RXcaDHSqzBL1OHu5wZkiOSamdHXS2eqqbL52V9BVQCCUKj3w-_qzeHbyKD5EhAEX4ODP4HpL8eu-AzrQ4i9GhR67JpErH8dCvkodWxkvJ3TONCnCA", "width": 720}], "place_id": "ChIJETGJNQx644kRz1CpjHIbotY", "plus_code": {"compound_code": "8WXC+GQ Boston, Massachusetts, United States", "global_code": "87JC8WXC+GQ"}, "reference": "ChIJETGJNQx644kRz1CpjHIbotY", "scope": "GOOGLE", "types": ["point_of_interest", "establishment"], "vicinity": "1 Huntington Avenue, Boston"}, "ChIJEfrs0Q1644kR1NOOXz2OIaA": {"geometry": {"location": {"lat": 42.34836509999999, "lng": -71.0788302}, "viewport": {"northeast": {"lat": 42.34970123029149, "lng": -71.0775266197085}, "southwest": {"lat": 42.3470032697085, "lng": -71.0802245802915}}}, "icon": "https://maps.gstatic.com/mapfiles/place_api/icons/generic_business-71.png", "id": "832a02e48e71cef57e7eafa04811de735f06af29", "name": "Copley Square Hotel Valet", "place_id": "ChIJEfrs0Q1644kR1NOOXz2OIaA", "plus_code": {"compound_code": "8WXC+8F Boston, Massachusetts, United States", "global_code": "87JC8WXC+8F"}, "reference": "ChIJEfrs0Q1644kR1NOOXz2OIaA", "scope": "GOOGLE", "types": ["parking", "point_of_interest", "establishment"], "vicinity": "90 Exeter Street, Boston"}, "ChIJAQDkNAx644kRWyq_0G-DopM": {"geometry": {"location": {"lat": 42.3486982, "lng": -71.0782134}, "viewport": {"northeast": {"lat": 42.3499835302915, "lng": -71.07676861970849}, "southwest": {"lat": 42.3472855697085, "lng": -71.0794665802915}}}, "icon": "https://maps.gstatic.com/mapfiles/place_api/icons/school-71.png", "id": "318ce0ea62e85ee23a6d88b808dbed121e62baa2", "name": "Boston Center for Dental Education", "place_id": "ChIJAQDkNAx644kRWyq_0G-DopM", "plus_code": {"compound_code": "8WXC+FP Boston, Massachusetts, United States", "global_code": "87JC8WXC+FP"}, "reference": "ChIJAQDkNAx644kRWyq_0G-DopM", "scope": "GOOGLE", "types": ["point_of_interest", "establishment"], "vicinity": "1 Huntington Avenue, Boston"}, "ChIJAQDkNAx644kR4WI5_9Qa_b4": {"geometry": {"location": {"lat": 42.3486982, "lng": -71.0782134}, "viewport": {"northeast": {"lat": 42.3499835302915, "lng": -71.07676861970849}, "southwest": {"lat": 42.3472855697085, "lng": -71.0794665802915}}}, "icon": "https://maps.gstatic.com/mapfiles/place_api/icons/generic_business-71.png", "id": "ed8620ec870e0df7ca7ab20b06802b135910e5f7", "name": "Ametron Technologies, Inc.", "place_id": "ChIJAQDkNAx644kR4WI5_9Qa_b4", "plus_code": {"compound_code": "8WXC+FP Boston, Massachusetts, United States", "global_code": "87JC8WXC+FP"}, "reference": "ChIJAQDkNAx644kR4WI5_9Qa_b4", "scope": "GOOGLE", "types": ["point_of_interest", "establishment"], "vicinity": "1 Huntington Avenue, Boston"}, "ChIJGzE9DS1l44kRoOhiASS_fHg": {"geometry": {"location": {"lat": 42.3600825, "lng": -71.0588801}, "viewport": {"northeast": {"lat": 42.40081989999999, "lng": -70.749455}, "southwest": {"lat": 42.22788, "lng": -71.191113}}}, "icon": "https://maps.gstatic.com/mapfiles/place_api/icons/geocode-71.png", "id": "06755c25d2b34d13942a4713971756a55b870ced", "name": "Boston", "photos": [{"height": 3024, "html_attributions": ["<a href=\"https://maps.google.com/maps/contrib/104670289779338733432/photos\">Natalia Zalucean</a>"], "photo_reference": "CmRaAAAAYj2V8d-j3KN7cqxaiEMl45ZUX4oWfhlqj029p3lFkcF34uaUvSx5Bl9MN-O0ie_DFAWR9AHZky1BgyjwY9ExlJ5Kv21aT68UXpNAF1iANlMR3-r8glMHdPjsqz2ndUu5EhDYC1ohtY1sJ7t55PeQUgjXGhSIuBe8byoKrxO2QG4nwB9FDDD_gA", "width": 4032}], "place_id": "ChIJGzE9DS1l44kRoOhiASS_fHg", "reference": "ChIJGzE9DS1l44kRoOhiASS_fHg", "scope": "GOOGLE", "types": ["locality", "political"], "vicinity": "Boston"}, "ChIJWc5ZNQx644kRb3_tGC-trKc": {"geometry": {"location": {"lat": 42.3486982, "lng": -71.0782134}, "viewport": {"northeast": {"lat": 42.3499835302915, "lng": -71.07676861970849}, "southwest": {"lat": 42.3472855697085, "lng": -71.0794665802915}}}, "icon": "https://maps.gstatic.com/mapfiles/place_api/icons/generic_business-71.png", "id": "f668988a04695e4f5ed6eb91613f494e5f208a41", "name": "Associated Air Freight Inc", "place_id": "ChIJWc5ZNQx644kRb3_tGC-trKc", "plus_code": {"compound_code": "8WXC+FP Boston, Massachusetts, United States", "global_code": "87JC8WXC+FP"}, "reference": "ChIJWc5ZNQx644kRb3_tGC-trKc", "scope": "GOOGLE", "types": ["point_of_interest", "establishment"], "vicinity": "25 Huntington Avenue, Boston"}, "ChIJWc5ZNQx644kRjVsYp6q1R_w": {"geometry": {"location": {"lat": 42.3486982, "lng": -71.0782134}, "viewport": {"northeast": {"lat": 42.3499835302915, "lng": -71.07676861970849}, "southwest": {"lat": 42.3472855697085, "lng": -71.0794665802915}}}, "icon": "https://maps.gstatic.com/mapfiles/place_api/icons/generic_business-71.png", "id": "0d20063819cad797d552e51c43fad81264a1d2fa", "name": "Nippon American Ltd", "place_id": "ChIJWc5ZNQx644kRjVsYp6q1R_w", "plus_code": {"compound_code": "8WXC+FP Boston, Massachusetts, United States", "global_code": "87JC8WXC+FP"}, "reference": "ChIJWc5ZNQx644kRjVsYp6q1R_w", "scope": "GOOGLE", "types": ["point_of_interest", "establishment"], "vicinity": "25 Huntington Avenue, Boston"}, "ChIJj1QnTAx644kRVlHAho4IJtE": {"geometry": {"location": {"lat": 42.3487216, "lng": -71.0781658}, "viewport": {"northeast": {"lat": 42.3499977802915, "lng": -71.0767416697085}, "southwest": {"lat": 42.3472998197085, "lng": -71.0794396302915}}}, "icon": "https://maps.gstatic.com/mapfiles/place_api/icons/generic_business-71.png", "id": "6e472ee5e313bc5050d9d77b039590713bb89311", "name": "cuePR", "opening_hours": {"open_now": true}, "photos": [{"height": 1366, "html_attributions": ["<a href=\"https://maps.google.com/maps/contrib/113265723538321855225/photos\">cuePR</a>"], "photo_reference": "CmRaAAAA-nOkm3Knka4U8FmMqKnMkY72TSk-OWrB_Xi-QZ0FCEFWU9zWA1FXrFneFTM4K1EAuPXEJBBKMQKAoBsRd9GCEtCVXmry5HinUZOl-LsJXkNMB62pgVtGc6cR65dnNn1bEhANLYLmcfL7BGO4OAqD_51jGhSue66VCiOJ4qyukZ41KtSkQcs48g", "width": 2048}], "place_id": "ChIJj1QnTAx644kRVlHAho4IJtE", "plus_code": {"compound_code": "8WXC+FP Boston, Massachusetts, United States", "global_code": "87JC8WXC+FP"}, "reference": "ChIJj1QnTAx644kRVlHAho4IJtE", "scope": "GOOGLE", "types": ["point_of_interest", "establishment"], "vicinity": "1 Huntington Avenue, Boston"}}