{"ChIJFYY_JWR544kRwBkNA_yocPU": {"geometry": {"location": {"lat": 42.3085994, "lng": -71.1053922}, "viewport": {"northeast": {"lat": 42.31028125000006, "lng": -71.1037334}, "southwest": {"lat": 42.30691744999993, "lng": -71.107051}}}, "icon": "https://maps.gstatic.com/mapfiles/place_api/icons/geocode-71.png", "id": "2f73da10f3223591f49a1a11466355cebe04e7c2", "name": "3351-3429 Washington St", "place_id": "ChIJFYY_JWR544kRwBkNA_yocPU", "reference": "ChIJFYY_JWR544kRwBkNA_yocPU", "scope": "GOOGLE", "types": ["route"], "vicinity": "Boston"}, "ChIJ5VXChmZ544kRMO8eWZEo17k": {"geometry": {"location": {"lat": 42.3078173, "lng": -71.1059143}, "viewport": {"northeast": {"lat": 42.3092101302915, "lng": -71.10464666970849}, "southwest": {"lat": 42.3065121697085, "lng": -71.1073446302915}}}, "icon": "https://maps.gstatic.com/mapfiles/place_api/icons/generic_business-71.png", "id": "96df5e317403ee2ae7ca3bc0fc7af6b44b1e822b", "name": "ACME Body & Paint", "opening_hours": {"open_now": true}, "photos": [{"height": 3024, "html_attributions": ["<a href=\"https://maps.google.com/maps/contrib/117039661458215416978/photos\">ACME Body &amp; Paint</a>"], "photo_reference": "CmRaAAAAMa9yNi_bxqODUJk2tSeUGqacMWum5b9LyAxVsX7pOKKOzCp8EB4-U9XcBoBqPzIoqdePOKaV0lkD9Uj8C-edOf2fX4EJhpFay-cMBcRLpueyJMcQ1Q0AnJSSuFY_21zkEhBZYi_iDItVzB_2mqVjquTwGhRfNfpS77a9LrnrDEoqPEHvSQESfQ", "width": 4032}], "place_id": "ChIJ5VXChmZ544kRMO8eWZEo17k", "plus_code": {"compound_code": "8V5V+4J Boston, Massachusetts, United States", "global_code": "87JC8V5V+4J"}, "rating": 4.5, "reference": "ChIJ5VXChmZ544kRMO8eWZEo17k", "scope": "GOOGLE", "types": ["car_repair", "point_of_interest", "establishment"], "user_ratings_total": 18, "vicinity": "3430 Washington Street, Jamaica Plain"}, "ChIJO_l5eWZ544kRPusa14gRUzY": {"geometry": {"location": {"lat": 42.30804799999999, "lng": -71.106765}, "viewport": {"northeast": {"lat": 42.30931108029149, "lng": -71.10549726970851}, "southwest": {"lat": 42.30661311970849, "lng": -71.10819523029151}}}, "icon": "https://maps.gstatic.com/mapfiles/place_api/icons/generic_business-71.png", "id": "a10e522767602d47f278223da01dcd5891ea4f37", "name": "Slipper Studios", "place_id": "ChIJO_l5eWZ544kRPusa14gRUzY", "plus_code": {"compound_code": "8V5V+67 Boston, Massachusetts, United States", "global_code": "87JC8V5V+67"}, "reference": "ChIJO_l5eWZ544kRPusa14gRUzY", "scope": "GOOGLE", "types": ["point_of_interest", "establishment"], "vicinity": "60 Union Avenue, Jamaica Plain"}, "ChIJP-34h2Z544kR_BmOW6dAUIA": {"geometry": {"location": {"lat": 42.307649, "lng": -71.10622699999999}, "viewport": {"northeast": {"lat": 42.30901478029149, "lng": -71.10490976970848}, "southwest": {"lat": 42.3063168197085, "lng": -71.10760773029149}}}, "icon": "https://maps.gstatic.com/mapfiles/place_api/icons/bus-71.png", "id": "51c4ab08215ef910b134009e85c74c6584f604bf", "name": "Washington St @ Rockvale Circle", "place_id": "ChIJP-34h2Z544kR_BmOW6dAUIA", "plus_code": {"compound_code": "8V5V+3G Boston, Massachusetts, United States", "global_code": "87JC8V5V+3G"}, "reference": "ChIJP-34h2Z544kR_BmOW6dAUIA", "scope": "GOOGLE", "types": ["bus_station", "transit_station", "point_of_interest", "establishment"], "vicinity": "United States"}, "ChIJjzKQY2Z544kRD4GBMrgug_o": {"geometry": {"location": {"lat": 42.307485, "lng": -71.106554}, "viewport": {"northeast": {"lat": 42.30882993029149, "lng": -71.10519751970848}, "southwest": {"lat": 42.3061319697085, "lng": -71.10789548029149}}}, "icon": "https://maps.gstatic.com/mapfiles/place_api/icons/bus-71.png", "id": "f7db1bec27e48e2797fda6563d56005a64e1656b", "name": "Washington St @ Union Ave", "place_id": "ChIJjzKQY2Z544kRD4GBMrgug_o", "plus_code": {"compound_code": "8V4V+X9 Boston, Massachusetts, United States", "global_code": "87JC8V4V+X9"}, "reference": "ChIJjzKQY2Z544kRD4GBMrgug_o", "scope": "GOOGLE", "types": ["bus_station", "transit_station", "point_of_interest", "establishment"], "vicinity": "United States"}, "ChIJGa6XbGZ544kRSXBjDliYCZI": {"geometry": {"location": {"lat": 42.3076966, "lng": -71.10753}, "viewport": {"northeast": {"lat": 42.30907668029149, "lng": -71.1063053197085}, "southwest": {"lat": 42.3063787197085, "lng": -71.1090032802915}}}, "icon": "https://maps.gstatic.com/mapfiles/place_api/icons/generic_recreational-71.png", "id": "572ee0b55516462fef3d0d097625c204b0457e59", "name": "Scagnoli-Nihill Athletic Complex", "place_id": "ChIJGa6XbGZ544kRSXBjDliYCZI", "reference": "ChIJGa6XbGZ544kRSXBjDliYCZI", "scope": "GOOGLE", "types": ["park", "premise", "point_of_interest", "establishment"], "vicinity": "Boston"}, "ChIJGzE9DS1l44kRoOhiASS_fHg": {"geometry": {"location": {"lat": 42.3600825, "lng": -71.0588801}, "viewport": {"northeast": {"lat": 42.40081989999999, "lng": -70.749455}, "southwest": {"lat": 42.22788, "lng": -71.191113}}}, "icon": "https://maps.gstatic.com/mapfiles/place_api/icons/geocode-71.png", "id": "06755c25d2b34d13942a4713971756a55b870ced", "name": "Boston", "photos": [{"height": 3024, "html_attributions": ["<a href=\"https://maps.google.com/maps/contrib/104670289779338733432/photos\">Natalia Zalucean</a>"], "photo_reference": "CmRaAAAAKGpaDBT3tq49SVrLbvNsv8wAF219OUdfTRk3sIt5X62h8OtXhrlGhxS_N_Km32OuYgh4J2onJodfiHtnpfYkMxoS9_m9KgO30PBGVjKKXpy-mUVvbF84h4aZpAH8NNK9EhD3okQf0S3dhQzAH4lS7Pw7GhT6PuAmrBFgwRgXq8hbfaPs2pdJ9w", "width": 4032}], "place_id": "ChIJGzE9DS1l44kRoOhiASS_fHg", "reference": "ChIJGzE9DS1l44kRoOhiASS_fHg", "scope": "GOOGLE", "types": ["locality", "political"], "vicinity": "Boston"}}