{"ChIJKdAYUch544kRR3sm8NHjR6w": {"geometry": {"location": {"lat": 42.3482242, "lng": -71.1356333}, "viewport": {"northeast": {"lat": 42.3496874802915, "lng": -71.13403579999999}, "southwest": {"lat": 42.3469895197085, "lng": -71.1373162}}}, "icon": "https://maps.gstatic.com/mapfiles/place_api/icons/geocode-71.png", "id": "594e34e1b7c1f32385cb396338dfae33d929a8c2", "name": "1325 Commonwealth Avenue", "place_id": "ChIJKdAYUch544kRR3sm8NHjR6w", "reference": "ChIJKdAYUch544kRR3sm8NHjR6w", "scope": "GOOGLE", "types": ["route"], "vicinity": "Boston"}, "ChIJhQAmkVx444kR_8r78zv_EHw": {"geometry": {"location": {"lat": 42.34847369999999, "lng": -71.1357917}, "viewport": {"northeast": {"lat": 42.34975943029149, "lng": -71.13442056970848}, "southwest": {"lat": 42.34706146970849, "lng": -71.1371185302915}}}, "icon": "https://maps.gstatic.com/mapfiles/place_api/icons/shopping-71.png", "id": "697d446baf2b1d344b7c3e52785635726234584c", "name": "Central Pharmacy Boston", "opening_hours": {"open_now": true}, "photos": [{"height": 2448, "html_attributions": ["<a href=\"https://maps.google.com/maps/contrib/110413038724458807314/photos\">shizar zarbafian</a>"], "photo_reference": "CmRaAAAAmoKnnvFaZdDrs4cR_5GSNxbZVqA3RzXGIw1aCGlZ7hPKYjf5avftMv4EJZFsec8cNCG_IXHzQaaouu2KtnCjeEknpOCI_zrFTskPUgYKM6u0UijO7VYzd0wvgePxEglIEhDpOhf98c8edKOu5oVryLDqGhTzPpmzXM9l5DfQlmwQ4FtAelaa3w", "width": 3264}], "place_id": "ChIJhQAmkVx444kR_8r78zv_EHw", "plus_code": {"compound_code": "8VX7+9M Boston, Massachusetts, United States", "global_code": "87JC8VX7+9M"}, "rating": 4.2, "reference": "ChIJhQAmkVx444kR_8r78zv_EHw", "scope": "GOOGLE", "types": ["pharmacy", "store", "health", "point_of_interest", "establishment"], "user_ratings_total": 10, "vicinity": "1349 Commonwealth Avenue, Allston"}, "ChIJfb0kssl544kRJDyGbJB4xH4": {"geometry": {"location": {"lat": 42.3484839, "lng": -71.1362025}, "viewport": {"northeast": {"lat": 42.3497456802915, "lng": -71.13485281970848}, "southwest": {"lat": 42.3470477197085, "lng": -71.13755078029149}}}, "icon": "https://maps.gstatic.com/mapfiles/place_api/icons/generic_business-71.png", "id": "5e713151d155216e3d7f9ed22c4b2acaa877a649", "name": "L\u00fa Martins Photography", "place_id": "ChIJfb0kssl544kRJDyGbJB4xH4", "plus_code": {"compound_code": "8VX7+9G Boston, Massachusetts, United States", "global_code": "87JC8VX7+9G"}, "reference": "ChIJfb0kssl544kRJDyGbJB4xH4", "scope": "GOOGLE", "types": ["point_of_interest", "establishment"], "vicinity": "1359 Commonwealth Avenue #2, Boston"}, "ChIJTwfNIs9544kRIvVIFukNsqk": {"geometry": {"location": {"lat": 42.348708, "lng": -71.135176}, "viewport": {"northeast": {"lat": 42.3499916802915, "lng": -71.13377166970848}, "southwest": {"lat": 42.3472937197085, "lng": -71.1364696302915}}}, "icon": "https://maps.gstatic.com/mapfiles/place_api/icons/generic_business-71.png", "id": "39cbfa39b04eccb82483303bcec0e07746a3e837", "name": "Xenia Helix Photography", "opening_hours": {"open_now": true}, "photos": [{"height": 1365, "html_attributions": ["<a href=\"https://maps.google.com/maps/contrib/105580630272036133417/photos\">Alexander Clemons</a>"], "photo_reference": "CmRaAAAAi2-f3on3PzGeldt0Y77ZAbYC73PHsfIQqKyZiUfcG0xp3ZQYU-lEviinj8KUjWY3e8fLllTqhqdl20_YM9gNv1k5xW8dX5zRVPw2pZdMUQsEsNQb_64zC4VARjgEJ2zCEhAIwsAeYvstuZZCB9ksIcIEGhTNieuMaUSQrxtRRngcHHdHlBMFJw", "width": 2048}], "place_id": "ChIJTwfNIs9544kRIvVIFukNsqk", "plus_code": {"compound_code": "8VX7+FW Boston, Massachusetts, United States", "global_code": "87JC8VX7+FW"}, "rating": 5, "reference": "ChIJTwfNIs9544kRIvVIFukNsqk", "scope": "GOOGLE", "types": ["point_of_interest", "establishment"], "user_ratings_total": 13, "vicinity": "1315 Commonwealth Avenue, Allston"}, "ChIJ91r2V8h544kRApeJHsAvKsc": {"geometry": {"location": {"lat": 42.348762, "lng": -71.135206}, "viewport": {"northeast": {"lat": 42.3500212802915, "lng": -71.1337809697085}, "southwest": {"lat": 42.3473233197085, "lng": -71.1364789302915}}}, "icon": "https://maps.gstatic.com/mapfiles/place_api/icons/generic_business-71.png", "id": "cc274120e20daedd2b770a6b14c4f04290e7ed68", "name": "Glenville Tailoring-Dry Clean", "opening_hours": {"open_now": false}, "place_id": "ChIJ91r2V8h544kRApeJHsAvKsc", "plus_code": {"compound_code": "8VX7+GW Boston, Massachusetts, United States", "global_code": "87JC8VX7+GW"}, "rating": 5, "reference": "ChIJ91r2V8h544kRApeJHsAvKsc", "scope": "GOOGLE", "types": ["point_of_interest", "establishment"], "user_ratings_total": 1, "vicinity": "1315 Commonwealth Avenue # B, Allston"}, "ChIJF-MCU8h544kRbPAlCYEu-lQ": {"geometry": {"location": {"lat": 42.34847369999999, "lng": -71.1357917}, "viewport": {"northeast": {"lat": 42.34975943029149, "lng": -71.13442056970848}, "southwest": {"lat": 42.34706146970849, "lng": -71.1371185302915}}}, "icon": "https://maps.gstatic.com/mapfiles/place_api/icons/shopping-71.png", "id": "f1afc03230e13e920cf9d6044487dd2773c1abba", "name": "Russian Pharmacy Central", "place_id": "ChIJF-MCU8h544kRbPAlCYEu-lQ", "plus_code": {"compound_code": "8VX7+9M Boston, Massachusetts, United States", "global_code": "87JC8VX7+9M"}, "reference": "ChIJF-MCU8h544kRbPAlCYEu-lQ", "scope": "GOOGLE", "types": ["pharmacy", "store", "health", "point_of_interest", "establishment"], "vicinity": "1349 Commonwealth Avenue, Boston"}, "ChIJX9XNUMh544kRPTlodOH5jeI": {"geometry": {"location": {"lat": 42.34861060000001, "lng": -71.1352895}, "viewport": {"northeast": {"lat": 42.3499475802915, "lng": -71.13396726970849}, "southwest": {"lat": 42.3472496197085, "lng": -71.1366652302915}}}, "icon": "https://maps.gstatic.com/mapfiles/place_api/icons/generic_business-71.png", "id": "eea3e37cff6687c30141c30af82467b30a6eee4f", "name": "Victory Program/Joelyns Family", "place_id": "ChIJX9XNUMh544kRPTlodOH5jeI", "plus_code": {"compound_code": "8VX7+CV Boston, Massachusetts, United States", "global_code": "87JC8VX7+CV"}, "rating": 1, "reference": "ChIJX9XNUMh544kRPTlodOH5jeI", "scope": "GOOGLE", "types": ["point_of_interest", "establishment"], "user_ratings_total": 1, "vicinity": "1 Long Avenue, Allston"}, "ChIJPfBO7Mh544kRhnGToW12UUE": {"geometry": {"location": {"lat": 42.34894699999999, "lng": -71.135452}, "viewport": {"northeast": {"lat": 42.35037793029149, "lng": -71.1341716197085}, "southwest": {"lat": 42.34767996970849, "lng": -71.1368695802915}}}, "icon": "https://maps.gstatic.com/mapfiles/place_api/icons/civic_building-71.png", "id": "5b703dbb52118760c6ece262ae218abeb02216df", "name": "Glenville Housing Inc", "place_id": "ChIJPfBO7Mh544kRhnGToW12UUE", "plus_code": {"compound_code": "8VX7+HR Boston, Massachusetts, United States", "global_code": "87JC8VX7+HR"}, "reference": "ChIJPfBO7Mh544kRhnGToW12UUE", "scope": "GOOGLE", "types": ["local_government_office", "point_of_interest", "establishment"], "vicinity": "90 Glenville Avenue, Allston"}, "ChIJJctDUMh544kRw1MkqZIfbF4": {"geometry": {"location": {"lat": 42.34833, "lng": -71.1353013}, "viewport": {"northeast": {"lat": 42.3496977302915, "lng": -71.13396416970849}, "southwest": {"lat": 42.3469997697085, "lng": -71.13666213029151}}}, "icon": "https://maps.gstatic.com/mapfiles/place_api/icons/generic_business-71.png", "id": "4f80af8cf608ce71914db0aeb7d7f28fd70f57fc", "name": "Aerosmith Band Apartment 1970-72", "photos": [{"height": 1960, "html_attributions": ["<a href=\"https://maps.google.com/maps/contrib/109455484559947816155/photos\">Gilmar Mourao</a>"], "photo_reference": "CmRaAAAAKFZoE_1pOb8LTlTEkaCQkk0SblDcOePOczjzMjRzgToJrSgaswJEklZ1syvhsQZN_AACxOoZxiy0mFIOsqVykCFZDjrnzYttYSDRYfcj_jaYeU6vXdSMJpEkdKab0h7cEhCRg5Q8kEGxiiPFiXRxayz8GhSCFL0zx0ASNVfUibR01Xzr4uMBYA", "width": 4032}], "place_id": "ChIJJctDUMh544kRw1MkqZIfbF4", "plus_code": {"compound_code": "8VX7+8V Boston, Massachusetts, United States", "global_code": "87JC8VX7+8V"}, "rating": 3.5, "reference": "ChIJJctDUMh544kRw1MkqZIfbF4", "scope": "GOOGLE", "types": ["point_of_interest", "establishment"], "user_ratings_total": 2, "vicinity": "1325 Commonwealth Avenue, Boston"}, "ChIJGxnT-8h544kRZMbJrc54IN4": {"geometry": {"location": {"lat": 42.349027, "lng": -71.1353099}, "viewport": {"northeast": {"lat": 42.35045248029149, "lng": -71.13402496970849}, "southwest": {"lat": 42.3477545197085, "lng": -71.1367229302915}}}, "icon": "https://maps.gstatic.com/mapfiles/place_api/icons/generic_business-71.png", "id": "1972bf7684dc4063c75267ea058ecbc680ae55c4", "name": "Assilevi Interpreting", "place_id": "ChIJGxnT-8h544kRZMbJrc54IN4", "plus_code": {"compound_code": "8VX7+JV Boston, Massachusetts, United States", "global_code": "87JC8VX7+JV"}, "reference": "ChIJGxnT-8h544kRZMbJrc54IN4", "scope": "GOOGLE", "types": ["point_of_interest", "establishment"], "vicinity": "86 Glenville Avenue, Allston"}, "ChIJGzE9DS1l44kRoOhiASS_fHg": {"geometry": {"location": {"lat": 42.3600825, "lng": -71.0588801}, "viewport": {"northeast": {"lat": 42.40081989999999, "lng": -70.749455}, "southwest": {"lat": 42.22788, "lng": -71.191113}}}, "icon": "https://maps.gstatic.com/mapfiles/place_api/icons/geocode-71.png", "id": "06755c25d2b34d13942a4713971756a55b870ced", "name": "Boston", "photos": [{"height": 3024, "html_attributions": ["<a href=\"https://maps.google.com/maps/contrib/104670289779338733432/photos\">Natalia Zalucean</a>"], "photo_reference": "CmRaAAAA4IcAqagnS6tK08iYfTmO5hsat2o2Wzfw5z18WuzqvmY9HbKMJPowF3hFKPbTRR8aUuXU5IUFj6rfN4ePK_wFe6M6lUYlSZxVrOlMBuLcNevZ8Iow4QAARuTpU8AbxfIlEhCGGhivyD48nb-wcfdHCqfTGhQkjWoLeeW6EcGV17-0nkhQVF0QEQ", "width": 4032}], "place_id": "ChIJGzE9DS1l44kRoOhiASS_fHg", "reference": "ChIJGzE9DS1l44kRoOhiASS_fHg", "scope": "GOOGLE", "types": ["locality", "political"], "vicinity": "Boston"}}