{"ChIJAyRI7pJ744kRukd4CVOrZFU": {"geometry": {"location": {"lat": 42.2896164, "lng": -71.0714091}, "viewport": {"northeast": {"lat": 42.2909653302915, "lng": -71.0700601697085}, "southwest": {"lat": 42.2882673697085, "lng": -71.0727581302915}}}, "icon": "https://maps.gstatic.com/mapfiles/place_api/icons/geocode-71.png", "id": "937419d15284073cbf6f477c7ad5166c6027f0ba", "name": "638-622 Washington St", "place_id": "ChIJAyRI7pJ744kRukd4CVOrZFU", "reference": "ChIJAyRI7pJ744kRukd4CVOrZFU", "scope": "GOOGLE", "types": ["route"], "vicinity": "Boston"}, "ChIJVSa58pJ744kR7Dz-7l0WXXg": {"geometry": {"location": {"lat": 42.2892941, "lng": -71.0711017}, "viewport": {"northeast": {"lat": 42.2906251302915, "lng": -71.06983771970849}, "southwest": {"lat": 42.2879271697085, "lng": -71.07253568029151}}}, "icon": "https://maps.gstatic.com/mapfiles/place_api/icons/generic_business-71.png", "id": "6711b08fc65a6f0b7d148e05d6431ab47b3fde22", "name": "The Deliverance Shiloh Apostolic Church", "opening_hours": {"open_now": false}, "place_id": "ChIJVSa58pJ744kR7Dz-7l0WXXg", "plus_code": {"compound_code": "7WQH+PH Boston, Massachusetts, United States", "global_code": "87JC7WQH+PH"}, "rating": 4.8, "reference": "ChIJVSa58pJ744kR7Dz-7l0WXXg", "scope": "GOOGLE", "types": ["point_of_interest", "establishment"], "user_ratings_total": 6, "vicinity": "640-642 Washington Street, Dorchester Center"}, "ChIJvblnHpN744kR4IIhP2dCH8Q": {"geometry": {"location": {"lat": 42.2900223, "lng": -71.0713519}, "viewport": {"northeast": {"lat": 42.29135558029149, "lng": -71.0700961697085}, "southwest": {"lat": 42.28865761970849, "lng": -71.07279413029151}}}, "icon": "https://maps.gstatic.com/mapfiles/place_api/icons/bank_dollar-71.png", "id": "57b8589c35ceeed2c804af6cb0c3a2a6c669e326", "name": "Bank of America Financial Center", "opening_hours": {"open_now": false}, "place_id": "ChIJvblnHpN744kR4IIhP2dCH8Q", "plus_code": {"compound_code": "7WRH+2F Boston, Massachusetts, United States", "global_code": "87JC7WRH+2F"}, "rating": 3.4, "reference": "ChIJvblnHpN744kR4IIhP2dCH8Q", "scope": "GOOGLE", "types": ["bank", "finance", "point_of_interest", "establishment"], "user_ratings_total": 5, "vicinity": "618 Washington Street, Dorchester"}, "ChIJzf7-hpJ744kRseP7e8iQ5Ww": {"geometry": {"location": {"lat": 42.2892322, "lng": -71.0714302}, "viewport": {"northeast": {"lat": 42.2905994302915, "lng": -71.0700042197085}, "southwest": {"lat": 42.2879014697085, "lng": -71.0727021802915}}}, "icon": "https://maps.gstatic.com/mapfiles/place_api/icons/generic_business-71.png", "id": "297ae07837b219420d72e0b17070cb80645ece16", "name": "Kit Clark", "place_id": "ChIJzf7-hpJ744kRseP7e8iQ5Ww", "plus_code": {"compound_code": "7WQH+MC Boston, Massachusetts, United States", "global_code": "87JC7WQH+MC"}, "rating": 5, "reference": "ChIJzf7-hpJ744kRseP7e8iQ5Ww", "scope": "GOOGLE", "types": ["point_of_interest", "establishment"], "user_ratings_total": 1, "vicinity": "645 Washington Street, Dorchester Center"}, "ChIJVVWV6pJ744kRw_oAUZApZg0": {"geometry": {"location": {"lat": 42.2896114, "lng": -71.0709941}, "viewport": {"northeast": {"lat": 42.29092208029149, "lng": -71.06983781970848}, "southwest": {"lat": 42.2882241197085, "lng": -71.07253578029149}}}, "icon": "https://maps.gstatic.com/mapfiles/place_api/icons/school-71.png", "id": "89f70a8832cef8affb26833470b947cf18b5b02f", "name": "Codman Squared", "place_id": "ChIJVVWV6pJ744kRw_oAUZApZg0", "plus_code": {"compound_code": "7WQH+RJ Boston, Massachusetts, United States", "global_code": "87JC7WQH+RJ"}, "reference": "ChIJVVWV6pJ744kRw_oAUZApZg0", "scope": "GOOGLE", "types": ["point_of_interest", "establishment"], "vicinity": "637 Washington Street, Boston"}, "ChIJ1cvuU5J744kRjztKhgLdPV8": {"geometry": {"location": {"lat": 42.2896114, "lng": -71.0709941}, "viewport": {"northeast": {"lat": 42.29121783029149, "lng": -71.06960121970849}, "southwest": {"lat": 42.28851986970849, "lng": -71.0722991802915}}}, "icon": "https://maps.gstatic.com/mapfiles/place_api/icons/generic_business-71.png", "id": "94c4d688d77610f44e56202c5b2bbaf96f011995", "name": "Dr. Luke M. Griffith, Ph.D", "place_id": "ChIJ1cvuU5J744kRjztKhgLdPV8", "plus_code": {"compound_code": "7WQH+RJ Boston, Massachusetts, United States", "global_code": "87JC7WQH+RJ"}, "rating": 1, "reference": "ChIJ1cvuU5J744kRjztKhgLdPV8", "scope": "GOOGLE", "types": ["doctor", "health", "point_of_interest", "establishment"], "user_ratings_total": 1, "vicinity": "380 Talbot Avenue #111, Dorchester Center"}, "ChIJ1cvuU5J744kRj-IbI6EDkNk": {"geometry": {"location": {"lat": 42.2896114, "lng": -71.0709941}, "viewport": {"northeast": {"lat": 42.29121783029149, "lng": -71.06960121970849}, "southwest": {"lat": 42.28851986970849, "lng": -71.0722991802915}}}, "icon": "https://maps.gstatic.com/mapfiles/place_api/icons/generic_business-71.png", "id": "d180cbaf1979b59519c64ef86c2d9ccfa30f7e7a", "name": "Apartment 116", "place_id": "ChIJ1cvuU5J744kRj-IbI6EDkNk", "plus_code": {"compound_code": "7WQH+RJ Boston, Massachusetts, United States", "global_code": "87JC7WQH+RJ"}, "reference": "ChIJ1cvuU5J744kRj-IbI6EDkNk", "scope": "GOOGLE", "types": ["point_of_interest", "establishment"], "vicinity": "380 Talbot Avenue, Dorchester Center"}, "ChIJT6Yn8JJ744kRnByIbKGnvFw": {"geometry": {"location": {"lat": 42.2896779, "lng": -71.0712832}, "viewport": {"northeast": {"lat": 42.2910131302915, "lng": -71.0700033697085}, "southwest": {"lat": 42.2883151697085, "lng": -71.07270133029151}}}, "icon": "https://maps.gstatic.com/mapfiles/place_api/icons/generic_business-71.png", "id": "d2397bdb843ac28fa04566971a2dfd378e9db795", "name": "Secured Realty", "place_id": "ChIJT6Yn8JJ744kRnByIbKGnvFw", "plus_code": {"compound_code": "7WQH+VF Boston, Massachusetts, United States", "global_code": "87JC7WQH+VF"}, "reference": "ChIJT6Yn8JJ744kRnByIbKGnvFw", "scope": "GOOGLE", "types": ["real_estate_agency", "point_of_interest", "establishment"], "vicinity": "628 Washington Street, Dorchester Center"}, "ChIJt6X98ZJ744kRXh4t41C2ipo": {"geometry": {"location": {"lat": 42.289506, "lng": -71.071311}, "viewport": {"northeast": {"lat": 42.29085233029149, "lng": -71.06997511970849}, "southwest": {"lat": 42.28815436970849, "lng": -71.07267308029151}}}, "icon": "https://maps.gstatic.com/mapfiles/place_api/icons/bus-71.png", "id": "7c901e20915a1d1c03419b54baabe1422b7001ad", "name": "Washington St @ Lithgow St", "place_id": "ChIJt6X98ZJ744kRXh4t41C2ipo", "plus_code": {"compound_code": "7WQH+RF Boston, Massachusetts, United States", "global_code": "87JC7WQH+RF"}, "reference": "ChIJt6X98ZJ744kRXh4t41C2ipo", "scope": "GOOGLE", "types": ["bus_station", "transit_station", "point_of_interest", "establishment"], "vicinity": "United States"}, "ChIJl98-Qa2D5IkR60aU7zhYelc": {"geometry": {"location": {"lat": 42.289198, "lng": -71.0709399}, "viewport": {"northeast": {"lat": 42.2905188802915, "lng": -71.0697363697085}, "southwest": {"lat": 42.2878209197085, "lng": -71.0724343302915}}}, "icon": "https://maps.gstatic.com/mapfiles/place_api/icons/generic_business-71.png", "id": "7360c66796099880d7b66dcbde5d981cef4b3595", "name": "Speed Smart Auto Clinic", "opening_hours": {"open_now": false}, "photos": [{"height": 3264, "html_attributions": ["<a href=\"https://maps.google.com/maps/contrib/114577853058022549888/photos\">Speed Smart Auto Clinic</a>"], "photo_reference": "CmRaAAAA-qVBAVCAaQS9DRjrNLfwkBuEyInrMP9Jz7_i-Gbc3HWrgXdtGMVzYjJfowhMK2Pu4Cd2mgQoWqGUHO355bgH8UAcXVKO7QpNMVfeCFcLtKBEMjfwl3G9FxWUjrQ-B9e5EhB-Gb9FDAXVO2hcbZpIR-YBGhQTSF3QOleRqeLZwS_E1aFUbFZKEQ", "width": 2448}], "place_id": "ChIJl98-Qa2D5IkR60aU7zhYelc", "plus_code": {"compound_code": "7WQH+MJ Boston, Massachusetts, United States", "global_code": "87JC7WQH+MJ"}, "rating": 4.8, "reference": "ChIJl98-Qa2D5IkR60aU7zhYelc", "scope": "GOOGLE", "types": ["car_repair", "point_of_interest", "establishment"], "user_ratings_total": 5, "vicinity": "646 Washington Street, Dorchester Center"}, "ChIJEWqF_0J744kRAtz3hhJX7y0": {"geometry": {"location": {"lat": 42.2893637, "lng": -71.0713174}, "viewport": {"northeast": {"lat": 42.2909723302915, "lng": -71.0700601697085}, "southwest": {"lat": 42.2882743697085, "lng": -71.0727581302915}}}, "icon": "https://maps.gstatic.com/mapfiles/place_api/icons/shopping-71.png", "id": "92cc5e506283da4dc7a24d19177b75c4171461f8", "name": "Brothers Superamarket", "place_id": "ChIJEWqF_0J744kRAtz3hhJX7y0", "plus_code": {"compound_code": "7WQH+PF Boston, Massachusetts, United States", "global_code": "87JC7WQH+PF"}, "reference": "ChIJEWqF_0J744kRAtz3hhJX7y0", "scope": "GOOGLE", "types": ["grocery_or_supermarket", "store", "point_of_interest", "food", "establishment"], "vicinity": "Washington Street, Dorchester"}, "ChIJJzOV7ZJ744kR-CWBLPxEpCU": {"geometry": {"location": {"lat": 42.28942099999999, "lng": -71.071404}, "viewport": {"northeast": {"lat": 42.2907740302915, "lng": -71.0700347197085}, "southwest": {"lat": 42.2880760697085, "lng": -71.07273268029151}}}, "icon": "https://maps.gstatic.com/mapfiles/place_api/icons/bus-71.png", "id": "875aa8760d31df85334d045e4c2bf983561a28a7", "name": "Washington St opp Lithgow St", "place_id": "ChIJJzOV7ZJ744kR-CWBLPxEpCU", "plus_code": {"compound_code": "7WQH+QC Boston, Massachusetts, United States", "global_code": "87JC7WQH+QC"}, "reference": "ChIJJzOV7ZJ744kR-CWBLPxEpCU", "scope": "GOOGLE", "types": ["bus_station", "transit_station", "point_of_interest", "establishment"], "vicinity": "United States"}, "ChIJc1_djJJ744kRyvfoC49bxmg": {"geometry": {"location": {"lat": 42.2890469, "lng": -71.071071}, "viewport": {"northeast": {"lat": 42.2903868302915, "lng": -71.0697825197085}, "southwest": {"lat": 42.2876888697085, "lng": -71.0724804802915}}}, "icon": "https://maps.gstatic.com/mapfiles/place_api/icons/generic_business-71.png", "id": "d7930e8f5ba84f2f2a0816f0ca620ad4313b16ea", "name": "Theodat R Insurance Agency Inc", "opening_hours": {"open_now": false}, "place_id": "ChIJc1_djJJ744kRyvfoC49bxmg", "plus_code": {"compound_code": "7WQH+JH Boston, Massachusetts, United States", "global_code": "87JC7WQH+JH"}, "rating": 5, "reference": "ChIJc1_djJJ744kRyvfoC49bxmg", "scope": "GOOGLE", "types": ["insurance_agency", "point_of_interest", "establishment"], "user_ratings_total": 2, "vicinity": "650 Washington Street, Dorchester Center"}, "ChIJhUJkqN1744kRT3e56zG41PY": {"geometry": {"location": {"lat": 42.2891767, "lng": -71.0703332}, "viewport": {"northeast": {"lat": 42.2905256802915, "lng": -71.0689842197085}, "southwest": {"lat": 42.2878277197085, "lng": -71.0716821802915}}}, "icon": "https://maps.gstatic.com/mapfiles/place_api/icons/shopping-71.png", "id": "8617ee7321ab46b822f545d424aa58cc6943cc15", "name": "Delightful Far-Sighted Supply", "place_id": "ChIJhUJkqN1744kRT3e56zG41PY", "plus_code": {"compound_code": "7WQH+MV Boston, Massachusetts, United States", "global_code": "87JC7WQH+MV"}, "reference": "ChIJhUJkqN1744kRT3e56zG41PY", "scope": "GOOGLE", "types": ["store", "point_of_interest", "establishment"], "vicinity": "18-20 Brent Street #276, Boston"}, "ChIJGzE9DS1l44kRoOhiASS_fHg": {"geometry": {"location": {"lat": 42.3600825, "lng": -71.0588801}, "viewport": {"northeast": {"lat": 42.40081989999999, "lng": -70.749455}, "southwest": {"lat": 42.22788, "lng": -71.191113}}}, "icon": "https://maps.gstatic.com/mapfiles/place_api/icons/geocode-71.png", "id": "06755c25d2b34d13942a4713971756a55b870ced", "name": "Boston", "photos": [{"height": 3024, "html_attributions": ["<a href=\"https://maps.google.com/maps/contrib/104670289779338733432/photos\">Natalia Zalucean</a>"], "photo_reference": "CmRaAAAAOU_NcJbXiPjiQlbiEY61goXFH9CzZWmhGy2K2ZFDoG7qyWvXnb_njHi-VSDZguhVztMxw2SSh7lI5XLLNsnAXyX0Xr7-28J8OLlfNhwZGyO4dOJnQXlTkiurKTM8UBkSEhCXCBgMHM0nisHuV_15EpCaGhQodtrX3kdy2KUlrbA_YCG4om-sOA", "width": 4032}], "place_id": "ChIJGzE9DS1l44kRoOhiASS_fHg", "reference": "ChIJGzE9DS1l44kRoOhiASS_fHg", "scope": "GOOGLE", "types": ["locality", "political"], "vicinity": "Boston"}}