{"ChIJn-kCpJJw44kRjvpZHprs4sQ": {"geometry": {"location": {"lat": 42.3710199, "lng": -71.06210589999999}, "viewport": {"northeast": {"lat": 42.3723688802915, "lng": -71.06075696970849}, "southwest": {"lat": 42.3696709197085, "lng": -71.06345493029151}}}, "icon": "https://maps.gstatic.com/mapfiles/place_api/icons/geocode-71.png", "id": "ee3e07fb19c5b83e8d3021e461966aa8a9c17661", "name": "North Washington Street", "place_id": "ChIJn-kCpJJw44kRjvpZHprs4sQ", "reference": "ChIJn-kCpJJw44kRjvpZHprs4sQ", "scope": "GOOGLE", "types": ["route"], "vicinity": "Boston"}, "ChIJm0inj5Jw44kRjY4vaOivnog": {"geometry": {"location": {"lat": 42.3702592, "lng": -71.0617656}, "viewport": {"northeast": {"lat": 42.37175783029149, "lng": -71.0602026697085}, "southwest": {"lat": 42.3690598697085, "lng": -71.06290063029151}}}, "icon": "https://maps.gstatic.com/mapfiles/place_api/icons/generic_recreational-71.png", "id": "65860ef18e5cd7e3e92da1a742d3924b9cab29bb", "name": "Paul Revere Park", "opening_hours": {"open_now": true}, "photos": [{"height": 2432, "html_attributions": ["<a href=\"https://maps.google.com/maps/contrib/100971921154564190987/photos\">Richard Yap</a>"], "photo_reference": "CmRaAAAADOOsRy-dAhYWOTYaW1_kkI7KZahWFdCqSOZqGsDcOXHd4hDDqMvaerwYtAtfT1l98tRMRTL2mfTctqCNOZaYz4LShXiRj1jwZWzDRJ4h-4QgRKhpCI-dF51lfb4tRTYPEhBOE2sNt6TctHulD0YTwVMiGhR9UwlvIFnXDE9o2-K8qD5GZ2b5vQ", "width": 3648}], "place_id": "ChIJm0inj5Jw44kRjY4vaOivnog", "plus_code": {"compound_code": "9WCQ+47 Boston, Massachusetts, United States", "global_code": "87JC9WCQ+47"}, "rating": 4.4, "reference": "ChIJm0inj5Jw44kRjY4vaOivnog", "scope": "GOOGLE", "types": ["park", "point_of_interest", "establishment"], "user_ratings_total": 145, "vicinity": "North Washington Street, Boston"}, "ChIJoe4bDfNw44kRjqgicy1MF3s": {"geometry": {"location": {"lat": 42.37094310000001, "lng": -71.06109049999999}, "viewport": {"northeast": {"lat": 42.3722552302915, "lng": -71.05971091970848}, "southwest": {"lat": 42.3695572697085, "lng": -71.0624088802915}}}, "icon": "https://maps.gstatic.com/mapfiles/place_api/icons/generic_business-71.png", "id": "11bf43a4080e4e13d5f522bf0b4d4c2ad6532b56", "name": "Ameriprise Financial: Santini Rugo", "place_id": "ChIJoe4bDfNw44kRjqgicy1MF3s", "plus_code": {"compound_code": "9WCQ+9H Boston, Massachusetts, United States", "global_code": "87JC9WCQ+9H"}, "reference": "ChIJoe4bDfNw44kRjqgicy1MF3s", "scope": "GOOGLE", "types": ["finance", "point_of_interest", "establishment"], "vicinity": "2 Constitution Plaza # 1, Charlestown"}, "ChIJoe4bDfNw44kRiP4P2SzYgYg": {"geometry": {"location": {"lat": 42.37094310000001, "lng": -71.06109049999999}, "viewport": {"northeast": {"lat": 42.3722552302915, "lng": -71.05971091970848}, "southwest": {"lat": 42.3695572697085, "lng": -71.0624088802915}}}, "icon": "https://maps.gstatic.com/mapfiles/place_api/icons/generic_business-71.png", "id": "c2b7cfcb8a1c2cacb664f3759bec20c4fd7929b8", "name": "Ameriprise Financial: Duval Tom", "place_id": "ChIJoe4bDfNw44kRiP4P2SzYgYg", "plus_code": {"compound_code": "9WCQ+9H Boston, Massachusetts, United States", "global_code": "87JC9WCQ+9H"}, "reference": "ChIJoe4bDfNw44kRiP4P2SzYgYg", "scope": "GOOGLE", "types": ["finance", "point_of_interest", "establishment"], "vicinity": "2 Constitution Plaza # 1, Charlestown"}, "ChIJT6eYXI1w44kRp6U2PgyDHqg": {"geometry": {"location": {"lat": 42.37087449999999, "lng": -71.0610533}, "viewport": {"northeast": {"lat": 42.3722387302915, "lng": -71.05971701970849}, "southwest": {"lat": 42.3695407697085, "lng": -71.06241498029149}}}, "icon": "https://maps.gstatic.com/mapfiles/place_api/icons/generic_business-71.png", "id": "3d4cab8cd44feab3dda3128f4e0d922b30f92205", "name": "Carolyn Nolan - Ameriprise Financial Services", "place_id": "ChIJT6eYXI1w44kRp6U2PgyDHqg", "plus_code": {"compound_code": "9WCQ+8H Boston, Massachusetts, United States", "global_code": "87JC9WCQ+8H"}, "reference": "ChIJT6eYXI1w44kRp6U2PgyDHqg", "scope": "GOOGLE", "types": ["finance", "point_of_interest", "establishment"], "vicinity": "2 Constitution Road, Charlestown"}, "ChIJIROQXI1w44kR_oVMrjJbfnc": {"geometry": {"location": {"lat": 42.3709342, "lng": -71.06110819999999}, "viewport": {"northeast": {"lat": 42.37224663029149, "lng": -71.0597288697085}, "southwest": {"lat": 42.36954866970849, "lng": -71.0624268302915}}}, "icon": "https://maps.gstatic.com/mapfiles/place_api/icons/generic_business-71.png", "id": "f4e65465270d4fc8d30964e66f4cd63d5741a51f", "name": "D'Agata Daniel", "place_id": "ChIJIROQXI1w44kR_oVMrjJbfnc", "plus_code": {"compound_code": "9WCQ+9H Boston, Massachusetts, United States", "global_code": "87JC9WCQ+9H"}, "reference": "ChIJIROQXI1w44kR_oVMrjJbfnc", "scope": "GOOGLE", "types": ["finance", "point_of_interest", "establishment"], "vicinity": "2 Constitution Plaza # 1, Charlestown"}, "ChIJoe4bDfNw44kRZTYbHp-dOck": {"geometry": {"location": {"lat": 42.37094310000001, "lng": -71.06109049999999}, "viewport": {"northeast": {"lat": 42.3722552302915, "lng": -71.05971091970848}, "southwest": {"lat": 42.3695572697085, "lng": -71.0624088802915}}}, "icon": "https://maps.gstatic.com/mapfiles/place_api/icons/generic_business-71.png", "id": "cd04ed1006c47b26f48b9e4558aa86b0019935b9", "name": "Ameriprise Financial: Hershey Dana", "place_id": "ChIJoe4bDfNw44kRZTYbHp-dOck", "plus_code": {"compound_code": "9WCQ+9H Boston, Massachusetts, United States", "global_code": "87JC9WCQ+9H"}, "reference": "ChIJoe4bDfNw44kRZTYbHp-dOck", "scope": "GOOGLE", "types": ["finance", "point_of_interest", "establishment"], "vicinity": "2 Constitution Plaza # 1, Charlestown"}, "ChIJoe4bDfNw44kRyAPfNM6FO3c": {"geometry": {"location": {"lat": 42.37094310000001, "lng": -71.06109049999999}, "viewport": {"northeast": {"lat": 42.3722552302915, "lng": -71.05971091970848}, "southwest": {"lat": 42.3695572697085, "lng": -71.0624088802915}}}, "icon": "https://maps.gstatic.com/mapfiles/place_api/icons/generic_business-71.png", "id": "6657417a436e9b7039304162bef05e00a76c6b96", "name": "Ameriprise Financial: Davis Matthew", "place_id": "ChIJoe4bDfNw44kRyAPfNM6FO3c", "plus_code": {"compound_code": "9WCQ+9H Boston, Massachusetts, United States", "global_code": "87JC9WCQ+9H"}, "reference": "ChIJoe4bDfNw44kRyAPfNM6FO3c", "scope": "GOOGLE", "types": ["finance", "point_of_interest", "establishment"], "vicinity": "2 Constitution Plaza # 1, Charlestown"}, "ChIJoe4bDfNw44kRAsEGxMgCEYs": {"geometry": {"location": {"lat": 42.37094310000001, "lng": -71.06109049999999}, "viewport": {"northeast": {"lat": 42.3722552302915, "lng": -71.05971091970848}, "southwest": {"lat": 42.3695572697085, "lng": -71.0624088802915}}}, "icon": "https://maps.gstatic.com/mapfiles/place_api/icons/generic_business-71.png", "id": "27c16255371a719b5db18fc39fba7967949eb06b", "name": "Ameriprise Financial: Zielonka Nathan", "place_id": "ChIJoe4bDfNw44kRAsEGxMgCEYs", "plus_code": {"compound_code": "9WCQ+9H Boston, Massachusetts, United States", "global_code": "87JC9WCQ+9H"}, "reference": "ChIJoe4bDfNw44kRAsEGxMgCEYs", "scope": "GOOGLE", "types": ["finance", "point_of_interest", "establishment"], "vicinity": "2 Constitution Plaza, Charlestown"}, "ChIJN-kbDfNw44kRYAv4loefNHQ": {"geometry": {"location": {"lat": 42.37094310000001, "lng": -71.06109049999999}, "viewport": {"northeast": {"lat": 42.3722552302915, "lng": -71.05971091970848}, "southwest": {"lat": 42.3695572697085, "lng": -71.0624088802915}}}, "icon": "https://maps.gstatic.com/mapfiles/place_api/icons/generic_business-71.png", "id": "1f9cea1b06a6788d44bcfd2eecb7c15089417456", "name": "Ameriprise Financial: Stevens Patricia", "place_id": "ChIJN-kbDfNw44kRYAv4loefNHQ", "plus_code": {"compound_code": "9WCQ+9H Boston, Massachusetts, United States", "global_code": "87JC9WCQ+9H"}, "reference": "ChIJN-kbDfNw44kRYAv4loefNHQ", "scope": "GOOGLE", "types": ["finance", "point_of_interest", "establishment"], "vicinity": "2 Constitution Plaza # 1, Charlestown"}, "ChIJoe4bDfNw44kRt_6GBn55a1s": {"geometry": {"location": {"lat": 42.37094310000001, "lng": -71.06109049999999}, "viewport": {"northeast": {"lat": 42.3722552302915, "lng": -71.05971091970848}, "southwest": {"lat": 42.3695572697085, "lng": -71.0624088802915}}}, "icon": "https://maps.gstatic.com/mapfiles/place_api/icons/generic_business-71.png", "id": "de83cf58d3acedd6ba331d88553562507a5be71c", "name": "Ameriprise Financial: White Christina", "place_id": "ChIJoe4bDfNw44kRt_6GBn55a1s", "plus_code": {"compound_code": "9WCQ+9H Boston, Massachusetts, United States", "global_code": "87JC9WCQ+9H"}, "reference": "ChIJoe4bDfNw44kRt_6GBn55a1s", "scope": "GOOGLE", "types": ["finance", "point_of_interest", "establishment"], "vicinity": "2 Constitution Plaza # 1, Charlestown"}, "ChIJoe4bDfNw44kRDQbJn-OMmEQ": {"geometry": {"location": {"lat": 42.37094310000001, "lng": -71.06109049999999}, "viewport": {"northeast": {"lat": 42.3722552302915, "lng": -71.05971091970848}, "southwest": {"lat": 42.3695572697085, "lng": -71.0624088802915}}}, "icon": "https://maps.gstatic.com/mapfiles/place_api/icons/generic_business-71.png", "id": "103567cd24bd631bf07b39da1c26ba54cbe0ec32", "name": "Ameriprise Financial: Da Cunha Darrel", "place_id": "ChIJoe4bDfNw44kRDQbJn-OMmEQ", "plus_code": {"compound_code": "9WCQ+9H Boston, Massachusetts, United States", "global_code": "87JC9WCQ+9H"}, "reference": "ChIJoe4bDfNw44kRDQbJn-OMmEQ", "scope": "GOOGLE", "types": ["finance", "point_of_interest", "establishment"], "vicinity": "2 Constitution Plaza # 1, Charlestown"}, "ChIJoe4bDfNw44kRT905E6367bc": {"geometry": {"location": {"lat": 42.37094310000001, "lng": -71.06109049999999}, "viewport": {"northeast": {"lat": 42.3722552302915, "lng": -71.05971091970848}, "southwest": {"lat": 42.3695572697085, "lng": -71.0624088802915}}}, "icon": "https://maps.gstatic.com/mapfiles/place_api/icons/generic_business-71.png", "id": "2001b387ecfc5cb2398a623848d6df23719a0f0c", "name": "Ameriprise Financial: Sprague Benjamin", "place_id": "ChIJoe4bDfNw44kRT905E6367bc", "plus_code": {"compound_code": "9WCQ+9H Boston, Massachusetts, United States", "global_code": "87JC9WCQ+9H"}, "reference": "ChIJoe4bDfNw44kRT905E6367bc", "scope": "GOOGLE", "types": ["finance", "point_of_interest", "establishment"], "vicinity": "2 Constitution Plaza # 1, Charlestown"}, "ChIJyY-ZXI1w44kR2Gve8Bz-jmA": {"geometry": {"location": {"lat": 42.37094310000001, "lng": -71.06109049999999}, "viewport": {"northeast": {"lat": 42.3722552302915, "lng": -71.05971091970848}, "southwest": {"lat": 42.3695572697085, "lng": -71.0624088802915}}}, "icon": "https://maps.gstatic.com/mapfiles/place_api/icons/generic_business-71.png", "id": "855c03f902b1fa7af88da391cc05625f07896c38", "name": "Ameriprise Financial: Grady Brian", "place_id": "ChIJyY-ZXI1w44kR2Gve8Bz-jmA", "plus_code": {"compound_code": "9WCQ+9H Boston, Massachusetts, United States", "global_code": "87JC9WCQ+9H"}, "reference": "ChIJyY-ZXI1w44kR2Gve8Bz-jmA", "scope": "GOOGLE", "types": ["finance", "point_of_interest", "establishment"], "vicinity": "2 Constitution Plaza # 1, Charlestown"}, "ChIJm8j26Edx44kR8bvd4xN3Uoc": {"geometry": {"location": {"lat": 42.3704833, "lng": -71.0618374}, "viewport": {"northeast": {"lat": 42.3718452302915, "lng": -71.0604939197085}, "southwest": {"lat": 42.3691472697085, "lng": -71.06319188029151}}}, "icon": "https://maps.gstatic.com/mapfiles/place_api/icons/generic_business-71.png", "id": "473ba7c5f21d7e8d56a944d2cfad4fc0c00ef9bc", "name": "Paul Revere's Ride Monument", "photos": [{"height": 3024, "html_attributions": ["<a href=\"https://maps.google.com/maps/contrib/109713582254843459492/photos\">Jules Long</a>"], "photo_reference": "CmRaAAAAnAG2iE_CRfXLSQB55TvjmfJnvkTsnTgTVnsFoF79lam8_18qXaVETHPKx0ABOaPBewCvmrpXilM3QGnncIrpoUGdDTNaxu0NOKHpSmaAE_JJTLIEn4PWVMGZ0ahfvCKhEhBavOOKYvhVHpYa0quyr5gnGhQapEcK2yVyd3HBRsOqJQFI1CX-LA", "width": 4032}], "place_id": "ChIJm8j26Edx44kR8bvd4xN3Uoc", "plus_code": {"compound_code": "9WCQ+57 Boston, Massachusetts, United States", "global_code": "87JC9WCQ+57"}, "rating": 4.5, "reference": "ChIJm8j26Edx44kR8bvd4xN3Uoc", "scope": "GOOGLE", "types": ["point_of_interest", "establishment"], "user_ratings_total": 2, "vicinity": "Unnamed Road, Boston"}, "ChIJ6Z9wZo1w44kRVAm9wMFro2M": {"geometry": {"location": {"lat": 42.3703452, "lng": -71.0610586}, "viewport": {"northeast": {"lat": 42.3717030302915, "lng": -71.0596943697085}, "southwest": {"lat": 42.3690050697085, "lng": -71.0623923302915}}}, "icon": "https://maps.gstatic.com/mapfiles/place_api/icons/post_office-71.png", "id": "0565524a09a3076baa5a81bfbc9331cd2703413c", "name": "Mourado's Tobacco & Post Office", "place_id": "ChIJ6Z9wZo1w44kRVAm9wMFro2M", "reference": "ChIJ6Z9wZo1w44kRVAm9wMFro2M", "scope": "GOOGLE", "types": ["post_office", "finance", "point_of_interest", "establishment"], "vicinity": "2311 37 NE, Charlestown"}, "ChIJ_6QMo5Jw44kReOjoz7baoXU": {"geometry": {"location": {"lat": 42.37104099999999, "lng": -71.0622449}, "viewport": {"northeast": {"lat": 42.37212633029149, "lng": -71.0607285697085}, "southwest": {"lat": 42.36942836970849, "lng": -71.06342653029151}}}, "icon": "https://maps.gstatic.com/mapfiles/place_api/icons/generic_business-71.png", "id": "c1ed579740f001d1aafb66441c9785fd35439e49", "name": "100 N Washington St Parking", "place_id": "ChIJ_6QMo5Jw44kReOjoz7baoXU", "plus_code": {"compound_code": "9WCQ+C4 Boston, Massachusetts, United States", "global_code": "87JC9WCQ+C4"}, "rating": 3, "reference": "ChIJ_6QMo5Jw44kReOjoz7baoXU", "scope": "GOOGLE", "types": ["parking", "point_of_interest", "establishment"], "user_ratings_total": 1, "vicinity": "100 N Washington St, Boston"}, "ChIJGzE9DS1l44kRoOhiASS_fHg": {"geometry": {"location": {"lat": 42.3600825, "lng": -71.0588801}, "viewport": {"northeast": {"lat": 42.40081989999999, "lng": -70.749455}, "southwest": {"lat": 42.22788, "lng": -71.191113}}}, "icon": "https://maps.gstatic.com/mapfiles/place_api/icons/geocode-71.png", "id": "06755c25d2b34d13942a4713971756a55b870ced", "name": "Boston", "photos": [{"height": 3024, "html_attributions": ["<a href=\"https://maps.google.com/maps/contrib/104670289779338733432/photos\">Natalia Zalucean</a>"], "photo_reference": "CmRaAAAAPppwuFwnvBPlQgXXR0ADi0t6Is6ZSjwMJmn5AQfszHWDVXizgekCRY8wL0roKVNzzrjEPwSsHhyKA5e7WMqQbtWeluMfMJEIRgpIrzBdD-ScTdYYwVtB60vFmXvAWQrnEhALIPWmI3Sd2bSltFWMDMv9GhQqwKKdCGmiqYeqxK2RA7zeUEEEiA", "width": 4032}], "place_id": "ChIJGzE9DS1l44kRoOhiASS_fHg", "reference": "ChIJGzE9DS1l44kRoOhiASS_fHg", "scope": "GOOGLE", "types": ["locality", "political"], "vicinity": "Boston"}}