{"ChIJB0_dMB1844kR8lB5fZZecXg": {"geometry": {"location": {"lat": 42.2728269, "lng": -71.095609}, "viewport": {"northeast": {"lat": 42.27400030000005, "lng": -71.09253014999999}, "southwest": {"lat": 42.27114949999996, "lng": -71.09820155}}}, "icon": "https://maps.gstatic.com/mapfiles/place_api/icons/geocode-71.png", "id": "0463b1bab7758907f5322f3bab6bed2db758448b", "name": "76-2 Woodhaven St", "place_id": "ChIJB0_dMB1844kR8lB5fZZecXg", "reference": "ChIJB0_dMB1844kR8lB5fZZecXg", "scope": "GOOGLE", "types": ["route"], "vicinity": "Boston"}, "ChIJJ2mh0Rx844kRHo-fo3VPmz4": {"geometry": {"location": {"lat": 42.2723505, "lng": -71.0940209}, "viewport": {"northeast": {"lat": 42.2736980302915, "lng": -71.0925230697085}, "southwest": {"lat": 42.2710000697085, "lng": -71.09522103029151}}}, "icon": "https://maps.gstatic.com/mapfiles/place_api/icons/generic_business-71.png", "id": "3982cd0e47c07847bd79790cc9fd05eb2a151408", "name": "Private Industry Collaborative", "place_id": "ChIJJ2mh0Rx844kRHo-fo3VPmz4", "plus_code": {"compound_code": "7WC4+W9 Boston, Massachusetts, United States", "global_code": "87JC7WC4+W9"}, "reference": "ChIJJ2mh0Rx844kRHo-fo3VPmz4", "scope": "GOOGLE", "types": ["finance", "point_of_interest", "establishment"], "vicinity": "1509 Blue Hill Avenue, Mattapan"}, "ChIJJ2mh0Rx844kRcC8wXhSjJRo": {"geometry": {"location": {"lat": 42.2723505, "lng": -71.0940209}, "viewport": {"northeast": {"lat": 42.2736980302915, "lng": -71.0925230697085}, "southwest": {"lat": 42.2710000697085, "lng": -71.09522103029151}}}, "icon": "https://maps.gstatic.com/mapfiles/place_api/icons/generic_business-71.png", "id": "92013937c9ea0449e514bfd088fd8bc1cf590946", "name": "CFS Mortgages", "place_id": "ChIJJ2mh0Rx844kRcC8wXhSjJRo", "plus_code": {"compound_code": "7WC4+W9 Boston, Massachusetts, United States", "global_code": "87JC7WC4+W9"}, "reference": "ChIJJ2mh0Rx844kRcC8wXhSjJRo", "scope": "GOOGLE", "types": ["finance", "point_of_interest", "establishment"], "vicinity": "1509 Blue Hill Avenue, Mattapan"}, "ChIJJ2mh0Rx844kRJFFg9civJts": {"geometry": {"location": {"lat": 42.2723505, "lng": -71.0940209}, "viewport": {"northeast": {"lat": 42.2736980302915, "lng": -71.0925230697085}, "southwest": {"lat": 42.2710000697085, "lng": -71.09522103029151}}}, "icon": "https://maps.gstatic.com/mapfiles/place_api/icons/generic_business-71.png", "id": "a395d7576e5ddb25f3b35cb611ad5bf9840ecfbf", "name": "US Housing & Economic Development", "place_id": "ChIJJ2mh0Rx844kRJFFg9civJts", "plus_code": {"compound_code": "7WC4+W9 Boston, Massachusetts, United States", "global_code": "87JC7WC4+W9"}, "reference": "ChIJJ2mh0Rx844kRJFFg9civJts", "scope": "GOOGLE", "types": ["real_estate_agency", "point_of_interest", "establishment"], "vicinity": "1509 Blue Hill Avenue, Mattapan"}, "ChIJJ2mh0Rx844kRKb4Y30GNsB4": {"geometry": {"location": {"lat": 42.2724609, "lng": -71.0939049}, "viewport": {"northeast": {"lat": 42.2738089802915, "lng": -71.0924640697085}, "southwest": {"lat": 42.2711110197085, "lng": -71.0951620302915}}}, "icon": "https://maps.gstatic.com/mapfiles/place_api/icons/generic_business-71.png", "id": "cddf309dbe502a7168041a21397dd3622c307656", "name": "Spicy Nails", "opening_hours": {"open_now": true}, "photos": [{"height": 4032, "html_attributions": ["<a href=\"https://maps.google.com/maps/contrib/110734717168245011277/photos\">Yohanny Tejada</a>"], "photo_reference": "CmRaAAAA443vBGa8u2Qnv2qkODqdE9thYMCkgTF0PTgMaFYZfE4uUniqOXehcJ6jGxhlpb172uTPoiUmVPI_UNiGZ8VHBTN4by1T7OZUwq_iP7iWPyM2PdTYO_YDpT5mVAgn3D4dEhB5L4DUrCQ65DRXxpwqHqI4GhRlwfQYHW8PJLspEN5WYmyWvDEgoQ", "width": 3024}], "place_id": "ChIJJ2mh0Rx844kRKb4Y30GNsB4", "plus_code": {"compound_code": "7WC4+XC Boston, Massachusetts, United States", "global_code": "87JC7WC4+XC"}, "rating": 3.6, "reference": "ChIJJ2mh0Rx844kRKb4Y30GNsB4", "scope": "GOOGLE", "types": ["beauty_salon", "point_of_interest", "establishment"], "user_ratings_total": 33, "vicinity": "1509 Blue Hill Avenue, Mattapan"}, "ChIJQYz9Lx1844kRyma9fJUA-BQ": {"geometry": {"location": {"lat": 42.2723625, "lng": -71.0951815}, "viewport": {"northeast": {"lat": 42.2737937802915, "lng": -71.0937378197085}, "southwest": {"lat": 42.2710958197085, "lng": -71.0964357802915}}}, "icon": "https://maps.gstatic.com/mapfiles/place_api/icons/generic_recreational-71.png", "id": "8c743e506527f53a4d91cab75fb35d4229df3933", "name": "Woodhaven Street Lot", "place_id": "ChIJQYz9Lx1844kRyma9fJUA-BQ", "reference": "ChIJQYz9Lx1844kRyma9fJUA-BQ", "scope": "GOOGLE", "types": ["park", "premise", "point_of_interest", "establishment"], "vicinity": "Boston"}, "ChIJGzE9DS1l44kRoOhiASS_fHg": {"geometry": {"location": {"lat": 42.3600825, "lng": -71.0588801}, "viewport": {"northeast": {"lat": 42.40081989999999, "lng": -70.749455}, "southwest": {"lat": 42.22788, "lng": -71.191113}}}, "icon": "https://maps.gstatic.com/mapfiles/place_api/icons/geocode-71.png", "id": "06755c25d2b34d13942a4713971756a55b870ced", "name": "Boston", "photos": [{"height": 3024, "html_attributions": ["<a href=\"https://maps.google.com/maps/contrib/104670289779338733432/photos\">Natalia Zalucean</a>"], "photo_reference": "CmRaAAAA4W3K_wEyKtFNw2iHLwmERDdu8NZs_ohwHEweLxUG1f6VViaj3FLwqClr782MMYjWgOYEKZ_qOlj4yVrV2PzXc3j_6rtUJV_TYq9Zas19sMeMsfz6PsEfbjdlAaLbDOGhEhAOfB-8JiBfgwOGbHR8Br1yGhRNIQuZ9uTyDtKrAyuhvbiC0HJ_QA", "width": 4032}], "place_id": "ChIJGzE9DS1l44kRoOhiASS_fHg", "reference": "ChIJGzE9DS1l44kRoOhiASS_fHg", "scope": "GOOGLE", "types": ["locality", "political"], "vicinity": "Boston"}}