{"ChIJMZ3no-1w44kRJrJVzGYZOqY": {"geometry": {"location": {"lat": 42.374926, "lng": -71.0634081}, "viewport": {"northeast": {"lat": 42.3762749302915, "lng": -71.06205916970849}, "southwest": {"lat": 42.3735769697085, "lng": -71.0647571302915}}}, "icon": "https://maps.gstatic.com/mapfiles/place_api/icons/geocode-71.png", "id": "85082ed9a269ca89c748c26fe54475349af80960", "name": "198-98 Warren St", "place_id": "ChIJMZ3no-1w44kRJrJVzGYZOqY", "reference": "ChIJMZ3no-1w44kRJrJVzGYZOqY", "scope": "GOOGLE", "types": ["route"], "vicinity": "Boston"}, "ChIJt59Fn-1w44kRj5bHVZlhEHg": {"geometry": {"location": {"lat": 42.3747783, "lng": -71.0630427}, "viewport": {"northeast": {"lat": 42.3761240802915, "lng": -71.0616849197085}, "southwest": {"lat": 42.3734261197085, "lng": -71.0643828802915}}}, "icon": "https://maps.gstatic.com/mapfiles/place_api/icons/generic_business-71.png", "id": "90023c0b2a54efadf6ee8a2d0cc49be04a46ff2a", "name": "Bay Colony Historical Tours", "place_id": "ChIJt59Fn-1w44kRj5bHVZlhEHg", "plus_code": {"compound_code": "9WFP+WQ Boston, Massachusetts, United States", "global_code": "87JC9WFP+WQ"}, "reference": "ChIJt59Fn-1w44kRj5bHVZlhEHg", "scope": "GOOGLE", "types": ["travel_agency", "point_of_interest", "establishment"], "vicinity": "1 Cordis Street, Charlestown"}, "ChIJ89aIme1w44kRBNgJwPhoGF0": {"geometry": {"location": {"lat": 42.3749793, "lng": -71.0627998}, "viewport": {"northeast": {"lat": 42.3763458802915, "lng": -71.06153321970848}, "southwest": {"lat": 42.3736479197085, "lng": -71.06423118029149}}}, "icon": "https://maps.gstatic.com/mapfiles/place_api/icons/generic_business-71.png", "id": "2239bd8de655b70b72d4eb18b5eeb95fb3a07171", "name": "Columbia Contracting Corporation", "place_id": "ChIJ89aIme1w44kRBNgJwPhoGF0", "plus_code": {"compound_code": "9WFP+XV Boston, Massachusetts, United States", "global_code": "87JC9WFP+XV"}, "reference": "ChIJ89aIme1w44kRBNgJwPhoGF0", "scope": "GOOGLE", "types": ["general_contractor", "point_of_interest", "establishment"], "vicinity": "9 Cordis Street, Charlestown"}, "ChIJFzYzfgx644kR7iXYHrw7cDo": {"geometry": {"location": {"lat": 42.3751919, "lng": -71.06342049999999}, "viewport": {"northeast": {"lat": 42.3765683302915, "lng": -71.0621195697085}, "southwest": {"lat": 42.3738703697085, "lng": -71.0648175302915}}}, "icon": "https://maps.gstatic.com/mapfiles/place_api/icons/generic_business-71.png", "id": "5ae7f681660406c3f81b1b77cef7095f206b6e34", "name": "Always Here Home Care, Inc.", "opening_hours": {"open_now": true}, "photos": [{"height": 2413, "html_attributions": ["<a href=\"https://maps.google.com/maps/contrib/116668118864021982016/photos\">Always Here Home Care, Inc.</a>"], "photo_reference": "CmRaAAAAQMO1b-bgEYpD15RFtk1loGU7EfI_Qum7UdGfFMt1Fv3e9DpMGQq98-xmYl5JafKTWm_xcDPcRdYENhtnlWlG_X60ZZCRuwTyJ_wEHbnsQ8SvUVp_N-XZ0UVzrRFaEMwtEhBDsY7G7CKspIa5YDgozrQAGhT9vgLjdnKjJl_jFjkr0iFmCJ9LpQ", "width": 3620}], "place_id": "ChIJFzYzfgx644kR7iXYHrw7cDo", "plus_code": {"compound_code": "9WGP+3J Boston, Massachusetts, United States", "global_code": "87JC9WGP+3J"}, "rating": 4.9, "reference": "ChIJFzYzfgx644kR7iXYHrw7cDo", "scope": "GOOGLE", "types": ["health", "point_of_interest", "establishment"], "user_ratings_total": 17, "vicinity": "1 Church Court, Charlestown"}, "ChIJwQa2v-1w44kR_8gxgHDg-6A": {"geometry": {"location": {"lat": 42.3751919, "lng": -71.06342049999999}, "viewport": {"northeast": {"lat": 42.3765683302915, "lng": -71.0621195697085}, "southwest": {"lat": 42.3738703697085, "lng": -71.0648175302915}}}, "icon": "https://maps.gstatic.com/mapfiles/place_api/icons/generic_business-71.png", "id": "64afad30030db557f4e192dbfdaf270d386ee1f5", "name": "Keane Klein & Duffey", "place_id": "ChIJwQa2v-1w44kR_8gxgHDg-6A", "plus_code": {"compound_code": "9WGP+3J Boston, Massachusetts, United States", "global_code": "87JC9WGP+3J"}, "rating": 3, "reference": "ChIJwQa2v-1w44kR_8gxgHDg-6A", "scope": "GOOGLE", "types": ["lawyer", "point_of_interest", "establishment"], "user_ratings_total": 2, "vicinity": "1 Church Court, Charlestown"}, "ChIJmcpOpe1w44kR8MYJgX6lcxE": {"geometry": {"location": {"lat": 42.37533809999999, "lng": -71.06365170000001}, "viewport": {"northeast": {"lat": 42.3766458802915, "lng": -71.06223051970849}, "southwest": {"lat": 42.3739479197085, "lng": -71.06492848029151}}}, "icon": "https://maps.gstatic.com/mapfiles/place_api/icons/generic_business-71.png", "id": "b83a8f05693e3c9cc1c9861b0a365a50d5b9c05e", "name": "Crunch Brand Communications", "opening_hours": {"open_now": true}, "place_id": "ChIJmcpOpe1w44kR8MYJgX6lcxE", "plus_code": {"compound_code": "9WGP+4G Boston, Massachusetts, United States", "global_code": "87JC9WGP+4G"}, "reference": "ChIJmcpOpe1w44kR8MYJgX6lcxE", "scope": "GOOGLE", "types": ["point_of_interest", "establishment"], "vicinity": "1 Thompson Square # 503, Charlestown"}, "ChIJmcpOpe1w44kR_0BqNmEXSSk": {"geometry": {"location": {"lat": 42.37533809999999, "lng": -71.06365170000001}, "viewport": {"northeast": {"lat": 42.3766458802915, "lng": -71.06223051970849}, "southwest": {"lat": 42.3739479197085, "lng": -71.06492848029151}}}, "icon": "https://maps.gstatic.com/mapfiles/place_api/icons/generic_business-71.png", "id": "2ee0440379de5b4c96b9f3403eeff8bc51ce25fd", "name": "Mass & RI League-Nursing", "place_id": "ChIJmcpOpe1w44kR_0BqNmEXSSk", "plus_code": {"compound_code": "9WGP+4G Boston, Massachusetts, United States", "global_code": "87JC9WGP+4G"}, "reference": "ChIJmcpOpe1w44kR_0BqNmEXSSk", "scope": "GOOGLE", "types": ["point_of_interest", "establishment"], "vicinity": "1 Thompson Square, Charlestown"}, "ChIJH1f9pO1w44kR47ACFRy_UUw": {"geometry": {"location": {"lat": 42.3753301, "lng": -71.06365869999999}, "viewport": {"northeast": {"lat": 42.3766380802915, "lng": -71.06223796970849}, "southwest": {"lat": 42.3739401197085, "lng": -71.0649359302915}}}, "icon": "https://maps.gstatic.com/mapfiles/place_api/icons/generic_business-71.png", "id": "8bbf1af17a80fa29bf7b26a98a3b915fd49458cb", "name": "Springpad", "place_id": "ChIJH1f9pO1w44kR47ACFRy_UUw", "plus_code": {"compound_code": "9WGP+4G Boston, Massachusetts, United States", "global_code": "87JC9WGP+4G"}, "reference": "ChIJH1f9pO1w44kR47ACFRy_UUw", "scope": "GOOGLE", "types": ["point_of_interest", "establishment"], "vicinity": "1 Thompson Square, Charlestown"}, "ChIJmcpOpe1w44kRtWDHwlRfQ6A": {"geometry": {"location": {"lat": 42.37533809999999, "lng": -71.06365170000001}, "viewport": {"northeast": {"lat": 42.3766458802915, "lng": -71.06223051970849}, "southwest": {"lat": 42.3739479197085, "lng": -71.06492848029151}}}, "icon": "https://maps.gstatic.com/mapfiles/place_api/icons/generic_business-71.png", "id": "f8971e67895ba18e894293e333091b3d47ebf153", "name": "Thompson Square Partners", "place_id": "ChIJmcpOpe1w44kRtWDHwlRfQ6A", "plus_code": {"compound_code": "9WGP+4G Boston, Massachusetts, United States", "global_code": "87JC9WGP+4G"}, "rating": 4, "reference": "ChIJmcpOpe1w44kRtWDHwlRfQ6A", "scope": "GOOGLE", "types": ["point_of_interest", "establishment"], "user_ratings_total": 1, "vicinity": "1 Thompson Square, Charlestown"}, "ChIJ4dn3ne1w44kRcmzHUWIJ4GA": {"geometry": {"location": {"lat": 42.374664, "lng": -71.0627473}, "viewport": {"northeast": {"lat": 42.3759637802915, "lng": -71.06146171970849}, "southwest": {"lat": 42.3732658197085, "lng": -71.0641596802915}}}, "icon": "https://maps.gstatic.com/mapfiles/place_api/icons/shopping-71.png", "id": "9ddd86183939d71a8cf38dd0c071b1711b96c1f6", "name": "Swell Body & Boutique", "place_id": "ChIJ4dn3ne1w44kRcmzHUWIJ4GA", "plus_code": {"compound_code": "9WFP+VW Boston, Massachusetts, United States", "global_code": "87JC9WFP+VW"}, "reference": "ChIJ4dn3ne1w44kRcmzHUWIJ4GA", "scope": "GOOGLE", "types": ["clothing_store", "store", "point_of_interest", "establishment"], "vicinity": "87 Warren Street, Charlestown"}, "ChIJ8_NbnvJw44kR02E-n22b0_w": {"geometry": {"location": {"lat": 42.374675, "lng": -71.062753}, "viewport": {"northeast": {"lat": 42.3759729302915, "lng": -71.0614697697085}, "southwest": {"lat": 42.3732749697085, "lng": -71.0641677302915}}}, "icon": "https://maps.gstatic.com/mapfiles/place_api/icons/generic_business-71.png", "id": "16ba0bfab4d2c3e2fe8f38799142df540a193933", "name": "Reitz Realty Group", "opening_hours": {"open_now": true}, "photos": [{"height": 641, "html_attributions": ["<a href=\"https://maps.google.com/maps/contrib/102414227817973123942/photos\">Reitz Realty Group</a>"], "photo_reference": "CmRaAAAAdGKUc8zf7lcEm3kYy4yBPico7ldA-22dcvzVK1aHg3UmEz1eBTnOtoh1BhHKmL4VYwKfoFBMzmJ0m65n_GJg9KsKOMZh6yeETRvqR-XJ3hxzBfy-L5Nshf1DV2xvqdLtEhBoXWlwgewPdUK7s2TzPKRuGhQVVnYv7QL2pJ0O_ruypa66c3OMAQ", "width": 639}], "place_id": "ChIJ8_NbnvJw44kR02E-n22b0_w", "plus_code": {"compound_code": "9WFP+VV Boston, Massachusetts, United States", "global_code": "87JC9WFP+VV"}, "rating": 5, "reference": "ChIJ8_NbnvJw44kR02E-n22b0_w", "scope": "GOOGLE", "types": ["real_estate_agency", "point_of_interest", "establishment"], "user_ratings_total": 1, "vicinity": "87 Warren Street, Charlestown"}, "ChIJQU3oju1w44kR93wSwTlicLI": {"geometry": {"location": {"lat": 42.375153, "lng": -71.062135}, "viewport": {"northeast": {"lat": 42.3765041302915, "lng": -71.0607851697085}, "southwest": {"lat": 42.3738061697085, "lng": -71.0634831302915}}}, "icon": "https://maps.gstatic.com/mapfiles/place_api/icons/generic_business-71.png", "id": "ddabd3e36df604c78a9d87aef2808c25ca0a284f", "name": "Coherence Group, Inc.", "place_id": "ChIJQU3oju1w44kR93wSwTlicLI", "plus_code": {"compound_code": "9WGQ+34 Boston, Massachusetts, United States", "global_code": "87JC9WGQ+34"}, "reference": "ChIJQU3oju1w44kR93wSwTlicLI", "scope": "GOOGLE", "types": ["point_of_interest", "establishment"], "vicinity": "5 Pleasant Street Court, Charlestown"}, "ChIJmcpOpe1w44kRHr6MIAgUZq4": {"geometry": {"location": {"lat": 42.37533809999999, "lng": -71.06365170000001}, "viewport": {"northeast": {"lat": 42.3766458802915, "lng": -71.06223051970849}, "southwest": {"lat": 42.3739479197085, "lng": -71.06492848029151}}}, "icon": "https://maps.gstatic.com/mapfiles/place_api/icons/generic_business-71.png", "id": "6761057a01199683482ec5220d04b816352f01e7", "name": "ALG Worldwide Logistics", "place_id": "ChIJmcpOpe1w44kRHr6MIAgUZq4", "plus_code": {"compound_code": "9WGP+4G Boston, Massachusetts, United States", "global_code": "87JC9WGP+4G"}, "reference": "ChIJmcpOpe1w44kRHr6MIAgUZq4", "scope": "GOOGLE", "types": ["point_of_interest", "establishment"], "vicinity": "1 Thompson Square, Charlestown"}, "ChIJRYlNpe1w44kR4bmJobriPrY": {"geometry": {"location": {"lat": 42.3753301, "lng": -71.06365869999999}, "viewport": {"northeast": {"lat": 42.3766380802915, "lng": -71.06223796970849}, "southwest": {"lat": 42.3739401197085, "lng": -71.0649359302915}}}, "icon": "https://maps.gstatic.com/mapfiles/place_api/icons/school-71.png", "id": "35ed2dc13a8f4f9005b12c1bf37540b2966ef9ac", "name": "The Yoga Room", "place_id": "ChIJRYlNpe1w44kR4bmJobriPrY", "plus_code": {"compound_code": "9WGP+4G Boston, Massachusetts, United States", "global_code": "87JC9WGP+4G"}, "reference": "ChIJRYlNpe1w44kR4bmJobriPrY", "scope": "GOOGLE", "types": ["gym", "health", "point_of_interest", "establishment"], "vicinity": "1 Thompson Square, Charlestown"}, "ChIJtV4-pe1w44kR9aJYDeXSGU4": {"geometry": {"location": {"lat": 42.3753301, "lng": -71.06365869999999}, "viewport": {"northeast": {"lat": 42.3766380802915, "lng": -71.06223796970849}, "southwest": {"lat": 42.3739401197085, "lng": -71.0649359302915}}}, "icon": "https://maps.gstatic.com/mapfiles/place_api/icons/generic_business-71.png", "id": "de87dc9dc4d60cfe5f81d527e0688deefc8f2225", "name": "Dr. Jeffrey A. Goldman, DDS", "opening_hours": {"open_now": false}, "photos": [{"height": 1365, "html_attributions": ["<a href=\"https://maps.google.com/maps/contrib/107327744940839239612/photos\">Dr. Jeffrey A. Goldman, DDS</a>"], "photo_reference": "CmRaAAAAviYhW9at97SKclWzWUU2nrgyrQwZdALB9dhGlcNKzUTngr_KP611edAaj9QvsE70MoJ6bD9yhguEn6-ZtyGGCuvqinJs6w3PFEaSL8TPr_0rO6smDfpE7YuhEw-uAYFnEhAvspdMh6ljRMMmDpNL5d3aGhR4K2zlghliJqFHeqioNj0UcBon8Q", "width": 2048}], "place_id": "ChIJtV4-pe1w44kR9aJYDeXSGU4", "plus_code": {"compound_code": "9WGP+4G Boston, Massachusetts, United States", "global_code": "87JC9WGP+4G"}, "rating": 5, "reference": "ChIJtV4-pe1w44kR9aJYDeXSGU4", "scope": "GOOGLE", "types": ["dentist", "health", "point_of_interest", "establishment"], "user_ratings_total": 9, "vicinity": "1 Thompson Square, Charlestown"}, "ChIJqZiuL2UU44kRUmMfpxNqP1U": {"geometry": {"location": {"lat": 42.3753301, "lng": -71.06365869999999}, "viewport": {"northeast": {"lat": 42.3766380802915, "lng": -71.06223796970849}, "southwest": {"lat": 42.3739401197085, "lng": -71.0649359302915}}}, "icon": "https://maps.gstatic.com/mapfiles/place_api/icons/generic_business-71.png", "id": "d99cd82112538f50a8646fb0f4bc7dcf32d5254a", "name": "LaVoie Group", "opening_hours": {"open_now": true}, "place_id": "ChIJqZiuL2UU44kRUmMfpxNqP1U", "plus_code": {"compound_code": "9WGP+4G Boston, Massachusetts, United States", "global_code": "87JC9WGP+4G"}, "reference": "ChIJqZiuL2UU44kRUmMfpxNqP1U", "scope": "GOOGLE", "types": ["point_of_interest", "establishment"], "vicinity": "1 Thompson Square #503, Boston"}, "ChIJGdTalO1w44kRWyFD3ny7C20": {"geometry": {"location": {"lat": 42.37564029999999, "lng": -71.0629172}, "viewport": {"northeast": {"lat": 42.3769641302915, "lng": -71.06147031970849}, "southwest": {"lat": 42.3742661697085, "lng": -71.06416828029151}}}, "icon": "https://maps.gstatic.com/mapfiles/place_api/icons/generic_business-71.png", "id": "2910ab409d99205d701d7e1956c89ff3c41fb764", "name": "Quiver Design Group", "opening_hours": {"open_now": true}, "place_id": "ChIJGdTalO1w44kRWyFD3ny7C20", "plus_code": {"compound_code": "9WGP+7R Boston, Massachusetts, United States", "global_code": "87JC9WGP+7R"}, "reference": "ChIJGdTalO1w44kRWyFD3ny7C20", "scope": "GOOGLE", "types": ["point_of_interest", "establishment"], "vicinity": "4th floor, 24 Cordis Street, Charlestown"}, "ChIJaSo-o-1w44kRdc8xf744z2g": {"geometry": {"location": {"lat": 42.3750982, "lng": -71.0634962}, "viewport": {"northeast": {"lat": 42.3764147802915, "lng": -71.0621858197085}, "southwest": {"lat": 42.37371681970851, "lng": -71.06488378029151}}}, "icon": "https://maps.gstatic.com/mapfiles/place_api/icons/generic_business-71.png", "id": "30d583169fc0431abadd1f70c673980d6cd1d970", "name": "Lamb William", "place_id": "ChIJaSo-o-1w44kRdc8xf744z2g", "plus_code": {"compound_code": "9WGP+2J Boston, Massachusetts, United States", "global_code": "87JC9WGP+2J"}, "reference": "ChIJaSo-o-1w44kRdc8xf744z2g", "scope": "GOOGLE", "types": ["point_of_interest", "establishment"], "vicinity": "107 Warren Street, Charlestown"}, "ChIJaSo-o-1w44kR-NuOK6QCqMY": {"geometry": {"location": {"lat": 42.3750982, "lng": -71.0634962}, "viewport": {"northeast": {"lat": 42.3764147802915, "lng": -71.0621858197085}, "southwest": {"lat": 42.37371681970851, "lng": -71.06488378029151}}}, "icon": "https://maps.gstatic.com/mapfiles/place_api/icons/generic_business-71.png", "id": "9cae4f3c4817e3c25a0cd3071910cfe39afca457", "name": "Bratley Associates Inc", "place_id": "ChIJaSo-o-1w44kR-NuOK6QCqMY", "plus_code": {"compound_code": "9WGP+2J Boston, Massachusetts, United States", "global_code": "87JC9WGP+2J"}, "reference": "ChIJaSo-o-1w44kR-NuOK6QCqMY", "scope": "GOOGLE", "types": ["real_estate_agency", "point_of_interest", "establishment"], "vicinity": "107 Warren Street, Charlestown"}, "ChIJGzE9DS1l44kRoOhiASS_fHg": {"geometry": {"location": {"lat": 42.3600825, "lng": -71.0588801}, "viewport": {"northeast": {"lat": 42.40081989999999, "lng": -70.749455}, "southwest": {"lat": 42.22788, "lng": -71.191113}}}, "icon": "https://maps.gstatic.com/mapfiles/place_api/icons/geocode-71.png", "id": "06755c25d2b34d13942a4713971756a55b870ced", "name": "Boston", "photos": [{"height": 3024, "html_attributions": ["<a href=\"https://maps.google.com/maps/contrib/104670289779338733432/photos\">Natalia Zalucean</a>"], "photo_reference": "CmRaAAAACYOS2lm9KQp1kL0xV_Zn1goZCh7whLTmXEjF7kFu6R1wUcp_P_x_FuSeZvLR1f6RP8DeiAhgEZu5FRtJAk6Or5clP_AnSD7OSddzila5u8CDCR5J3W5TwxIvNb1h50oGEhC7ON9MChsQDBXc2zoQFpm0GhTlHETCWKj3eYfWwcWgVcI5gTOntw", "width": 4032}], "place_id": "ChIJGzE9DS1l44kRoOhiASS_fHg", "reference": "ChIJGzE9DS1l44kRoOhiASS_fHg", "scope": "GOOGLE", "types": ["locality", "political"], "vicinity": "Boston"}, "ChIJsxeNpO1w44kRdD_8ZrBoPp8": {"geometry": {"location": {"lat": 42.375093, "lng": -71.063606}, "viewport": {"northeast": {"lat": 42.3764439302915, "lng": -71.0622546697085}, "southwest": {"lat": 42.3737459697085, "lng": -71.06495263029151}}}, "icon": "https://maps.gstatic.com/mapfiles/place_api/icons/bus-71.png", "id": "90027ef17055828fa70939274a0a646456176c5b", "name": "Warren St @ Church St", "place_id": "ChIJsxeNpO1w44kRdD_8ZrBoPp8", "plus_code": {"compound_code": "9WGP+2H Boston, Massachusetts, United States", "global_code": "87JC9WGP+2H"}, "reference": "ChIJsxeNpO1w44kRdD_8ZrBoPp8", "scope": "GOOGLE", "types": ["bus_station", "transit_station", "point_of_interest", "establishment"], "vicinity": "United States"}, "ChIJp6APu-1w44kRv57lGN_FoHQ": {"geometry": {"location": {"lat": 42.37533809999999, "lng": -71.06365170000001}, "viewport": {"northeast": {"lat": 42.3766458802915, "lng": -71.06223051970849}, "southwest": {"lat": 42.3739479197085, "lng": -71.06492848029151}}}, "icon": "https://maps.gstatic.com/mapfiles/place_api/icons/generic_business-71.png", "id": "e207ffa3c664ed943ff51e6247bab569e452b4c2", "name": "Geoff", "place_id": "ChIJp6APu-1w44kRv57lGN_FoHQ", "plus_code": {"compound_code": "9WGP+4G Boston, Massachusetts, United States", "global_code": "87JC9WGP+4G"}, "reference": "ChIJp6APu-1w44kRv57lGN_FoHQ", "scope": "GOOGLE", "types": ["point_of_interest", "establishment"], "vicinity": "1 Thompson Square, Charlestown"}, "ChIJjeQEpe1w44kRDtPrdj9hIlI": {"geometry": {"location": {"lat": 42.37533809999999, "lng": -71.06365170000001}, "viewport": {"northeast": {"lat": 42.3766458802915, "lng": -71.06223051970849}, "southwest": {"lat": 42.3739479197085, "lng": -71.06492848029151}}}, "icon": "https://maps.gstatic.com/mapfiles/place_api/icons/generic_business-71.png", "id": "dbca9d95d4ae1b369fa31c21288e6c30e4e99d1b", "name": "69 Gainsborough Realty", "place_id": "ChIJjeQEpe1w44kRDtPrdj9hIlI", "plus_code": {"compound_code": "9WGP+4G Boston, Massachusetts, United States", "global_code": "87JC9WGP+4G"}, "reference": "ChIJjeQEpe1w44kRDtPrdj9hIlI", "scope": "GOOGLE", "types": ["real_estate_agency", "point_of_interest", "establishment"], "vicinity": "1 Thompson Square # 205, Charlestown"}}