{"ChIJWbuMWwx644kRqYvlTFiY4pA": {"geometry": {"location": {"lat": 42.349221, "lng": -71.07704}, "viewport": {"northeast": {"lat": 42.35056993029149, "lng": -71.07569096970849}, "southwest": {"lat": 42.34787196970849, "lng": -71.0783889302915}}}, "icon": "https://maps.gstatic.com/mapfiles/place_api/icons/geocode-71.png", "id": "a4009a594b63277ca736533669f38873d0983ad2", "name": "501-533 Huntington Ave", "place_id": "ChIJWbuMWwx644kRqYvlTFiY4pA", "reference": "ChIJWbuMWwx644kRqYvlTFiY4pA", "scope": "GOOGLE", "types": ["route"], "vicinity": "Boston"}, "ChIJr61cZAx644kRRzvkf6uAikc": {"geometry": {"location": {"lat": 42.349957, "lng": -71.0770096}, "viewport": {"northeast": {"lat": 42.3512980302915, "lng": -71.0757832697085}, "southwest": {"lat": 42.3486000697085, "lng": -71.0784812302915}}}, "icon": "https://maps.gstatic.com/mapfiles/place_api/icons/shopping-71.png", "id": "662f95723e7e2be10eaa6c335651640817db81fc", "name": "BosTix Booth: Copley Square", "opening_hours": {"open_now": false}, "photos": [{"height": 1036, "html_attributions": ["<a href=\"https://maps.google.com/maps/contrib/108223157380149324998/photos\">Anna Witas</a>"], "photo_reference": "CmRaAAAAzbHT2HENErDY-Vrllw-JMOVncfGOWkTLFk06HTpOtqb89v89ij_0tmZcHF9snSdeCBjdiXEtmVVMHSFHj4r5Qh8o8LGlcbz4uLxaDLvA3o_OViGMDGGI9yfPDjRNPtc_EhAhz5TKMsHkc2xtUFW4YHr-GhTCKXcNFgPgQhQI713fI2QELOqk4g", "width": 1600}], "place_id": "ChIJr61cZAx644kRRzvkf6uAikc", "plus_code": {"compound_code": "8WXF+X5 Boston, Massachusetts, United States", "global_code": "87JC8WXF+X5"}, "rating": 4.2, "reference": "ChIJr61cZAx644kRRzvkf6uAikc", "scope": "GOOGLE", "types": ["store", "point_of_interest", "establishment"], "user_ratings_total": 6, "vicinity": "650 Boylston Street, Boston"}, "ChIJ8aXOigx644kRcP-7sJhCM0s": {"geometry": {"location": {"lat": 42.3497749, "lng": -71.0765629}, "viewport": {"northeast": {"lat": 42.3510731302915, "lng": -71.0754907197085}, "southwest": {"lat": 42.3483751697085, "lng": -71.0781886802915}}}, "icon": "https://maps.gstatic.com/mapfiles/place_api/icons/shopping-71.png", "id": "df7e72d2591295e1cfe6a0ae33bba7f04a2e4e50", "name": "Copley Square Farmers Market", "opening_hours": {"open_now": false}, "photos": [{"height": 3840, "html_attributions": ["<a href=\"https://maps.google.com/maps/contrib/116684469382956764053/photos\">Yuichi Chika</a>"], "photo_reference": "CmRaAAAAG46MHQq1MHCAsOQXVnK36TXKEdcKnP9cWW02c5qmxXC8M6KVp7995zSCbyrmlgdDCOn1d2XEB9pqf30VWKUV37bZJRGoETLp757OqW3yxBwu8TMD2KQPAFKzwHSXTt7LEhCAL0d975_8xUwK1gGbePcQGhQNc0oMQ4QPNqxcobWk1iN4uI24vQ", "width": 5760}], "place_id": "ChIJ8aXOigx644kRcP-7sJhCM0s", "plus_code": {"compound_code": "8WXF+W9 Boston, Massachusetts, United States", "global_code": "87JC8WXF+W9"}, "rating": 4.4, "reference": "ChIJ8aXOigx644kRcP-7sJhCM0s", "scope": "GOOGLE", "types": ["point_of_interest", "establishment"], "user_ratings_total": 41, "vicinity": "139 Saint James Avenue, Boston"}, "ChIJBfyLZQx644kRdzsNyQlgMHA": {"geometry": {"location": {"lat": 42.3499728, "lng": -71.07702019999999}, "viewport": {"northeast": {"lat": 42.3514102802915, "lng": -71.07571491970849}, "southwest": {"lat": 42.3487123197085, "lng": -71.0784128802915}}}, "icon": "https://maps.gstatic.com/mapfiles/place_api/icons/shopping-71.png", "id": "e1deb3e3196b38927106821744c4d9c831755290", "name": "Copley Kiosk", "place_id": "ChIJBfyLZQx644kRdzsNyQlgMHA", "plus_code": {"compound_code": "8WXF+X5 Boston, Massachusetts, United States", "global_code": "87JC8WXF+X5"}, "rating": 1, "reference": "ChIJBfyLZQx644kRdzsNyQlgMHA", "scope": "GOOGLE", "types": ["electronics_store", "store", "point_of_interest", "school", "establishment"], "user_ratings_total": 1, "vicinity": "Copley Square, 560 Boylston Street, Boston"}, "ChIJm4FmZwx644kRI_0h9G1fhmI": {"geometry": {"location": {"lat": 42.3497056, "lng": -71.0769016}, "viewport": {"northeast": {"lat": 42.3510262802915, "lng": -71.0756596197085}, "southwest": {"lat": 42.3483283197085, "lng": -71.07835758029151}}}, "icon": "https://maps.gstatic.com/mapfiles/place_api/icons/generic_business-71.png", "id": "3ed1483ac081530804fb526adb108c77079d9ccd", "name": "Khalil Gibran Plaque", "photos": [{"height": 2816, "html_attributions": ["<a href=\"https://maps.google.com/maps/contrib/104131708123184664986/photos\">Songgi Lam</a>"], "photo_reference": "CmRaAAAAmWURhs3Qsb48l5KIf0-lkqxfdK7UarsUerVIwyneFNovPv2BEx7dSCcTuqi-CUoN7n7U9V4Vae6R_hFb9C8KXzZrpkCpZ_yaDTWIO2ZmDAVKjRuAW9-cz1eRcBfFl2E2EhDnJfEIedV3XKua5_NQCCiMGhQt1VKNIC-MqLPlDNGAdLrquPZLqA", "width": 3367}], "place_id": "ChIJm4FmZwx644kRI_0h9G1fhmI", "plus_code": {"compound_code": "8WXF+V6 Boston, Massachusetts, United States", "global_code": "87JC8WXF+V6"}, "rating": 4.8, "reference": "ChIJm4FmZwx644kRI_0h9G1fhmI", "scope": "GOOGLE", "types": ["point_of_interest", "establishment"], "user_ratings_total": 14, "vicinity": "201-227 Dartmouth Street, Boston"}, "ChIJP5YEYAx644kRp3p6hP6Dy0E": {"geometry": {"location": {"lat": 42.3495736, "lng": -71.07646969999999}, "viewport": {"northeast": {"lat": 42.3508709802915, "lng": -71.07510106970848}, "southwest": {"lat": 42.3481730197085, "lng": -71.07779903029149}}}, "icon": "https://maps.gstatic.com/mapfiles/place_api/icons/bus-71.png", "id": "8f95ebffc7ffbd86ecbd522dd34c9967aeb830a8", "name": "Copley Square, Boston, MA", "place_id": "ChIJP5YEYAx644kRp3p6hP6Dy0E", "plus_code": {"compound_code": "8WXF+RC Boston, Massachusetts, United States", "global_code": "87JC8WXF+RC"}, "reference": "ChIJP5YEYAx644kRp3p6hP6Dy0E", "scope": "GOOGLE", "types": ["bus_station", "transit_station", "point_of_interest", "establishment"], "vicinity": "United States"}, "ChIJHYC8igx644kRDdidPBVAAuc": {"geometry": {"location": {"lat": 42.34955, "lng": -71.076461}, "viewport": {"northeast": {"lat": 42.3508600302915, "lng": -71.07509336970848}, "southwest": {"lat": 42.3481620697085, "lng": -71.07779133029149}}}, "icon": "https://maps.gstatic.com/mapfiles/place_api/icons/bus-71.png", "id": "d87e581bfc9e73631ec15000268dec96c382b7d1", "name": "Copley Square (St. James Avenue)", "place_id": "ChIJHYC8igx644kRDdidPBVAAuc", "plus_code": {"compound_code": "8WXF+RC Boston, Massachusetts, United States", "global_code": "87JC8WXF+RC"}, "reference": "ChIJHYC8igx644kRDdidPBVAAuc", "scope": "GOOGLE", "types": ["bus_station", "transit_station", "point_of_interest", "establishment"], "vicinity": "United States"}, "ChIJB5wmXAx644kRbj50P9HsQi0": {"geometry": {"location": {"lat": 42.3495681, "lng": -71.0764597}, "viewport": {"northeast": {"lat": 42.3508702802915, "lng": -71.07508826970849}, "southwest": {"lat": 42.3481723197085, "lng": -71.07778623029151}}}, "icon": "https://maps.gstatic.com/mapfiles/place_api/icons/bus-71.png", "id": "44fbf8b9d921a2210b306c6a7f1f021537941422", "name": "Saint James Ave @ Dartmouth St", "place_id": "ChIJB5wmXAx644kRbj50P9HsQi0", "plus_code": {"compound_code": "8WXF+RC Boston, Massachusetts, United States", "global_code": "87JC8WXF+RC"}, "reference": "ChIJB5wmXAx644kRbj50P9HsQi0", "scope": "GOOGLE", "types": ["bus_station", "transit_station", "point_of_interest", "establishment"], "vicinity": "United States"}, "ChIJuwa-igx644kRoMqj1LRfgA4": {"geometry": {"location": {"lat": 42.349565, "lng": -71.07644800000001}, "viewport": {"northeast": {"lat": 42.3508698802915, "lng": -71.0750778697085}, "southwest": {"lat": 42.3481719197085, "lng": -71.07777583029151}}}, "icon": "https://maps.gstatic.com/mapfiles/place_api/icons/bus-71.png", "id": "78db748dab11a4f642819de4921291aaa7801766", "name": "Copley Square", "place_id": "ChIJuwa-igx644kRoMqj1LRfgA4", "plus_code": {"compound_code": "8WXF+RC Boston, Massachusetts, United States", "global_code": "87JC8WXF+RC"}, "reference": "ChIJuwa-igx644kRoMqj1LRfgA4", "scope": "GOOGLE", "types": ["bus_station", "transit_station", "point_of_interest", "establishment"], "vicinity": "United States"}, "ChIJ1Wc-Qa1744kRR5qsn4yyXv4": {"geometry": {"location": {"lat": 42.3499493, "lng": -71.0774599}, "viewport": {"northeast": {"lat": 42.3513215802915, "lng": -71.07602276970849}, "southwest": {"lat": 42.3486236197085, "lng": -71.0787207302915}}}, "icon": "https://maps.gstatic.com/mapfiles/place_api/icons/generic_business-71.png", "id": "c6165471eef66ac7f968d12de17a49beac9b651d", "name": "Blue Bikes", "photos": [{"height": 4032, "html_attributions": ["<a href=\"https://maps.google.com/maps/contrib/103832264621723591361/photos\">Kevin Rollins</a>"], "photo_reference": "CmRaAAAAvahmIb4OD0bS_7gdhGgs8Q2bsgyeMUn8DbIQSrjJ4K27zTY_1qbzuJs-pxoSFcnTPP129WiDMSISO34QAH6hUBOTycJrfWkd2hw2l8YEkdmk2sFBC6kwACSAj0DwK3AnEhAXVQUPwXc_KM7yNhhDsC3OGhRai9NY-HqbluMVuFsQOXnsdc-X4Q", "width": 3024}], "place_id": "ChIJ1Wc-Qa1744kRR5qsn4yyXv4", "plus_code": {"compound_code": "8WXF+X2 Boston, Massachusetts, United States", "global_code": "87JC8WXF+X2"}, "rating": 5, "reference": "ChIJ1Wc-Qa1744kRR5qsn4yyXv4", "scope": "GOOGLE", "types": ["parking", "point_of_interest", "establishment"], "user_ratings_total": 1, "vicinity": "Boylston and, Dartmouth Street, Boston"}, "ChIJN6hbRwx644kROHls9vo2qoY": {"geometry": {"location": {"lat": 42.34934139999999, "lng": -71.077958}, "viewport": {"northeast": {"lat": 42.35076513029149, "lng": -71.07660321970849}, "southwest": {"lat": 42.3480671697085, "lng": -71.0793011802915}}}, "icon": "https://maps.gstatic.com/mapfiles/place_api/icons/generic_recreational-71.png", "id": "a442ec5873f201aab8faf9be88de39d698f28790", "name": "Boston Public Library Courtyard", "photos": [{"height": 1235, "html_attributions": ["<a href=\"https://maps.google.com/maps/contrib/108223157380149324998/photos\">Anna Witas</a>"], "photo_reference": "CmRaAAAAGg2wXIdffN4eqO4kO8WWPrxMet3roYUrTGWEpYwSuhGR6yyDraYQJWjsVeB2Risapm63AATrwqI-t8MpPi6K9wRAmytjr6Q2U1nnWRTVn7NkuoKxHUdpcZ0hWyVAKVTmEhBZRctQ-Gc2kZeoBW6dd-3HGhQq6T6sjzMI3eJfHJZBcLGYaohHkg", "width": 1600}], "place_id": "ChIJN6hbRwx644kROHls9vo2qoY", "reference": "ChIJN6hbRwx644kROHls9vo2qoY", "scope": "GOOGLE", "types": ["park", "premise", "point_of_interest", "establishment"], "vicinity": "Boston"}, "ChIJGzE9DS1l44kRoOhiASS_fHg": {"geometry": {"location": {"lat": 42.3600825, "lng": -71.0588801}, "viewport": {"northeast": {"lat": 42.40081989999999, "lng": -70.749455}, "southwest": {"lat": 42.22788, "lng": -71.191113}}}, "icon": "https://maps.gstatic.com/mapfiles/place_api/icons/geocode-71.png", "id": "06755c25d2b34d13942a4713971756a55b870ced", "name": "Boston", "photos": [{"height": 3024, "html_attributions": ["<a href=\"https://maps.google.com/maps/contrib/104670289779338733432/photos\">Natalia Zalucean</a>"], "photo_reference": "CmRaAAAA_fn1BH1Y3EKUrKhZfpOvriJ3oGAu5Fe_5bY0gNnvA02F8-TBjbn2cuZYiSqhoxNCuSq9wlGvJv3pjReDO2l4VG5b6iS8iP5qnjuHnJQRONvrnV0vhngHWcRNkE5_2QgyEhAAU7rSGKVWBqvvjEdMyVkUGhQzZap8m8gO6N8nijl_cp74EfAIgg", "width": 4032}], "place_id": "ChIJGzE9DS1l44kRoOhiASS_fHg", "reference": "ChIJGzE9DS1l44kRoOhiASS_fHg", "scope": "GOOGLE", "types": ["locality", "political"], "vicinity": "Boston"}}