{"ChIJ-RkdsoV544kRfhkisxdlJaQ": {"geometry": {"location": {"lat": 42.3297747, "lng": -71.10543799999999}, "viewport": {"northeast": {"lat": 42.33112363029149, "lng": -71.10408901970848}, "southwest": {"lat": 42.32842566970849, "lng": -71.1067869802915}}}, "icon": "https://maps.gstatic.com/mapfiles/place_api/icons/geocode-71.png", "id": "78a535554e36869615f6f289721df0e5f5b04b7a", "name": "155-177 Parker Hill Ave", "place_id": "ChIJ-RkdsoV544kRfhkisxdlJaQ", "reference": "ChIJ-RkdsoV544kRfhkisxdlJaQ", "scope": "GOOGLE", "types": ["route"], "vicinity": "Boston"}, "ChIJFfUlGoV544kR1PO2VF10DCA": {"geometry": {"location": {"lat": 42.3291899, "lng": -71.106257}, "viewport": {"northeast": {"lat": 42.33054048029149, "lng": -71.1049133197085}, "southwest": {"lat": 42.32784251970849, "lng": -71.10761128029151}}}, "icon": "https://maps.gstatic.com/mapfiles/place_api/icons/generic_business-71.png", "id": "56db82e7269e7dbd67e5b65459de89570c36906b", "name": "Dr. Deepak S. Tandon, MD", "place_id": "ChIJFfUlGoV544kR1PO2VF10DCA", "plus_code": {"compound_code": "8VHV+MF Boston, Massachusetts, United States", "global_code": "87JC8VHV+MF"}, "rating": 3, "reference": "ChIJFfUlGoV544kR1PO2VF10DCA", "scope": "GOOGLE", "types": ["doctor", "health", "point_of_interest", "establishment"], "user_ratings_total": 2, "vicinity": "125 Parker Hill Avenue"}, "ChIJibiG-IR544kR_sU4eok9F1I": {"geometry": {"location": {"lat": 42.3291899, "lng": -71.106257}, "viewport": {"northeast": {"lat": 42.33054048029149, "lng": -71.1049133197085}, "southwest": {"lat": 42.32784251970849, "lng": -71.10761128029151}}}, "icon": "https://maps.gstatic.com/mapfiles/place_api/icons/generic_business-71.png", "id": "c61122ecbbc10ac1d77c8e385431b11dbdeb62d3", "name": "Waligunda Judith MD", "place_id": "ChIJibiG-IR544kR_sU4eok9F1I", "plus_code": {"compound_code": "8VHV+MF Boston, Massachusetts, United States", "global_code": "87JC8VHV+MF"}, "reference": "ChIJibiG-IR544kR_sU4eok9F1I", "scope": "GOOGLE", "types": ["doctor", "health", "point_of_interest", "establishment"], "vicinity": "125 Parker Hill Avenue"}, "ChIJibiG-IR544kRCvRIbjXwe2U": {"geometry": {"location": {"lat": 42.3291899, "lng": -71.106257}, "viewport": {"northeast": {"lat": 42.33054048029149, "lng": -71.1049133197085}, "southwest": {"lat": 42.32784251970849, "lng": -71.10761128029151}}}, "icon": "https://maps.gstatic.com/mapfiles/place_api/icons/generic_business-71.png", "id": "02f417a413d545517a4ecb6e4f481d92f291bfee", "name": "Frederick Basilico, MD, FACC", "opening_hours": {"open_now": true}, "place_id": "ChIJibiG-IR544kRCvRIbjXwe2U", "plus_code": {"compound_code": "8VHV+MF Boston, Massachusetts, United States", "global_code": "87JC8VHV+MF"}, "reference": "ChIJibiG-IR544kRCvRIbjXwe2U", "scope": "GOOGLE", "types": ["doctor", "health", "point_of_interest", "establishment"], "vicinity": "125 Parker Hill Avenue Suite 450, Roxbury Crossing"}, "ChIJibiG-IR544kRmatTO_-_GzA": {"geometry": {"location": {"lat": 42.3291899, "lng": -71.106257}, "viewport": {"northeast": {"lat": 42.33054048029149, "lng": -71.1049133197085}, "southwest": {"lat": 42.32784251970849, "lng": -71.10761128029151}}}, "icon": "https://maps.gstatic.com/mapfiles/place_api/icons/generic_business-71.png", "id": "756b93051f094ed6b703863b931851141bc7476a", "name": "New England Baptist Hospital: Oxman David A MD", "place_id": "ChIJibiG-IR544kRmatTO_-_GzA", "plus_code": {"compound_code": "8VHV+MF Boston, Massachusetts, United States", "global_code": "87JC8VHV+MF"}, "reference": "ChIJibiG-IR544kRmatTO_-_GzA", "scope": "GOOGLE", "types": ["doctor", "health", "point_of_interest", "establishment"], "vicinity": "125 Parker Hill Avenue, Roxbury Crossing"}, "ChIJibiG-IR544kRD0STxDewoPI": {"geometry": {"location": {"lat": 42.3291899, "lng": -71.106257}, "viewport": {"northeast": {"lat": 42.33054048029149, "lng": -71.1049133197085}, "southwest": {"lat": 42.32784251970849, "lng": -71.10761128029151}}}, "icon": "https://maps.gstatic.com/mapfiles/place_api/icons/generic_business-71.png", "id": "be177a5fdee68397f38eec7f0bcebca48c6f12d7", "name": "Kim David H MD", "place_id": "ChIJibiG-IR544kRD0STxDewoPI", "plus_code": {"compound_code": "8VHV+MF Boston, Massachusetts, United States", "global_code": "87JC8VHV+MF"}, "rating": 5, "reference": "ChIJibiG-IR544kRD0STxDewoPI", "scope": "GOOGLE", "types": ["doctor", "health", "point_of_interest", "establishment"], "user_ratings_total": 3, "vicinity": "125 Parker Hill Avenue, Roxbury Crossing"}, "ChIJibiG-IR544kRSX6GVV-LpUs": {"geometry": {"location": {"lat": 42.3291899, "lng": -71.106257}, "viewport": {"northeast": {"lat": 42.33054048029149, "lng": -71.1049133197085}, "southwest": {"lat": 42.32784251970849, "lng": -71.10761128029151}}}, "icon": "https://maps.gstatic.com/mapfiles/place_api/icons/generic_business-71.png", "id": "6789920f7da643e1278f3ce32a34b7561d19e141", "name": "Blackwell Medical Associates: Kaufman Gail H MD", "place_id": "ChIJibiG-IR544kRSX6GVV-LpUs", "plus_code": {"compound_code": "8VHV+MF Boston, Massachusetts, United States", "global_code": "87JC8VHV+MF"}, "reference": "ChIJibiG-IR544kRSX6GVV-LpUs", "scope": "GOOGLE", "types": ["doctor", "health", "point_of_interest", "establishment"], "vicinity": "125 Parker Hill Avenue, Roxbury Crossing"}, "ChIJibiG-IR544kRUOWUxgRkWcs": {"geometry": {"location": {"lat": 42.32918899999999, "lng": -71.10625499999999}, "viewport": {"northeast": {"lat": 42.33054018029149, "lng": -71.10491341970848}, "southwest": {"lat": 42.3278422197085, "lng": -71.10761138029149}}}, "icon": "https://maps.gstatic.com/mapfiles/place_api/icons/generic_business-71.png", "id": "88caa1f59db0847a045990ad64d6dc2f0b8f5ffe", "name": "Dr. Gerard A. Sweeney, MD", "place_id": "ChIJibiG-IR544kRUOWUxgRkWcs", "plus_code": {"compound_code": "8VHV+MF Boston, Massachusetts, United States", "global_code": "87JC8VHV+MF"}, "reference": "ChIJibiG-IR544kRUOWUxgRkWcs", "scope": "GOOGLE", "types": ["doctor", "health", "point_of_interest", "establishment"], "vicinity": "125 Parker Hill Avenue, Roxbury Crossing"}, "ChIJibiG-IR544kRn20L8Aa2Ijc": {"geometry": {"location": {"lat": 42.3291899, "lng": -71.106257}, "viewport": {"northeast": {"lat": 42.33054048029149, "lng": -71.1049133197085}, "southwest": {"lat": 42.32784251970849, "lng": -71.10761128029151}}}, "icon": "https://maps.gstatic.com/mapfiles/place_api/icons/generic_business-71.png", "id": "cdad451e3a360cb50f88ff711c8c206c5b6fa102", "name": "Basu Shantanu MD", "place_id": "ChIJibiG-IR544kRn20L8Aa2Ijc", "plus_code": {"compound_code": "8VHV+MF Boston, Massachusetts, United States", "global_code": "87JC8VHV+MF"}, "reference": "ChIJibiG-IR544kRn20L8Aa2Ijc", "scope": "GOOGLE", "types": ["doctor", "health", "point_of_interest", "establishment"], "vicinity": "125 Parker Hill Avenue, Roxbury Crossing"}, "ChIJFfUlGoV544kRWTCARMnGq2A": {"geometry": {"location": {"lat": 42.3291899, "lng": -71.106257}, "viewport": {"northeast": {"lat": 42.33054048029149, "lng": -71.1049133197085}, "southwest": {"lat": 42.32784251970849, "lng": -71.10761128029151}}}, "icon": "https://maps.gstatic.com/mapfiles/place_api/icons/generic_business-71.png", "id": "88f53c8ba750e8fdf3745f4ebd24be9f287ff0c0", "name": "Dr. Albert E. Holt, MD", "place_id": "ChIJFfUlGoV544kRWTCARMnGq2A", "plus_code": {"compound_code": "8VHV+MF Boston, Massachusetts, United States", "global_code": "87JC8VHV+MF"}, "reference": "ChIJFfUlGoV544kRWTCARMnGq2A", "scope": "GOOGLE", "types": ["doctor", "health", "point_of_interest", "establishment"], "vicinity": "125 Parker Hill Avenue #593, Roxbury Crossing"}, "ChIJFfUlGoV544kRv5r8TM0X6_c": {"geometry": {"location": {"lat": 42.32984849999999, "lng": -71.1059478}, "viewport": {"northeast": {"lat": 42.3311957302915, "lng": -71.10459151970849}, "southwest": {"lat": 42.3284977697085, "lng": -71.1072894802915}}}, "icon": "https://maps.gstatic.com/mapfiles/place_api/icons/generic_business-71.png", "id": "b7328d7bed74fd7ca83cf030e09969103c83c384", "name": "Dr. Roberto A. Cruz-Gervis, MD", "place_id": "ChIJFfUlGoV544kRv5r8TM0X6_c", "plus_code": {"compound_code": "8VHV+WJ Boston, Massachusetts, United States", "global_code": "87JC8VHV+WJ"}, "reference": "ChIJFfUlGoV544kRv5r8TM0X6_c", "scope": "GOOGLE", "types": ["doctor", "health", "point_of_interest", "establishment"], "vicinity": "125 Parker Hill Avenue"}, "ChIJFfUlGoV544kR5oWi1wpVXhM": {"geometry": {"location": {"lat": 42.3299207, "lng": -71.1061343}, "viewport": {"northeast": {"lat": 42.33129023029149, "lng": -71.10477506970851}, "southwest": {"lat": 42.3285922697085, "lng": -71.10747303029152}}}, "icon": "https://maps.gstatic.com/mapfiles/place_api/icons/generic_business-71.png", "id": "209360ad3c8d456701e20367feaf85a6c0cc4cd7", "name": "Dr. Muralidharan T. Reddy, MD", "place_id": "ChIJFfUlGoV544kR5oWi1wpVXhM", "plus_code": {"compound_code": "8VHV+XG Boston, Massachusetts, United States", "global_code": "87JC8VHV+XG"}, "reference": "ChIJFfUlGoV544kR5oWi1wpVXhM", "scope": "GOOGLE", "types": ["doctor", "health", "point_of_interest", "establishment"], "vicinity": "125 Parker Hill Avenue"}, "ChIJX4mV3-Z_44kRQ1_G3johvss": {"geometry": {"location": {"lat": 42.3292562, "lng": -71.10600409999999}, "viewport": {"northeast": {"lat": 42.33059368029149, "lng": -71.10466141970849}, "southwest": {"lat": 42.32789571970849, "lng": -71.1073593802915}}}, "icon": "https://maps.gstatic.com/mapfiles/place_api/icons/generic_business-71.png", "id": "1db8789593457c5231eab1bb0072008c84f61a70", "name": "John C. Keel, M.D.", "opening_hours": {"open_now": true}, "place_id": "ChIJX4mV3-Z_44kRQ1_G3johvss", "plus_code": {"compound_code": "8VHV+PH Boston, Massachusetts, United States", "global_code": "87JC8VHV+PH"}, "reference": "ChIJX4mV3-Z_44kRQ1_G3johvss", "scope": "GOOGLE", "types": ["doctor", "health", "point_of_interest", "establishment"], "vicinity": "125 Parker Hill Avenue, Boston"}, "ChIJu0QcrIV544kRR4ocG8QkLy0": {"geometry": {"location": {"lat": 42.3299207, "lng": -71.1061343}, "viewport": {"northeast": {"lat": 42.33129023029149, "lng": -71.10477506970851}, "southwest": {"lat": 42.3285922697085, "lng": -71.10747303029152}}}, "icon": "https://maps.gstatic.com/mapfiles/place_api/icons/generic_business-71.png", "id": "c1d64a37b060d90db8354ca398dda17818dcc833", "name": "Dr. Murray M. Bern, MD", "place_id": "ChIJu0QcrIV544kRR4ocG8QkLy0", "plus_code": {"compound_code": "8VHV+XG Boston, Massachusetts, United States", "global_code": "87JC8VHV+XG"}, "reference": "ChIJu0QcrIV544kRR4ocG8QkLy0", "scope": "GOOGLE", "types": ["doctor", "health", "point_of_interest", "establishment"], "vicinity": "125 Parker Hill Avenue #450, Boston"}, "ChIJFfUlGoV544kRIuDioUju-SY": {"geometry": {"location": {"lat": 42.3299207, "lng": -71.1061343}, "viewport": {"northeast": {"lat": 42.33129023029149, "lng": -71.10477506970851}, "southwest": {"lat": 42.3285922697085, "lng": -71.10747303029152}}}, "icon": "https://maps.gstatic.com/mapfiles/place_api/icons/generic_business-71.png", "id": "0d147e0ae93a89321f0e2e7eed23e39670d9a0c0", "name": "Dr. Gwendolyn F. Kane-Wanger, MD", "place_id": "ChIJFfUlGoV544kRIuDioUju-SY", "plus_code": {"compound_code": "8VHV+XG Boston, Massachusetts, United States", "global_code": "87JC8VHV+XG"}, "reference": "ChIJFfUlGoV544kRIuDioUju-SY", "scope": "GOOGLE", "types": ["doctor", "health", "point_of_interest", "establishment"], "vicinity": "125 Parker Hill Avenue"}, "ChIJAUCyE9h544kReTvdSjlS_cc": {"geometry": {"location": {"lat": 42.3291899, "lng": -71.106257}, "viewport": {"northeast": {"lat": 42.33054048029149, "lng": -71.1049133197085}, "southwest": {"lat": 42.32784251970849, "lng": -71.10761128029151}}}, "icon": "https://maps.gstatic.com/mapfiles/place_api/icons/generic_business-71.png", "id": "e5af293ce5d727f92945be4c2b24895316f4bfb6", "name": "Boston Sports & Shoulder Center", "opening_hours": {"open_now": true}, "place_id": "ChIJAUCyE9h544kReTvdSjlS_cc", "plus_code": {"compound_code": "8VHV+MF Boston, Massachusetts, United States", "global_code": "87JC8VHV+MF"}, "reference": "ChIJAUCyE9h544kReTvdSjlS_cc", "scope": "GOOGLE", "types": ["doctor", "health", "point_of_interest", "establishment"], "vicinity": "125 Parker Hill Avenue, Boston"}, "ChIJibiG-IR544kRJbn743gBjDo": {"geometry": {"location": {"lat": 42.3299207, "lng": -71.1061343}, "viewport": {"northeast": {"lat": 42.33129023029149, "lng": -71.10477506970851}, "southwest": {"lat": 42.3285922697085, "lng": -71.10747303029152}}}, "icon": "https://maps.gstatic.com/mapfiles/place_api/icons/generic_business-71.png", "id": "6c113dd9ed76531a01a1882a890e8e7853404c7c", "name": "Dr. Frank F. Rand III, MD", "place_id": "ChIJibiG-IR544kRJbn743gBjDo", "plus_code": {"compound_code": "8VHV+XG Boston, Massachusetts, United States", "global_code": "87JC8VHV+XG"}, "rating": 3, "reference": "ChIJibiG-IR544kRJbn743gBjDo", "scope": "GOOGLE", "types": ["doctor", "health", "point_of_interest", "establishment"], "user_ratings_total": 6, "vicinity": "125 Parker Hill Avenue"}, "ChIJFfUlGoV544kRQjTDD37pHjk": {"geometry": {"location": {"lat": 42.3299207, "lng": -71.1061343}, "viewport": {"northeast": {"lat": 42.33129023029149, "lng": -71.10477506970851}, "southwest": {"lat": 42.3285922697085, "lng": -71.10747303029152}}}, "icon": "https://maps.gstatic.com/mapfiles/place_api/icons/generic_business-71.png", "id": "d193dbc07c02bca1f44ec2404d97c25dbf5caea3", "name": "Dr. Robert D. Moses, MD", "place_id": "ChIJFfUlGoV544kRQjTDD37pHjk", "plus_code": {"compound_code": "8VHV+XG Boston, Massachusetts, United States", "global_code": "87JC8VHV+XG"}, "reference": "ChIJFfUlGoV544kRQjTDD37pHjk", "scope": "GOOGLE", "types": ["doctor", "health", "point_of_interest", "establishment"], "vicinity": "125 Parker Hill Avenue"}, "ChIJKaJYAIV544kRwo5GcgeOP1U": {"geometry": {"location": {"lat": 42.3298118, "lng": -71.1063926}, "viewport": {"northeast": {"lat": 42.3311339802915, "lng": -71.10500251970849}, "southwest": {"lat": 42.32843601970851, "lng": -71.1077004802915}}}, "icon": "https://maps.gstatic.com/mapfiles/place_api/icons/generic_business-71.png", "id": "fd28837302b815a2d5e66875f71325e2d3e5e96e", "name": "Ambulance Parking", "place_id": "ChIJKaJYAIV544kRwo5GcgeOP1U", "reference": "ChIJKaJYAIV544kRwo5GcgeOP1U", "scope": "GOOGLE", "types": ["premise", "parking", "health", "point_of_interest", "establishment"], "vicinity": "Boston"}, "ChIJGzE9DS1l44kRoOhiASS_fHg": {"geometry": {"location": {"lat": 42.3600825, "lng": -71.0588801}, "viewport": {"northeast": {"lat": 42.40081989999999, "lng": -70.749455}, "southwest": {"lat": 42.22788, "lng": -71.191113}}}, "icon": "https://maps.gstatic.com/mapfiles/place_api/icons/geocode-71.png", "id": "06755c25d2b34d13942a4713971756a55b870ced", "name": "Boston", "photos": [{"height": 3024, "html_attributions": ["<a href=\"https://maps.google.com/maps/contrib/104670289779338733432/photos\">Natalia Zalucean</a>"], "photo_reference": "CmRaAAAApfYcIvsn4m8jHMQEAx4wCEEdER2aSa-defj3Xegh1FHQ4GP8p2o5GyAnTt83u6cSQK8PM78MLXCGuIYpuZYPb3zthMz849728uQzV3vo4FwHwG_4Ixenc_HenmMsVZWNEhDFJeLh-_Ta8QQVtsBEQXM6GhRgqZdndHYldd7TGGlk1fcZK_QvNA", "width": 4032}], "place_id": "ChIJGzE9DS1l44kRoOhiASS_fHg", "reference": "ChIJGzE9DS1l44kRoOhiASS_fHg", "scope": "GOOGLE", "types": ["locality", "political"], "vicinity": "Boston"}}