{"ChIJ5btv5G1544kRfugQWTxPSZo": {"geometry": {"location": {"lat": 42.31378669999999, "lng": -71.115561}, "viewport": {"northeast": {"lat": 42.3151316302915, "lng": -71.11411865}, "southwest": {"lat": 42.3124336697085, "lng": -71.11700845}}}, "icon": "https://maps.gstatic.com/mapfiles/place_api/icons/geocode-71.png", "id": "4c25b7cfddc0074f4c2025376854f2712b384be5", "name": "9-15 Myrtle St", "place_id": "ChIJ5btv5G1544kRfugQWTxPSZo", "reference": "ChIJ5btv5G1544kRfugQWTxPSZo", "scope": "GOOGLE", "types": ["route"], "vicinity": "Boston"}, "ChIJMSJoEW5544kRGNg8KUPWopU": {"geometry": {"location": {"lat": 42.31376900000001, "lng": -71.114689}, "viewport": {"northeast": {"lat": 42.31512138029149, "lng": -71.11304836970848}, "southwest": {"lat": 42.3124234197085, "lng": -71.1157463302915}}}, "icon": "https://maps.gstatic.com/mapfiles/place_api/icons/worship_general-71.png", "id": "166b02bcd5c177b88d4e83ebe1cd7b317a7470e5", "name": "First Baptist Church", "opening_hours": {"open_now": false}, "photos": [{"height": 3456, "html_attributions": ["<a href=\"https://maps.google.com/maps/contrib/116483589048513214013/photos\">First Baptist Church</a>"], "photo_reference": "CmRaAAAAhGZxt0Nfd2qIqXRIs5wQCKfII6iUIoOzfh9iKQLADYUnTxZjAYMO3NdGKtteDl_b9CZyFLJCOwhwkcX-NgkPlb-1rCWvQDlf6PG0842mpxFxqf9Y4v3lSyT4bohlhHnfEhAY-F6nfZ_I9TqjD12HpqG8GhQPKCf0s552TTY2QMsQDPnHhMLiOQ", "width": 5184}], "place_id": "ChIJMSJoEW5544kRGNg8KUPWopU", "plus_code": {"compound_code": "8V7P+G4 Boston, Massachusetts, United States", "global_code": "87JC8V7P+G4"}, "rating": 4.2, "reference": "ChIJMSJoEW5544kRGNg8KUPWopU", "scope": "GOOGLE", "types": ["church", "place_of_worship", "point_of_interest", "establishment"], "user_ratings_total": 6, "vicinity": "633 Centre Street, Jamaica Plain"}, "ChIJE2nTcm5544kRNw7VH-nYM7E": {"geometry": {"location": {"lat": 42.31319729999999, "lng": -71.1145221}, "viewport": {"northeast": {"lat": 42.3146183802915, "lng": -71.1131230197085}, "southwest": {"lat": 42.3119204197085, "lng": -71.1158209802915}}}, "icon": "https://maps.gstatic.com/mapfiles/place_api/icons/atm-71.png", "id": "e3ddc9e63a80bddde748109b7780270995bd84f1", "name": "Santander Bank ATM", "opening_hours": {"open_now": true}, "photos": [{"height": 2326, "html_attributions": ["<a href=\"https://maps.google.com/maps/contrib/114206535201681598435/photos\">Santander Bank ATM</a>"], "photo_reference": "CmRaAAAAcM6wCFWEjBxf6_VlSLcMvvhP59F2_1inebx2xlxkWh-768CMnGpa2cTUbax434qf1_ynOOMINlML4fpYUnIJ0urjIG92dAwka7wQzyTHuLFcbt5xK_HcUSxHeLd3gbIAEhD0yiflEN7S3lzPj_EDLWV5GhQWys4xD-KB8j75kvDkG7NhQ6-utQ", "width": 2326}], "place_id": "ChIJE2nTcm5544kRNw7VH-nYM7E", "plus_code": {"compound_code": "8V7P+75 Boston, Massachusetts, United States", "global_code": "87JC8V7P+75"}, "rating": 2, "reference": "ChIJE2nTcm5544kRNw7VH-nYM7E", "scope": "GOOGLE", "types": ["atm", "insurance_agency", "finance", "point_of_interest", "establishment"], "user_ratings_total": 1, "vicinity": "655 Centre Street, Jamaica Plain"}, "ChIJP_7fB25544kR6hngJ5vJA7o": {"geometry": {"location": {"lat": 42.3138514, "lng": -71.1151288}, "viewport": {"northeast": {"lat": 42.3151074302915, "lng": -71.1138457197085}, "southwest": {"lat": 42.3124094697085, "lng": -71.11654368029151}}}, "icon": "https://maps.gstatic.com/mapfiles/place_api/icons/generic_business-71.png", "id": "c5d8bcb6267ff9e131940b1cfb2dea0b3df70ad6", "name": "Boston Cyberarts, Inc", "opening_hours": {"open_now": false}, "photos": [{"height": 250, "html_attributions": ["<a href=\"https://maps.google.com/maps/contrib/117201035659491501854/photos\">Boston Cyberarts, Inc</a>"], "photo_reference": "CmRaAAAAFeP32B4m1ByRBcENefqL8csj6i9BJAh0QDmnGoGE7OTJ2m_8053FBwy27-n1HU68V48MzShpNB0c0BGwj36id3F1837VmEGA4dtg4EBReVrUU926ci_nfCo_jO6Y55MmEhC5v0duk-jLyUb0rd-edu9yGhS5u5xBh5jrsOmc1PLpGviONtF2SQ", "width": 250}], "place_id": "ChIJP_7fB25544kR6hngJ5vJA7o", "plus_code": {"compound_code": "8V7M+GW Boston, Massachusetts, United States", "global_code": "87JC8V7M+GW"}, "rating": 5, "reference": "ChIJP_7fB25544kR6hngJ5vJA7o", "scope": "GOOGLE", "types": ["point_of_interest", "establishment"], "user_ratings_total": 1, "vicinity": "9 Myrtle Street, Jamaica Plain"}, "ChIJL0XmWVx544kR4CBVXv3sZyo": {"geometry": {"location": {"lat": 42.3136971, "lng": -71.11451199999999}, "viewport": {"northeast": {"lat": 42.3150484302915, "lng": -71.11295911970849}, "southwest": {"lat": 42.31235046970851, "lng": -71.11565708029151}}}, "icon": "https://maps.gstatic.com/mapfiles/place_api/icons/school-71.png", "id": "2e3594193eb51a61f6c15a07dbf2404b1c7fb993", "name": "Shattuck Child Care Center", "place_id": "ChIJL0XmWVx544kR4CBVXv3sZyo", "plus_code": {"compound_code": "8V7P+F5 Boston, Massachusetts, United States", "global_code": "87JC8V7P+F5"}, "reference": "ChIJL0XmWVx544kR4CBVXv3sZyo", "scope": "GOOGLE", "types": ["point_of_interest", "establishment"], "vicinity": "633 Centre Street, Jamaica Plain"}, "ChIJ__8vDW5544kRbGOzmc74pvo": {"geometry": {"location": {"lat": 42.3132379, "lng": -71.1145397}, "viewport": {"northeast": {"lat": 42.3145811302915, "lng": -71.11297406970849}, "southwest": {"lat": 42.3118831697085, "lng": -71.1156720302915}}}, "icon": "https://maps.gstatic.com/mapfiles/place_api/icons/generic_business-71.png", "id": "a3e361ff7e96a0fdb0248630fc044d78e45e1621", "name": "Athletes Without Borders", "place_id": "ChIJ__8vDW5544kRbGOzmc74pvo", "plus_code": {"compound_code": "8V7P+75 Boston, Massachusetts, United States", "global_code": "87JC8V7P+75"}, "reference": "ChIJ__8vDW5544kRbGOzmc74pvo", "scope": "GOOGLE", "types": ["point_of_interest", "establishment"], "vicinity": "655 Centre Street, Boston"}, "ChIJ6bS0cm5544kRmlxHVgoIjr4": {"geometry": {"location": {"lat": 42.3132379, "lng": -71.1145397}, "viewport": {"northeast": {"lat": 42.3145811302915, "lng": -71.11297406970849}, "southwest": {"lat": 42.3118831697085, "lng": -71.1156720302915}}}, "icon": "https://maps.gstatic.com/mapfiles/place_api/icons/civic_building-71.png", "id": "1e5d006d84a858a736f48723aca592738af0697d", "name": "Jamaica Plain Regional Office", "place_id": "ChIJ6bS0cm5544kRmlxHVgoIjr4", "plus_code": {"compound_code": "8V7P+75 Boston, Massachusetts, United States", "global_code": "87JC8V7P+75"}, "reference": "ChIJ6bS0cm5544kRmlxHVgoIjr4", "scope": "GOOGLE", "types": ["local_government_office", "point_of_interest", "establishment"], "vicinity": "655 Centre Street, Jamaica Plain"}, "ChIJVfkubW5544kRTQeoo6D_A_4": {"geometry": {"location": {"lat": 42.3132379, "lng": -71.1145397}, "viewport": {"northeast": {"lat": 42.3145811302915, "lng": -71.11297406970849}, "southwest": {"lat": 42.3118831697085, "lng": -71.1156720302915}}}, "icon": "https://maps.gstatic.com/mapfiles/place_api/icons/civic_building-71.png", "id": "99da57ee69c1c083e85ea4fd706cbd942ae032f1", "name": "Creative Career Search", "place_id": "ChIJVfkubW5544kRTQeoo6D_A_4", "plus_code": {"compound_code": "8V7P+75 Boston, Massachusetts, United States", "global_code": "87JC8V7P+75"}, "reference": "ChIJVfkubW5544kRTQeoo6D_A_4", "scope": "GOOGLE", "types": ["point_of_interest", "establishment"], "vicinity": "655 Centre Street, Jamaica Plain"}, "ChIJGzE9DS1l44kRoOhiASS_fHg": {"geometry": {"location": {"lat": 42.3600825, "lng": -71.0588801}, "viewport": {"northeast": {"lat": 42.40081989999999, "lng": -70.749455}, "southwest": {"lat": 42.22788, "lng": -71.191113}}}, "icon": "https://maps.gstatic.com/mapfiles/place_api/icons/geocode-71.png", "id": "06755c25d2b34d13942a4713971756a55b870ced", "name": "Boston", "photos": [{"height": 3024, "html_attributions": ["<a href=\"https://maps.google.com/maps/contrib/104670289779338733432/photos\">Natalia Zalucean</a>"], "photo_reference": "CmRaAAAAVvnoV68bHLMayC0tCZesMNCXka5qksIOD7mGO5Fo1p-t2tn0FCFYLsT3mrd2uN_2bOifoXO_23hde9kQwYr1jaUW57C_58Fotzdg-78xdUSie-Dbvj5iZraKKp7dh9hvEhCyAvkFfru_G4oXb0W_PTGgGhSRn5DBTBz0XLu03yEfCs5rfdpGgA", "width": 4032}], "place_id": "ChIJGzE9DS1l44kRoOhiASS_fHg", "reference": "ChIJGzE9DS1l44kRoOhiASS_fHg", "scope": "GOOGLE", "types": ["locality", "political"], "vicinity": "Boston"}}