{"ChIJjyo423Z644kRjbaRxV__s3c": {"geometry": {"location": {"lat": 42.3496366, "lng": -71.0653206}, "viewport": {"northeast": {"lat": 42.3509854802915, "lng": -71.06397116970848}, "southwest": {"lat": 42.3482875197085, "lng": -71.06666913029149}}}, "icon": "https://maps.gstatic.com/mapfiles/place_api/icons/geocode-71.png", "id": "f82fc0554a0118acc6a02e823316674b902f6ddc", "name": "Tremont Street", "place_id": "ChIJjyo423Z644kRjbaRxV__s3c", "reference": "ChIJjyo423Z644kRjbaRxV__s3c", "scope": "GOOGLE", "types": ["route"], "vicinity": "Boston"}, "ChIJ0Q9o3XZ644kRsm3AoBv622A": {"geometry": {"location": {"lat": 42.35003500000001, "lng": -71.0654557}, "viewport": {"northeast": {"lat": 42.3513693802915, "lng": -71.06399806970849}, "southwest": {"lat": 42.3486714197085, "lng": -71.0666960302915}}}, "icon": "https://maps.gstatic.com/mapfiles/place_api/icons/lodging-71.png", "id": "1448c27301e9041ad022ed119cba8ea7a3f3910f", "name": "Courtyard by Marriott Boston Downtown", "opening_hours": {"open_now": true}, "photos": [{"height": 810, "html_attributions": ["<a href=\"https://maps.google.com/maps/contrib/111958240444066533343/photos\">Courtyard by Marriott Boston Downtown</a>"], "photo_reference": "CmRaAAAAI5_1KBin_8ElaDC_U8P1T23k5n44mm7CUUv6FiKvz3GSMO4X96xpqhM-K9vIncA7DCHTbKtq58sPToiphOeEMWobIvhDLYARRcg1J4EAziJMWsaItKBo4Pg6dTaY9VgAEhCEzkzYfUxftCeezCCuEOuAGhR-bfU_45WNiR8-3gXlTFhDkE3M-g", "width": 1440}], "place_id": "ChIJ0Q9o3XZ644kRsm3AoBv622A", "plus_code": {"compound_code": "9W2M+2R Boston, Massachusetts, United States", "global_code": "87JC9W2M+2R"}, "rating": 4.1, "reference": "ChIJ0Q9o3XZ644kRsm3AoBv622A", "scope": "GOOGLE", "types": ["lodging", "point_of_interest", "establishment"], "user_ratings_total": 832, "vicinity": "275 Tremont Street, Boston"}, "ChIJ7VHBwnZ644kRKRWP5Qe27v4": {"geometry": {"location": {"lat": 42.3499921, "lng": -71.0655563}, "viewport": {"northeast": {"lat": 42.35129078029149, "lng": -71.0640612697085}, "southwest": {"lat": 42.3485928197085, "lng": -71.06675923029151}}}, "icon": "https://maps.gstatic.com/mapfiles/place_api/icons/bar-71.png", "id": "282c9fc22aa1613e8cfc9011bed9314231339749", "name": "Royale", "opening_hours": {"open_now": false}, "photos": [{"height": 844, "html_attributions": ["<a href=\"https://maps.google.com/maps/contrib/109438300968741325825/photos\">Kellsie Farnell</a>"], "photo_reference": "CmRaAAAAYDCujfXvYZ3NGrfKF70ZhKK-Cb5_kmftn-u8yPxwcBtZorBV4x3ArqnyZs79K2mUMAyuPeP9eAHWu92nS6Ei-o9mLrO3wqYYrdFmuO5ZKUNfaRcOad_vsv1eI0DBP-jvEhCWX4jElMsZfFfHYavhxD6FGhSRXm8H5y1PF0hnB8BlRI8-0BmUKw", "width": 1323}], "place_id": "ChIJ7VHBwnZ644kRKRWP5Qe27v4", "plus_code": {"compound_code": "8WXM+XQ Boston, Massachusetts, United States", "global_code": "87JC8WXM+XQ"}, "price_level": 2, "rating": 3.9, "reference": "ChIJ7VHBwnZ644kRKRWP5Qe27v4", "scope": "GOOGLE", "types": ["night_club", "bar", "point_of_interest", "establishment"], "user_ratings_total": 462, "vicinity": "279 Tremont Street, Boston"}, "ChIJR4mL53Z644kRzcCBVgqF-ug": {"geometry": {"location": {"lat": 42.3502792, "lng": -71.06496179999999}, "viewport": {"northeast": {"lat": 42.3516732302915, "lng": -71.06369726970848}, "southwest": {"lat": 42.3489752697085, "lng": -71.0663952302915}}}, "icon": "https://maps.gstatic.com/mapfiles/place_api/icons/generic_business-71.png", "id": "1ac914069e45cd8a686fea1389ec1cea139b04a8", "name": "Boch Center - Wang Theatre", "opening_hours": {"open_now": true}, "photos": [{"height": 3464, "html_attributions": ["<a href=\"https://maps.google.com/maps/contrib/102126588058422010797/photos\">Andrew Tassy</a>"], "photo_reference": "CmRaAAAAqKWJULfHE0Vk06nqWZhIc75b199IX0Kmcw0vP4r7xOz-JjVSvehD0Q1JQAC7-Zf-t-qRl4l8Yx1m2pHrWPPbEVe-EVjO46_CR-874gt_tEHjgZ6PLnJ_5FjHD7dyQGxTEhC8D2QBNn4xFU5wuD5pbqvXGhTdOxqG49v4wqaJfSWDDhZKIMkYTg", "width": 4618}], "place_id": "ChIJR4mL53Z644kRzcCBVgqF-ug", "plus_code": {"compound_code": "9W2P+42 Boston, Massachusetts, United States", "global_code": "87JC9W2P+42"}, "rating": 4.5, "reference": "ChIJR4mL53Z644kRzcCBVgqF-ug", "scope": "GOOGLE", "types": ["point_of_interest", "establishment"], "user_ratings_total": 1040, "vicinity": "270 Tremont Street, Boston"}, "ChIJR4mL53Z644kRCVSkLVw9ELE": {"geometry": {"location": {"lat": 42.35040130000001, "lng": -71.06540140000001}, "viewport": {"northeast": {"lat": 42.3517286802915, "lng": -71.0639187197085}, "southwest": {"lat": 42.3490307197085, "lng": -71.0666166802915}}}, "icon": "https://maps.gstatic.com/mapfiles/place_api/icons/generic_business-71.png", "id": "9002f0c1e1b22cb257cc5fbcb7a26bdcc18a27f0", "name": "Boch Center - Shubert Theatre", "opening_hours": {"open_now": true}, "photos": [{"height": 520, "html_attributions": ["<a href=\"https://maps.google.com/maps/contrib/103567725797453057565/photos\">Boch Center - Shubert Theatre</a>"], "photo_reference": "CmRaAAAAb_m9KaHfj0N4OrKKCDCakpDbqYbPnvbzCRyr97PDPhjUVD7kzMYvtN705bFxHRUlKWHaavxT4rsFj4YkbgQUvmA7AXDDzSQ8DQCvPlQXfKuMXuxtFrtj_8hMIWdCy8PfEhBCTedKHZOXqTbv8dgRYBpAGhS9WBcGla5l86sv6NyjDD4AGjlZ8A", "width": 520}], "place_id": "ChIJR4mL53Z644kRCVSkLVw9ELE", "plus_code": {"compound_code": "9W2M+5R Boston, Massachusetts, United States", "global_code": "87JC9W2M+5R"}, "rating": 4.3, "reference": "ChIJR4mL53Z644kRCVSkLVw9ELE", "scope": "GOOGLE", "types": ["point_of_interest", "establishment"], "user_ratings_total": 293, "vicinity": "265 Tremont Street, Boston"}, "ChIJ0xML6HZ644kRc-aoxHPinng": {"geometry": {"location": {"lat": 42.3499563, "lng": -71.0658983}, "viewport": {"northeast": {"lat": 42.3513042802915, "lng": -71.06457116970849}, "southwest": {"lat": 42.3486063197085, "lng": -71.06726913029149}}}, "icon": "https://maps.gstatic.com/mapfiles/place_api/icons/bar-71.png", "id": "2ffaa4abaf7ea1b7810230099379f3ea84ce6bcf", "name": "Guilt", "opening_hours": {"open_now": false}, "photos": [{"height": 640, "html_attributions": ["<a href=\"https://maps.google.com/maps/contrib/113739485534386833561/photos\">Bz Fingaz</a>"], "photo_reference": "CmRaAAAAZZVGcKjxPBKo1uO7yhWDJep-W970RlHgIwypHeIJUva0s5A5A2CpdmSGHrD67ry_JT_BtD8J2OTWMuxrsoTQbF0qzszDY0MizM29iAyTWlHJ1IreMXN3Kd4smXQhZdWtEhBkJcTIQJ6Iv5HtuRA4S98OGhS0BpJprhvUIkpnVNWRxkcb2WxJ-g", "width": 640}], "place_id": "ChIJ0xML6HZ644kRc-aoxHPinng", "plus_code": {"compound_code": "8WXM+XJ Boston, Massachusetts, United States", "global_code": "87JC8WXM+XJ"}, "price_level": 2, "rating": 3.7, "reference": "ChIJ0xML6HZ644kRc-aoxHPinng", "scope": "GOOGLE", "types": ["night_club", "point_of_interest", "establishment"], "user_ratings_total": 59, "vicinity": "79 Warrenton Street, Boston"}, "ChIJbYS-7HZ644kRTyMKn2Y3nyw": {"geometry": {"location": {"lat": 42.3499992, "lng": -71.06614160000001}, "viewport": {"northeast": {"lat": 42.3513521302915, "lng": -71.0647054197085}, "southwest": {"lat": 42.3486541697085, "lng": -71.06740338029151}}}, "icon": "https://maps.gstatic.com/mapfiles/place_api/icons/generic_business-71.png", "id": "c6eacc2af31f2b6038513514dc53e6c7679e0328", "name": "Shear Madness", "photos": [{"height": 3006, "html_attributions": ["<a href=\"https://maps.google.com/maps/contrib/106866204920370988269/photos\">Simon Belkin</a>"], "photo_reference": "CmRaAAAAojA7n1Y--dRwtOExExhuD-XzK2TUACX1HupojGW_E204NKhjBA6tROilDMI5G1-Q4BE-wHQOjAWKCzZGphZOaAzSRaYKgmZVQreNoU2kYfIDd3Vzx1mWIyU_EX80VPDyEhDZ1pWTeCsIu5Hcee3et_fSGhSj_Y5lDzvBzmBKnSJz2mfHPyMFYg", "width": 5344}], "place_id": "ChIJbYS-7HZ644kRTyMKn2Y3nyw", "plus_code": {"compound_code": "8WXM+XG Boston, Massachusetts, United States", "global_code": "87JC8WXM+XG"}, "rating": 4.7, "reference": "ChIJbYS-7HZ644kRTyMKn2Y3nyw", "scope": "GOOGLE", "types": ["point_of_interest", "establishment"], "user_ratings_total": 78, "vicinity": "74 Warrenton Street, Boston"}, "ChIJQ7rK4HZ644kRxZd5Ntmn-Lg": {"geometry": {"location": {"lat": 42.3497924, "lng": -71.06472649999999}, "viewport": {"northeast": {"lat": 42.35109798029151, "lng": -71.06359081970848}, "southwest": {"lat": 42.34840001970851, "lng": -71.0662887802915}}}, "icon": "https://maps.gstatic.com/mapfiles/place_api/icons/generic_business-71.png", "id": "2eedc2141413724ab38719354bf1099a6285c62f", "name": "American Red Cross Blood Services", "opening_hours": {"open_now": true}, "photos": [{"height": 3024, "html_attributions": ["<a href=\"https://maps.google.com/maps/contrib/116446823222089150527/photos\">Nicole Hicks</a>"], "photo_reference": "CmRaAAAA2o0MrhAK_uaAUTvvYLu4p2ZFbSwDVZ1s4OpTVeqB5tFB0MWn5oK_kWP7esoDplsajR8e4GGZ1bWR1WIoQD2D06EqRrIoFC10mBDjQ0rvpgC7-GVoH4jTljetHEKCkmmfEhBm8Mq8P_8sZnhLbp41fLHYGhTJ2ri0CWXTYMFNaQ4k1ZrAjKag4Q", "width": 4032}], "place_id": "ChIJQ7rK4HZ644kRxZd5Ntmn-Lg", "plus_code": {"compound_code": "8WXP+W4 Boston, Massachusetts, United States", "global_code": "87JC8WXP+W4"}, "rating": 4.3, "reference": "ChIJQ7rK4HZ644kRxZd5Ntmn-Lg", "scope": "GOOGLE", "types": ["health", "point_of_interest", "establishment"], "user_ratings_total": 11, "vicinity": "274 Tremont Street, Boston"}, "ChIJ0Q9o3XZ644kRBWxqQasiaxg": {"geometry": {"location": {"lat": 42.349951, "lng": -71.0656551}, "viewport": {"northeast": {"lat": 42.3512757802915, "lng": -71.06410941970849}, "southwest": {"lat": 42.3485778197085, "lng": -71.0668073802915}}}, "icon": "https://maps.gstatic.com/mapfiles/place_api/icons/bar-71.png", "id": "685d7eca42d4b918b0d45526610f2063f327900b", "name": "Joe Bermudez", "place_id": "ChIJ0Q9o3XZ644kRBWxqQasiaxg", "plus_code": {"compound_code": "8WXM+XP Boston, Massachusetts, United States", "global_code": "87JC8WXM+XP"}, "reference": "ChIJ0Q9o3XZ644kRBWxqQasiaxg", "scope": "GOOGLE", "types": ["night_club", "electronics_store", "home_goods_store", "store", "point_of_interest", "establishment"], "vicinity": "275 Tremont Street, Boston"}, "ChIJt_QqxHZ644kRMjk7CPDuTo0": {"geometry": {"location": {"lat": 42.3497824, "lng": -71.0655099}, "viewport": {"northeast": {"lat": 42.3511183802915, "lng": -71.0640530197085}, "southwest": {"lat": 42.3484204197085, "lng": -71.06675098029152}}}, "icon": "https://maps.gstatic.com/mapfiles/place_api/icons/shopping-71.png", "id": "a3d5b4a69feb8502528eb67c4c9e1eca71b5d6bd", "name": "I Do Wedding Dresses and Photography", "opening_hours": {"open_now": true}, "photos": [{"height": 1366, "html_attributions": ["<a href=\"https://maps.google.com/maps/contrib/114879758134490812052/photos\">I Do Wedding Dresses and Photography</a>"], "photo_reference": "CmRaAAAAj7rWlehzknhrba5CoT3oRufpcuuOyOs9zCgAO1_kUj4zgYuUCYzld_r0VGolLfdKOboUOVM0ar72wnAjUO72iKXU_It-8Cp0_6XjsOzBTSPzpGy8C7tJ_sKvR-az_peREhCTZxxUqhe9izt6M8Gx6P-QGhQ_D2RDg9PzOUabGOXWoUhO_0rFpw", "width": 2048}], "place_id": "ChIJt_QqxHZ644kRMjk7CPDuTo0", "plus_code": {"compound_code": "8WXM+WQ Boston, Massachusetts, United States", "global_code": "87JC8WXM+WQ"}, "rating": 4.9, "reference": "ChIJt_QqxHZ644kRMjk7CPDuTo0", "scope": "GOOGLE", "types": ["clothing_store", "store", "point_of_interest", "establishment"], "user_ratings_total": 34, "vicinity": "283 Tremont Street, Boston"}, "ChIJ1wsO6HZ644kR0r9zO05mHls": {"geometry": {"location": {"lat": 42.3499198, "lng": -71.06556739999999}, "viewport": {"northeast": {"lat": 42.3512502802915, "lng": -71.06406776970849}, "southwest": {"lat": 42.3485523197085, "lng": -71.0667657302915}}}, "icon": "https://maps.gstatic.com/mapfiles/place_api/icons/worship_general-71.png", "id": "9f02a994737abcf57120ec24e5d37543f5329255", "name": "Aletheia Church, Downtown Boston", "opening_hours": {"open_now": false}, "photos": [{"height": 2640, "html_attributions": ["<a href=\"https://maps.google.com/maps/contrib/106499027367833855259/photos\">Aletheia Church, Downtown Boston</a>"], "photo_reference": "CmRaAAAAhyI5rwH0qPgWf70LHFayKY0Me-4INjJAuFqgka2honf8ya_rWT3_aSL6_kK7_yJO6upHMDsbpOHxo9MrPDB31x3xpuLiYpFgjZ04GWRz5yJ6kEXZveULAOySjoAONiumEhA1aW-ccrStnmALuMGW6aINGhSzPxS48SX83Csf_SIxLdc4-4TGTQ", "width": 3960}], "place_id": "ChIJ1wsO6HZ644kR0r9zO05mHls", "plus_code": {"compound_code": "8WXM+XQ Boston, Massachusetts, United States", "global_code": "87JC8WXM+XQ"}, "rating": 5, "reference": "ChIJ1wsO6HZ644kR0r9zO05mHls", "scope": "GOOGLE", "types": ["church", "place_of_worship", "point_of_interest", "establishment"], "user_ratings_total": 2, "vicinity": "275 Tremont Street, Boston"}, "ChIJRX5z6HZ644kRPAtICGMw1tU": {"geometry": {"location": {"lat": 42.3500656, "lng": -71.0655781}, "viewport": {"northeast": {"lat": 42.3513890802915, "lng": -71.0640582697085}, "southwest": {"lat": 42.3486911197085, "lng": -71.0667562302915}}}, "icon": "https://maps.gstatic.com/mapfiles/place_api/icons/bar-71.png", "id": "6b5baf8b844501251dde778fad8d332eaac0dab1", "name": "La Dolce Vita", "opening_hours": {"open_now": false}, "place_id": "ChIJRX5z6HZ644kRPAtICGMw1tU", "plus_code": {"compound_code": "9W2M+2Q Boston, Massachusetts, United States", "global_code": "87JC9W2M+2Q"}, "reference": "ChIJRX5z6HZ644kRPAtICGMw1tU", "scope": "GOOGLE", "types": ["night_club", "point_of_interest", "establishment"], "vicinity": "275 Tremont Street, Boston"}, "ChIJ10dfwnZ644kRaB1dbukj1lQ": {"geometry": {"location": {"lat": 42.35013369999999, "lng": -71.0654307}, "viewport": {"northeast": {"lat": 42.3514658802915, "lng": -71.06397291970849}, "southwest": {"lat": 42.3487679197085, "lng": -71.0666708802915}}}, "icon": "https://maps.gstatic.com/mapfiles/place_api/icons/bar-71.png", "id": "11cd14ebe6402a310762e8d819c9b6d056e63240", "name": "Candibar Boston", "opening_hours": {"open_now": false}, "photos": [{"height": 3024, "html_attributions": ["<a href=\"https://maps.google.com/maps/contrib/108221533680790340542/photos\">Oliver Bautista</a>"], "photo_reference": "CmRaAAAAAAK9n-4xAO6xvwmrIR9czxiLVJN64sdsKzH8muNi6TtILyzPxP_Cm2sVeOSHT_SX5Uplrr6BMVdBlrbIaiPxxNa_z7VbyS2hJob_bCiJTmLS1hh9hGdQLrcYd5WhjhCKEhDtcl0pvWNXeiDA6gua8uAlGhS4K4wECEa3op5hp4lMdnRS0viGtw", "width": 4032}], "place_id": "ChIJ10dfwnZ644kRaB1dbukj1lQ", "plus_code": {"compound_code": "9W2M+3R Boston, Massachusetts, United States", "global_code": "87JC9W2M+3R"}, "rating": 3.6, "reference": "ChIJ10dfwnZ644kRaB1dbukj1lQ", "scope": "GOOGLE", "types": ["night_club", "point_of_interest", "establishment"], "user_ratings_total": 45, "vicinity": "275 Tremont Street, Boston"}, "ChIJYyIS6HZ644kR5ve68kEgXRg": {"geometry": {"location": {"lat": 42.3501432, "lng": -71.0654097}, "viewport": {"northeast": {"lat": 42.35147483029149, "lng": -71.0639610697085}, "southwest": {"lat": 42.3487768697085, "lng": -71.0666590302915}}}, "icon": "https://maps.gstatic.com/mapfiles/place_api/icons/generic_business-71.png", "id": "1e76da7b9bddbad0c7b1b8c8d8ef61c4a1dacc16", "name": "Men in Motion Male Strippers", "opening_hours": {"open_now": true}, "photos": [{"height": 608, "html_attributions": ["<a href=\"https://maps.google.com/maps/contrib/114262977542762938876/photos\">Men in Motion Male Strippers</a>"], "photo_reference": "CmRaAAAAV3s1PWtDcKIEx5tHr7p8aWy-1GHVHKQDpg655vHh7Xv3ulivSdt2he6rtEDhy8iRsw6hggqT0nfamfoJNiYaCU2jM2x0_9opVl4_d6Y3AuXmcOS-5N-sfGw2TggIjflmEhCTJGC4wnpTSivHQZk39RKcGhTLQeADx4WtEu3rXBiY5CGRqtHPsQ", "width": 1080}], "place_id": "ChIJYyIS6HZ644kR5ve68kEgXRg", "plus_code": {"compound_code": "9W2M+3R Boston, Massachusetts, United States", "global_code": "87JC9W2M+3R"}, "rating": 4.8, "reference": "ChIJYyIS6HZ644kR5ve68kEgXRg", "scope": "GOOGLE", "types": ["night_club", "point_of_interest", "establishment"], "user_ratings_total": 81, "vicinity": "275 Tremont Street, Boston"}, "ChIJnwYR5XZ644kRoY_3v8jNMr8": {"geometry": {"location": {"lat": 42.350271, "lng": -71.065196}, "viewport": {"northeast": {"lat": 42.3516211302915, "lng": -71.0638541197085}, "southwest": {"lat": 42.3489231697085, "lng": -71.06655208029152}}}, "icon": "https://maps.gstatic.com/mapfiles/place_api/icons/generic_business-71.png", "id": "bdb002c356cf6a2fcbbd0ea7c928c20daec4ea7a", "name": "Fantastic Fundraisers LLP", "place_id": "ChIJnwYR5XZ644kRoY_3v8jNMr8", "plus_code": {"compound_code": "9W2M+4W Boston, Massachusetts, United States", "global_code": "87JC9W2M+4W"}, "reference": "ChIJnwYR5XZ644kRoY_3v8jNMr8", "scope": "GOOGLE", "types": ["point_of_interest", "establishment"], "vicinity": "255 Tremont Street, Boston"}, "ChIJhcoRxXZ644kR_lI_vRe0d2U": {"geometry": {"location": {"lat": 42.3494538, "lng": -71.0657179}, "viewport": {"northeast": {"lat": 42.35078248029151, "lng": -71.0641937197085}, "southwest": {"lat": 42.34808451970851, "lng": -71.0668916802915}}}, "icon": "https://maps.gstatic.com/mapfiles/place_api/icons/school-71.png", "id": "90850d3cd1b0451afbdc19f8f9f8e5bb07289e19", "name": "Little Panda Early Learning", "opening_hours": {"open_now": true}, "place_id": "ChIJhcoRxXZ644kR_lI_vRe0d2U", "plus_code": {"compound_code": "8WXM+QP Boston, Massachusetts, United States", "global_code": "87JC8WXM+QP"}, "rating": 4.7, "reference": "ChIJhcoRxXZ644kR_lI_vRe0d2U", "scope": "GOOGLE", "types": ["point_of_interest", "establishment"], "user_ratings_total": 3, "vicinity": "285 Tremont Street, Boston"}, "ChIJ71Ws_HZ644kRNapKCyMVOis": {"geometry": {"location": {"lat": 42.3502792, "lng": -71.06496179999999}, "viewport": {"northeast": {"lat": 42.3516432802915, "lng": -71.06370611970848}, "southwest": {"lat": 42.34894531970851, "lng": -71.0664040802915}}}, "icon": "https://maps.gstatic.com/mapfiles/place_api/icons/generic_business-71.png", "id": "a39b17c8a29bed3c4b93a4c4d12e5be673c7e31e", "name": "Boston Culinary Group", "place_id": "ChIJ71Ws_HZ644kRNapKCyMVOis", "plus_code": {"compound_code": "9W2P+42 Boston, Massachusetts, United States", "global_code": "87JC9W2P+42"}, "rating": 4, "reference": "ChIJ71Ws_HZ644kRNapKCyMVOis", "scope": "GOOGLE", "types": ["point_of_interest", "establishment"], "user_ratings_total": 1, "vicinity": "270 Tremont Street, Boston"}, "ChIJfYZ873Z644kRZBqHi16tcTQ": {"geometry": {"location": {"lat": 42.3503978, "lng": -71.0653975}, "viewport": {"northeast": {"lat": 42.3517255302915, "lng": -71.06391716970849}, "southwest": {"lat": 42.3490275697085, "lng": -71.06661513029151}}}, "icon": "https://maps.gstatic.com/mapfiles/place_api/icons/generic_business-71.png", "id": "8f060947436945d87f5f843ebecbc00ab4fe906b", "name": "Stuart theater citi performing arts center", "place_id": "ChIJfYZ873Z644kRZBqHi16tcTQ", "plus_code": {"compound_code": "9W2M+5R Boston, Massachusetts, United States", "global_code": "87JC9W2M+5R"}, "reference": "ChIJfYZ873Z644kRZBqHi16tcTQ", "scope": "GOOGLE", "types": ["point_of_interest", "establishment"], "vicinity": "265 Tremont Street, Boston"}, "ChIJkybobRR644kRlpqFwzoCljE": {"geometry": {"location": {"lat": 42.3502708, "lng": -71.0649056}, "viewport": {"northeast": {"lat": 42.35163938029149, "lng": -71.0636779197085}, "southwest": {"lat": 42.3489414197085, "lng": -71.0663758802915}}}, "icon": "https://maps.gstatic.com/mapfiles/place_api/icons/generic_business-71.png", "id": "21a34ed7f0f5658e96728deea06b026792f193ed", "name": "Wang Theater", "photos": [{"height": 3024, "html_attributions": ["<a href=\"https://maps.google.com/maps/contrib/118097116090428104158/photos\">Bobby Guliani</a>"], "photo_reference": "CmRaAAAA-w898jPS8jAu6lbM4K1nMtILi_DZb_E_dlprjlrn7Y7UEyJ5QsP4xhU-WW5RhwcKGcBXP9sDcxFX2WpxFbpmp7hY-0VUK3ucyK1oIQbxyYKruRWTMNXfrxo0wrxpQphsEhCotohFhGlzXr2fV4q6S-K9GhRs9MFcMzUB9kIXjW9E8bS0ZViY8w", "width": 4032}], "place_id": "ChIJkybobRR644kRlpqFwzoCljE", "plus_code": {"compound_code": "9W2P+42 Boston, Massachusetts, United States", "global_code": "87JC9W2P+42"}, "rating": 4.6, "reference": "ChIJkybobRR644kRlpqFwzoCljE", "scope": "GOOGLE", "types": ["point_of_interest", "establishment"], "user_ratings_total": 91, "vicinity": "Tremont Street, Boston"}, "ChIJGzE9DS1l44kRoOhiASS_fHg": {"geometry": {"location": {"lat": 42.3600825, "lng": -71.0588801}, "viewport": {"northeast": {"lat": 42.40081989999999, "lng": -70.749455}, "southwest": {"lat": 42.22788, "lng": -71.191113}}}, "icon": "https://maps.gstatic.com/mapfiles/place_api/icons/geocode-71.png", "id": "06755c25d2b34d13942a4713971756a55b870ced", "name": "Boston", "photos": [{"height": 3024, "html_attributions": ["<a href=\"https://maps.google.com/maps/contrib/104670289779338733432/photos\">Natalia Zalucean</a>"], "photo_reference": "CmRaAAAADVvgjaJyqEdpHB8OpztbTKRW7NjwVxA_n0sFy-kSocHJEJLpMS0TnqvmTFS6UvokOFfFWUDRUG-fcvBIgjey5I2_HjXad15-XRBDgVCcmBtNLnIb1P3RR_z9LW5yI-9XEhD5BoYIX5PCmdeJPWrGipaXGhTg4lBI5MXBZPVk6pIEqCOUkgBghA", "width": 4032}], "place_id": "ChIJGzE9DS1l44kRoOhiASS_fHg", "reference": "ChIJGzE9DS1l44kRoOhiASS_fHg", "scope": "GOOGLE", "types": ["locality", "political"], "vicinity": "Boston"}, "ChIJ8bASw3Z644kRPHCtaGMD60k": {"geometry": {"location": {"lat": 42.34978, "lng": -71.065512}, "viewport": {"northeast": {"lat": 42.35111588029149, "lng": -71.0640543697085}, "southwest": {"lat": 42.3484179197085, "lng": -71.06675233029151}}}, "icon": "https://maps.gstatic.com/mapfiles/place_api/icons/generic_business-71.png", "id": "9bb34466bd2afc18291d9d267068958516287696", "name": "I Do Wedding", "place_id": "ChIJ8bASw3Z644kRPHCtaGMD60k", "plus_code": {"compound_code": "8WXM+WQ Boston, Massachusetts, United States", "global_code": "87JC8WXM+WQ"}, "reference": "ChIJ8bASw3Z644kRPHCtaGMD60k", "scope": "GOOGLE", "types": ["point_of_interest", "establishment"], "vicinity": "283A Tremont Street, Boston"}, "ChIJVVVVFXh644kRC6XMACGElhs": {"geometry": {"location": {"lat": 42.3497924, "lng": -71.06472649999999}, "viewport": {"northeast": {"lat": 42.35109798029151, "lng": -71.06359081970848}, "southwest": {"lat": 42.34840001970851, "lng": -71.0662887802915}}}, "icon": "https://maps.gstatic.com/mapfiles/place_api/icons/generic_business-71.png", "id": "af19b13bdd948664fb98bdab6c89fe7c7f6ed9f0", "name": "Talis Andrea", "place_id": "ChIJVVVVFXh644kRC6XMACGElhs", "plus_code": {"compound_code": "8WXP+W4 Boston, Massachusetts, United States", "global_code": "87JC8WXP+W4"}, "reference": "ChIJVVVVFXh644kRC6XMACGElhs", "scope": "GOOGLE", "types": ["health", "point_of_interest", "establishment"], "vicinity": "Tufts Medical Ctr, Boston"}, "ChIJq5_BwnZ644kR4bJZamtwh9s": {"geometry": {"location": {"lat": 42.3499029, "lng": -71.0654584}, "viewport": {"northeast": {"lat": 42.35124013029149, "lng": -71.06401366970849}, "southwest": {"lat": 42.3485421697085, "lng": -71.06671163029151}}}, "icon": "https://maps.gstatic.com/mapfiles/place_api/icons/worship_general-71.png", "id": "eb635bd6ee951d3b06eb5380353dc2f3c0b19e14", "name": "Hillsong Church Boston", "opening_hours": {"open_now": false}, "photos": [{"height": 745, "html_attributions": ["<a href=\"https://maps.google.com/maps/contrib/110884037529297082848/photos\">Abel Guzman</a>"], "photo_reference": "CmRaAAAAPHbs4cL5SwkrUIMrHnPx4li5hP5Uy5T7RHTHAEX5GNaFYscSfEkL5NCKEpuefIQGCQZ2ddhoCYH4H5x5XkVXAQd-KP-Hnd9udgoffGAatk9ck5esCgjIWbYFcj4PhD4qEhAYDUNFOJke0kjeJE5xVHB6GhQANXZbv8ZhLH4gENw064waQmnQ0Q", "width": 750}], "place_id": "ChIJq5_BwnZ644kR4bJZamtwh9s", "plus_code": {"compound_code": "8WXM+XR Boston, Massachusetts, United States", "global_code": "87JC8WXM+XR"}, "rating": 4.3, "reference": "ChIJq5_BwnZ644kR4bJZamtwh9s", "scope": "GOOGLE", "types": ["church", "place_of_worship", "point_of_interest", "establishment"], "user_ratings_total": 26, "vicinity": "279 Tremont Street, Boston"}, "ChIJlyWS53Z644kRzWzmJdiK8dU": {"geometry": {"location": {"lat": 42.3499629, "lng": -71.0652668}, "viewport": {"northeast": {"lat": 42.3513148302915, "lng": -71.0639416697085}, "southwest": {"lat": 42.3486168697085, "lng": -71.06663963029152}}}, "icon": "https://maps.gstatic.com/mapfiles/place_api/icons/generic_business-71.png", "id": "3c91ec55a722238af0082a9e2442f4a7a2d3bd01", "name": "Rosswood Associates", "place_id": "ChIJlyWS53Z644kRzWzmJdiK8dU", "plus_code": {"compound_code": "8WXM+XV Boston, Massachusetts, United States", "global_code": "87JC8WXM+XV"}, "reference": "ChIJlyWS53Z644kRzWzmJdiK8dU", "scope": "GOOGLE", "types": ["point_of_interest", "establishment"], "vicinity": "268 Tremont Street, Boston"}, "ChIJC7ESw3Z644kRgrA_AgtbEgQ": {"geometry": {"location": {"lat": 42.34978, "lng": -71.065512}, "viewport": {"northeast": {"lat": 42.35111588029149, "lng": -71.0640543697085}, "southwest": {"lat": 42.3484179197085, "lng": -71.06675233029151}}}, "icon": "https://maps.gstatic.com/mapfiles/place_api/icons/generic_business-71.png", "id": "2bcd0b689f14d2d308821fe50b66caba07fd3ad0", "name": "Hello Photo Booth Rental", "opening_hours": {"open_now": true}, "photos": [{"height": 4016, "html_attributions": ["<a href=\"https://maps.google.com/maps/contrib/107804873323299621901/photos\">Hello Photo Booth Rental</a>"], "photo_reference": "CmRaAAAAkuZa_VVW2cQUURLAoxJ1HrrMbJN5ZEmFzW1TZUz45bZ4CMB1sdGpKiKWXORBIYo0ROeP7kuHiZ9q1v0iaily6nSuKEUE-hQZiM-kgI-MetT4LZMx1ilPgZ-8U60V2msxEhDgB8EciA8DSZK01HQ9i-rmGhQ_AaxRa4v7FYCQsTfrM9qiELDIAQ", "width": 6016}], "place_id": "ChIJC7ESw3Z644kRgrA_AgtbEgQ", "plus_code": {"compound_code": "8WXM+WQ Boston, Massachusetts, United States", "global_code": "87JC8WXM+WQ"}, "rating": 5, "reference": "ChIJC7ESw3Z644kRgrA_AgtbEgQ", "scope": "GOOGLE", "types": ["point_of_interest", "food", "establishment"], "user_ratings_total": 28, "vicinity": "283a Tremont Street, Boston"}, "ChIJyQaSsxF744kR0INYZHEF5xU": {"geometry": {"location": {"lat": 42.3500654, "lng": -71.0654299}, "viewport": {"northeast": {"lat": 42.3513995302915, "lng": -71.06398131970849}, "southwest": {"lat": 42.3487015697085, "lng": -71.0666792802915}}}, "icon": "https://maps.gstatic.com/mapfiles/place_api/icons/restaurant-71.png", "id": "28d42145cbdb974b31d7dc95c58e23086a5438f6", "name": "Post No. 10", "photos": [{"height": 1152, "html_attributions": ["<a href=\"https://maps.google.com/maps/contrib/108685370139018629938/photos\">Jay Keyes</a>"], "photo_reference": "CmRaAAAA3hrB6a5f8NVS2vXDAdXGMzkJz6_oYmwK6hTsrx04RRDYaH5yJYejv8DBYsrh4HYALIPzccqTbjzgSbCGG3FWk8O_xCHsmBjfuNnnVosh4p8wZsuj4dySU-GsGW9Uu4NKEhCKnd1unb-p8p2BGwQ1D4ayGhR5NPpnhTlRRUv-zd2uzbXYIl5Vxg", "width": 1411}], "place_id": "ChIJyQaSsxF744kR0INYZHEF5xU", "plus_code": {"compound_code": "9W2M+2R Boston, Massachusetts, United States", "global_code": "87JC9W2M+2R"}, "reference": "ChIJyQaSsxF744kR0INYZHEF5xU", "scope": "GOOGLE", "types": ["bar", "restaurant", "point_of_interest", "food", "establishment"], "vicinity": "275 Tremont Street, Boston"}, "ChIJxaWvGKp744kR7cZKOzkrBs0": {"geometry": {"location": {"lat": 42.3500654, "lng": -71.0654299}, "viewport": {"northeast": {"lat": 42.3513995302915, "lng": -71.06398131970849}, "southwest": {"lat": 42.3487015697085, "lng": -71.0666792802915}}}, "icon": "https://maps.gstatic.com/mapfiles/place_api/icons/bar-71.png", "id": "93476a0b5ae73e7e8ce18cc33885b47b5f5bb91f", "name": "Switch Thursdays @ CandiBar", "opening_hours": {"open_now": false}, "photos": [{"height": 640, "html_attributions": ["<a href=\"https://maps.google.com/maps/contrib/102301394673793428676/photos\">Switch Thursdays @ CandiBar</a>"], "photo_reference": "CmRZAAAA5zIrJ8_xycIHSYOQTPT3DH9cfkKRaiAHmOANRs54Wr_P2tZWS_TF-eGLPdWwhJYwRq7yCOMO6jVVopq70zHjOYge6YWTkdT5-cJnZBUBV7DEJ-VWb-4OXb_nYrHVW3NXEhDfg8Sl1fU3HiZVv1ON7_AoGhQoT4ndD_Q7Da1LIpWBrgo5MywpTQ", "width": 960}], "place_id": "ChIJxaWvGKp744kR7cZKOzkrBs0", "plus_code": {"compound_code": "9W2M+2R Boston, Massachusetts, United States", "global_code": "87JC9W2M+2R"}, "reference": "ChIJxaWvGKp744kR7cZKOzkrBs0", "scope": "GOOGLE", "types": ["night_club", "point_of_interest", "establishment"], "vicinity": "275 Tremont Street, Boston"}, "ChIJxbS953Z644kR8UwYhpOAp20": {"geometry": {"location": {"lat": 42.3500466, "lng": -71.0651922}, "viewport": {"northeast": {"lat": 42.35139443029149, "lng": -71.06383551970849}, "southwest": {"lat": 42.3486964697085, "lng": -71.0665334802915}}}, "icon": "https://maps.gstatic.com/mapfiles/place_api/icons/generic_business-71.png", "id": "1325bc1ec73e8303f5c13b1cd569cef224d152d6", "name": "Parking", "place_id": "ChIJxbS953Z644kR8UwYhpOAp20", "plus_code": {"compound_code": "9W2M+2W Boston, Massachusetts, United States", "global_code": "87JC9W2M+2W"}, "reference": "ChIJxbS953Z644kR8UwYhpOAp20", "scope": "GOOGLE", "types": ["parking", "point_of_interest", "establishment"], "vicinity": "265 Tremont St, Boston"}, "ChIJ_WCx53Z644kRwdztfqjpiLo": {"geometry": {"location": {"lat": 42.34960599999999, "lng": -71.065439}, "viewport": {"northeast": {"lat": 42.35094878029149, "lng": -71.0640354197085}, "southwest": {"lat": 42.3482508197085, "lng": -71.06673338029151}}}, "icon": "https://maps.gstatic.com/mapfiles/place_api/icons/bus-71.png", "id": "17be168465fb85a357d0076eceb50ebd6a59e995", "name": "285 Tremont St", "place_id": "ChIJ_WCx53Z644kRwdztfqjpiLo", "plus_code": {"compound_code": "8WXM+RR Boston, Massachusetts, United States", "global_code": "87JC8WXM+RR"}, "reference": "ChIJ_WCx53Z644kRwdztfqjpiLo", "scope": "GOOGLE", "types": ["bus_station", "transit_station", "point_of_interest", "establishment"], "vicinity": "United States"}, "ChIJU7VB6HZ644kRWj74PRcEMPc": {"geometry": {"location": {"lat": 42.3501424, "lng": -71.0654169}, "viewport": {"northeast": {"lat": 42.3515453802915, "lng": -71.0640538697085}, "southwest": {"lat": 42.3488474197085, "lng": -71.06675183029151}}}, "icon": "https://maps.gstatic.com/mapfiles/place_api/icons/generic_business-71.png", "id": "2deeedf4c0f76a7c96a714e81d4838e9b56963f4", "name": "279 Tremont St Parking", "place_id": "ChIJU7VB6HZ644kRWj74PRcEMPc", "plus_code": {"compound_code": "9W2M+3R Boston, Massachusetts, United States", "global_code": "87JC9W2M+3R"}, "reference": "ChIJU7VB6HZ644kRWj74PRcEMPc", "scope": "GOOGLE", "types": ["parking", "point_of_interest", "establishment"], "vicinity": "279 Tremont St, Boston"}, "ChIJOVpO23Z644kRePu2gKWKnUY": {"geometry": {"location": {"lat": 42.3496283, "lng": -71.0656281}, "viewport": {"northeast": {"lat": 42.3509603302915, "lng": -71.0641298697085}, "southwest": {"lat": 42.3482623697085, "lng": -71.0668278302915}}}, "icon": "https://maps.gstatic.com/mapfiles/place_api/icons/generic_business-71.png", "id": "a398b47d5f55478ec465ca2394228c0fe3c589ba", "name": "South Cove Plaza East", "place_id": "ChIJOVpO23Z644kRePu2gKWKnUY", "plus_code": {"compound_code": "8WXM+VP Boston, Massachusetts, United States", "global_code": "87JC8WXM+VP"}, "reference": "ChIJOVpO23Z644kRePu2gKWKnUY", "scope": "GOOGLE", "types": ["point_of_interest", "establishment"], "vicinity": "285 Tremont Street, Boston"}, "ChIJAQCQwXZ644kRIMJUEhkENn4": {"geometry": {"location": {"lat": 42.34993770000001, "lng": -71.0657944}, "viewport": {"northeast": {"lat": 42.35126818029151, "lng": -71.0645273697085}, "southwest": {"lat": 42.34857021970851, "lng": -71.0672253302915}}}, "icon": "https://maps.gstatic.com/mapfiles/place_api/icons/lodging-71.png", "id": "1ac9164b445d262a1fa500a62ec204c87702bf8d", "name": "B Hotel", "place_id": "ChIJAQCQwXZ644kRIMJUEhkENn4", "plus_code": {"compound_code": "8WXM+XM Boston, Massachusetts, United States", "global_code": "87JC8WXM+XM"}, "reference": "ChIJAQCQwXZ644kRIMJUEhkENn4", "scope": "GOOGLE", "types": ["lodging", "point_of_interest", "establishment"], "vicinity": "75 Warrenton Street, Boston"}, "ChIJt_QqxHZ644kRE8SMNTf2OWk": {"geometry": {"location": {"lat": 42.3495883, "lng": -71.06571029999999}, "viewport": {"northeast": {"lat": 42.3509162302915, "lng": -71.0641760197085}, "southwest": {"lat": 42.3482182697085, "lng": -71.0668739802915}}}, "icon": "https://maps.gstatic.com/mapfiles/place_api/icons/shopping-71.png", "id": "98b02bafcbc0592a1a64b949ef2189a37f3ca02f", "name": "Tremont Variety", "place_id": "ChIJt_QqxHZ644kRE8SMNTf2OWk", "plus_code": {"compound_code": "8WXM+RP Boston, Massachusetts, United States", "global_code": "87JC8WXM+RP"}, "rating": 3, "reference": "ChIJt_QqxHZ644kRE8SMNTf2OWk", "scope": "GOOGLE", "types": ["store", "point_of_interest", "establishment"], "user_ratings_total": 2, "vicinity": "283 Tremont Street, Boston"}, "ChIJnSzj5XZ644kRKBXq8SxxB60": {"geometry": {"location": {"lat": 42.3502661, "lng": -71.0655884}, "viewport": {"northeast": {"lat": 42.35157978029149, "lng": -71.06403656970849}, "southwest": {"lat": 42.3488818197085, "lng": -71.06673453029151}}}, "icon": "https://maps.gstatic.com/mapfiles/place_api/icons/generic_business-71.png", "id": "c564176490968ea7fa7f66f28891b296eff86807", "name": "Bradford Parking", "place_id": "ChIJnSzj5XZ644kRKBXq8SxxB60", "plus_code": {"compound_code": "9W2M+4Q Boston, Massachusetts, United States", "global_code": "87JC9W2M+4Q"}, "rating": 1, "reference": "ChIJnSzj5XZ644kRKBXq8SxxB60", "scope": "GOOGLE", "types": ["parking", "point_of_interest", "establishment"], "user_ratings_total": 1, "vicinity": "267 Tremont Street, Boston"}, "ChIJm2ba63Z644kRY_hZgHJ-_hQ": {"geometry": {"location": {"lat": 42.35023589999999, "lng": -71.0657808}, "viewport": {"northeast": {"lat": 42.35158488029149, "lng": -71.06443181970849}, "southwest": {"lat": 42.34888691970849, "lng": -71.0671297802915}}}, "icon": "https://maps.gstatic.com/mapfiles/place_api/icons/generic_business-71.png", "id": "6e6a328cae2ebdf4c075e10c1f8c307f4ffeb065", "name": "99 Seaver Pl Parking", "place_id": "ChIJm2ba63Z644kRY_hZgHJ-_hQ", "plus_code": {"compound_code": "9W2M+3M Boston, Massachusetts, United States", "global_code": "87JC9W2M+3M"}, "reference": "ChIJm2ba63Z644kRY_hZgHJ-_hQ", "scope": "GOOGLE", "types": ["parking", "point_of_interest", "establishment"], "vicinity": "99 Seaver Pl, Boston"}, "ChIJh023woB744kRW3Pqg2y4rDM": {"geometry": {"location": {"lat": 42.3494015, "lng": -71.065103}, "viewport": {"northeast": {"lat": 42.3507113302915, "lng": -71.06376231970849}, "southwest": {"lat": 42.3480133697085, "lng": -71.0664602802915}}}, "icon": "https://maps.gstatic.com/mapfiles/place_api/icons/doctor-71.png", "id": "7cb218e7514307e08748714c4740e43e5294b2fd", "name": "TUFTS TREMONT STREET GARAGE", "place_id": "ChIJh023woB744kRW3Pqg2y4rDM", "plus_code": {"compound_code": "8WXM+QX Boston, Massachusetts, United States", "global_code": "87JC8WXM+QX"}, "reference": "ChIJh023woB744kRW3Pqg2y4rDM", "scope": "GOOGLE", "types": ["hospital", "point_of_interest", "establishment"], "vicinity": "BOST-0305592000, Boston"}, "ChIJP4c6IaF744kRnCH4zYtH1G8": {"geometry": {"location": {"lat": 42.35030549999999, "lng": -71.0649849}, "viewport": {"northeast": {"lat": 42.3516671802915, "lng": -71.0637145197085}, "southwest": {"lat": 42.3489692197085, "lng": -71.0664124802915}}}, "icon": "https://maps.gstatic.com/mapfiles/place_api/icons/generic_business-71.png", "id": "30f8386532bc2739266c97f909f5fbef076cabdf", "name": "Biewend Building", "photos": [{"height": 1192, "html_attributions": ["<a href=\"https://maps.google.com/maps/contrib/111362809734925394817/photos\">Biewend Building</a>"], "photo_reference": "CmRaAAAAKB45ch-RT518NeqgSrtgns3sH5xTxd48QTp2wXBJX4G3OiJ7OGIp4WErb6VMDvh9zWXfgugR_gdHsN5LU1wDn3KfgsooHFwbRpPiaQFxx-cYhX7AoNzSMaxzk-8ySdIBEhD1vMWcEErxEAaQrDgfECo6GhSX1mrsXxmYmgMfM1QQB2kMOsLiPw", "width": 2118}], "place_id": "ChIJP4c6IaF744kRnCH4zYtH1G8", "plus_code": {"compound_code": "9W2P+42 Boston, Massachusetts, United States", "global_code": "87JC9W2P+42"}, "reference": "ChIJP4c6IaF744kRnCH4zYtH1G8", "scope": "GOOGLE", "types": ["health", "point_of_interest", "establishment"], "vicinity": "260 Tremont Street Biewend Building, Boston"}, "ChIJxbS953Z644kRuFfqEciC-eA": {"geometry": {"location": {"lat": 42.3503978, "lng": -71.0653975}, "viewport": {"northeast": {"lat": 42.3517255302915, "lng": -71.06391716970849}, "southwest": {"lat": 42.3490275697085, "lng": -71.06661513029151}}}, "icon": "https://maps.gstatic.com/mapfiles/place_api/icons/generic_business-71.png", "id": "5fe7d4b192d185c5eea16137ef396838b1840af6", "name": "Shubert Organization Inc", "place_id": "ChIJxbS953Z644kRuFfqEciC-eA", "plus_code": {"compound_code": "9W2M+5R Boston, Massachusetts, United States", "global_code": "87JC9W2M+5R"}, "reference": "ChIJxbS953Z644kRuFfqEciC-eA", "scope": "GOOGLE", "types": ["point_of_interest", "establishment"], "vicinity": "265 Tremont Street, Boston"}, "ChIJqyY3_HZ644kR5h_G4WY8xVg": {"geometry": {"location": {"lat": 42.3504113, "lng": -71.0654405}, "viewport": {"northeast": {"lat": 42.3517354302915, "lng": -71.06393776970849}, "southwest": {"lat": 42.3490374697085, "lng": -71.0666357302915}}}, "icon": "https://maps.gstatic.com/mapfiles/place_api/icons/museum-71.png", "id": "7d625d0a6953f59b1c76b19c54f45ca35f4f3d0f", "name": "The Non-Color Museum", "place_id": "ChIJqyY3_HZ644kR5h_G4WY8xVg", "plus_code": {"compound_code": "9W2M+5R Boston, Massachusetts, United States", "global_code": "87JC9W2M+5R"}, "reference": "ChIJqyY3_HZ644kR5h_G4WY8xVg", "scope": "GOOGLE", "types": ["museum", "point_of_interest", "establishment"], "vicinity": "248 Tremont Street, Boston"}, "ChIJI8K52XZ644kRJ5dR9wcN2u0": {"geometry": {"location": {"lat": 42.349373, "lng": -71.0649665}, "viewport": {"northeast": {"lat": 42.3506889302915, "lng": -71.06362161970848}, "southwest": {"lat": 42.3479909697085, "lng": -71.06631958029149}}}, "icon": "https://maps.gstatic.com/mapfiles/place_api/icons/generic_business-71.png", "id": "534f229d12a43f63871a4dbfe803d1cfe7a487c6", "name": "290 Tremont St Parking", "place_id": "ChIJI8K52XZ644kRJ5dR9wcN2u0", "plus_code": {"compound_code": "8WXP+P2 Boston, Massachusetts, United States", "global_code": "87JC8WXP+P2"}, "rating": 3, "reference": "ChIJI8K52XZ644kRJ5dR9wcN2u0", "scope": "GOOGLE", "types": ["parking", "point_of_interest", "establishment"], "user_ratings_total": 1, "vicinity": "290 Tremont Street, Boston"}, "ChIJcy1A3nZ644kR2X5QQDdh-B4": {"geometry": {"location": {"lat": 42.3497924, "lng": -71.06472649999999}, "viewport": {"northeast": {"lat": 42.3511017802915, "lng": -71.0636152197085}, "southwest": {"lat": 42.3484038197085, "lng": -71.0663131802915}}}, "icon": "https://maps.gstatic.com/mapfiles/place_api/icons/generic_business-71.png", "id": "47efba8c1fb06a25127f86889710b61c7ae3ba1b", "name": "Tremont Street Garage", "place_id": "ChIJcy1A3nZ644kR2X5QQDdh-B4", "reference": "ChIJcy1A3nZ644kR2X5QQDdh-B4", "scope": "GOOGLE", "types": ["parking", "premise", "point_of_interest", "establishment"], "vicinity": "Boston"}}