{"ChIJs1lWG5B644kR7nk-KyfD1y8": {"geometry": {"location": {"lat": 42.33864369999999, "lng": -71.0375284}, "viewport": {"northeast": {"lat": 42.3399926802915, "lng": -71.0361794697085}, "southwest": {"lat": 42.3372947197085, "lng": -71.0388774302915}}}, "icon": "https://maps.gstatic.com/mapfiles/place_api/icons/geocode-71.png", "id": "ab84c6d095db8b1b13812cd51ebd6008f9e6c1ce", "name": "67-133 K St", "place_id": "ChIJs1lWG5B644kR7nk-KyfD1y8", "reference": "ChIJs1lWG5B644kR7nk-KyfD1y8", "scope": "GOOGLE", "types": ["route"], "vicinity": "Boston"}, "ChIJKz0HcG1644kRsNo77uOIOpE": {"geometry": {"location": {"lat": 42.33844489999999, "lng": -71.0372873}, "viewport": {"northeast": {"lat": 42.33979198029149, "lng": -71.03605586970849}, "southwest": {"lat": 42.33709401970849, "lng": -71.0387538302915}}}, "icon": "https://maps.gstatic.com/mapfiles/place_api/icons/school-71.png", "id": "47e66b37b7f02fd9c4adee077c4451fb7d78191b", "name": "C P Casting", "photos": [{"height": 1195, "html_attributions": ["<a href=\"https://maps.google.com/maps/contrib/108955386006641562374/photos\">C P Casting</a>"], "photo_reference": "CmRaAAAASyl1mdOLyrJP5GheAX3GgdsoIAl-nP8eA9Em3LC-nYcA7s3kRshpw3DrJupfOW9nfBrQDUd32uXKdtH2LWrIX12Rtw26t7YPIXlISWFNZDeiTJYz8-db_bi_R0PgqUDUEhC4R8fyjGzD0nODy5AYpThvGhQQ_U3kxSlJcCnOHXsml_iHisMdug", "width": 1081}], "place_id": "ChIJKz0HcG1644kRsNo77uOIOpE", "plus_code": {"compound_code": "8XQ7+93 Boston, Massachusetts, United States", "global_code": "87JC8XQ7+93"}, "rating": 4.8, "reference": "ChIJKz0HcG1644kRsNo77uOIOpE", "scope": "GOOGLE", "types": ["university", "point_of_interest", "establishment"], "user_ratings_total": 4, "vicinity": "110 K Street #340, Boston"}, "ChIJjZ4KG5B644kR9iiQ-uk5Fo8": {"geometry": {"location": {"lat": 42.3384844, "lng": -71.0372874}, "viewport": {"northeast": {"lat": 42.33983148029149, "lng": -71.0360565197085}, "southwest": {"lat": 42.3371335197085, "lng": -71.03875448029152}}}, "icon": "https://maps.gstatic.com/mapfiles/place_api/icons/generic_business-71.png", "id": "aa4b67cc4cb712b7d01c8e1234f5a1c9bd188d49", "name": "Medicine Wheel Production", "photos": [{"height": 4032, "html_attributions": ["<a href=\"https://maps.google.com/maps/contrib/107265639763109270152/photos\">Whut Good</a>"], "photo_reference": "CmRaAAAA1cABj0YOh26s8Wc5uSfpTXBXPQ4xBfPpvVB0dENCJHPsxVr658OOu1tAlkwXrqnbta7d8FVYHDbti1NYRj_7foV3vTreJgYcbLdyyPv723lrn2cLZoFhCWJJIOgtuCITEhDQOWROl1NeWa0WNeQgW8kvGhRTaQXLPlKVlh0r93R8eFramucXgw", "width": 3024}], "place_id": "ChIJjZ4KG5B644kR9iiQ-uk5Fo8", "plus_code": {"compound_code": "8XQ7+93 Boston, Massachusetts, United States", "global_code": "87JC8XQ7+93"}, "rating": 3.9, "reference": "ChIJjZ4KG5B644kR9iiQ-uk5Fo8", "scope": "GOOGLE", "types": ["point_of_interest", "establishment"], "user_ratings_total": 9, "vicinity": "110 K Street # 9, Boston"}, "ChIJS2m-G5B644kR0FN2Wbfiy00": {"geometry": {"location": {"lat": 42.3385576, "lng": -71.03742009999999}, "viewport": {"northeast": {"lat": 42.3399057302915, "lng": -71.0361239697085}, "southwest": {"lat": 42.3372077697085, "lng": -71.0388219302915}}}, "icon": "https://maps.gstatic.com/mapfiles/place_api/icons/shopping-71.png", "id": "83540a6c3cb35d0fc94f7f396e0c5982bc26f9f0", "name": "G P Marketing", "place_id": "ChIJS2m-G5B644kR0FN2Wbfiy00", "plus_code": {"compound_code": "8XQ7+C2 Boston, Massachusetts, United States", "global_code": "87JC8XQ7+C2"}, "reference": "ChIJS2m-G5B644kR0FN2Wbfiy00", "scope": "GOOGLE", "types": ["furniture_store", "home_goods_store", "store", "point_of_interest", "establishment"], "vicinity": "110 K Street 2nd floor, Boston"}, "ChIJV7hl5I5644kRdBLNFGXapyk": {"geometry": {"location": {"lat": 42.33904320000001, "lng": -71.03730709999999}, "viewport": {"northeast": {"lat": 42.3403902802915, "lng": -71.03607466970848}, "southwest": {"lat": 42.3376923197085, "lng": -71.0387726302915}}}, "icon": "https://maps.gstatic.com/mapfiles/place_api/icons/shopping-71.png", "id": "b150ff3301585876510c887275faa06408ff26a3", "name": "Heritage Flag Co", "place_id": "ChIJV7hl5I5644kRdBLNFGXapyk", "plus_code": {"compound_code": "8XQ7+J3 Boston, Massachusetts, United States", "global_code": "87JC8XQ7+J3"}, "reference": "ChIJV7hl5I5644kRdBLNFGXapyk", "scope": "GOOGLE", "types": ["home_goods_store", "store", "point_of_interest", "establishment"], "vicinity": "72 K Street, Boston"}, "ChIJjZ4KG5B644kR4GCxDP_bOro": {"geometry": {"location": {"lat": 42.3384568, "lng": -71.0372873}, "viewport": {"northeast": {"lat": 42.3398038802915, "lng": -71.03605606970848}, "southwest": {"lat": 42.3371059197085, "lng": -71.0387540302915}}}, "icon": "https://maps.gstatic.com/mapfiles/place_api/icons/shopping-71.png", "id": "02bf3fd36e38bacd28a7d8f26f9f997b6bb2a083", "name": "Antiques On K Street", "opening_hours": {"open_now": true}, "place_id": "ChIJjZ4KG5B644kR4GCxDP_bOro", "plus_code": {"compound_code": "8XQ7+93 Boston, Massachusetts, United States", "global_code": "87JC8XQ7+93"}, "reference": "ChIJjZ4KG5B644kR4GCxDP_bOro", "scope": "GOOGLE", "types": ["home_goods_store", "store", "point_of_interest", "establishment"], "vicinity": "110 K Street, Boston"}, "ChIJjZ4KG5B644kRf_clv6wA-yA": {"geometry": {"location": {"lat": 42.3384844, "lng": -71.0372874}, "viewport": {"northeast": {"lat": 42.33983148029149, "lng": -71.0360565197085}, "southwest": {"lat": 42.3371335197085, "lng": -71.03875448029152}}}, "icon": "https://maps.gstatic.com/mapfiles/place_api/icons/generic_business-71.png", "id": "3d60de59c341319fe533f4e9096e6ba7d585115d", "name": "Michael Warren Photography", "place_id": "ChIJjZ4KG5B644kRf_clv6wA-yA", "plus_code": {"compound_code": "8XQ7+93 Boston, Massachusetts, United States", "global_code": "87JC8XQ7+93"}, "reference": "ChIJjZ4KG5B644kRf_clv6wA-yA", "scope": "GOOGLE", "types": ["point_of_interest", "establishment"], "vicinity": "110 K Street # 3, South Boston"}, "ChIJ2xZGBJB644kRtZbAZ2UCI80": {"geometry": {"location": {"lat": 42.3388353, "lng": -71.0372193}, "viewport": {"northeast": {"lat": 42.3401817302915, "lng": -71.03602766970849}, "southwest": {"lat": 42.33748376970851, "lng": -71.03872563029151}}}, "icon": "https://maps.gstatic.com/mapfiles/place_api/icons/shopping-71.png", "id": "fdcc65200ac0fdd7ad80bf88d62dce700a4205da", "name": "Columbine Floral Design", "place_id": "ChIJ2xZGBJB644kRtZbAZ2UCI80", "plus_code": {"compound_code": "8XQ7+G4 Boston, Massachusetts, United States", "global_code": "87JC8XQ7+G4"}, "rating": 5, "reference": "ChIJ2xZGBJB644kRtZbAZ2UCI80", "scope": "GOOGLE", "types": ["florist", "store", "point_of_interest", "establishment"], "user_ratings_total": 1, "vicinity": "80 K Street, South Boston"}, "ChIJH-B0H5B644kRa5ExTQDxIkY": {"geometry": {"location": {"lat": 42.338378, "lng": -71.0379123}, "viewport": {"northeast": {"lat": 42.33958853029149, "lng": -71.0365586697085}, "southwest": {"lat": 42.3368905697085, "lng": -71.0392566302915}}}, "icon": "https://maps.gstatic.com/mapfiles/place_api/icons/generic_business-71.png", "id": "6cc5074d841161c6b5e35c02bfb1eb3d1ab2e5b5", "name": "Accurate Fasteners Inc", "photos": [{"height": 3024, "html_attributions": ["<a href=\"https://maps.google.com/maps/contrib/106652901712247782221/photos\">Matt Gross</a>"], "photo_reference": "CmRaAAAA2r0RDh1uYpC6_UYczzWdGqPIPniwy9qhj8xq9d0weWvlWNLaZ07NTYVV1wh72D4I-I4szsllzw_HFaCj_FaNnWheVceCtR7sLkKhIpmEtwxHwY5jQpLLMAw0LF05dUgBEhCWsg-D1fSmwQAufbEKuFO3GhQunxyFVpcjoGdzCtmAQ2nN0oFLSw", "width": 4032}], "place_id": "ChIJH-B0H5B644kRa5ExTQDxIkY", "plus_code": {"compound_code": "8XQ6+9R Boston, Massachusetts, United States", "global_code": "87JC8XQ6+9R"}, "rating": 4, "reference": "ChIJH-B0H5B644kRa5ExTQDxIkY", "scope": "GOOGLE", "types": ["point_of_interest", "establishment"], "user_ratings_total": 1, "vicinity": "550 East 1st Street, South Boston"}, "ChIJAemqAJB644kRimjsZZQwPW4": {"geometry": {"location": {"lat": 42.3392585, "lng": -71.0374209}, "viewport": {"northeast": {"lat": 42.3406060302915, "lng": -71.0361352697085}, "southwest": {"lat": 42.3379080697085, "lng": -71.03883323029152}}}, "icon": "https://maps.gstatic.com/mapfiles/place_api/icons/generic_business-71.png", "id": "576859aa9b2a740cd005080b91b9bba708607c50", "name": "Attorney Christopher T. Dolan", "place_id": "ChIJAemqAJB644kRimjsZZQwPW4", "plus_code": {"compound_code": "8XQ7+P2 Boston, Massachusetts, United States", "global_code": "87JC8XQ7+P2"}, "reference": "ChIJAemqAJB644kRimjsZZQwPW4", "scope": "GOOGLE", "types": ["lawyer", "point_of_interest", "establishment"], "vicinity": "60 K Street, South Boston"}, "ChIJA6PKxI9644kRTCR3VjG0bcs": {"geometry": {"location": {"lat": 42.3384697, "lng": -71.0373017}, "viewport": {"northeast": {"lat": 42.3398168802915, "lng": -71.0360634697085}, "southwest": {"lat": 42.3371189197085, "lng": -71.0387614302915}}}, "icon": "https://maps.gstatic.com/mapfiles/place_api/icons/shopping-71.png", "id": "9dcf3d6beed86fc268981001dba3035e6a5c44f4", "name": "Noted Candles", "photos": [{"height": 1365, "html_attributions": ["<a href=\"https://maps.google.com/maps/contrib/114565715100745831418/photos\">Noted Candles</a>"], "photo_reference": "CmRaAAAA6IQHCbbwU-9sk5WcxQxoNNNhflukcUAvyARTVQduulMOoWq00JA9DT1drHZrJjr9SygVfgbXfTV4E0znZIl5qQVY1chI_N094SZz5a_5kTLKQQUgiDelPFG5kb7NE0icEhDtgyjNDr9sCVoWlPan2OcqGhSIPMJs2c8metIqcoQaDGO3DN4wLQ", "width": 2048}], "place_id": "ChIJA6PKxI9644kRTCR3VjG0bcs", "plus_code": {"compound_code": "8XQ7+93 Boston, Massachusetts, United States", "global_code": "87JC8XQ7+93"}, "reference": "ChIJA6PKxI9644kRTCR3VjG0bcs", "scope": "GOOGLE", "types": ["home_goods_store", "store", "point_of_interest", "establishment"], "vicinity": "110 K Street, Boston"}, "ChIJpQhRGpB644kR0il95xEx7OE": {"geometry": {"location": {"lat": 42.3384696, "lng": -71.0373019}, "viewport": {"northeast": {"lat": 42.33981678029149, "lng": -71.0360635697085}, "southwest": {"lat": 42.3371188197085, "lng": -71.03876153029151}}}, "icon": "https://maps.gstatic.com/mapfiles/place_api/icons/generic_business-71.png", "id": "877cd2f14bc9a359e648161be9574547bb8f25eb", "name": "Keane Law Group, P.C.", "opening_hours": {"open_now": true}, "photos": [{"height": 589, "html_attributions": ["<a href=\"https://maps.google.com/maps/contrib/101143869941097773940/photos\">Keane Law Group, P.C.</a>"], "photo_reference": "CmRaAAAAsY3EC83wTfCFtI-3gj1vFXYWJ91YTCiKkCytaude3pkLtlXe8E3VH83uXHmsIb6Rd7AitboNv-iUCeDQjIXS2-r9YeoHFw9qwkLU-vSxBZ3veHE2gsQxyB7O4JisV6O_EhDz2y4kH9igtcMAeWQIeQUEGhTbpp4kYWnpiv4UMj87knsP3xd7HA", "width": 589}], "place_id": "ChIJpQhRGpB644kR0il95xEx7OE", "plus_code": {"compound_code": "8XQ7+93 Boston, Massachusetts, United States", "global_code": "87JC8XQ7+93"}, "rating": 5, "reference": "ChIJpQhRGpB644kR0il95xEx7OE", "scope": "GOOGLE", "types": ["lawyer", "point_of_interest", "establishment"], "user_ratings_total": 1, "vicinity": "110 K Street Suite 330, Boston"}, "ChIJ68QGu29644kRj5uXm3Fitnw": {"geometry": {"location": {"lat": 42.3384696, "lng": -71.0373019}, "viewport": {"northeast": {"lat": 42.33981678029149, "lng": -71.0360635697085}, "southwest": {"lat": 42.3371188197085, "lng": -71.03876153029151}}}, "icon": "https://maps.gstatic.com/mapfiles/place_api/icons/generic_business-71.png", "id": "8774084089e610faecebdeeed0984291bdd0375f", "name": "Fair Folk", "opening_hours": {"open_now": true}, "photos": [{"height": 450, "html_attributions": ["<a href=\"https://maps.google.com/maps/contrib/108461361541298846608/photos\">Fair Folk</a>"], "photo_reference": "CmRaAAAA1OgMXUAUDVy2K0gwIGzIfP_QJ8OKpj2msr6gjzPtmDv_MCDgHIkxvUi_5ywEZAt-NJfTIgOdBuAso4D5FUUPB4W3r8rZsxODPnBwm5hDZ-VkpLd21JSIprpQmfLHkOBUEhCPWfMFgsoB76hwws56figgGhTqcsRgKmBbbcsMpV7snTVJyNceCQ", "width": 450}], "place_id": "ChIJ68QGu29644kRj5uXm3Fitnw", "plus_code": {"compound_code": "8XQ7+93 Boston, Massachusetts, United States", "global_code": "87JC8XQ7+93"}, "rating": 5, "reference": "ChIJ68QGu29644kRj5uXm3Fitnw", "scope": "GOOGLE", "types": ["point_of_interest", "establishment"], "user_ratings_total": 2, "vicinity": "110 K Street #310, Boston"}, "ChIJpQhRGpB644kRziVOdol4JLM": {"geometry": {"location": {"lat": 42.3384696, "lng": -71.0373019}, "viewport": {"northeast": {"lat": 42.33981678029149, "lng": -71.0360635697085}, "southwest": {"lat": 42.3371188197085, "lng": -71.03876153029151}}}, "icon": "https://maps.gstatic.com/mapfiles/place_api/icons/generic_business-71.png", "id": "d70b419e6682f079d68c097eb095c44fddcdec9a", "name": "Electra Vehicles, Inc.", "opening_hours": {"open_now": true}, "photos": [{"height": 436, "html_attributions": ["<a href=\"https://maps.google.com/maps/contrib/106942149100236385231/photos\">Electra Vehicles, Inc.</a>"], "photo_reference": "CmRaAAAAj_JK-OfNsUM_YmcV49Il3853ZZVyJO-lSIey31JogESm4V4RcY1g7pUBvid7_fLM54-ocT6joR-keL-PS6H8JrPLyrNR3i8QN1hvZZmwvAcjWTl5e8PgkuybeBixp9pqEhB5f2TGpTVgE1jeo_5NOM07GhSPuQ4--Gn_e3Pszw6AbAnoZwB6kQ", "width": 690}], "place_id": "ChIJpQhRGpB644kRziVOdol4JLM", "plus_code": {"compound_code": "8XQ7+93 Boston, Massachusetts, United States", "global_code": "87JC8XQ7+93"}, "reference": "ChIJpQhRGpB644kRziVOdol4JLM", "scope": "GOOGLE", "types": ["car_repair", "store", "point_of_interest", "establishment"], "vicinity": "110 K Street suite 330, Boston"}, "ChIJq0o43Xh644kR7tp5XbQNlbQ": {"geometry": {"location": {"lat": 42.3384568, "lng": -71.0372873}, "viewport": {"northeast": {"lat": 42.3398038802915, "lng": -71.03605606970848}, "southwest": {"lat": 42.3371059197085, "lng": -71.0387540302915}}}, "icon": "https://maps.gstatic.com/mapfiles/place_api/icons/shopping-71.png", "id": "55c03c83e43f200c15367cea4878d2f0f7b4b96d", "name": "Kolo LLC", "opening_hours": {"open_now": true}, "place_id": "ChIJq0o43Xh644kR7tp5XbQNlbQ", "plus_code": {"compound_code": "8XQ7+93 Boston, Massachusetts, United States", "global_code": "87JC8XQ7+93"}, "reference": "ChIJq0o43Xh644kR7tp5XbQNlbQ", "scope": "GOOGLE", "types": ["store", "point_of_interest", "establishment"], "vicinity": "110 K Street, Boston"}, "ChIJ3X9XGpB644kRkPB6sfmFUJk": {"geometry": {"location": {"lat": 42.3384656, "lng": -71.0372418}, "viewport": {"northeast": {"lat": 42.3398122802915, "lng": -71.0360334197085}, "southwest": {"lat": 42.3371143197085, "lng": -71.03873138029151}}}, "icon": "https://maps.gstatic.com/mapfiles/place_api/icons/generic_business-71.png", "id": "83908f5714c5dfdbadd04597f8b052ae564b53af", "name": "Art Applications Inc.", "opening_hours": {"open_now": true}, "place_id": "ChIJ3X9XGpB644kRkPB6sfmFUJk", "plus_code": {"compound_code": "8XQ7+94 Boston, Massachusetts, United States", "global_code": "87JC8XQ7+94"}, "reference": "ChIJ3X9XGpB644kRkPB6sfmFUJk", "scope": "GOOGLE", "types": ["general_contractor", "point_of_interest", "establishment"], "vicinity": "110 K Street, South Boston"}, "ChIJaZRkLWN644kRztPzKV1BsTk": {"geometry": {"location": {"lat": 42.339245, "lng": -71.03753}, "viewport": {"northeast": {"lat": 42.3405945302915, "lng": -71.0361555197085}, "southwest": {"lat": 42.33789656970851, "lng": -71.03885348029151}}}, "icon": "https://maps.gstatic.com/mapfiles/place_api/icons/generic_business-71.png", "id": "66ee255ba14abfa2685d2c49efe6dc0b5662f3b2", "name": "Eric Kulin Photography", "place_id": "ChIJaZRkLWN644kRztPzKV1BsTk", "plus_code": {"compound_code": "8XQ6+MX Boston, Massachusetts, United States", "global_code": "87JC8XQ6+MX"}, "reference": "ChIJaZRkLWN644kRztPzKV1BsTk", "scope": "GOOGLE", "types": ["point_of_interest", "establishment"], "vicinity": "60 K Street # 3, South Boston"}, "ChIJ755VB5B644kRCEyP0pNuUJI": {"geometry": {"location": {"lat": 42.339245, "lng": -71.03753}, "viewport": {"northeast": {"lat": 42.3405945302915, "lng": -71.0361555197085}, "southwest": {"lat": 42.33789656970851, "lng": -71.03885348029151}}}, "icon": "https://maps.gstatic.com/mapfiles/place_api/icons/generic_business-71.png", "id": "58cd5f79eef6b8e2e42b89d0d3691234c1b549ad", "name": "Hardesty & Hanover", "place_id": "ChIJ755VB5B644kRCEyP0pNuUJI", "plus_code": {"compound_code": "8XQ6+MX Boston, Massachusetts, United States", "global_code": "87JC8XQ6+MX"}, "reference": "ChIJ755VB5B644kRCEyP0pNuUJI", "scope": "GOOGLE", "types": ["point_of_interest", "establishment"], "vicinity": "60 K Street # 4, Boston"}, "ChIJ755VB5B644kRift42AM2qTw": {"geometry": {"location": {"lat": 42.3392585, "lng": -71.0374209}, "viewport": {"northeast": {"lat": 42.3406060302915, "lng": -71.0361352697085}, "southwest": {"lat": 42.3379080697085, "lng": -71.03883323029152}}}, "icon": "https://maps.gstatic.com/mapfiles/place_api/icons/generic_business-71.png", "id": "d589ca277b2cbfb4056a0e46b2205a2b060be727", "name": "Scott Goodwin Photography Inc", "place_id": "ChIJ755VB5B644kRift42AM2qTw", "plus_code": {"compound_code": "8XQ7+P2 Boston, Massachusetts, United States", "global_code": "87JC8XQ7+P2"}, "reference": "ChIJ755VB5B644kRift42AM2qTw", "scope": "GOOGLE", "types": ["point_of_interest", "establishment"], "vicinity": "60 K Street, Boston"}, "ChIJGzE9DS1l44kRoOhiASS_fHg": {"geometry": {"location": {"lat": 42.3600825, "lng": -71.0588801}, "viewport": {"northeast": {"lat": 42.40081989999999, "lng": -70.749455}, "southwest": {"lat": 42.22788, "lng": -71.191113}}}, "icon": "https://maps.gstatic.com/mapfiles/place_api/icons/geocode-71.png", "id": "06755c25d2b34d13942a4713971756a55b870ced", "name": "Boston", "photos": [{"height": 3024, "html_attributions": ["<a href=\"https://maps.google.com/maps/contrib/104670289779338733432/photos\">Natalia Zalucean</a>"], "photo_reference": "CmRaAAAAml1WoXoHxzKe79rqAsLpt7ltUlcMFp93twHRVCgr1DpJ8mAUeCX7_ZZH4QTofAb2NnOrplLV2iwbMM3_X_yGJHplZYgkSFSvF4v8EhzFyLpC-SOxzeXpBIaOZryIIb0EEhA6hC-qChKWz_aeAFaj030EGhToQWupj09hbBG9xpKJXpIyPbZTPw", "width": 4032}], "place_id": "ChIJGzE9DS1l44kRoOhiASS_fHg", "reference": "ChIJGzE9DS1l44kRoOhiASS_fHg", "scope": "GOOGLE", "types": ["locality", "political"], "vicinity": "Boston"}, "ChIJJfxHxWJ644kR2zBBJQCX404": {"geometry": {"location": {"lat": 42.3384844, "lng": -71.0372874}, "viewport": {"northeast": {"lat": 42.33983148029149, "lng": -71.0360565197085}, "southwest": {"lat": 42.3371335197085, "lng": -71.03875448029152}}}, "icon": "https://maps.gstatic.com/mapfiles/place_api/icons/generic_business-71.png", "id": "63225f2a1cabc450dc3b53b473e27724937f2d8f", "name": "MGM Electric Co Inc", "place_id": "ChIJJfxHxWJ644kR2zBBJQCX404", "plus_code": {"compound_code": "8XQ7+93 Boston, Massachusetts, United States", "global_code": "87JC8XQ7+93"}, "reference": "ChIJJfxHxWJ644kR2zBBJQCX404", "scope": "GOOGLE", "types": ["electrician", "point_of_interest", "establishment"], "vicinity": "110 K Street # 3, South Boston"}, "ChIJS2m-G5B644kRoamuL1MkyWI": {"geometry": {"location": {"lat": 42.3384844, "lng": -71.0372874}, "viewport": {"northeast": {"lat": 42.33983148029149, "lng": -71.0360565197085}, "southwest": {"lat": 42.3371335197085, "lng": -71.03875448029152}}}, "icon": "https://maps.gstatic.com/mapfiles/place_api/icons/generic_business-71.png", "id": "a71fe4b280477906d5066eab792749c15ab3c617", "name": "Meghan Lewis Interiors", "place_id": "ChIJS2m-G5B644kRoamuL1MkyWI", "plus_code": {"compound_code": "8XQ7+93 Boston, Massachusetts, United States", "global_code": "87JC8XQ7+93"}, "reference": "ChIJS2m-G5B644kRoamuL1MkyWI", "scope": "GOOGLE", "types": ["general_contractor", "point_of_interest", "establishment"], "vicinity": "110 K Street, Boston"}, "ChIJpQhRGpB644kRi8t3Pog0YM0": {"geometry": {"location": {"lat": 42.3384696, "lng": -71.0373019}, "viewport": {"northeast": {"lat": 42.33981678029149, "lng": -71.0360635697085}, "southwest": {"lat": 42.3371188197085, "lng": -71.03876153029151}}}, "icon": "https://maps.gstatic.com/mapfiles/place_api/icons/generic_business-71.png", "id": "f3d9a53758e55043e8ae9e68baed33ec509238b1", "name": "Saskia Byalik", "opening_hours": {"open_now": true}, "photos": [{"height": 2977, "html_attributions": ["<a href=\"https://maps.google.com/maps/contrib/112694463949752502072/photos\">Aleksei Isin</a>"], "photo_reference": "CmRaAAAAxeunnIJqBieW0s0CnarFqtVL-w306ikpz4QwGPxzb6AB65HbEvOv9kGjdaSWcFl3cebWjmUGHKXHN8y4h7FwDO14QSH9ySSsKPLEj5UxfJIKJwlUbgT9gj1Equ9gSkVREhC3eIB2xlguJnK9LOBXRVCHGhSE-8eK4eZYYjwwAhv-BrNY48x7yA", "width": 2383}], "place_id": "ChIJpQhRGpB644kRi8t3Pog0YM0", "plus_code": {"compound_code": "8XQ7+93 Boston, Massachusetts, United States", "global_code": "87JC8XQ7+93"}, "rating": 5, "reference": "ChIJpQhRGpB644kRi8t3Pog0YM0", "scope": "GOOGLE", "types": ["point_of_interest", "establishment"], "user_ratings_total": 1, "vicinity": "110 K Street, Boston"}, "ChIJ__9PGpB644kRqCajvtDXUUY": {"geometry": {"location": {"lat": 42.3384696, "lng": -71.0373019}, "viewport": {"northeast": {"lat": 42.33981678029149, "lng": -71.0360635697085}, "southwest": {"lat": 42.3371188197085, "lng": -71.03876153029151}}}, "icon": "https://maps.gstatic.com/mapfiles/place_api/icons/generic_business-71.png", "id": "debe66d0393e6a0b03eaca0979156d2010040572", "name": "o heir development", "place_id": "ChIJ__9PGpB644kRqCajvtDXUUY", "plus_code": {"compound_code": "8XQ7+93 Boston, Massachusetts, United States", "global_code": "87JC8XQ7+93"}, "reference": "ChIJ__9PGpB644kRqCajvtDXUUY", "scope": "GOOGLE", "types": ["general_contractor", "point_of_interest", "establishment"], "vicinity": "110 K Street, Boston"}, "ChIJmdc-4ON744kROaV8NG87Zkw": {"geometry": {"location": {"lat": 42.3384696, "lng": -71.0373019}, "viewport": {"northeast": {"lat": 42.33981678029149, "lng": -71.0360635697085}, "southwest": {"lat": 42.3371188197085, "lng": -71.03876153029151}}}, "icon": "https://maps.gstatic.com/mapfiles/place_api/icons/generic_business-71.png", "id": "b7d617954c8ddf24dfff1260d64fd3e49ff1b8cd", "name": "Handyman Jack of All Trades", "place_id": "ChIJmdc-4ON744kROaV8NG87Zkw", "plus_code": {"compound_code": "8XQ7+93 Boston, Massachusetts, United States", "global_code": "87JC8XQ7+93"}, "reference": "ChIJmdc-4ON744kROaV8NG87Zkw", "scope": "GOOGLE", "types": ["general_contractor", "point_of_interest", "establishment"], "vicinity": "110 K Street, Boston"}, "ChIJpQhRGpB644kRy0ce-h6_f2E": {"geometry": {"location": {"lat": 42.3384696, "lng": -71.0373019}, "viewport": {"northeast": {"lat": 42.33981678029149, "lng": -71.0360635697085}, "southwest": {"lat": 42.3371188197085, "lng": -71.03876153029151}}}, "icon": "https://maps.gstatic.com/mapfiles/place_api/icons/generic_business-71.png", "id": "d666091db255616d3f93a9866350f232c4574427", "name": "Kulin Modern", "place_id": "ChIJpQhRGpB644kRy0ce-h6_f2E", "plus_code": {"compound_code": "8XQ7+93 Boston, Massachusetts, United States", "global_code": "87JC8XQ7+93"}, "reference": "ChIJpQhRGpB644kRy0ce-h6_f2E", "scope": "GOOGLE", "types": ["point_of_interest", "establishment"], "vicinity": "110 K Street, Boston"}, "ChIJL9hYGpB644kR22mjni1Bb7c": {"geometry": {"location": {"lat": 42.3384817, "lng": -71.03726710000001}, "viewport": {"northeast": {"lat": 42.3398285802915, "lng": -71.03604631970849}, "southwest": {"lat": 42.3371306197085, "lng": -71.0387442802915}}}, "icon": "https://maps.gstatic.com/mapfiles/place_api/icons/generic_business-71.png", "id": "afa0160eb32b193d0fde5f2bf1df5857ce9a1829", "name": "PS For You", "place_id": "ChIJL9hYGpB644kR22mjni1Bb7c", "plus_code": {"compound_code": "8XQ7+93 Boston, Massachusetts, United States", "global_code": "87JC8XQ7+93"}, "reference": "ChIJL9hYGpB644kR22mjni1Bb7c", "scope": "GOOGLE", "types": ["point_of_interest", "establishment"], "vicinity": "110 K Street, Boston"}, "ChIJhSG42XR644kRhQuXFRtF7FE": {"geometry": {"location": {"lat": 42.338457, "lng": -71.03728699999999}, "viewport": {"northeast": {"lat": 42.33980408029149, "lng": -71.03605591970849}, "southwest": {"lat": 42.33710611970849, "lng": -71.0387538802915}}}, "icon": "https://maps.gstatic.com/mapfiles/place_api/icons/generic_business-71.png", "id": "9230f1be899d757c30f3c15e0e7550d5d579c330", "name": "ITHomeDesign LLC", "opening_hours": {"open_now": true}, "photos": [{"height": 810, "html_attributions": ["<a href=\"https://maps.google.com/maps/contrib/107235591420970283938/photos\">ITHomeDesign LLC</a>"], "photo_reference": "CmRaAAAATVA-ECLxhQ-InXnf7pX-e4w1GN5IC-v2GFnr9FicnC5giugHPoHfkU0lxl6oEeRpeJSxO_bHnn-SgfYqwYHd1e1j7pNgmznQLQj4cWHWrYgKNAOYBfmEsdPWD4WhhW2LEhDMpHH2OK3yN2cMW73w3fOKGhT2MafknhKPrMvP8URBOXdq_RWnPg", "width": 1440}], "place_id": "ChIJhSG42XR644kRhQuXFRtF7FE", "plus_code": {"compound_code": "8XQ7+93 Boston, Massachusetts, United States", "global_code": "87JC8XQ7+93"}, "rating": 5, "reference": "ChIJhSG42XR644kRhQuXFRtF7FE", "scope": "GOOGLE", "types": ["electronics_store", "home_goods_store", "store", "general_contractor", "point_of_interest", "establishment"], "user_ratings_total": 2, "vicinity": "110 K Street STE 330, Boston"}, "ChIJ__9PGpB644kR0vtut1SkOA4": {"geometry": {"location": {"lat": 42.3384568, "lng": -71.0372873}, "viewport": {"northeast": {"lat": 42.3398038802915, "lng": -71.03605606970848}, "southwest": {"lat": 42.3371059197085, "lng": -71.0387540302915}}}, "icon": "https://maps.gstatic.com/mapfiles/place_api/icons/generic_business-71.png", "id": "e7b397d32c919551d4268a67f25bdc23bf809a38", "name": "OnPoint Capital", "opening_hours": {"open_now": true}, "photos": [{"height": 1073, "html_attributions": ["<a href=\"https://maps.google.com/maps/contrib/107696941508351077750/photos\">OnPoint Capital</a>"], "photo_reference": "CmRaAAAASd_I_ZDFJ96d6tzMZx3lN6oBdm3H3kCHtB7RPFgRRzuru_UItgNcI4AB-mRSfG9EeV6FJjd9XL_cSlNn61I6JO_PcAZzXO0xMwLJ-ZsfHmEqvWbVJ4CtS4M-iNEgB3ErEhDFwneCOA44NvFTS3VKwttkGhQv4rz5Z55iGpQr9Nx2_F0LjIxVjA", "width": 2931}], "place_id": "ChIJ__9PGpB644kR0vtut1SkOA4", "plus_code": {"compound_code": "8XQ7+93 Boston, Massachusetts, United States", "global_code": "87JC8XQ7+93"}, "reference": "ChIJ__9PGpB644kR0vtut1SkOA4", "scope": "GOOGLE", "types": ["general_contractor", "point_of_interest", "establishment"], "vicinity": "110 K Street, Boston"}, "ChIJ3X9XGpB644kRrdeIs3pWsfc": {"geometry": {"location": {"lat": 42.3384572, "lng": -71.03726270000001}, "viewport": {"northeast": {"lat": 42.3398040802915, "lng": -71.0360437697085}, "southwest": {"lat": 42.3371061197085, "lng": -71.0387417302915}}}, "icon": "https://maps.gstatic.com/mapfiles/place_api/icons/generic_business-71.png", "id": "73e70e2676f6d8d8e81a9d6f1b2ec3aac37fd9cb", "name": "Mobile Innovation Space", "opening_hours": {"open_now": true}, "photos": [{"height": 1080, "html_attributions": ["<a href=\"https://maps.google.com/maps/contrib/109946965795744270430/photos\">Aaron Cronin</a>"], "photo_reference": "CmRaAAAA5cn8gMYpt91G0Bj9yWaAjeNanJDQVkK9zMjWMHmNE4xt4jhmpu3y5N-M9MMyeN05GT55jtMVt3crDJHuTK5PWBPr2OqNr_tI4vH7wb9KSxBfbZG0N__fPHIu33ZGtlk5EhBmjVk8FP39epPn9HtMGhfTGhSPMPCNZKWEZtLroDvi_tx6YylhTA", "width": 1620}], "place_id": "ChIJ3X9XGpB644kRrdeIs3pWsfc", "plus_code": {"compound_code": "8XQ7+93 Boston, Massachusetts, United States", "global_code": "87JC8XQ7+93"}, "rating": 5, "reference": "ChIJ3X9XGpB644kRrdeIs3pWsfc", "scope": "GOOGLE", "types": ["real_estate_agency", "point_of_interest", "establishment"], "user_ratings_total": 1, "vicinity": "110 K Street Ste 3, Boston"}, "ChIJsdxj4S1744kRfaNHc2rJ8WA": {"geometry": {"location": {"lat": 42.3385285, "lng": -71.0370551}, "viewport": {"northeast": {"lat": 42.3396713802915, "lng": -71.0357022697085}, "southwest": {"lat": 42.3369734197085, "lng": -71.0384002302915}}}, "icon": "https://maps.gstatic.com/mapfiles/place_api/icons/generic_business-71.png", "id": "0998b33563447f36029ab815f6340a01d7387202", "name": "Hook and Loop Fabrication Studio", "place_id": "ChIJsdxj4S1744kRfaNHc2rJ8WA", "plus_code": {"compound_code": "8XQ7+C5 Boston, Massachusetts, United States", "global_code": "87JC8XQ7+C5"}, "reference": "ChIJsdxj4S1744kRfaNHc2rJ8WA", "scope": "GOOGLE", "types": ["general_contractor", "point_of_interest", "establishment"], "vicinity": "570 East 1st Street, Boston"}}