{"ChIJUa4Obo5644kRPmD67f934o4": {"geometry": {"location": {"lat": 42.3355598, "lng": -71.03970249999999}, "viewport": {"northeast": {"lat": 42.33690878029149, "lng": -71.0383535197085}, "southwest": {"lat": 42.3342108197085, "lng": -71.04105148029151}}}, "icon": "https://maps.gstatic.com/mapfiles/place_api/icons/geocode-71.png", "id": "3312a0e8a5998974b06b424e513221601a2a73a4", "name": "618-602 E Broadway", "place_id": "ChIJUa4Obo5644kRPmD67f934o4", "reference": "ChIJUa4Obo5644kRPmD67f934o4", "scope": "GOOGLE", "types": ["route"], "vicinity": "Boston"}, "ChIJCUoNbo5644kR-XoV71ASXNw": {"geometry": {"location": {"lat": 42.3356837, "lng": -71.0397404}, "viewport": {"northeast": {"lat": 42.3369704802915, "lng": -71.0383898197085}, "southwest": {"lat": 42.3342725197085, "lng": -71.0410877802915}}}, "icon": "https://maps.gstatic.com/mapfiles/place_api/icons/shopping-71.png", "id": "44ad0d46dc2026030600a1f1a3a430db42b4f367", "name": "The Hub", "place_id": "ChIJCUoNbo5644kR-XoV71ASXNw", "plus_code": {"compound_code": "8XP6+74 Boston, Massachusetts, United States", "global_code": "87JC8XP6+74"}, "rating": 3.3, "reference": "ChIJCUoNbo5644kR-XoV71ASXNw", "scope": "GOOGLE", "types": ["liquor_store", "store", "point_of_interest", "establishment"], "user_ratings_total": 3, "vicinity": "604 East Broadway, Boston"}, "ChIJCUoNbo5644kR3AS8raUTF0U": {"geometry": {"location": {"lat": 42.3357736, "lng": -71.0397248}, "viewport": {"northeast": {"lat": 42.33701558029149, "lng": -71.0383731197085}, "southwest": {"lat": 42.33431761970849, "lng": -71.0410710802915}}}, "icon": "https://maps.gstatic.com/mapfiles/place_api/icons/atm-71.png", "id": "8188110db6d747aaadae540a1d30a22c8844b9d7", "name": "Cardtronics ATM", "place_id": "ChIJCUoNbo5644kR3AS8raUTF0U", "plus_code": {"compound_code": "8XP6+84 Boston, Massachusetts, United States", "global_code": "87JC8XP6+84"}, "reference": "ChIJCUoNbo5644kR3AS8raUTF0U", "scope": "GOOGLE", "types": ["atm", "finance", "store", "point_of_interest", "establishment"], "vicinity": "604 East Broadway, Boston"}, "ChIJU1fCZY5644kRgdulTPUEvak": {"geometry": {"location": {"lat": 42.3358137, "lng": -71.0402287}, "viewport": {"northeast": {"lat": 42.33711348029149, "lng": -71.03890771970849}, "southwest": {"lat": 42.33441551970849, "lng": -71.04160568029151}}}, "icon": "https://maps.gstatic.com/mapfiles/place_api/icons/shopping-71.png", "id": "9ec1b82f23bc22e510cfb655d417bc8f9e5a77ce", "name": "Federico's Bike Shop", "opening_hours": {"open_now": true}, "place_id": "ChIJU1fCZY5644kRgdulTPUEvak", "plus_code": {"compound_code": "8XP5+8W Boston, Massachusetts, United States", "global_code": "87JC8XP5+8W"}, "rating": 4.2, "reference": "ChIJU1fCZY5644kRgdulTPUEvak", "scope": "GOOGLE", "types": ["bicycle_store", "store", "point_of_interest", "establishment"], "user_ratings_total": 21, "vicinity": "126 Emerson Street, Boston"}, "ChIJsxUmbY5644kRhg_-ddKwwlw": {"geometry": {"location": {"lat": 42.3357036, "lng": -71.039382}, "viewport": {"northeast": {"lat": 42.33698308029149, "lng": -71.03803091970849}, "southwest": {"lat": 42.33428511970849, "lng": -71.04072888029151}}}, "icon": "https://maps.gstatic.com/mapfiles/place_api/icons/generic_business-71.png", "id": "d790787b3248ca6e08df69ff93cf310b9c2c5237", "name": "Thai Spa Of South Boston", "opening_hours": {"open_now": true}, "place_id": "ChIJsxUmbY5644kRhg_-ddKwwlw", "plus_code": {"compound_code": "8XP6+76 Boston, Massachusetts, United States", "global_code": "87JC8XP6+76"}, "rating": 5, "reference": "ChIJsxUmbY5644kRhg_-ddKwwlw", "scope": "GOOGLE", "types": ["spa", "point_of_interest", "establishment"], "user_ratings_total": 23, "vicinity": "620 East Broadway, Boston"}, "ChIJi0ZFYY5644kR1aBrUYOChKE": {"geometry": {"location": {"lat": 42.336018, "lng": -71.040543}, "viewport": {"northeast": {"lat": 42.33727253029149, "lng": -71.0392477697085}, "southwest": {"lat": 42.33457456970849, "lng": -71.0419457302915}}}, "icon": "https://maps.gstatic.com/mapfiles/place_api/icons/generic_business-71.png", "id": "e1a3e23b3971dea49f69a4f406701c645a2b4db7", "name": "Best PC HaBITS", "place_id": "ChIJi0ZFYY5644kR1aBrUYOChKE", "plus_code": {"compound_code": "8XP5+CQ Boston, Massachusetts, United States", "global_code": "87JC8XP5+CQ"}, "reference": "ChIJi0ZFYY5644kR1aBrUYOChKE", "scope": "GOOGLE", "types": ["point_of_interest", "establishment"], "vicinity": "108 Emerson Street, Boston"}, "ChIJ4U-WY45644kRoXokVmEkz1A": {"geometry": {"location": {"lat": 42.33588719999999, "lng": -71.04057159999999}, "viewport": {"northeast": {"lat": 42.3372010802915, "lng": -71.03924261970849}, "southwest": {"lat": 42.3345031197085, "lng": -71.0419405802915}}}, "icon": "https://maps.gstatic.com/mapfiles/place_api/icons/generic_business-71.png", "id": "30432e23a219538d89565d2d5a89ab94e10a7271", "name": "New England Eye Specialists", "place_id": "ChIJ4U-WY45644kRoXokVmEkz1A", "plus_code": {"compound_code": "8XP5+9Q Boston, Massachusetts, United States", "global_code": "87JC8XP5+9Q"}, "reference": "ChIJ4U-WY45644kRoXokVmEkz1A", "scope": "GOOGLE", "types": ["doctor", "health", "point_of_interest", "establishment"], "vicinity": "110 Emerson Street, Boston"}, "ChIJ4U-WY45644kR7AsxRF2PhxY": {"geometry": {"location": {"lat": 42.33588719999999, "lng": -71.04057159999999}, "viewport": {"northeast": {"lat": 42.3372010802915, "lng": -71.03924261970849}, "southwest": {"lat": 42.3345031197085, "lng": -71.0419405802915}}}, "icon": "https://maps.gstatic.com/mapfiles/place_api/icons/generic_business-71.png", "id": "c5ba5f35ac21e16b1e8d07e0150d25c90d89aa88", "name": "Dr. Nigel H. Timothy, MD", "place_id": "ChIJ4U-WY45644kR7AsxRF2PhxY", "plus_code": {"compound_code": "8XP5+9Q Boston, Massachusetts, United States", "global_code": "87JC8XP5+9Q"}, "reference": "ChIJ4U-WY45644kR7AsxRF2PhxY", "scope": "GOOGLE", "types": ["doctor", "health", "point_of_interest", "establishment"], "vicinity": "110 Emerson Street #2a, Boston"}, "ChIJfTY7ZI5644kR2lWH-D6ssIs": {"geometry": {"location": {"lat": 42.3358629, "lng": -71.04040789999999}, "viewport": {"northeast": {"lat": 42.3371654802915, "lng": -71.03908531970849}, "southwest": {"lat": 42.3344675197085, "lng": -71.04178328029151}}}, "icon": "https://maps.gstatic.com/mapfiles/place_api/icons/bar-71.png", "id": "aec0bf2efa7a03d06e986b800158d228a9648ab0", "name": "Tom English's Cottage", "opening_hours": {"open_now": true}, "photos": [{"height": 2988, "html_attributions": ["<a href=\"https://maps.google.com/maps/contrib/102830110447442385939/photos\">Brandon Morgan</a>"], "photo_reference": "CmRaAAAADaRahOv9xSbwi8FFA9_8o24DJgH0Wk9scaOvLAIWxFANoONNEAB722zwKk1n1_57_5G3keEQw9IeszL95_I-9hS22cSFzq54YKQoChFH7wVVvo4RDvlRaCStvjsZ-eVvEhDTGnndmIWozOHfCTsFU_-_GhTHWg28kBpdyv3o3mKzyVvBRqwVWw", "width": 5312}], "place_id": "ChIJfTY7ZI5644kR2lWH-D6ssIs", "plus_code": {"compound_code": "8XP5+8R Boston, Massachusetts, United States", "global_code": "87JC8XP5+8R"}, "price_level": 1, "rating": 4.3, "reference": "ChIJfTY7ZI5644kR2lWH-D6ssIs", "scope": "GOOGLE", "types": ["bar", "point_of_interest", "establishment"], "user_ratings_total": 58, "vicinity": "118 Emerson Street, Boston"}, "ChIJi9AmQ45644kRG2NmCtoyGdk": {"geometry": {"location": {"lat": 42.33630189999999, "lng": -71.0400434}, "viewport": {"northeast": {"lat": 42.33765193029149, "lng": -71.0386374697085}, "southwest": {"lat": 42.33495396970849, "lng": -71.04133543029151}}}, "icon": "https://maps.gstatic.com/mapfiles/place_api/icons/generic_business-71.png", "id": "e819267f85bc0bba9cb2b2518f1f3345ed02c9b4", "name": "Fifty Five I Street", "place_id": "ChIJi9AmQ45644kRG2NmCtoyGdk", "plus_code": {"compound_code": "8XP5+GX Boston, Massachusetts, United States", "global_code": "87JC8XP5+GX"}, "reference": "ChIJi9AmQ45644kRG2NmCtoyGdk", "scope": "GOOGLE", "types": ["real_estate_agency", "point_of_interest", "establishment"], "vicinity": "55 I Street, South Boston"}, "ChIJ7_gFbY5644kR1hr7RmBtJxA": {"geometry": {"location": {"lat": 42.3357498, "lng": -71.0395856}, "viewport": {"northeast": {"lat": 42.3370046302915, "lng": -71.03823421970849}, "southwest": {"lat": 42.3343066697085, "lng": -71.0409321802915}}}, "icon": "https://maps.gstatic.com/mapfiles/place_api/icons/generic_business-71.png", "id": "09dd9d79c04b8ece07c7ffd91ef017cfd28f7ee9", "name": "Fasignation", "place_id": "ChIJ7_gFbY5644kR1hr7RmBtJxA", "plus_code": {"compound_code": "8XP6+75 Boston, Massachusetts, United States", "global_code": "87JC8XP6+75"}, "reference": "ChIJ7_gFbY5644kR1hr7RmBtJxA", "scope": "GOOGLE", "types": ["point_of_interest", "establishment"], "vicinity": "614 East Broadway, Boston"}, "ChIJlyw_bI5644kR6N9GsNWYmV8": {"geometry": {"location": {"lat": 42.3357498, "lng": -71.0395856}, "viewport": {"northeast": {"lat": 42.3370046302915, "lng": -71.03823421970849}, "southwest": {"lat": 42.3343066697085, "lng": -71.0409321802915}}}, "icon": "https://maps.gstatic.com/mapfiles/place_api/icons/atm-71.png", "id": "f51de3db2c72834f6a2241e6373d5546f6a7db58", "name": "Bank of America ATM", "opening_hours": {"open_now": true}, "place_id": "ChIJlyw_bI5644kR6N9GsNWYmV8", "plus_code": {"compound_code": "8XP6+75 Boston, Massachusetts, United States", "global_code": "87JC8XP6+75"}, "reference": "ChIJlyw_bI5644kR6N9GsNWYmV8", "scope": "GOOGLE", "types": ["atm", "finance", "point_of_interest", "establishment"], "vicinity": "612 East Broadway, South Boston"}, "ChIJW6TFbY5644kRuhfX3PL1m88": {"geometry": {"location": {"lat": 42.335594, "lng": -71.039686}, "viewport": {"northeast": {"lat": 42.3369404802915, "lng": -71.03833691970848}, "southwest": {"lat": 42.3342425197085, "lng": -71.04103488029149}}}, "icon": "https://maps.gstatic.com/mapfiles/place_api/icons/bus-71.png", "id": "c9f0808feb6b0176fea192b30bddfead529ed737", "name": "E Broadway @ I St", "place_id": "ChIJW6TFbY5644kRuhfX3PL1m88", "plus_code": {"compound_code": "8XP6+64 Boston, Massachusetts, United States", "global_code": "87JC8XP6+64"}, "reference": "ChIJW6TFbY5644kRuhfX3PL1m88", "scope": "GOOGLE", "types": ["bus_station", "transit_station", "point_of_interest", "establishment"], "vicinity": "United States"}, "ChIJ7TsnE45644kR7AX16x5AEic": {"geometry": {"location": {"lat": 42.33571, "lng": -71.0393534}, "viewport": {"northeast": {"lat": 42.33698653029149, "lng": -71.03800221970849}, "southwest": {"lat": 42.3342885697085, "lng": -71.0407001802915}}}, "icon": "https://maps.gstatic.com/mapfiles/place_api/icons/generic_business-71.png", "id": "9205c875d670197c9d006f032f4d06ce72a93222", "name": "624 634 E Brd Condo Association", "place_id": "ChIJ7TsnE45644kR7AX16x5AEic", "plus_code": {"compound_code": "8XP6+77 Boston, Massachusetts, United States", "global_code": "87JC8XP6+77"}, "reference": "ChIJ7TsnE45644kR7AX16x5AEic", "scope": "GOOGLE", "types": ["point_of_interest", "establishment"], "vicinity": "624 East Broadway, Boston"}, "ChIJlcwubo5644kR2TvBHlZh42w": {"geometry": {"location": {"lat": 42.3355445, "lng": -71.039903}, "viewport": {"northeast": {"lat": 42.33687448029151, "lng": -71.03855351970849}, "southwest": {"lat": 42.33417651970851, "lng": -71.04125148029149}}}, "icon": "https://maps.gstatic.com/mapfiles/place_api/icons/generic_business-71.png", "id": "d0d25b8fc7fe738c32370e742f8c118fa45e387a", "name": "E Broadway @ I St", "place_id": "ChIJlcwubo5644kR2TvBHlZh42w", "plus_code": {"compound_code": "8XP6+62 Boston, Massachusetts, United States", "global_code": "87JC8XP6+62"}, "reference": "ChIJlcwubo5644kR2TvBHlZh42w", "scope": "GOOGLE", "types": ["transit_station", "point_of_interest", "establishment"], "vicinity": "United States"}, "ChIJN8TXt4l644kRLk0jUsPGFf4": {"geometry": {"location": {"lat": 42.336559, "lng": -71.04007399999999}, "viewport": {"northeast": {"lat": 42.3379086802915, "lng": -71.03865601970848}, "southwest": {"lat": 42.3352107197085, "lng": -71.04135398029149}}}, "icon": "https://maps.gstatic.com/mapfiles/place_api/icons/generic_business-71.png", "id": "1e5e848905e12789af32916818308e5b77d7a82d", "name": "Parks Sarah E", "place_id": "ChIJN8TXt4l644kRLk0jUsPGFf4", "reference": "ChIJN8TXt4l644kRLk0jUsPGFf4", "scope": "GOOGLE", "types": ["health", "point_of_interest", "establishment"], "vicinity": "850 Harrison Ave # 3rd, Boston"}, "ChIJL16PY45644kRvoAkVfVwMS4": {"geometry": {"location": {"lat": 42.3358762, "lng": -71.0405346}, "viewport": {"northeast": {"lat": 42.3371898802915, "lng": -71.0392057197085}, "southwest": {"lat": 42.3344919197085, "lng": -71.04190368029151}}}, "icon": "https://maps.gstatic.com/mapfiles/place_api/icons/generic_business-71.png", "id": "8f5eb11037979a0cc1f8416abd407f1a5d33c691", "name": "Klibanski Anne MD", "place_id": "ChIJL16PY45644kRvoAkVfVwMS4", "plus_code": {"compound_code": "8XP5+9Q Boston, Massachusetts, United States", "global_code": "87JC8XP5+9Q"}, "reference": "ChIJL16PY45644kRvoAkVfVwMS4", "scope": "GOOGLE", "types": ["doctor", "health", "point_of_interest", "establishment"], "vicinity": "112 Emerson Street, Boston"}, "ChIJL16PY45644kRJDDJezI_LvQ": {"geometry": {"location": {"lat": 42.3358762, "lng": -71.0405346}, "viewport": {"northeast": {"lat": 42.3371898802915, "lng": -71.0392057197085}, "southwest": {"lat": 42.3344919197085, "lng": -71.04190368029151}}}, "icon": "https://maps.gstatic.com/mapfiles/place_api/icons/generic_business-71.png", "id": "7973be8b095e40f82bbc724e30f23a350e4dd01d", "name": "Wexler Tamara L MD", "place_id": "ChIJL16PY45644kRJDDJezI_LvQ", "plus_code": {"compound_code": "8XP5+9Q Boston, Massachusetts, United States", "global_code": "87JC8XP5+9Q"}, "reference": "ChIJL16PY45644kRJDDJezI_LvQ", "scope": "GOOGLE", "types": ["doctor", "health", "point_of_interest", "establishment"], "vicinity": "112 Emerson Street, Boston"}, "ChIJBc1gE45644kR3ROlVzh1As8": {"geometry": {"location": {"lat": 42.3356972, "lng": -71.03927569999999}, "viewport": {"northeast": {"lat": 42.3369807802915, "lng": -71.03792471970849}, "southwest": {"lat": 42.3342828197085, "lng": -71.0406226802915}}}, "icon": "https://maps.gstatic.com/mapfiles/place_api/icons/shopping-71.png", "id": "bb7a048d3627f045e5dabd8a96722e2bec95b1c7", "name": "6 Twelve Convenience", "opening_hours": {"open_now": true}, "place_id": "ChIJBc1gE45644kR3ROlVzh1As8", "plus_code": {"compound_code": "8XP6+77 Boston, Massachusetts, United States", "global_code": "87JC8XP6+77"}, "rating": 5, "reference": "ChIJBc1gE45644kR3ROlVzh1As8", "scope": "GOOGLE", "types": ["convenience_store", "store", "point_of_interest", "food", "establishment"], "user_ratings_total": 8, "vicinity": "628 East Broadway, Boston"}, "ChIJGzE9DS1l44kRoOhiASS_fHg": {"geometry": {"location": {"lat": 42.3600825, "lng": -71.0588801}, "viewport": {"northeast": {"lat": 42.40081989999999, "lng": -70.749455}, "southwest": {"lat": 42.22788, "lng": -71.191113}}}, "icon": "https://maps.gstatic.com/mapfiles/place_api/icons/geocode-71.png", "id": "06755c25d2b34d13942a4713971756a55b870ced", "name": "Boston", "photos": [{"height": 3024, "html_attributions": ["<a href=\"https://maps.google.com/maps/contrib/104670289779338733432/photos\">Natalia Zalucean</a>"], "photo_reference": "CmRaAAAATJ8MX6M9SktopwuNTz96uCETPgDiro3qd3Mnlz5ZmHvGoBw502eniQdBcVCLT0-Tw6DI9__IOWL2IHeqrdf3Xh_dfQ0wVigMHKS65NgamdyXwC-2ulqWwZKQBPf73c2AEhD4FxRKX73SMNUwJHpHnyr6GhQSPz7Fz0CmHA8WTIqI4FRPxZLAjQ", "width": 4032}], "place_id": "ChIJGzE9DS1l44kRoOhiASS_fHg", "reference": "ChIJGzE9DS1l44kRoOhiASS_fHg", "scope": "GOOGLE", "types": ["locality", "political"], "vicinity": "Boston"}, "ChIJb-mJxeZ744kRUWk_E98Hex4": {"geometry": {"location": {"lat": 42.3356709, "lng": -71.04044549999999}, "viewport": {"northeast": {"lat": 42.3369576302915, "lng": -71.0390948197085}, "southwest": {"lat": 42.3342596697085, "lng": -71.0417927802915}}}, "icon": "https://maps.gstatic.com/mapfiles/place_api/icons/shopping-71.png", "id": "95865bb97b462d44c2aabfc575563c4f3c731e8f", "name": "King Smoke Shop", "opening_hours": {"open_now": true}, "photos": [{"height": 3024, "html_attributions": ["<a href=\"https://maps.google.com/maps/contrib/115437419012688496145/photos\">King Smoke Shop</a>"], "photo_reference": "CmRaAAAAQpB2NTkK5WVA3CoqNdoQ7D1XyL3dFz8QPAxkmQCCfHjuUipmAY8WgOkatqeLcixPod4fV-KNj_J4necRejV2vL5U1d4qgGfyGPb8Ob9f9QIQfbqXgbbDdkts2Q4Al0XCEhDuAeGEmzvPtDDHmzsscAbKGhQloyFgBNsdwNa41kXQ_poFajzVYQ", "width": 4032}], "place_id": "ChIJb-mJxeZ744kRUWk_E98Hex4", "plus_code": {"compound_code": "8XP5+7R Boston, Massachusetts, United States", "global_code": "87JC8XP5+7R"}, "rating": 5, "reference": "ChIJb-mJxeZ744kRUWk_E98Hex4", "scope": "GOOGLE", "types": ["store", "point_of_interest", "establishment"], "user_ratings_total": 8, "vicinity": "600 East Broadway, Boston"}}