{"ChIJ3QneNIR744kRHgQk_vwBwLo": {"geometry": {"location": {"lat": 42.2820877, "lng": -71.0586036}, "viewport": {"northeast": {"lat": 42.2834366302915, "lng": -71.0572545697085}, "southwest": {"lat": 42.2807386697085, "lng": -71.05995253029151}}}, "icon": "https://maps.gstatic.com/mapfiles/place_api/icons/geocode-71.png", "id": "cb391a5de1e797ea14655e3541c6f9c63eb7fb94", "name": "451-453 Gallivan Blvd", "place_id": "ChIJ3QneNIR744kRHgQk_vwBwLo", "reference": "ChIJ3QneNIR744kRHgQk_vwBwLo", "scope": "GOOGLE", "types": ["route"], "vicinity": "Boston"}, "ChIJM-hUtYV744kRCkWDzcZjClk": {"geometry": {"location": {"lat": 42.282283, "lng": -71.058697}, "viewport": {"northeast": {"lat": 42.28353433029149, "lng": -71.0573011697085}, "southwest": {"lat": 42.28083636970849, "lng": -71.0599991302915}}}, "icon": "https://maps.gstatic.com/mapfiles/place_api/icons/generic_business-71.png", "id": "12b372de848a461f34ab931c35abe1356492105b", "name": "Titan Hardwood Floors Services", "opening_hours": {"open_now": true}, "photos": [{"height": 3024, "html_attributions": ["<a href=\"https://maps.google.com/maps/contrib/117685046301263418387/photos\">Titan Hardwood Floors Services</a>"], "photo_reference": "CmRaAAAAfYbjmAxyUQqGY2JrOLOfB34UTsSzg_4m6hyWv6DjawAnn3rVnCvY1-ABLXNwJ2Rm15UlAul-7SGXgiBSiRBAJGl_LYbHnHbkz4kDnTLEQJltwnmTkoRIokv3q-Vs_bEaEhDEGVHNFOIGmacOWxFRRINBGhTSRQponUDhRi4m5T9se9bcEnFWBw", "width": 4032}], "place_id": "ChIJM-hUtYV744kRCkWDzcZjClk", "plus_code": {"compound_code": "7WJR+WG Boston, Massachusetts, United States", "global_code": "87JC7WJR+WG"}, "rating": 5, "reference": "ChIJM-hUtYV744kRCkWDzcZjClk", "scope": "GOOGLE", "types": ["general_contractor", "point_of_interest", "establishment"], "user_ratings_total": 5, "vicinity": "440 Gallivan Boulevard, Dorchester Center"}, "ChIJp3n6NYR744kRSjD_X7wtZe8": {"geometry": {"location": {"lat": 42.28219, "lng": -71.05836699999999}, "viewport": {"northeast": {"lat": 42.28353338029149, "lng": -71.0570153697085}, "southwest": {"lat": 42.2808354197085, "lng": -71.05971333029152}}}, "icon": "https://maps.gstatic.com/mapfiles/place_api/icons/bus-71.png", "id": "ba35343c0a72cbcc4eace7514b64370178d585dc", "name": "Gallivan Blvd @ Frederika St", "place_id": "ChIJp3n6NYR744kRSjD_X7wtZe8", "plus_code": {"compound_code": "7WJR+VM Boston, Massachusetts, United States", "global_code": "87JC7WJR+VM"}, "reference": "ChIJp3n6NYR744kRSjD_X7wtZe8", "scope": "GOOGLE", "types": ["bus_station", "transit_station", "point_of_interest", "establishment"], "vicinity": "United States"}, "ChIJMXkwzIV744kRgj8k_-WdQO4": {"geometry": {"location": {"lat": 42.281913, "lng": -71.059005}, "viewport": {"northeast": {"lat": 42.2832919302915, "lng": -71.05766971970849}, "southwest": {"lat": 42.2805939697085, "lng": -71.06036768029149}}}, "icon": "https://maps.gstatic.com/mapfiles/place_api/icons/bus-71.png", "id": "47148592ce7dda4fc4c9272e95324c1b7bdc91ae", "name": "Gallivan Blvd @ Adams St", "place_id": "ChIJMXkwzIV744kRgj8k_-WdQO4", "plus_code": {"compound_code": "7WJR+Q9 Boston, Massachusetts, United States", "global_code": "87JC7WJR+Q9"}, "reference": "ChIJMXkwzIV744kRgj8k_-WdQO4", "scope": "GOOGLE", "types": ["bus_station", "transit_station", "point_of_interest", "establishment"], "vicinity": "United States"}, "ChIJGzE9DS1l44kRoOhiASS_fHg": {"geometry": {"location": {"lat": 42.3600825, "lng": -71.0588801}, "viewport": {"northeast": {"lat": 42.40081989999999, "lng": -70.749455}, "southwest": {"lat": 42.22788, "lng": -71.191113}}}, "icon": "https://maps.gstatic.com/mapfiles/place_api/icons/geocode-71.png", "id": "06755c25d2b34d13942a4713971756a55b870ced", "name": "Boston", "photos": [{"height": 3024, "html_attributions": ["<a href=\"https://maps.google.com/maps/contrib/104670289779338733432/photos\">Natalia Zalucean</a>"], "photo_reference": "CmRaAAAAA_7V_XfhCMnK6MOJKhAA7BV3-50u7lvqAP5A_u_E17-QeISMDWZTZRpwWpbjFc2FE_kkexrgq4NOTMDK0jVqwMBDDf-16eT7SE8boHhuFdARg9BYcYHbEvXv00nK5ZNKEhDx6n7Kp3qCLZFb498Pn_48GhTnVfibowc_LLJGHBBCp6oOqaVK1w", "width": 4032}], "place_id": "ChIJGzE9DS1l44kRoOhiASS_fHg", "reference": "ChIJGzE9DS1l44kRoOhiASS_fHg", "scope": "GOOGLE", "types": ["locality", "political"], "vicinity": "Boston"}}