{"ChIJFcYTixR644kR5JPhqukGwnQ": {"geometry": {"location": {"lat": 42.3400559, "lng": -71.0762616}, "viewport": {"northeast": {"lat": 42.3414004302915, "lng": -71.0749022}, "southwest": {"lat": 42.3387024697085, "lng": -71.0776346}}}, "icon": "https://maps.gstatic.com/mapfiles/place_api/icons/geocode-71.png", "id": "585ac815652839c9aaaa648c7093cc4b60c6060e", "name": "84-32 Rutland St", "place_id": "ChIJFcYTixR644kR5JPhqukGwnQ", "reference": "ChIJFcYTixR644kR5JPhqukGwnQ", "scope": "GOOGLE", "types": ["route"], "vicinity": "Boston"}, "ChIJG9yZ-BR644kR-d6GNn-m8_g": {"geometry": {"location": {"lat": 42.33927449999999, "lng": -71.0762877}, "viewport": {"northeast": {"lat": 42.34056863029149, "lng": -71.07502151970849}, "southwest": {"lat": 42.33787066970849, "lng": -71.07771948029149}}}, "icon": "https://maps.gstatic.com/mapfiles/place_api/icons/generic_business-71.png", "id": "a3529f01ac5583d60dcbcc2ca2ecefc0ffa40303", "name": "Old Boston Restorations", "place_id": "ChIJG9yZ-BR644kR-d6GNn-m8_g", "plus_code": {"compound_code": "8WQF+PF Boston, Massachusetts, United States", "global_code": "87JC8WQF+PF"}, "reference": "ChIJG9yZ-BR644kR-d6GNn-m8_g", "scope": "GOOGLE", "types": ["point_of_interest", "establishment"], "vicinity": "111 West Concord Street, Boston"}, "ChIJa_UB5RR644kR6IeD5Ssx7GI": {"geometry": {"location": {"lat": 42.33923639999999, "lng": -71.0756604}, "viewport": {"northeast": {"lat": 42.34049428029149, "lng": -71.0742076697085}, "southwest": {"lat": 42.3377963197085, "lng": -71.0769056302915}}}, "icon": "https://maps.gstatic.com/mapfiles/place_api/icons/shopping-71.png", "id": "b1155f67bc74c45872990fe09ba38bbcf6b212b9", "name": "Table & Tulip", "opening_hours": {"open_now": true}, "photos": [{"height": 3500, "html_attributions": ["<a href=\"https://maps.google.com/maps/contrib/113908276352911723851/photos\">Table &amp; Tulip</a>"], "photo_reference": "CmRaAAAAcYJ_Oj9rieJNTr_3H-AzzfIL7qt2q96MmXC3Ub_6nMgislfBz1W6xuEbb9FG9igEm-As6ZW9FHGQlTkctp01NFSauMSResztL81j2kWoww4Y0yjvwSMaTI6o2Tk8cLBsEhCLgF2K5NlJbRMqu6-6Lc2yGhR8lbBWUvWn2-AaDKvqp56vS2Th1Q", "width": 2336}], "place_id": "ChIJa_UB5RR644kR6IeD5Ssx7GI", "plus_code": {"compound_code": "8WQF+MP Boston, Massachusetts, United States", "global_code": "87JC8WQF+MP"}, "rating": 4.3, "reference": "ChIJa_UB5RR644kR6IeD5Ssx7GI", "scope": "GOOGLE", "types": ["florist", "store", "point_of_interest", "establishment"], "user_ratings_total": 8, "vicinity": "461 Shawmut Avenue, Boston"}, "ChIJMfyZ-BR644kRN7HSQgXjOJ4": {"geometry": {"location": {"lat": 42.3393649, "lng": -71.0763063}, "viewport": {"northeast": {"lat": 42.34064233029149, "lng": -71.0750653197085}, "southwest": {"lat": 42.3379443697085, "lng": -71.0777632802915}}}, "icon": "https://maps.gstatic.com/mapfiles/place_api/icons/school-71.png", "id": "ece0be0845a8464387e88df9147e996584e796ad", "name": "Balance at Urbanity Dance", "photos": [{"height": 4032, "html_attributions": ["<a href=\"https://maps.google.com/maps/contrib/105771776387888709220/photos\">Tyhgita C\u00e9spedes</a>"], "photo_reference": "CmRaAAAA0TegKmH4AutogelZBvN11Ew6gEniSUQlpAjtbervuQXPb9aDlJSe7OZhiQnIiTjvBXkcJ_7tPNmhq1ZX9VG5nJZhu7E6KkfQtUk1NJf3PF-LA-PzNMQ-KQIWqKYX0HPxEhCz7HRIcvAA4CVyB0edqa_BGhSGjZmyAbDgn5Cj451MKbx46PAEFQ", "width": 3024}], "place_id": "ChIJMfyZ-BR644kRN7HSQgXjOJ4", "plus_code": {"compound_code": "8WQF+PF Boston, Massachusetts, United States", "global_code": "87JC8WQF+PF"}, "rating": 5, "reference": "ChIJMfyZ-BR644kRN7HSQgXjOJ4", "scope": "GOOGLE", "types": ["gym", "health", "point_of_interest", "establishment"], "user_ratings_total": 1, "vicinity": "111 West Concord Street, Boston"}, "ChIJU8be8hR644kRrpT1a_FOi1M": {"geometry": {"location": {"lat": 42.33984359999999, "lng": -71.0759451}, "viewport": {"northeast": {"lat": 42.3411904802915, "lng": -71.07459931970848}, "southwest": {"lat": 42.3384925197085, "lng": -71.0772972802915}}}, "icon": "https://maps.gstatic.com/mapfiles/place_api/icons/generic_business-71.png", "id": "632df6a7bebe0aed7aaf36e8a042a505fa66a06b", "name": "Naturopathic Pharmd Services", "place_id": "ChIJU8be8hR644kRrpT1a_FOi1M", "plus_code": {"compound_code": "8WQF+WJ Boston, Massachusetts, United States", "global_code": "87JC8WQF+WJ"}, "reference": "ChIJU8be8hR644kRrpT1a_FOi1M", "scope": "GOOGLE", "types": ["health", "point_of_interest", "establishment"], "vicinity": "777 Concord Avenue #104, Cambridge"}, "ChIJF-XljBR644kRKfnZo7hFfkI": {"geometry": {"location": {"lat": 42.3400064, "lng": -71.0759317}, "viewport": {"northeast": {"lat": 42.3413057302915, "lng": -71.07465861970849}, "southwest": {"lat": 42.3386077697085, "lng": -71.0773565802915}}}, "icon": "https://maps.gstatic.com/mapfiles/place_api/icons/generic_business-71.png", "id": "cdc80ee008401dc3b32ef588795a59cb7c56d780", "name": "Attorney James P. Geraghty", "opening_hours": {"open_now": true}, "photos": [{"height": 418, "html_attributions": ["<a href=\"https://maps.google.com/maps/contrib/105208478684275149489/photos\">Attorney James P. Geraghty</a>"], "photo_reference": "CmRaAAAAyalNg6QjEvIgzbrEyZ8ownuQqc4K_82WskB1ScOXpHAEfuvT0nGN5vq3D0UdzIchOvnJi4TzqqmXSfgFVHR6NBBdLTcGrLAIlwPSG7lZxsng3gg3p28bt0c5098kcqd5EhDOgJOIQcUbYIrGLrq0j4QHGhRbvYo_cygA2E13AIdV-SuMYatl1A", "width": 475}], "place_id": "ChIJF-XljBR644kRKfnZo7hFfkI", "plus_code": {"compound_code": "8WRF+2J Boston, Massachusetts, United States", "global_code": "87JC8WRF+2J"}, "reference": "ChIJF-XljBR644kRKfnZo7hFfkI", "scope": "GOOGLE", "types": ["lawyer", "point_of_interest", "establishment"], "vicinity": "47 Rutland Street #4, Boston"}, "ChIJa_UB5RR644kRrlM3hUR8-ew": {"geometry": {"location": {"lat": 42.3391669, "lng": -71.0755911}, "viewport": {"northeast": {"lat": 42.3404577302915, "lng": -71.0741758697085}, "southwest": {"lat": 42.33775976970851, "lng": -71.0768738302915}}}, "icon": "https://maps.gstatic.com/mapfiles/place_api/icons/shopping-71.png", "id": "c90b50beb7aa390f0f17793b1bc3bdfc0b4c4432", "name": "Ambience Custom Floral Design", "place_id": "ChIJa_UB5RR644kRrlM3hUR8-ew", "plus_code": {"compound_code": "8WQF+MQ Boston, Massachusetts, United States", "global_code": "87JC8WQF+MQ"}, "reference": "ChIJa_UB5RR644kRrlM3hUR8-ew", "scope": "GOOGLE", "types": ["florist", "store", "point_of_interest", "establishment"], "vicinity": "461 Shawmut Avenue, Boston"}, "ChIJ5W7o8hR644kRqrRl14tK8D4": {"geometry": {"location": {"lat": 42.3398268, "lng": -71.0758934}, "viewport": {"northeast": {"lat": 42.34116208029149, "lng": -71.07456551970849}, "southwest": {"lat": 42.33846411970849, "lng": -71.0772634802915}}}, "icon": "https://maps.gstatic.com/mapfiles/place_api/icons/generic_business-71.png", "id": "7c4c4b0c7418fe33023180fb2b065758a138d94a", "name": "Dr. Jennifer L. Kertesz, MD", "place_id": "ChIJ5W7o8hR644kRqrRl14tK8D4", "plus_code": {"compound_code": "8WQF+WJ Boston, Massachusetts, United States", "global_code": "87JC8WQF+WJ"}, "reference": "ChIJ5W7o8hR644kRqrRl14tK8D4", "scope": "GOOGLE", "types": ["doctor", "health", "point_of_interest", "establishment"], "vicinity": "39 Rutland Street, Boston"}, "ChIJC8Mm_RR644kRhSSDLKBRFKU": {"geometry": {"location": {"lat": 42.33891870000001, "lng": -71.0759678}, "viewport": {"northeast": {"lat": 42.3402119302915, "lng": -71.0745504697085}, "southwest": {"lat": 42.3375139697085, "lng": -71.0772484302915}}}, "icon": "https://maps.gstatic.com/mapfiles/place_api/icons/generic_business-71.png", "id": "0e25a219db3f9e4503dbaf80def7908e75b67ace", "name": "Moxie Star Salon", "place_id": "ChIJC8Mm_RR644kRhSSDLKBRFKU", "plus_code": {"compound_code": "8WQF+HJ Boston, Massachusetts, United States", "global_code": "87JC8WQF+HJ"}, "rating": 3, "reference": "ChIJC8Mm_RR644kRhSSDLKBRFKU", "scope": "GOOGLE", "types": ["beauty_salon", "hair_care", "point_of_interest", "establishment"], "user_ratings_total": 2, "vicinity": "473 Shawmut Avenue, Boston"}, "ChIJKapU7BR644kRxpRYpfJCdWM": {"geometry": {"location": {"lat": 42.3396327, "lng": -71.0755671}, "viewport": {"northeast": {"lat": 42.3409475802915, "lng": -71.0742729197085}, "southwest": {"lat": 42.3382496197085, "lng": -71.07697088029151}}}, "icon": "https://maps.gstatic.com/mapfiles/place_api/icons/generic_business-71.png", "id": "eace40bb640600d04b70bded2ba544d4dbe6aa22", "name": "Dr. Brandie L. Fagin, MD", "place_id": "ChIJKapU7BR644kRxpRYpfJCdWM", "plus_code": {"compound_code": "8WQF+VQ Boston, Massachusetts, United States", "global_code": "87JC8WQF+VQ"}, "reference": "ChIJKapU7BR644kRxpRYpfJCdWM", "scope": "GOOGLE", "types": ["doctor", "health", "point_of_interest", "establishment"], "vicinity": "31 Rutland Street, Boston"}, "ChIJVVUB9RR644kRs91p0TRwS8o": {"geometry": {"location": {"lat": 42.3398384, "lng": -71.07638730000001}, "viewport": {"northeast": {"lat": 42.3412581802915, "lng": -71.07493001970848}, "southwest": {"lat": 42.3385602197085, "lng": -71.0776279802915}}}, "icon": "https://maps.gstatic.com/mapfiles/place_api/icons/generic_business-71.png", "id": "af5a1b2d82fb30c981cab1036790b5c537e00774", "name": "Moving Beyond Icebreakers", "place_id": "ChIJVVUB9RR644kRs91p0TRwS8o", "plus_code": {"compound_code": "8WQF+WC Boston, Massachusetts, United States", "global_code": "87JC8WQF+WC"}, "reference": "ChIJVVUB9RR644kRs91p0TRwS8o", "scope": "GOOGLE", "types": ["moving_company", "point_of_interest", "establishment"], "vicinity": "48 Rutland Street, Boston"}, "ChIJtRV29RR644kR05hXNtPmrNc": {"geometry": {"location": {"lat": 42.33984359999999, "lng": -71.0764543}, "viewport": {"northeast": {"lat": 42.34127453029149, "lng": -71.07497996970851}, "southwest": {"lat": 42.33857656970849, "lng": -71.07767793029151}}}, "icon": "https://maps.gstatic.com/mapfiles/place_api/icons/generic_business-71.png", "id": "80a1847a485d18668310fa9d31097d6521ef533d", "name": "United South End Settlements (South End House)", "opening_hours": {"open_now": true}, "photos": [{"height": 823, "html_attributions": ["<a href=\"https://maps.google.com/maps/contrib/107506015429909176602/photos\">United South End Settlements (South End House)</a>"], "photo_reference": "CmRaAAAAlaZy70HTIoz0fF9_PtABMbEVgf4cOa6rHETIFLD80M3As0nM3P1-zflsKrJk-A7iObU1jG4CmsShDir5-O5EJjvQF3xK_T04Fiq6va9Ka9LA4dO-uxLqhuJeMnymp1C3EhCqxAGy3zWGfmkRu-XzO1NUGhSufwgcThBDc73hGkwJJSDuTtD9Mw", "width": 826}], "place_id": "ChIJtRV29RR644kR05hXNtPmrNc", "plus_code": {"compound_code": "8WQF+WC Boston, Massachusetts, United States", "global_code": "87JC8WQF+WC"}, "rating": 4.7, "reference": "ChIJtRV29RR644kR05hXNtPmrNc", "scope": "GOOGLE", "types": ["point_of_interest", "establishment"], "user_ratings_total": 10, "vicinity": "36 & 48 Rutland Street, Boston"}, "ChIJv2u2WRR644kR8KqQ5K4v-_0": {"geometry": {"location": {"lat": 42.3395569, "lng": -71.0766933}, "viewport": {"northeast": {"lat": 42.34086343029149, "lng": -71.0754095697085}, "southwest": {"lat": 42.3381654697085, "lng": -71.0781075302915}}}, "icon": "https://maps.gstatic.com/mapfiles/place_api/icons/generic_business-71.png", "id": "1637ed40d15af2df1ec91d3fc1e4111831210e15", "name": "Tenents Development II", "place_id": "ChIJv2u2WRR644kR8KqQ5K4v-_0", "plus_code": {"compound_code": "8WQF+R8 Boston, Massachusetts, United States", "global_code": "87JC8WQF+R8"}, "reference": "ChIJv2u2WRR644kR8KqQ5K4v-_0", "scope": "GOOGLE", "types": ["real_estate_agency", "point_of_interest", "establishment"], "vicinity": "127 West Concord Street, Boston"}, "ChIJV2Jf-xR644kRqKZR5hfpbO8": {"geometry": {"location": {"lat": 42.338995, "lng": -71.07585399999999}, "viewport": {"northeast": {"lat": 42.3402882302915, "lng": -71.0744366697085}, "southwest": {"lat": 42.3375902697085, "lng": -71.07713463029151}}}, "icon": "https://maps.gstatic.com/mapfiles/place_api/icons/generic_business-71.png", "id": "b2ecb0d11ee95effb13643a11575154d4da3a6d7", "name": "Eye Adore Threading", "opening_hours": {"open_now": true}, "photos": [{"height": 699, "html_attributions": ["<a href=\"https://maps.google.com/maps/contrib/109820576882767292345/photos\">Eye Adore Threading</a>"], "photo_reference": "CmRaAAAAMY5It6dW6KXB84T7mHmT0vC8dlMfdV3VJzwmtTHu9FR-aHl_kzAGtUQbMb69cN2kj8tPWghHcOl3hIA3gey0gcwSlUlu8OX4Dhu8roz1dIkso199N_7Dq9oCe5_5SCNWEhC1IY84NJ_oNQndhXSzhQZzGhRTOZEi0tx8N61CYpHqT5xy5E3hSw", "width": 1241}], "place_id": "ChIJV2Jf-xR644kRqKZR5hfpbO8", "plus_code": {"compound_code": "8WQF+HM Boston, Massachusetts, United States", "global_code": "87JC8WQF+HM"}, "rating": 4.7, "reference": "ChIJV2Jf-xR644kRqKZR5hfpbO8", "scope": "GOOGLE", "types": ["beauty_salon", "hair_care", "point_of_interest", "establishment"], "user_ratings_total": 44, "vicinity": "467 Shawmut Avenue, Boston"}, "ChIJu3Q34xR644kRr8uw1FKqXsc": {"geometry": {"location": {"lat": 42.3389408, "lng": -71.07583369999999}, "viewport": {"northeast": {"lat": 42.34025263029149, "lng": -71.0744391697085}, "southwest": {"lat": 42.3375546697085, "lng": -71.0771371302915}}}, "icon": "https://maps.gstatic.com/mapfiles/place_api/icons/generic_business-71.png", "id": "8a59f7d9959015222e02120bc0186e15dd67423d", "name": "Frisbar Inc", "place_id": "ChIJu3Q34xR644kRr8uw1FKqXsc", "plus_code": {"compound_code": "8WQF+HM Boston, Massachusetts, United States", "global_code": "87JC8WQF+HM"}, "reference": "ChIJu3Q34xR644kRr8uw1FKqXsc", "scope": "GOOGLE", "types": ["point_of_interest", "establishment"], "vicinity": "471 Shawmut Avenue, Boston"}, "ChIJM0VI4xR644kRm3mnsBezD84": {"geometry": {"location": {"lat": 42.3389408, "lng": -71.07583369999999}, "viewport": {"northeast": {"lat": 42.34025263029149, "lng": -71.0744391697085}, "southwest": {"lat": 42.3375546697085, "lng": -71.0771371302915}}}, "icon": "https://maps.gstatic.com/mapfiles/place_api/icons/generic_business-71.png", "id": "171aba02641db66e630dbdc6de6a4fe91c182839", "name": "Bosca Caro-Gray", "place_id": "ChIJM0VI4xR644kRm3mnsBezD84", "plus_code": {"compound_code": "8WQF+HM Boston, Massachusetts, United States", "global_code": "87JC8WQF+HM"}, "reference": "ChIJM0VI4xR644kRm3mnsBezD84", "scope": "GOOGLE", "types": ["point_of_interest", "establishment"], "vicinity": "471 Shawmut Avenue, Boston"}, "ChIJ1TC9-xR644kRNV79Ta8CX-k": {"geometry": {"location": {"lat": 42.3391019, "lng": -71.07593849999999}, "viewport": {"northeast": {"lat": 42.34045053029149, "lng": -71.07466146970849}, "southwest": {"lat": 42.3377525697085, "lng": -71.0773594302915}}}, "icon": "https://maps.gstatic.com/mapfiles/place_api/icons/generic_recreational-71.png", "id": "b526deb838d2712a0f175f1f06f3d4887102804f", "name": "Newland Street Park", "place_id": "ChIJ1TC9-xR644kRNV79Ta8CX-k", "reference": "ChIJ1TC9-xR644kRNV79Ta8CX-k", "scope": "GOOGLE", "types": ["park", "premise", "point_of_interest", "establishment"], "vicinity": "Boston"}, "ChIJGzE9DS1l44kRoOhiASS_fHg": {"geometry": {"location": {"lat": 42.3600825, "lng": -71.0588801}, "viewport": {"northeast": {"lat": 42.40081989999999, "lng": -70.749455}, "southwest": {"lat": 42.22788, "lng": -71.191113}}}, "icon": "https://maps.gstatic.com/mapfiles/place_api/icons/geocode-71.png", "id": "06755c25d2b34d13942a4713971756a55b870ced", "name": "Boston", "photos": [{"height": 3024, "html_attributions": ["<a href=\"https://maps.google.com/maps/contrib/104670289779338733432/photos\">Natalia Zalucean</a>"], "photo_reference": "CmRaAAAAEHflNbkrv7yNBqQ_1CII0OpkSBc-FZEMRWvZIooTa3hPNHacG_Cup-fRsPKtsKi2fbx6DuLSy7rYeEcs7RPf1sLMYUd9mGKYNw33ho3CH_l5bxfuj2RMTf4idyjl9ik8EhClqWvgPLKGNiofAhepyA_LGhQgR_G3sq_FPys1HLBTsml6KVe6Cg", "width": 4032}], "place_id": "ChIJGzE9DS1l44kRoOhiASS_fHg", "reference": "ChIJGzE9DS1l44kRoOhiASS_fHg", "scope": "GOOGLE", "types": ["locality", "political"], "vicinity": "Boston"}}