{"ChIJ53v8MZJ644kRxo_t0DOSZ0Q": {"geometry": {"location": {"lat": 42.3335392, "lng": -71.0353216}, "viewport": {"northeast": {"lat": 42.33488818029149, "lng": -71.0339726197085}, "southwest": {"lat": 42.33219021970849, "lng": -71.03667058029151}}}, "icon": "https://maps.gstatic.com/mapfiles/place_api/icons/geocode-71.png", "id": "e11da1aa086e898dd638b05fe9a87a6afcb5d2e2", "name": "101-135 L St", "place_id": "ChIJ53v8MZJ644kRxo_t0DOSZ0Q", "reference": "ChIJ53v8MZJ644kRxo_t0DOSZ0Q", "scope": "GOOGLE", "types": ["route"], "vicinity": "Boston"}, "ChIJ-fFPLZJ644kRGjLg4g_6NxQ": {"geometry": {"location": {"lat": 42.333533, "lng": -71.03496299999999}, "viewport": {"northeast": {"lat": 42.3348792802915, "lng": -71.03379316970849}, "southwest": {"lat": 42.3321813197085, "lng": -71.0364911302915}}}, "icon": "https://maps.gstatic.com/mapfiles/place_api/icons/civic_building-71.png", "id": "cc54395049385cc0a3b529bcf1cd9cea8193be04", "name": "Boston Housing Authority", "place_id": "ChIJ-fFPLZJ644kRGjLg4g_6NxQ", "plus_code": {"compound_code": "8XM8+C2 Boston, Massachusetts, United States", "global_code": "87JC8XM8+C2"}, "rating": 2.5, "reference": "ChIJ-fFPLZJ644kRGjLg4g_6NxQ", "scope": "GOOGLE", "types": ["local_government_office", "point_of_interest", "establishment"], "user_ratings_total": 2, "vicinity": "120 L Street, South Boston"}, "ChIJdYw6KpJ644kR8AWhQdL5UWM": {"geometry": {"location": {"lat": 42.334051, "lng": -71.035083}, "viewport": {"northeast": {"lat": 42.3353965302915, "lng": -71.0338613197085}, "southwest": {"lat": 42.3326985697085, "lng": -71.03655928029151}}}, "icon": "https://maps.gstatic.com/mapfiles/place_api/icons/restaurant-71.png", "id": "9b0f50da84b226614a33411aaca12d842896ae94", "name": "L Street Diner & Pizzeria", "opening_hours": {"open_now": true}, "photos": [{"height": 580, "html_attributions": ["<a href=\"https://maps.google.com/maps/contrib/107606442406292833970/photos\">L Street Diner &amp; Pizzeria</a>"], "photo_reference": "CmRaAAAAWh0q9k801WKSzfRYIkl4ZFRBx2_jOAY98xKdZoifK5lheHug4FELzhX9pfUVcCWLIy39aE7_eXyRUJJSNE5gutuunZH-Frhj0YQmKDkcG4NHc0OzcNODlM06jtL91mZnEhAC5sVk2SOa6TR2Z-KkO64WGhTLLlCsYuPbdFktsIx2rnAhsxyVrw", "width": 1920}], "place_id": "ChIJdYw6KpJ644kR8AWhQdL5UWM", "plus_code": {"compound_code": "8XM7+JX Boston, Massachusetts, United States", "global_code": "87JC8XM7+JX"}, "price_level": 1, "rating": 4.2, "reference": "ChIJdYw6KpJ644kR8AWhQdL5UWM", "scope": "GOOGLE", "types": ["meal_delivery", "restaurant", "point_of_interest", "food", "establishment"], "user_ratings_total": 106, "vicinity": "108 L Street, South Boston"}, "ChIJf9p-KpJ644kRMwvHUdwxIfE": {"geometry": {"location": {"lat": 42.33405659999999, "lng": -71.0351064}, "viewport": {"northeast": {"lat": 42.3354024302915, "lng": -71.0338731697085}, "southwest": {"lat": 42.3327044697085, "lng": -71.0365711302915}}}, "icon": "https://maps.gstatic.com/mapfiles/place_api/icons/generic_business-71.png", "id": "48cace707dce9c3a60049db0ac98f42e09dc522c", "name": "THE M STREET SOFTBALL LEAGUE", "place_id": "ChIJf9p-KpJ644kRMwvHUdwxIfE", "plus_code": {"compound_code": "8XM7+JX Boston, Massachusetts, United States", "global_code": "87JC8XM7+JX"}, "rating": 5, "reference": "ChIJf9p-KpJ644kRMwvHUdwxIfE", "scope": "GOOGLE", "types": ["point_of_interest", "establishment"], "user_ratings_total": 1, "vicinity": "104 L Street, Boston"}, "ChIJ0yoK1ZN644kRQBPUHDij0BI": {"geometry": {"location": {"lat": 42.3339539, "lng": -71.0347695}, "viewport": {"northeast": {"lat": 42.3352745802915, "lng": -71.0334201197085}, "southwest": {"lat": 42.3325766197085, "lng": -71.0361180802915}}}, "icon": "https://maps.gstatic.com/mapfiles/place_api/icons/generic_business-71.png", "id": "c248f3f790e74f457284b21eb88c4f7d999fefe0", "name": "Mass Makeup Artist", "place_id": "ChIJ0yoK1ZN644kRQBPUHDij0BI", "plus_code": {"compound_code": "8XM8+H3 Boston, Massachusetts, United States", "global_code": "87JC8XM8+H3"}, "reference": "ChIJ0yoK1ZN644kRQBPUHDij0BI", "scope": "GOOGLE", "types": ["beauty_salon", "point_of_interest", "establishment"], "vicinity": "East 5th Street, Boston"}, "ChIJ_3zF15N644kRf9aLctg01I0": {"geometry": {"location": {"lat": 42.33393100000001, "lng": -71.03431499999999}, "viewport": {"northeast": {"lat": 42.3352794802915, "lng": -71.03296596970848}, "southwest": {"lat": 42.3325815197085, "lng": -71.03566393029149}}}, "icon": "https://maps.gstatic.com/mapfiles/place_api/icons/bus-71.png", "id": "53123432726689576c7588ce4b9a3b6889152f2c", "name": "Bus Stop", "place_id": "ChIJ_3zF15N644kRf9aLctg01I0", "plus_code": {"compound_code": "8XM8+H7 Boston, Massachusetts, United States", "global_code": "87JC8XM8+H7"}, "reference": "ChIJ_3zF15N644kRf9aLctg01I0", "scope": "GOOGLE", "types": ["bus_station", "transit_station", "point_of_interest", "establishment"], "vicinity": "Boston"}, "ChIJqafmfZF644kRxqTmNiCH5SE": {"geometry": {"location": {"lat": 42.33407379999999, "lng": -71.034455}, "viewport": {"northeast": {"lat": 42.3354160302915, "lng": -71.0331721197085}, "southwest": {"lat": 42.3327180697085, "lng": -71.0358700802915}}}, "icon": "https://maps.gstatic.com/mapfiles/place_api/icons/cemetery_grave-71.png", "id": "4de8460c1e895fb75c19b039c0ad70769b0d079e", "name": "Union Cemetery", "place_id": "ChIJqafmfZF644kRxqTmNiCH5SE", "reference": "ChIJqafmfZF644kRxqTmNiCH5SE", "scope": "GOOGLE", "types": ["cemetery", "premise", "point_of_interest", "establishment"], "vicinity": "Boston"}, "ChIJGzE9DS1l44kRoOhiASS_fHg": {"geometry": {"location": {"lat": 42.3600825, "lng": -71.0588801}, "viewport": {"northeast": {"lat": 42.40081989999999, "lng": -70.749455}, "southwest": {"lat": 42.22788, "lng": -71.191113}}}, "icon": "https://maps.gstatic.com/mapfiles/place_api/icons/geocode-71.png", "id": "06755c25d2b34d13942a4713971756a55b870ced", "name": "Boston", "photos": [{"height": 3024, "html_attributions": ["<a href=\"https://maps.google.com/maps/contrib/104670289779338733432/photos\">Natalia Zalucean</a>"], "photo_reference": "CmRaAAAAm25qheLjF6vMJdBtqT0x5zvnc9by9nW77nxYopILSSee7AcxWvGGBtqbRmRiN6rEIEHfr7cyunMKsOqSxDXBcXnUZ_R3Z_r8W2wK2m1rIgIVEGGc1iEPFYTPhajXqBw5EhBzpZ8nz-A5OcMv3o8BYI44GhSc_hF7QrxQ1I_fBfQ3oRo1YKGlhA", "width": 4032}], "place_id": "ChIJGzE9DS1l44kRoOhiASS_fHg", "reference": "ChIJGzE9DS1l44kRoOhiASS_fHg", "scope": "GOOGLE", "types": ["locality", "political"], "vicinity": "Boston"}}