{"ChIJT7Htq5N544kRj4lzijAK00g": {"geometry": {"location": {"lat": 42.3399264, "lng": -71.11247569999999}, "viewport": {"northeast": {"lat": 42.3412750302915, "lng": -71.1111321697085}, "southwest": {"lat": 42.3385770697085, "lng": -71.1138301302915}}}, "icon": "https://maps.gstatic.com/mapfiles/place_api/icons/geocode-71.png", "id": "45f0c62170b9e7a76274de47ab359be603bdaf6b", "name": "247-281 Kent St", "place_id": "ChIJT7Htq5N544kRj4lzijAK00g", "reference": "ChIJT7Htq5N544kRj4lzijAK00g", "scope": "GOOGLE", "types": ["route"], "vicinity": "Brookline"}, "ChIJq440rJN544kRjdyehhtaNwE": {"geometry": {"location": {"lat": 42.339795, "lng": -71.1126598}, "viewport": {"northeast": {"lat": 42.3411517802915, "lng": -71.11121056970849}, "southwest": {"lat": 42.3384538197085, "lng": -71.1139085302915}}}, "icon": "https://maps.gstatic.com/mapfiles/place_api/icons/generic_business-71.png", "id": "edde25626b703ab88ade4a5e2e88c44e484cbb58", "name": "Churchill Geraldine", "place_id": "ChIJq440rJN544kRjdyehhtaNwE", "plus_code": {"compound_code": "8VQP+WW Brookline, Massachusetts, United States", "global_code": "87JC8VQP+WW"}, "reference": "ChIJq440rJN544kRjdyehhtaNwE", "scope": "GOOGLE", "types": ["accounting", "finance", "point_of_interest", "establishment"], "vicinity": "258 Kent Street, Brookline"}, "ChIJWYnVs5N544kRy_VFxN-J6EI": {"geometry": {"location": {"lat": 42.3394742, "lng": -71.1125467}, "viewport": {"northeast": {"lat": 42.3407934302915, "lng": -71.11120241970849}, "southwest": {"lat": 42.3380954697085, "lng": -71.1139003802915}}}, "icon": "https://maps.gstatic.com/mapfiles/place_api/icons/generic_business-71.png", "id": "3484295c85c2a9b50a3fe129bcd99d9543f0e48e", "name": "Neil S. Gore, PhD", "place_id": "ChIJWYnVs5N544kRy_VFxN-J6EI", "plus_code": {"compound_code": "8VQP+QX Brookline, Massachusetts, United States", "global_code": "87JC8VQP+QX"}, "reference": "ChIJWYnVs5N544kRy_VFxN-J6EI", "scope": "GOOGLE", "types": ["doctor", "health", "point_of_interest", "establishment"], "vicinity": "11 Newell Road, Brookline"}, "ChIJhZirQQB544kRB9LbXEfedZQ": {"geometry": {"location": {"lat": 42.33176419999999, "lng": -71.1211635}, "viewport": {"northeast": {"lat": 42.3518109, "lng": -71.1056969}, "southwest": {"lat": 42.29459689999999, "lng": -71.1789959}}}, "icon": "https://maps.gstatic.com/mapfiles/place_api/icons/geocode-71.png", "id": "92986b2d1f69af2f2a7e29d34ced8adfa8573beb", "name": "Brookline", "photos": [{"height": 651, "html_attributions": ["<a href=\"https://maps.google.com/maps/contrib/114772942214832951419/photos\">Michael Ahn</a>"], "photo_reference": "CmRaAAAA2sUL9L1ix6N6kUbyJWOoMFkdbgHqanWetr15mqsncYxp-FyHe9PbhQ6RuUMXqfmlrxP1DltEHW3BfQadDWzA6DnzDFV40MFXnqS1mzSBmYabUcmlOBJ72--vpv7eOf6YEhBRyeZdWLo6eee_Be-hL6kHGhSRZOPJKP4y_ujiIURFeilfE7nxKA", "width": 1608}], "place_id": "ChIJhZirQQB544kRB9LbXEfedZQ", "reference": "ChIJhZirQQB544kRB9LbXEfedZQ", "scope": "GOOGLE", "types": ["locality", "political"], "vicinity": "Brookline"}}