{"ChIJz1c608x744kRJmTzgNXlCyw": {"geometry": {"location": {"lat": 42.3183021, "lng": -71.0819597}, "viewport": {"northeast": {"lat": 42.31965183029149, "lng": -71.08061346970848}, "southwest": {"lat": 42.31695386970849, "lng": -71.0833114302915}}}, "icon": "https://maps.gstatic.com/mapfiles/place_api/icons/geocode-71.png", "id": "35df8e3dfcee9e9021e9d1f6c972055482dff1e1", "name": "Warren Street", "place_id": "ChIJz1c608x744kRJmTzgNXlCyw", "reference": "ChIJz1c608x744kRJmTzgNXlCyw", "scope": "GOOGLE", "types": ["route"], "vicinity": "Boston"}, "ChIJmdT51jJ644kRJMuhOiDqe9Y": {"geometry": {"location": {"lat": 42.3185564, "lng": -71.08286009999999}, "viewport": {"northeast": {"lat": 42.3197691302915, "lng": -71.08158146970848}, "southwest": {"lat": 42.31707116970851, "lng": -71.0842794302915}}}, "icon": "https://maps.gstatic.com/mapfiles/place_api/icons/restaurant-71.png", "id": "f66c2688bc4d5e8bc30dfb11a0e2b3afd269f846", "name": "Popeyes Louisiana Kitchen", "opening_hours": {"open_now": true}, "photos": [{"height": 450, "html_attributions": ["<a href=\"https://maps.google.com/maps/contrib/117946451627568679275/photos\">Popeyes Louisiana Kitchen</a>"], "photo_reference": "CmRaAAAAsZm2ItFknEq86-nZ-hOmP6R4-yqdhAi3e5YQBL0ix6yZqgsstq08nlQsLS9AFmmXiiGTg9CxF0WJKo7teBVUtL8zTROB8HNxBZtzKwTWTceN3VhVCMV8wphLzqPF3xcCEhA7e83BTngOtqvFV5iVbBUUGhQ__G6MIFtpJA478xCNovzCWneArQ", "width": 600}], "place_id": "ChIJmdT51jJ644kRJMuhOiDqe9Y", "plus_code": {"compound_code": "8W98+CV Boston, Massachusetts, United States", "global_code": "87JC8W98+CV"}, "price_level": 1, "rating": 3.6, "reference": "ChIJmdT51jJ644kRJMuhOiDqe9Y", "scope": "GOOGLE", "types": ["restaurant", "point_of_interest", "food", "establishment"], "user_ratings_total": 331, "vicinity": "330 Martin Luther King Jr Boulevard, Roxbury"}, "ChIJmdT51jJ644kRk9GE3YWUr4A": {"geometry": {"location": {"lat": 42.318876, "lng": -71.08265899999999}, "viewport": {"northeast": {"lat": 42.3199244802915, "lng": -71.0814651697085}, "southwest": {"lat": 42.3172265197085, "lng": -71.0841631302915}}}, "icon": "https://maps.gstatic.com/mapfiles/place_api/icons/generic_business-71.png", "id": "7c653e08a9433fb6bf4621050b8e03803a9b14c6", "name": "S & L Management", "place_id": "ChIJmdT51jJ644kRk9GE3YWUr4A", "plus_code": {"compound_code": "8W98+HW Boston, Massachusetts, United States", "global_code": "87JC8W98+HW"}, "reference": "ChIJmdT51jJ644kRk9GE3YWUr4A", "scope": "GOOGLE", "types": ["point_of_interest", "establishment"], "vicinity": "330 Martin Luther King Jr Boulevard, Roxbury"}, "ChIJmdT51jJ644kRYFrOuZJL8jc": {"geometry": {"location": {"lat": 42.3187323, "lng": -71.08254889999999}, "viewport": {"northeast": {"lat": 42.31982993029149, "lng": -71.0813296697085}, "southwest": {"lat": 42.3171319697085, "lng": -71.0840276302915}}}, "icon": "https://maps.gstatic.com/mapfiles/place_api/icons/generic_business-71.png", "id": "a5e566c3d204d83c7c69b980a7af2519cc804929", "name": "NAACP Boston Branch", "opening_hours": {"open_now": true}, "photos": [{"height": 1836, "html_attributions": ["<a href=\"https://maps.google.com/maps/contrib/114665064032868803607/photos\">Mandysia Armand</a>"], "photo_reference": "CmRaAAAAWUYGNDfmTf3hO8aTeKgsOQbeUfzVD2cCEbiD9QBGAMFf5TolaUvnwhtVQbwZc8WSpgnX8YAvMmKv9CZBcSvcI7bGa2-hZ113x6lzMBF9daED2uDrscHg22ygMjDZEiUOEhC7eQ5mkclE8l91zTesmtWmGhRM4cxDsyXIuAvjqa7SK1pjknS3AA", "width": 3264}], "place_id": "ChIJmdT51jJ644kRYFrOuZJL8jc", "plus_code": {"compound_code": "8W98+FX Boston, Massachusetts, United States", "global_code": "87JC8W98+FX"}, "rating": 2.5, "reference": "ChIJmdT51jJ644kRYFrOuZJL8jc", "scope": "GOOGLE", "types": ["point_of_interest", "establishment"], "user_ratings_total": 6, "vicinity": "330 Martin Luther King Jr Boulevard, Roxbury"}, "ChIJmdT51jJ644kRl_x6rom_TTg": {"geometry": {"location": {"lat": 42.3187323, "lng": -71.08254889999999}, "viewport": {"northeast": {"lat": 42.31982993029149, "lng": -71.0813296697085}, "southwest": {"lat": 42.3171319697085, "lng": -71.0840276302915}}}, "icon": "https://maps.gstatic.com/mapfiles/place_api/icons/shopping-71.png", "id": "3d2d1442dccfdf2b6a03e1cc9ba82d456c22695f", "name": "Inner City Business Ventures", "place_id": "ChIJmdT51jJ644kRl_x6rom_TTg", "plus_code": {"compound_code": "8W98+FX Boston, Massachusetts, United States", "global_code": "87JC8W98+FX"}, "reference": "ChIJmdT51jJ644kRl_x6rom_TTg", "scope": "GOOGLE", "types": ["book_store", "store", "point_of_interest", "establishment"], "vicinity": "330 Martin Luther King Jr Boulevard, Roxbury"}, "ChIJkedGLM1744kRyzkH4Tu5cro": {"geometry": {"location": {"lat": 42.3184069, "lng": -71.08290269999999}, "viewport": {"northeast": {"lat": 42.3196901302915, "lng": -71.08158766970848}, "southwest": {"lat": 42.3169921697085, "lng": -71.08428563029149}}}, "icon": "https://maps.gstatic.com/mapfiles/place_api/icons/generic_business-71.png", "id": "cf9778385ddbfbd37e7555339ebeda77de973677", "name": "Home Inc", "place_id": "ChIJkedGLM1744kRyzkH4Tu5cro", "plus_code": {"compound_code": "8W98+9R Boston, Massachusetts, United States", "global_code": "87JC8W98+9R"}, "rating": 5, "reference": "ChIJkedGLM1744kRyzkH4Tu5cro", "scope": "GOOGLE", "types": ["point_of_interest", "establishment"], "user_ratings_total": 1, "vicinity": "306 Martin Luther King Jr Boulevard, Roxbury"}, "ChIJ21vQKjN644kRuG4srq3mYts": {"geometry": {"location": {"lat": 42.318438, "lng": -71.082312}, "viewport": {"northeast": {"lat": 42.3196348802915, "lng": -71.0810415197085}, "southwest": {"lat": 42.3169369197085, "lng": -71.08373948029151}}}, "icon": "https://maps.gstatic.com/mapfiles/place_api/icons/atm-71.png", "id": "5819565c82a9c9d5f967ff2279afa2ac0fddfea5", "name": "Santander Bank ATM", "opening_hours": {"open_now": true}, "photos": [{"height": 450, "html_attributions": ["<a href=\"https://maps.google.com/maps/contrib/118213175625659389818/photos\">Santander Bank ATM</a>"], "photo_reference": "CmRaAAAAoR56x_Bz67PYXsnJjaI2_OViYtFxF_VqnrhwmjhENkqq1fxXIL7HfCh50xh4VAs6lXdLgImW_XNqaOorV6SGt3Gm7fMmbMmQXg0ErS32kS2AY6pqv5biwJnt6kL3T8XOEhDGpY9Oh0Qr3Qw88bpHT9gWGhSQATNwLNqQ4XzbDUE6CsC30TGk3A", "width": 450}], "place_id": "ChIJ21vQKjN644kRuG4srq3mYts", "plus_code": {"compound_code": "8W99+93 Boston, Massachusetts, United States", "global_code": "87JC8W99+93"}, "rating": 2, "reference": "ChIJ21vQKjN644kRuG4srq3mYts", "scope": "GOOGLE", "types": ["atm", "insurance_agency", "finance", "point_of_interest", "establishment"], "user_ratings_total": 1, "vicinity": "330 Martin Luther King Jr Boulevard #45, Roxbury"}, "ChIJmdT51jJ644kRpBFvCDar3vQ": {"geometry": {"location": {"lat": 42.3183657, "lng": -71.0822495}, "viewport": {"northeast": {"lat": 42.3195864302915, "lng": -71.08096671970848}, "southwest": {"lat": 42.3168884697085, "lng": -71.0836646802915}}}, "icon": "https://maps.gstatic.com/mapfiles/place_api/icons/generic_business-71.png", "id": "396de9b6ddb6b34dbe082906918310c62079d9c6", "name": "NAACP", "place_id": "ChIJmdT51jJ644kRpBFvCDar3vQ", "plus_code": {"compound_code": "8W99+84 Boston, Massachusetts, United States", "global_code": "87JC8W99+84"}, "rating": 3, "reference": "ChIJmdT51jJ644kRpBFvCDar3vQ", "scope": "GOOGLE", "types": ["point_of_interest", "establishment"], "user_ratings_total": 4, "vicinity": "330 Martin Luther King Jr Boulevard, Roxbury"}, "ChIJmdT51jJ644kRxF86NrGwtcI": {"geometry": {"location": {"lat": 42.3186981, "lng": -71.0825555}, "viewport": {"northeast": {"lat": 42.3198114802915, "lng": -71.08132816970848}, "southwest": {"lat": 42.3171135197085, "lng": -71.08402613029149}}}, "icon": "https://maps.gstatic.com/mapfiles/place_api/icons/shopping-71.png", "id": "a062edf6c249ba7c107192fe40f50fe7af3c65d0", "name": "Expressions", "opening_hours": {"open_now": true}, "place_id": "ChIJmdT51jJ644kRxF86NrGwtcI", "plus_code": {"compound_code": "8W98+FX Boston, Massachusetts, United States", "global_code": "87JC8W98+FX"}, "rating": 4, "reference": "ChIJmdT51jJ644kRxF86NrGwtcI", "scope": "GOOGLE", "types": ["shoe_store", "store", "point_of_interest", "establishment"], "user_ratings_total": 30, "vicinity": "330 Martin Luther King Jr Boulevard, Roxbury"}, "ChIJD5Pg1TJ644kRRQ64qY54uh4": {"geometry": {"location": {"lat": 42.3189173, "lng": -71.0824763}, "viewport": {"northeast": {"lat": 42.3199252302915, "lng": -71.08130336970848}, "southwest": {"lat": 42.3172272697085, "lng": -71.0840013302915}}}, "icon": "https://maps.gstatic.com/mapfiles/place_api/icons/shopping-71.png", "id": "cd45106af553e4a586cce0cab1c7c7e14a8006c2", "name": "Washington Park Mall", "opening_hours": {"open_now": true}, "photos": [{"height": 4128, "html_attributions": ["<a href=\"https://maps.google.com/maps/contrib/107471705958160130625/photos\">June Ruckuz</a>"], "photo_reference": "CmRaAAAASC03z0uF9v-ZOGBF2wbaFEHdCyeVXNpHVERY8Y7r3ZCdV_dlrXOXbjQL8oAcugxugltCnHvrWGi7vhFz7DPPibbEQwAzlRTsLdJ8JWPfBkLzfymbVlY13_2IWEdek52REhCrI4kdgxW1hQGkO4l7rrG_GhTKzgoe21K6GbTUWq5M4c3axJpgwQ", "width": 3096}], "place_id": "ChIJD5Pg1TJ644kRRQ64qY54uh4", "plus_code": {"compound_code": "8W99+H2 Boston, Massachusetts, United States", "global_code": "87JC8W99+H2"}, "rating": 3.9, "reference": "ChIJD5Pg1TJ644kRRQ64qY54uh4", "scope": "GOOGLE", "types": ["shopping_mall", "point_of_interest", "establishment"], "user_ratings_total": 926, "vicinity": "330 Martin Luther King Jr Boulevard, Boston"}, "ChIJ7dxP1jJ644kR9xdqu9-2EFo": {"geometry": {"location": {"lat": 42.3189362, "lng": -71.0823699}, "viewport": {"northeast": {"lat": 42.3199227802915, "lng": -71.0812080197085}, "southwest": {"lat": 42.3172248197085, "lng": -71.0839059802915}}}, "icon": "https://maps.gstatic.com/mapfiles/place_api/icons/bank_dollar-71.png", "id": "e66c5237a42acafc5859bb29213a5daa9f0d456f", "name": "Santander Bank", "opening_hours": {"open_now": false}, "photos": [{"height": 2326, "html_attributions": ["<a href=\"https://maps.google.com/maps/contrib/107361595246896239310/photos\">Santander Bank</a>"], "photo_reference": "CmRaAAAAMja8HwIse0Z4sfkPlxUVMu3Jo-FdWiQqA0yWXibHl6j7PEk3NdZJZfaPFg6w7w2o_S7CGyh8oKQKwFO9rMTylQX2bzDCxnPQzW7JdjN92JxVQkO7nU5SECcUao3WXoPUEhDdBEBRdjzjbNshOHJViIjKGhROeqtBgf7J1qTLrLZ_1GFFyagEiA", "width": 2326}], "place_id": "ChIJ7dxP1jJ644kR9xdqu9-2EFo", "plus_code": {"compound_code": "8W99+H3 Boston, Massachusetts, United States", "global_code": "87JC8W99+H3"}, "rating": 3.3, "reference": "ChIJ7dxP1jJ644kR9xdqu9-2EFo", "scope": "GOOGLE", "types": ["bank", "insurance_agency", "finance", "point_of_interest", "establishment"], "user_ratings_total": 7, "vicinity": "330 Martin Luther King Jr Boulevard Suite #45, Roxbury"}, "ChIJMczRK81744kRfhMYjgEVovs": {"geometry": {"location": {"lat": 42.3182069, "lng": -71.0826806}, "viewport": {"northeast": {"lat": 42.31957363029149, "lng": -71.08132241970851}, "southwest": {"lat": 42.31687566970849, "lng": -71.08402038029152}}}, "icon": "https://maps.gstatic.com/mapfiles/place_api/icons/generic_business-71.png", "id": "10647d77ddfd7d0bfeb1f32c2660258136f579be", "name": "THE CHEDDAR MAN CAVE", "place_id": "ChIJMczRK81744kRfhMYjgEVovs", "plus_code": {"compound_code": "8W98+7W Boston, Massachusetts, United States", "global_code": "87JC8W98+7W"}, "rating": 5, "reference": "ChIJMczRK81744kRfhMYjgEVovs", "scope": "GOOGLE", "types": ["point_of_interest", "establishment"], "user_ratings_total": 2, "vicinity": "Roxbury Street, Boston"}, "ChIJoyAM1Mx744kR1UplXwe7X0w": {"geometry": {"location": {"lat": 42.318133, "lng": -71.08212}, "viewport": {"northeast": {"lat": 42.3194761802915, "lng": -71.0807513697085}, "southwest": {"lat": 42.3167782197085, "lng": -71.0834493302915}}}, "icon": "https://maps.gstatic.com/mapfiles/place_api/icons/bus-71.png", "id": "7b3f74efde8fd56371ed047974a238b23122ea14", "name": "Warren St @ ML King Blvd", "place_id": "ChIJoyAM1Mx744kR1UplXwe7X0w", "plus_code": {"compound_code": "8W99+75 Boston, Massachusetts, United States", "global_code": "87JC8W99+75"}, "reference": "ChIJoyAM1Mx744kR1UplXwe7X0w", "scope": "GOOGLE", "types": ["bus_station", "transit_station", "point_of_interest", "establishment"], "vicinity": "United States"}, "ChIJmdT51jJ644kRm2GHqjdIl54": {"geometry": {"location": {"lat": 42.3187323, "lng": -71.08254889999999}, "viewport": {"northeast": {"lat": 42.31982993029149, "lng": -71.0813296697085}, "southwest": {"lat": 42.3171319697085, "lng": -71.0840276302915}}}, "icon": "https://maps.gstatic.com/mapfiles/place_api/icons/generic_business-71.png", "id": "fa45788913a96c2ba716a9e14672b622bf2fd200", "name": "South End Hair Studio", "place_id": "ChIJmdT51jJ644kRm2GHqjdIl54", "plus_code": {"compound_code": "8W98+FX Boston, Massachusetts, United States", "global_code": "87JC8W98+FX"}, "reference": "ChIJmdT51jJ644kRm2GHqjdIl54", "scope": "GOOGLE", "types": ["beauty_salon", "point_of_interest", "establishment"], "vicinity": "330 Martin Luther King Jr Boulevard, Roxbury"}, "ChIJmdT51jJ644kRtGoHxEPDv3k": {"geometry": {"location": {"lat": 42.3187323, "lng": -71.08254889999999}, "viewport": {"northeast": {"lat": 42.31982993029149, "lng": -71.0813296697085}, "southwest": {"lat": 42.3171319697085, "lng": -71.0840276302915}}}, "icon": "https://maps.gstatic.com/mapfiles/place_api/icons/shopping-71.png", "id": "aeeb361fe175ddf94268c8d1a2631e8e39cd4ff3", "name": "Ebony USA", "opening_hours": {"open_now": true}, "place_id": "ChIJmdT51jJ644kRtGoHxEPDv3k", "plus_code": {"compound_code": "8W98+FX Boston, Massachusetts, United States", "global_code": "87JC8W98+FX"}, "rating": 4.2, "reference": "ChIJmdT51jJ644kRtGoHxEPDv3k", "scope": "GOOGLE", "types": ["jewelry_store", "store", "point_of_interest", "establishment"], "user_ratings_total": 18, "vicinity": "330 Martin Luther King Jr Boulevard # 49, Roxbury"}, "ChIJx0fdKTN644kR_ZQORifrCzY": {"geometry": {"location": {"lat": 42.31880090000001, "lng": -71.0824181}, "viewport": {"northeast": {"lat": 42.32049668029151, "lng": -71.08075371970848}, "southwest": {"lat": 42.31779871970851, "lng": -71.0834516802915}}}, "icon": "https://maps.gstatic.com/mapfiles/place_api/icons/shopping-71.png", "id": "bfaa6c571d4783ce7ec4ff585c5f2f2037d7c8dd", "name": "Dollar Max", "place_id": "ChIJx0fdKTN644kR_ZQORifrCzY", "plus_code": {"compound_code": "8W99+G2 Boston, Massachusetts, United States", "global_code": "87JC8W99+G2"}, "rating": 3.9, "reference": "ChIJx0fdKTN644kR_ZQORifrCzY", "scope": "GOOGLE", "types": ["store", "point_of_interest", "establishment"], "user_ratings_total": 40, "vicinity": "146 Charlame Street, Boston"}, "ChIJpWIkKDN644kR3klwXwJ6-EY": {"geometry": {"location": {"lat": 42.3189256, "lng": -71.08242659999999}, "viewport": {"northeast": {"lat": 42.3205567802915, "lng": -71.0807485197085}, "southwest": {"lat": 42.3178588197085, "lng": -71.08344648029151}}}, "icon": "https://maps.gstatic.com/mapfiles/place_api/icons/generic_business-71.png", "id": "2eab8acab4a8b3f802d49381b4d0fad9f4699c8d", "name": "Essence Of Hair Salon", "place_id": "ChIJpWIkKDN644kR3klwXwJ6-EY", "plus_code": {"compound_code": "8W99+H2 Boston, Massachusetts, United States", "global_code": "87JC8W99+H2"}, "rating": 4.1, "reference": "ChIJpWIkKDN644kR3klwXwJ6-EY", "scope": "GOOGLE", "types": ["beauty_salon", "point_of_interest", "establishment"], "user_ratings_total": 9, "vicinity": "146 Charlame Street, Boston"}, "ChIJldlj0sx744kRl0JrClD_7tc": {"geometry": {"location": {"lat": 42.318157, "lng": -71.081788}, "viewport": {"northeast": {"lat": 42.3195138802915, "lng": -71.0804677197085}, "southwest": {"lat": 42.3168159197085, "lng": -71.0831656802915}}}, "icon": "https://maps.gstatic.com/mapfiles/place_api/icons/bus-71.png", "id": "33c90a1032df32130c1215eb6813bb9a8195e833", "name": "Warren St @ Maywood St", "place_id": "ChIJldlj0sx744kRl0JrClD_7tc", "plus_code": {"compound_code": "8W99+77 Boston, Massachusetts, United States", "global_code": "87JC8W99+77"}, "rating": 5, "reference": "ChIJldlj0sx744kRl0JrClD_7tc", "scope": "GOOGLE", "types": ["bus_station", "transit_station", "point_of_interest", "establishment"], "user_ratings_total": 1, "vicinity": "United States"}, "ChIJGzE9DS1l44kRoOhiASS_fHg": {"geometry": {"location": {"lat": 42.3600825, "lng": -71.0588801}, "viewport": {"northeast": {"lat": 42.40081989999999, "lng": -70.749455}, "southwest": {"lat": 42.22788, "lng": -71.191113}}}, "icon": "https://maps.gstatic.com/mapfiles/place_api/icons/geocode-71.png", "id": "06755c25d2b34d13942a4713971756a55b870ced", "name": "Boston", "photos": [{"height": 3024, "html_attributions": ["<a href=\"https://maps.google.com/maps/contrib/104670289779338733432/photos\">Natalia Zalucean</a>"], "photo_reference": "CmRaAAAARGcSj6nvF-2rrMjZvcfSlHP67DRRPp902LnnsaPCyowG5qGs_KgLrJjre2R3kAswNRWESDWSTJjoHACbtuUS_DtgGKBkKDa425Ut1W8GWTW1UVbsA-xTEuqSIeemDZt6EhBFb55a40lMdVfIUeAncGLgGhRBx8uwTENSwVl5NlF_XIJGM_Bxvw", "width": 4032}], "place_id": "ChIJGzE9DS1l44kRoOhiASS_fHg", "reference": "ChIJGzE9DS1l44kRoOhiASS_fHg", "scope": "GOOGLE", "types": ["locality", "political"], "vicinity": "Boston"}}