{"ChIJC_gLbUR644kRjh6e1dhHgtA": {"geometry": {"location": {"lat": 42.3291804, "lng": -71.0659506}, "viewport": {"northeast": {"lat": 42.3305296802915, "lng": -71.06460231970848}, "southwest": {"lat": 42.3278317197085, "lng": -71.0673002802915}}}, "icon": "https://maps.gstatic.com/mapfiles/place_api/icons/geocode-71.png", "id": "ddd8c7c8d22fefab9a0bd8f08c9da18bcad8d131", "name": "44-22 Newmarket Square", "place_id": "ChIJC_gLbUR644kRjh6e1dhHgtA", "reference": "ChIJC_gLbUR644kRjh6e1dhHgtA", "scope": "GOOGLE", "types": ["route"], "vicinity": "Boston"}, "ChIJLz-M9EN644kRSFid2wVpvek": {"geometry": {"location": {"lat": 42.33007440000001, "lng": -71.0663107}, "viewport": {"northeast": {"lat": 42.3313793302915, "lng": -71.0649779697085}, "southwest": {"lat": 42.32868136970851, "lng": -71.0676759302915}}}, "icon": "https://maps.gstatic.com/mapfiles/place_api/icons/generic_business-71.png", "id": "057994e5224a951e36ab810b3f92f968bef807f0", "name": "WILLIAM & CO FOODS", "photos": [{"height": 1836, "html_attributions": ["<a href=\"https://maps.google.com/maps/contrib/101571812815185665561/photos\">Ryan White</a>"], "photo_reference": "CmRaAAAAKk3BjibdZhqtiu6CQ6PEGhwXU58DE2XfSDwhhx1SxTJXoS5Bqd2nP56Y_xdwbdEA0vv8yBKlUx-g5eHR1gijeXfxBc_dTI7TZWitdAGEDWCOnz_wjijmDBnphqAMRK3HEhBL2dQKUqSJTIURzBXwbItyGhSFdFdSrKUEBnwZIt26uPDnMle6sw", "width": 3264}], "place_id": "ChIJLz-M9EN644kRSFid2wVpvek", "plus_code": {"compound_code": "8WJM+2F Boston, Massachusetts, United States", "global_code": "87JC8WJM+2F"}, "rating": 4.3, "reference": "ChIJLz-M9EN644kRSFid2wVpvek", "scope": "GOOGLE", "types": ["point_of_interest", "food", "establishment"], "user_ratings_total": 4, "vicinity": "135 Newmarket Square, Boston"}, "ChIJf6SRdUR644kRk69RkYNncV4": {"geometry": {"location": {"lat": 42.32981869999999, "lng": -71.0658713}, "viewport": {"northeast": {"lat": 42.33120153029149, "lng": -71.06450991970848}, "southwest": {"lat": 42.3285035697085, "lng": -71.0672078802915}}}, "icon": "https://maps.gstatic.com/mapfiles/place_api/icons/generic_business-71.png", "id": "7c43c8812285c7c65bf34bb98045bacc7c2287e0", "name": "Theodore J. Katsiroubas & Sons", "place_id": "ChIJf6SRdUR644kRk69RkYNncV4", "plus_code": {"compound_code": "8WHM+WM Boston, Massachusetts, United States", "global_code": "87JC8WHM+WM"}, "reference": "ChIJf6SRdUR644kRk69RkYNncV4", "scope": "GOOGLE", "types": ["point_of_interest", "establishment"], "vicinity": "Boston"}, "ChIJGzE9DS1l44kRoOhiASS_fHg": {"geometry": {"location": {"lat": 42.3600825, "lng": -71.0588801}, "viewport": {"northeast": {"lat": 42.40081989999999, "lng": -70.749455}, "southwest": {"lat": 42.22788, "lng": -71.191113}}}, "icon": "https://maps.gstatic.com/mapfiles/place_api/icons/geocode-71.png", "id": "06755c25d2b34d13942a4713971756a55b870ced", "name": "Boston", "photos": [{"height": 3024, "html_attributions": ["<a href=\"https://maps.google.com/maps/contrib/104670289779338733432/photos\">Natalia Zalucean</a>"], "photo_reference": "CmRaAAAA8d9Yi5KfAvHpdrWdZ-pfpz_R4gWvvKUinnvcerkMqM_yrnqNRT5eKlgvRFMnxXNkKuQ8jBgFRlXYwfXrYtWzJaO13TvwT6k9LimIVKgluxXXjcO1VgzNNGT11zW16a8fEhA_CzcOshOpVwE2LIwYwyYEGhQIPa1OfjgdZPiLHiyCE2tfnR0ijQ", "width": 4032}], "place_id": "ChIJGzE9DS1l44kRoOhiASS_fHg", "reference": "ChIJGzE9DS1l44kRoOhiASS_fHg", "scope": "GOOGLE", "types": ["locality", "political"], "vicinity": "Boston"}}