{"ChIJQa2fZT9644kR7JjiiuG0QwQ": {"geometry": {"location": {"lat": 42.3329145, "lng": -71.07421}, "viewport": {"northeast": {"lat": 42.33426273029149, "lng": -71.0728598197085}, "southwest": {"lat": 42.33156476970849, "lng": -71.0755577802915}}}, "icon": "https://maps.gstatic.com/mapfiles/place_api/icons/geocode-71.png", "id": "bd900ca1e859bdf5930e1af170994906098c4303", "name": "798-796 Albany St", "place_id": "ChIJQa2fZT9644kR7JjiiuG0QwQ", "reference": "ChIJQa2fZT9644kR7JjiiuG0QwQ", "scope": "GOOGLE", "types": ["route"], "vicinity": "Boston"}, "ChIJ9SmGQD9644kRH-E_t-sbAGA": {"geometry": {"location": {"lat": 42.33246309999999, "lng": -71.0750015}, "viewport": {"northeast": {"lat": 42.33382298029149, "lng": -71.0736646697085}, "southwest": {"lat": 42.33112501970849, "lng": -71.07636263029151}}}, "icon": "https://maps.gstatic.com/mapfiles/place_api/icons/generic_business-71.png", "id": "ae4302a4120e4d9a74f3e4d292834c70bf63cd6f", "name": "Community Development Corporation", "place_id": "ChIJ9SmGQD9644kRH-E_t-sbAGA", "plus_code": {"compound_code": "8WJF+XX Boston, Massachusetts, United States", "global_code": "87JC8WJF+XX"}, "reference": "ChIJ9SmGQD9644kRH-E_t-sbAGA", "scope": "GOOGLE", "types": ["general_contractor", "point_of_interest", "establishment"], "vicinity": "801 Albany Street # 2, Roxbury"}, "ChIJ0dUJhEB644kRjSuegfQsfaU": {"geometry": {"location": {"lat": 42.3329763, "lng": -71.0737521}, "viewport": {"northeast": {"lat": 42.33440093029149, "lng": -71.07249131970849}, "southwest": {"lat": 42.33170296970849, "lng": -71.0751892802915}}}, "icon": "https://maps.gstatic.com/mapfiles/place_api/icons/generic_business-71.png", "id": "a391c731109395e9fa5883841bbc0609c3e88baf", "name": "Dr. Feroze Sidhwa", "place_id": "ChIJ0dUJhEB644kRjSuegfQsfaU", "plus_code": {"compound_code": "8WMG+5F Boston, Massachusetts, United States", "global_code": "87JC8WMG+5F"}, "reference": "ChIJ0dUJhEB644kRjSuegfQsfaU", "scope": "GOOGLE", "types": ["point_of_interest", "establishment"], "vicinity": "725 Albany Street, Boston"}, "ChIJ9SmGQD9644kRqKRxs8DLplo": {"geometry": {"location": {"lat": 42.3323827, "lng": -71.0749132}, "viewport": {"northeast": {"lat": 42.33371313029149, "lng": -71.07354311970849}, "southwest": {"lat": 42.33101516970849, "lng": -71.0762410802915}}}, "icon": "https://maps.gstatic.com/mapfiles/place_api/icons/generic_business-71.png", "id": "64bc72a7e8b74dd81f136c725c11f081fdee662e", "name": "Hughes Christopher DDS", "place_id": "ChIJ9SmGQD9644kRqKRxs8DLplo", "plus_code": {"compound_code": "8WJG+X2 Boston, Massachusetts, United States", "global_code": "87JC8WJG+X2"}, "reference": "ChIJ9SmGQD9644kRqKRxs8DLplo", "scope": "GOOGLE", "types": ["dentist", "health", "point_of_interest", "establishment"], "vicinity": "801 Albany Street, Roxbury"}, "ChIJ9yWemYV744kRP2lllX37pf0": {"geometry": {"location": {"lat": 42.3324062, "lng": -71.0738138}, "viewport": {"northeast": {"lat": 42.3335006802915, "lng": -71.07222081970849}, "southwest": {"lat": 42.3308027197085, "lng": -71.0749187802915}}}, "icon": "https://maps.gstatic.com/mapfiles/place_api/icons/doctor-71.png", "id": "9fd72659f15d2925b465d830e3f9eaad6032c53e", "name": "Crosstown Center Garage", "opening_hours": {"open_now": true}, "place_id": "ChIJ9yWemYV744kRP2lllX37pf0", "plus_code": {"compound_code": "8WJG+XF Boston, Massachusetts, United States", "global_code": "87JC8WJG+XF"}, "reference": "ChIJ9yWemYV744kRP2lllX37pf0", "scope": "GOOGLE", "types": ["hospital", "point_of_interest", "establishment"], "vicinity": "7 Melnea Cass Boulevard, Boston"}, "ChIJv5n3Bgp744kRj1LZf-SoI2c": {"geometry": {"location": {"lat": 42.3323773, "lng": -71.0737449}, "viewport": {"northeast": {"lat": 42.33348623029151, "lng": -71.07218636970849}, "southwest": {"lat": 42.33078826970851, "lng": -71.0748843302915}}}, "icon": "https://maps.gstatic.com/mapfiles/place_api/icons/generic_business-71.png", "id": "1fceb6e45d52dd0224e027c8248faa8c356b5a97", "name": "Crosstown Center Garage", "place_id": "ChIJv5n3Bgp744kRj1LZf-SoI2c", "plus_code": {"compound_code": "8WJG+XG Boston, Massachusetts, United States", "global_code": "87JC8WJG+XG"}, "reference": "ChIJv5n3Bgp744kRj1LZf-SoI2c", "scope": "GOOGLE", "types": ["parking", "point_of_interest", "establishment"], "vicinity": "7 Melnea Cass Boulevard, Boston"}, "ChIJ9SmGQD9644kRR1bAoYDEDG8": {"geometry": {"location": {"lat": 42.3323827, "lng": -71.0749132}, "viewport": {"northeast": {"lat": 42.33371313029149, "lng": -71.07354311970849}, "southwest": {"lat": 42.33101516970849, "lng": -71.0762410802915}}}, "icon": "https://maps.gstatic.com/mapfiles/place_api/icons/generic_business-71.png", "id": "32361685d869aa6d2a2cd4c6246a64e6d4e3e9d2", "name": "Cheney Wendy R DDS", "place_id": "ChIJ9SmGQD9644kRR1bAoYDEDG8", "plus_code": {"compound_code": "8WJG+X2 Boston, Massachusetts, United States", "global_code": "87JC8WJG+X2"}, "reference": "ChIJ9SmGQD9644kRR1bAoYDEDG8", "scope": "GOOGLE", "types": ["dentist", "health", "point_of_interest", "establishment"], "vicinity": "801 Albany Street, Roxbury"}, "ChIJ9SmGQD9644kRPIaA0t48c2s": {"geometry": {"location": {"lat": 42.3323827, "lng": -71.0749132}, "viewport": {"northeast": {"lat": 42.33371313029149, "lng": -71.07354311970849}, "southwest": {"lat": 42.33101516970849, "lng": -71.0762410802915}}}, "icon": "https://maps.gstatic.com/mapfiles/place_api/icons/generic_business-71.png", "id": "8ccbd04b3406304ac7243b988b860c2407e787ed", "name": "Dr. Andre L. Lewis, DDS", "place_id": "ChIJ9SmGQD9644kRPIaA0t48c2s", "plus_code": {"compound_code": "8WJG+X2 Boston, Massachusetts, United States", "global_code": "87JC8WJG+X2"}, "reference": "ChIJ9SmGQD9644kRPIaA0t48c2s", "scope": "GOOGLE", "types": ["dentist", "health", "point_of_interest", "establishment"], "vicinity": "801 Albany Street, Boston"}, "ChIJd4KIQD9644kRKD_hpYirIY4": {"geometry": {"location": {"lat": 42.3323827, "lng": -71.0749132}, "viewport": {"northeast": {"lat": 42.33371313029149, "lng": -71.07354311970849}, "southwest": {"lat": 42.33101516970849, "lng": -71.0762410802915}}}, "icon": "https://maps.gstatic.com/mapfiles/place_api/icons/generic_business-71.png", "id": "26647bb097483f02e0f7dd3f639d22253a0c757c", "name": "Dr. Erik J. Smith, DMD", "place_id": "ChIJd4KIQD9644kRKD_hpYirIY4", "plus_code": {"compound_code": "8WJG+X2 Boston, Massachusetts, United States", "global_code": "87JC8WJG+X2"}, "reference": "ChIJd4KIQD9644kRKD_hpYirIY4", "scope": "GOOGLE", "types": ["dentist", "health", "point_of_interest", "establishment"], "vicinity": "801 Albany Street, Boston"}, "ChIJ9SmGQD9644kRmY2wueIDea8": {"geometry": {"location": {"lat": 42.33246309999999, "lng": -71.0750015}, "viewport": {"northeast": {"lat": 42.33382298029149, "lng": -71.0736646697085}, "southwest": {"lat": 42.33112501970849, "lng": -71.07636263029151}}}, "icon": "https://maps.gstatic.com/mapfiles/place_api/icons/generic_business-71.png", "id": "06c4742299bfd138fb5b67cb6cc8f3edb261bad2", "name": "Fugate Amy L DDS", "place_id": "ChIJ9SmGQD9644kRmY2wueIDea8", "plus_code": {"compound_code": "8WJF+XX Boston, Massachusetts, United States", "global_code": "87JC8WJF+XX"}, "reference": "ChIJ9SmGQD9644kRmY2wueIDea8", "scope": "GOOGLE", "types": ["dentist", "health", "point_of_interest", "establishment"], "vicinity": "801 Albany Street, Roxbury"}, "ChIJGzE9DS1l44kRoOhiASS_fHg": {"geometry": {"location": {"lat": 42.3600825, "lng": -71.0588801}, "viewport": {"northeast": {"lat": 42.40081989999999, "lng": -70.749455}, "southwest": {"lat": 42.22788, "lng": -71.191113}}}, "icon": "https://maps.gstatic.com/mapfiles/place_api/icons/geocode-71.png", "id": "06755c25d2b34d13942a4713971756a55b870ced", "name": "Boston", "photos": [{"height": 3024, "html_attributions": ["<a href=\"https://maps.google.com/maps/contrib/104670289779338733432/photos\">Natalia Zalucean</a>"], "photo_reference": "CmRaAAAAPH4Gzh7UU_oJh2JgPrB4HZhwM4_y6vCxYGIwJrD8QE7cJQxhP_cCEi2MgG5uwkPyugB0m0GF91X_3os5dRpUw4Fg8SmjfIBuTWMHcY0m3_LD6ckKcsgR7A12DZOPHhe8EhA2jyxZw1nVlBnpGcYjhGJLGhQj9fT1egXxnk1qO1fgpvo9vhSjcA", "width": 4032}], "place_id": "ChIJGzE9DS1l44kRoOhiASS_fHg", "reference": "ChIJGzE9DS1l44kRoOhiASS_fHg", "scope": "GOOGLE", "types": ["locality", "political"], "vicinity": "Boston"}}