{"ChIJp_-UlvV544kRrZY7ksVvVQY": {"geometry": {"location": {"lat": 42.3433894, "lng": -71.0985324}, "viewport": {"northeast": {"lat": 42.3447383802915, "lng": -71.09641500000001}, "southwest": {"lat": 42.3420404197085, "lng": -71.10064980000001}}}, "icon": "https://maps.gstatic.com/mapfiles/place_api/icons/geocode-71.png", "id": "920ad3388566b5a10179cdc86300469d7f394e1d", "name": "100-52 Peterborough St", "place_id": "ChIJp_-UlvV544kRrZY7ksVvVQY", "reference": "ChIJp_-UlvV544kRrZY7ksVvVQY", "scope": "GOOGLE", "types": ["route"], "vicinity": "Boston"}, "ChIJ1SGgo_V544kRmGe2qAAC1x0": {"geometry": {"location": {"lat": 42.343091, "lng": -71.099079}, "viewport": {"northeast": {"lat": 42.3445014302915, "lng": -71.0977732697085}, "southwest": {"lat": 42.3418034697085, "lng": -71.1004712302915}}}, "icon": "https://maps.gstatic.com/mapfiles/place_api/icons/restaurant-71.png", "id": "956f41169b2d70354aff117b641fb03f745b4d58", "name": "El Pel\u00f3n Taqueria", "opening_hours": {"open_now": true}, "photos": [{"height": 2112, "html_attributions": ["<a href=\"https://maps.google.com/maps/contrib/118305410391293069752/photos\">El Pel\u00f3n Taqueria</a>"], "photo_reference": "CmRaAAAAhXrrGnhKuDle6AiU66NQdk78QXSxMaMNoQatfVgEHcfcz9YTxhMMpImMfnBxZlPGer_pIlb5NEcX9QtMbnLC75I-pJjrWkJ0XGP4TO4g03KlsxYIinDO_UWEQbTLZNWgEhCt6xbB5LIma2qRqjGVFutpGhRaTZvV64UrCp760Puu5Z-GI2gnfg", "width": 3960}], "place_id": "ChIJ1SGgo_V544kRmGe2qAAC1x0", "plus_code": {"compound_code": "8WV2+69 Boston, Massachusetts, United States", "global_code": "87JC8WV2+69"}, "price_level": 1, "rating": 4.6, "reference": "ChIJ1SGgo_V544kRmGe2qAAC1x0", "scope": "GOOGLE", "types": ["restaurant", "point_of_interest", "food", "establishment"], "user_ratings_total": 675, "vicinity": "92 Peterborough Street, Boston"}, "ChIJudE-p_V544kRoR4Y6uBh9OI": {"geometry": {"location": {"lat": 42.3426501, "lng": -71.09917}, "viewport": {"northeast": {"lat": 42.3439758802915, "lng": -71.0979076697085}, "southwest": {"lat": 42.3412779197085, "lng": -71.10060563029153}}}, "icon": "https://maps.gstatic.com/mapfiles/place_api/icons/generic_business-71.png", "id": "1925cd2b3f7462e817917d07e7b0c6ac036d62bb", "name": "Boston Cab Association", "place_id": "ChIJudE-p_V544kRoR4Y6uBh9OI", "plus_code": {"compound_code": "8WV2+38 Boston, Massachusetts, United States", "global_code": "87JC8WV2+38"}, "rating": 1.6, "reference": "ChIJudE-p_V544kRoR4Y6uBh9OI", "scope": "GOOGLE", "types": ["point_of_interest", "establishment"], "user_ratings_total": 115, "vicinity": "72 Kilmarnock Street, Boston"}, "ChIJzz8a9fV544kR9O78J4GIcJ0": {"geometry": {"location": {"lat": 42.3430396, "lng": -71.0991588}, "viewport": {"northeast": {"lat": 42.34446868029149, "lng": -71.0978492197085}, "southwest": {"lat": 42.3417707197085, "lng": -71.1005471802915}}}, "icon": "https://maps.gstatic.com/mapfiles/place_api/icons/restaurant-71.png", "id": "44e89b0f49dfb7b4d38c4ac43711eca3f46612bd", "name": "Rod-Dee 2 Thai Cuisine", "opening_hours": {"open_now": true}, "photos": [{"height": 3024, "html_attributions": ["<a href=\"https://maps.google.com/maps/contrib/115292358139220442300/photos\">sun sas</a>"], "photo_reference": "CmRaAAAAeiKByIgAQF2NfYOpz8uw1fGPFwQATbul1fsEwLAMm2ItWmPgPap8H3hcARSm7mcxbNqBI494CKwzOAGh-o7q4vTj_wkd8EuFyL3qJoztC9o1wuBLkEEI2Mhiza-NBwYtEhDPkCKeeMl12MtCT41D81_YGhSXNRs-AW_aj6cO5aBOJv7I9vP1uA", "width": 4032}], "place_id": "ChIJzz8a9fV544kR9O78J4GIcJ0", "plus_code": {"compound_code": "8WV2+68 Boston, Massachusetts, United States", "global_code": "87JC8WV2+68"}, "price_level": 1, "rating": 4.4, "reference": "ChIJzz8a9fV544kR9O78J4GIcJ0", "scope": "GOOGLE", "types": ["restaurant", "point_of_interest", "food", "establishment"], "user_ratings_total": 167, "vicinity": "94 Peterborough Street, Boston"}, "ChIJWUYppPV544kRT59pgeeNgBs": {"geometry": {"location": {"lat": 42.34302840000001, "lng": -71.099383}, "viewport": {"northeast": {"lat": 42.3444358302915, "lng": -71.0980627697085}, "southwest": {"lat": 42.3417378697085, "lng": -71.10076073029151}}}, "icon": "https://maps.gstatic.com/mapfiles/place_api/icons/restaurant-71.png", "id": "f96e6aaef82ab166affba05fc1bbbc526b35ea41", "name": "Thornton's Fenway Grille", "opening_hours": {"open_now": true}, "photos": [{"height": 2988, "html_attributions": ["<a href=\"https://maps.google.com/maps/contrib/112614089630174476801/photos\">Howard Munoz-Bennett</a>"], "photo_reference": "CmRaAAAAX1RD9A7Sg1ZpUf0nycBOA9pikZ_2u352oQjaplELU0UK4RRva8bll0r4ebvi4e6nbe1tIPGPmZiB_eMCnQry0gf0c0cRwsSeB5nF4d1xIIoC18GPz8Ru__qaJDr7VXbMEhCebN2MrGq8DlNG9mG7gir2GhRcN2bKJcauESdHIznAyyLVfWG-CQ", "width": 5312}], "place_id": "ChIJWUYppPV544kRT59pgeeNgBs", "plus_code": {"compound_code": "8WV2+66 Boston, Massachusetts, United States", "global_code": "87JC8WV2+66"}, "price_level": 2, "rating": 4.3, "reference": "ChIJWUYppPV544kRT59pgeeNgBs", "scope": "GOOGLE", "types": ["bar", "restaurant", "point_of_interest", "food", "establishment"], "user_ratings_total": 311, "vicinity": "100 Peterborough Street, Boston"}, "ChIJU1NIpPV544kRvwyKal-wJ9c": {"geometry": {"location": {"lat": 42.343035, "lng": -71.099229}, "viewport": {"northeast": {"lat": 42.3444577802915, "lng": -71.09791631970849}, "southwest": {"lat": 42.3417598197085, "lng": -71.1006142802915}}}, "icon": "https://maps.gstatic.com/mapfiles/place_api/icons/cafe-71.png", "id": "1375c2b8758e18d347f2930a83065e7413a7b85e", "name": "Neighborhoods Coffee & Crepes", "opening_hours": {"open_now": true}, "photos": [{"height": 2368, "html_attributions": ["<a href=\"https://maps.google.com/maps/contrib/106145322201988270287/photos\">Dino Rodriguez</a>"], "photo_reference": "CmRaAAAAPjYCGDuBZUwYjH0BfPlSvJlkg-AAfSfKvnsfPc9P8Y-H_G8AtrPuz8m8YCfbNcJslZ-bqZmJnQ5zBirJt_CP53PuElGkC-WvHOT2xszZfH0jZJ9sHObWb4j8NyBkPCqPEhCJ_yQdeQQfqXwWv8xgt8OvGhSk3fpI1v6irDZLqKCXYEraTQO-oQ", "width": 4096}], "place_id": "ChIJU1NIpPV544kRvwyKal-wJ9c", "plus_code": {"compound_code": "8WV2+68 Boston, Massachusetts, United States", "global_code": "87JC8WV2+68"}, "rating": 4.4, "reference": "ChIJU1NIpPV544kRvwyKal-wJ9c", "scope": "GOOGLE", "types": ["cafe", "store", "point_of_interest", "food", "establishment"], "user_ratings_total": 234, "vicinity": "96 Peterborough Street, Boston"}, "ChIJrWIQ9fV544kRtaCmIXwiOsY": {"geometry": {"location": {"lat": 42.34310229999999, "lng": -71.0989798}, "viewport": {"northeast": {"lat": 42.34452493029149, "lng": -71.09766706970849}, "southwest": {"lat": 42.3418269697085, "lng": -71.1003650302915}}}, "icon": "https://maps.gstatic.com/mapfiles/place_api/icons/restaurant-71.png", "id": "9e6b43f517408fc37ea6d24ca1735eddcccaba94", "name": "Fiouna's Restaurant", "opening_hours": {"open_now": true}, "photos": [{"height": 3024, "html_attributions": ["<a href=\"https://maps.google.com/maps/contrib/110138208786537275572/photos\">Orkhan Baylarov</a>"], "photo_reference": "CmRaAAAA09M1-iW0Ex-KFY1Y9hDxxqbUheafr7Q2cRJ-DGNYL9KAqBtnKP8fUwkMQ93GJdZtiaoJiWg-pNF06dkX7ghgbO3snuajJK_-QF8ZCpr5Fs8_OTITRkEeyv4pmZlrI244EhB6KilW7E_Wk7EfZSLY27NqGhRaZm56TjFvdpMdvSfWBiL1dCmRHg", "width": 4032}], "place_id": "ChIJrWIQ9fV544kRtaCmIXwiOsY", "plus_code": {"compound_code": "8WV2+6C Boston, Massachusetts, United States", "global_code": "87JC8WV2+6C"}, "price_level": 2, "rating": 4.1, "reference": "ChIJrWIQ9fV544kRtaCmIXwiOsY", "scope": "GOOGLE", "types": ["restaurant", "point_of_interest", "food", "establishment"], "user_ratings_total": 180, "vicinity": "90 Peterborough Street, Boston"}, "ChIJW9ahpfV544kRC0YFO7DHRvc": {"geometry": {"location": {"lat": 42.3434546, "lng": -71.0990836}, "viewport": {"northeast": {"lat": 42.3448607802915, "lng": -71.0977644697085}, "southwest": {"lat": 42.3421628197085, "lng": -71.1004624302915}}}, "icon": "https://maps.gstatic.com/mapfiles/place_api/icons/school-71.png", "id": "f871cd85af782b0682d9bcb0b289a7840e94a4ab", "name": "City of Boston School Department", "place_id": "ChIJW9ahpfV544kRC0YFO7DHRvc", "plus_code": {"compound_code": "8WV2+99 Boston, Massachusetts, United States", "global_code": "87JC8WV2+99"}, "reference": "ChIJW9ahpfV544kRC0YFO7DHRvc", "scope": "GOOGLE", "types": ["school", "point_of_interest", "establishment"], "vicinity": "97 Peterborough Street, Boston"}, "ChIJBw_oC_V544kRV9IIiltoaTo": {"geometry": {"location": {"lat": 42.3424156, "lng": -71.0991031}, "viewport": {"northeast": {"lat": 42.3437470802915, "lng": -71.09781956970849}, "southwest": {"lat": 42.3410491197085, "lng": -71.1005175302915}}}, "icon": "https://maps.gstatic.com/mapfiles/place_api/icons/restaurant-71.png", "id": "7fcaa665a3de658fb21963196ec37397f83ef53f", "name": "Hidyan Cafe", "opening_hours": {"open_now": true}, "photos": [{"height": 4032, "html_attributions": ["<a href=\"https://maps.google.com/maps/contrib/108949367791379847224/photos\">Karina Pinhel</a>"], "photo_reference": "CmRaAAAAXcjFpfAVyXzitCO0c-Olg-T6HEFpL7pcJhimaFuPQ8knZN_YKZW8fkPYSRU4r8tKrPdar_lbStBJHP5plM1Yz2D0DSAC4gNzGHE5JsFbYvLUc4-qY3mbDBoYo8BlXkK8EhBRbaD3KoxUTlup5EHkeVCEGhRWEeEEmMprdrfEaUR0Ml9g9A8G_A", "width": 3024}], "place_id": "ChIJBw_oC_V544kRV9IIiltoaTo", "plus_code": {"compound_code": "8WR2+X9 Boston, Massachusetts, United States", "global_code": "87JC8WR2+X9"}, "price_level": 1, "rating": 4.6, "reference": "ChIJBw_oC_V544kRV9IIiltoaTo", "scope": "GOOGLE", "types": ["restaurant", "point_of_interest", "food", "establishment"], "user_ratings_total": 85, "vicinity": "80 Kilmarnock Street, Boston"}, "ChIJc-KZpPV544kRWPqeLc7FecY": {"geometry": {"location": {"lat": 42.3430613, "lng": -71.0991507}, "viewport": {"northeast": {"lat": 42.3444817802915, "lng": -71.0978369197085}, "southwest": {"lat": 42.3417838197085, "lng": -71.10053488029152}}}, "icon": "https://maps.gstatic.com/mapfiles/place_api/icons/atm-71.png", "id": "d863df28e9515722afbd8ae3469c2c72ea8dddfe", "name": "Phoenix Cardnet", "place_id": "ChIJc-KZpPV544kRWPqeLc7FecY", "plus_code": {"compound_code": "8WV2+68 Boston, Massachusetts, United States", "global_code": "87JC8WV2+68"}, "reference": "ChIJc-KZpPV544kRWPqeLc7FecY", "scope": "GOOGLE", "types": ["atm", "finance", "point_of_interest", "establishment"], "vicinity": "94 Peterborough Street, Boston"}, "ChIJl10Q9fV544kRp20UGoWX84o": {"geometry": {"location": {"lat": 42.34311499999999, "lng": -71.098982}, "viewport": {"northeast": {"lat": 42.3445317802915, "lng": -71.0976663697085}, "southwest": {"lat": 42.3418338197085, "lng": -71.10036433029151}}}, "icon": "https://maps.gstatic.com/mapfiles/place_api/icons/restaurant-71.png", "id": "14643b717ca228288fba9bd151ba804c7685cd01", "name": "Gyro City", "opening_hours": {"open_now": true}, "photos": [{"height": 3456, "html_attributions": ["<a href=\"https://maps.google.com/maps/contrib/107923930919508503642/photos\">Samantha Byrd-Fulbright</a>"], "photo_reference": "CmRaAAAAu-C740mTyNLbpYAPRU8pixD4uem577gPqSw16uyQwKg6ACrQHMCTAfZVfd_u8XqQ5f-g9dT-p8U1sBr2o047zd5o8iSFM1pbnsbH1xWnZuFohtaT05ewbUDo56fybMMOEhC8fS2cK6I7QPJHEIiaSGm7GhRUKTU-fsQ4iMBjxh5fCPz2ql_pew", "width": 4608}], "place_id": "ChIJl10Q9fV544kRp20UGoWX84o", "plus_code": {"compound_code": "8WV2+6C Boston, Massachusetts, United States", "global_code": "87JC8WV2+6C"}, "price_level": 1, "rating": 4.6, "reference": "ChIJl10Q9fV544kRp20UGoWX84o", "scope": "GOOGLE", "types": ["restaurant", "point_of_interest", "food", "establishment"], "user_ratings_total": 290, "vicinity": "88 Peterborough Street, Boston"}, "ChIJp3Kxp_V544kRX7B2Ii1ORe0": {"geometry": {"location": {"lat": 42.34284289999999, "lng": -71.0994205}, "viewport": {"northeast": {"lat": 42.3441929802915, "lng": -71.0980675197085}, "southwest": {"lat": 42.3414950197085, "lng": -71.1007654802915}}}, "icon": "https://maps.gstatic.com/mapfiles/place_api/icons/generic_business-71.png", "id": "2bf789aa7f159f7014be9ee6f2a6bf85dbaa4b62", "name": "K-Street Facility", "place_id": "ChIJp3Kxp_V544kRX7B2Ii1ORe0", "plus_code": {"compound_code": "8WV2+46 Boston, Massachusetts, United States", "global_code": "87JC8WV2+46"}, "rating": 4.7, "reference": "ChIJp3Kxp_V544kRX7B2Ii1ORe0", "scope": "GOOGLE", "types": ["point_of_interest", "establishment"], "user_ratings_total": 6, "vicinity": "74 Kilmarnock Street, Boston"}, "ChIJW9ahpfV544kRmrUCA6BjBDM": {"geometry": {"location": {"lat": 42.3434546, "lng": -71.0990836}, "viewport": {"northeast": {"lat": 42.3448607802915, "lng": -71.0977644697085}, "southwest": {"lat": 42.3421628197085, "lng": -71.1004624302915}}}, "icon": "https://maps.gstatic.com/mapfiles/place_api/icons/school-71.png", "id": "be14ccfeed9af6d58cfa291b064ae0a91eca4fa2", "name": "McKinley Preparatory High School", "place_id": "ChIJW9ahpfV544kRmrUCA6BjBDM", "plus_code": {"compound_code": "8WV2+99 Boston, Massachusetts, United States", "global_code": "87JC8WV2+99"}, "rating": 5, "reference": "ChIJW9ahpfV544kRmrUCA6BjBDM", "scope": "GOOGLE", "types": ["point_of_interest", "school", "establishment"], "user_ratings_total": 4, "vicinity": "97 Peterborough Street, Boston"}, "ChIJ6RUuCPV544kRjpU_2M8kRS8": {"geometry": {"location": {"lat": 42.3426488, "lng": -71.0995032}, "viewport": {"northeast": {"lat": 42.34401408029149, "lng": -71.09809326970849}, "southwest": {"lat": 42.34131611970849, "lng": -71.1007912302915}}}, "icon": "https://maps.gstatic.com/mapfiles/place_api/icons/generic_business-71.png", "id": "b0e125cdb710b7f9e0a93b40aeed38ddf59b5ba1", "name": "Boston MA 1st Class limo & Party bus rentals", "opening_hours": {"open_now": true}, "place_id": "ChIJ6RUuCPV544kRjpU_2M8kRS8", "plus_code": {"compound_code": "8WV2+35 Boston, Massachusetts, United States", "global_code": "87JC8WV2+35"}, "reference": "ChIJ6RUuCPV544kRjpU_2M8kRS8", "scope": "GOOGLE", "types": ["point_of_interest", "establishment"], "vicinity": "Kilmarnock Street, Boston"}, "ChIJTRnXC_V544kR4-kiML4zRro": {"geometry": {"location": {"lat": 42.34251669999999, "lng": -71.0990726}, "viewport": {"northeast": {"lat": 42.3438386802915, "lng": -71.09782441970849}, "southwest": {"lat": 42.3411407197085, "lng": -71.10052238029151}}}, "icon": "https://maps.gstatic.com/mapfiles/place_api/icons/shopping-71.png", "id": "1e3fbda7726475a802f9c9d3eb6248e2473b3480", "name": "Fenway Convenience", "opening_hours": {"open_now": true}, "place_id": "ChIJTRnXC_V544kR4-kiML4zRro", "plus_code": {"compound_code": "8WV2+29 Boston, Massachusetts, United States", "global_code": "87JC8WV2+29"}, "rating": 4, "reference": "ChIJTRnXC_V544kR4-kiML4zRro", "scope": "GOOGLE", "types": ["convenience_store", "store", "point_of_interest", "food", "establishment"], "user_ratings_total": 1, "vicinity": "76 Kilmarnock Street, Boston"}, "ChIJJ_LfkPV544kRwcGoE8o4EMk": {"geometry": {"location": {"lat": 42.343173, "lng": -71.098332}, "viewport": {"northeast": {"lat": 42.3446413302915, "lng": -71.0970417697085}, "southwest": {"lat": 42.3419433697085, "lng": -71.0997397302915}}}, "icon": "https://maps.gstatic.com/mapfiles/place_api/icons/generic_business-71.png", "id": "9fef7489af36ed1656d9845c680d8c877798eaa3", "name": "Peterborough Housing", "place_id": "ChIJJ_LfkPV544kRwcGoE8o4EMk", "plus_code": {"compound_code": "8WV2+7M Boston, Massachusetts, United States", "global_code": "87JC8WV2+7M"}, "reference": "ChIJJ_LfkPV544kRwcGoE8o4EMk", "scope": "GOOGLE", "types": ["point_of_interest", "establishment"], "vicinity": "78 Peterborough Street # 11, Boston"}, "ChIJGxZ7ofV544kRyqzsrTriDMA": {"geometry": {"location": {"lat": 42.3429231, "lng": -71.09902869999999}, "viewport": {"northeast": {"lat": 42.3442157302915, "lng": -71.09788796970848}, "southwest": {"lat": 42.3415177697085, "lng": -71.1005859302915}}}, "icon": "https://maps.gstatic.com/mapfiles/place_api/icons/generic_business-71.png", "id": "6f037ca4399e22f3ac1159794a951c1645cf8f4d", "name": "Deaconess Garage", "photos": [{"height": 3150, "html_attributions": ["<a href=\"https://maps.google.com/maps/contrib/113916885627479626804/photos\">Peter G.</a>"], "photo_reference": "CmRaAAAAqRXjiVjBgUYPCi-jUmOBCTZNfsi2RnOhdlVNwAw-wwdR8bVtwpLsEmF2-16dy96Md21Zi6H1pjHF2CXgd90fFACFOqcgIuJI_14UFAyrVyD_ztWCF2XUOtXi8dWGxiw-EhAd4W-u9TGDYQun1Q5ROhpQGhTWcAUb92q38pd8F6ObWx7pKedDpA", "width": 6016}], "place_id": "ChIJGxZ7ofV544kRyqzsrTriDMA", "plus_code": {"compound_code": "8WV2+59 Boston, Massachusetts, United States", "global_code": "87JC8WV2+59"}, "reference": "ChIJGxZ7ofV544kRyqzsrTriDMA", "scope": "GOOGLE", "types": ["parking", "point_of_interest", "establishment"], "vicinity": "60 Kilmarnock Street, Boston"}, "ChIJ-9La-jB544kRFzQMIMSldM0": {"geometry": {"location": {"lat": 42.3430179, "lng": -71.09921489999999}, "viewport": {"northeast": {"lat": 42.3444499302915, "lng": -71.0979067697085}, "southwest": {"lat": 42.3417519697085, "lng": -71.10060473029151}}}, "icon": "https://maps.gstatic.com/mapfiles/place_api/icons/shopping-71.png", "id": "89522a73ebeddb06e3d66ed5c27b6597544751ac", "name": "PrintWithMe Print Kiosk at Neighborhoods Cafe", "opening_hours": {"open_now": true}, "photos": [{"height": 922, "html_attributions": ["<a href=\"https://maps.google.com/maps/contrib/111678248813466432525/photos\">PrintWithMe Print Kiosk at Neighborhoods Cafe</a>"], "photo_reference": "CmRaAAAAKQOXNSPhNThhZE3fKLOGPkrnv22GtO3KaEJDqElXC4DHX5le6MywxKTw2oAkBY1WHpgR5Gv91JPi5iqZYjl_e1XrNiMUqmdbfxpGsYhJ0BvIoqMPuYNR3zdd3h8IcKJFEhDsG_F855JXqDlZDEv4EpP1GhR4swXtMeEJbg30jE9JwTO1nTWDrg", "width": 1639}], "place_id": "ChIJ-9La-jB544kRFzQMIMSldM0", "plus_code": {"compound_code": "8WV2+68 Boston, Massachusetts, United States", "global_code": "87JC8WV2+68"}, "reference": "ChIJ-9La-jB544kRFzQMIMSldM0", "scope": "GOOGLE", "types": ["store", "point_of_interest", "establishment"], "vicinity": "96 Peterborough Street, Boston"}, "ChIJlbaUovV544kRKG3kpvn9MqQ": {"geometry": {"location": {"lat": 42.3431327, "lng": -71.09889360000001}, "viewport": {"northeast": {"lat": 42.34455218029149, "lng": -71.09757931970849}, "southwest": {"lat": 42.34185421970849, "lng": -71.10027728029151}}}, "icon": "https://maps.gstatic.com/mapfiles/place_api/icons/restaurant-71.png", "id": "ef35feab64e0620b54a1e3d38ef1a2a023800b96", "name": "Kappo Sushi and Ramen", "opening_hours": {"open_now": true}, "photos": [{"height": 3024, "html_attributions": ["<a href=\"https://maps.google.com/maps/contrib/101581290447288638013/photos\">George Chao</a>"], "photo_reference": "CmRaAAAA1aJIAcZIRow6RX9l_Bd7GGa7otwgZCrojAtIrGGQl5rOaLMeWSu0hpl7MT_rv6oozlW7yxn1NOcRxasZAV_GB1P_DjJpYNJTQQJcoMMPsq5ePKjFfGk2d0opqDkp4jzBEhAu4jnO4yjLDJY9lnfbE-y2GhSxvpZ8GrvmLjaI9DMuuyt7hoTyJw", "width": 4032}], "place_id": "ChIJlbaUovV544kRKG3kpvn9MqQ", "plus_code": {"compound_code": "8WV2+7C Boston, Massachusetts, United States", "global_code": "87JC8WV2+7C"}, "price_level": 1, "rating": 4.5, "reference": "ChIJlbaUovV544kRKG3kpvn9MqQ", "scope": "GOOGLE", "types": ["restaurant", "point_of_interest", "food", "establishment"], "user_ratings_total": 54, "vicinity": "86 Peterborough Street, Boston"}, "ChIJGzE9DS1l44kRoOhiASS_fHg": {"geometry": {"location": {"lat": 42.3600825, "lng": -71.0588801}, "viewport": {"northeast": {"lat": 42.40081989999999, "lng": -70.749455}, "southwest": {"lat": 42.22788, "lng": -71.191113}}}, "icon": "https://maps.gstatic.com/mapfiles/place_api/icons/geocode-71.png", "id": "06755c25d2b34d13942a4713971756a55b870ced", "name": "Boston", "photos": [{"height": 3024, "html_attributions": ["<a href=\"https://maps.google.com/maps/contrib/104670289779338733432/photos\">Natalia Zalucean</a>"], "photo_reference": "CmRaAAAAEGRQr73fzo_ecrdAfIScMzXe1UzuRbzL_Dp4IB9KHZYjJo-5lxI8TQ9mph0ubxG8xjU6Eb2tXObXkRmMjQutWwq-q2Ax3xvMoNMawYxXChHU6OtkgGVkXdW_5sBmEB1dEhBWTR4wHvUDoONatgY1ks85GhSQzMVfk-mGHDLrB48-9teZ6RZIFg", "width": 4032}], "place_id": "ChIJGzE9DS1l44kRoOhiASS_fHg", "reference": "ChIJGzE9DS1l44kRoOhiASS_fHg", "scope": "GOOGLE", "types": ["locality", "political"], "vicinity": "Boston"}, "ChIJe32iovV544kRW-_Srwm-AZM": {"geometry": {"location": {"lat": 42.3431397, "lng": -71.09883719999999}, "viewport": {"northeast": {"lat": 42.3445627802915, "lng": -71.09752466970849}, "southwest": {"lat": 42.3418648197085, "lng": -71.10022263029151}}}, "icon": "https://maps.gstatic.com/mapfiles/place_api/icons/restaurant-71.png", "id": "d0536f975ee9c5e0daf504d912ae8f79f13808e2", "name": "Bennets", "opening_hours": {"open_now": true}, "photos": [{"height": 4048, "html_attributions": ["<a href=\"https://maps.google.com/maps/contrib/101453588541262669304/photos\">Jared Hall</a>"], "photo_reference": "CmRaAAAA_0gVxoD0i2KgivNYIA8OMKxC8WLMXkO8Gee2FHSAdUrvjhetIkLytZ7SZVXCG_AZ9NMYjGffPaQfoaeoAbHx_Ikjq4TExpDBBCAUK-DWCA9v-j47DJijNyGhoF1QbyuVEhBMoJS9wUBhZdylnrQ3xuAoGhRaGIxkLFKJnIFWdRnWRMo2NpYmOA", "width": 3036}], "place_id": "ChIJe32iovV544kRW-_Srwm-AZM", "plus_code": {"compound_code": "8WV2+7F Boston, Massachusetts, United States", "global_code": "87JC8WV2+7F"}, "rating": 5, "reference": "ChIJe32iovV544kRW-_Srwm-AZM", "scope": "GOOGLE", "types": ["restaurant", "point_of_interest", "food", "establishment"], "user_ratings_total": 3, "vicinity": "84 Peterborough Street, Boston"}, "ChIJe32iovV544kRjPiR1pk1O6g": {"geometry": {"location": {"lat": 42.3431397, "lng": -71.09883719999999}, "viewport": {"northeast": {"lat": 42.3445627802915, "lng": -71.09752466970849}, "southwest": {"lat": 42.3418648197085, "lng": -71.10022263029151}}}, "icon": "https://maps.gstatic.com/mapfiles/place_api/icons/restaurant-71.png", "id": "c3c211ea0eeee2c694698ca8d0cccb59b57901c8", "name": "Bennett's Sandwich Shop", "opening_hours": {"open_now": true}, "photos": [{"height": 2988, "html_attributions": ["<a href=\"https://maps.google.com/maps/contrib/112103500918270969721/photos\">A Hoyt</a>"], "photo_reference": "CmRaAAAA-Ja5LM7bGee4epB0wnHiMOrF2bGwoWOonjfzlJ4i8rLY6jHPgrKsLAaTRjardnTgER2gwQ5_RT56NXWNi8ThwHwFX6ZufGJckAIyl710nv_CqDRmEr14HDnSMbXojfm_EhBnukPmYhKuQAFO_j-jZiwEGhS8ej1Ogx8sgL4-jIpLju0Lm5OiUg", "width": 5312}], "place_id": "ChIJe32iovV544kRjPiR1pk1O6g", "plus_code": {"compound_code": "8WV2+7F Boston, Massachusetts, United States", "global_code": "87JC8WV2+7F"}, "price_level": 1, "rating": 4.4, "reference": "ChIJe32iovV544kRjPiR1pk1O6g", "scope": "GOOGLE", "types": ["restaurant", "point_of_interest", "food", "establishment"], "user_ratings_total": 84, "vicinity": "84 Peterborough Street, Boston"}, "ChIJ_12OCfV544kRimhW8OhRbf4": {"geometry": {"location": {"lat": 42.3426723, "lng": -71.09914599999999}, "viewport": {"northeast": {"lat": 42.3439939802915, "lng": -71.09789906970849}, "southwest": {"lat": 42.3412960197085, "lng": -71.1005970302915}}}, "icon": "https://maps.gstatic.com/mapfiles/place_api/icons/generic_business-71.png", "id": "a200a5d045f93e423b052c62c5d388f8c9cf9264", "name": "Cleveland Cab Co Inc", "place_id": "ChIJ_12OCfV544kRimhW8OhRbf4", "plus_code": {"compound_code": "8WV2+38 Boston, Massachusetts, United States", "global_code": "87JC8WV2+38"}, "reference": "ChIJ_12OCfV544kRimhW8OhRbf4", "scope": "GOOGLE", "types": ["point_of_interest", "establishment"], "vicinity": "72 Kilmarnock Street, Boston"}, "ChIJe66U1ht644kRsbN2wCjqtWs": {"geometry": {"location": {"lat": 42.3426723, "lng": -71.09914599999999}, "viewport": {"northeast": {"lat": 42.3439939802915, "lng": -71.09789906970849}, "southwest": {"lat": 42.3412960197085, "lng": -71.1005970302915}}}, "icon": "https://maps.gstatic.com/mapfiles/place_api/icons/generic_business-71.png", "id": "1d5a721d395d0d6d37578b0a43da17e1aeaaf876", "name": "Room Tank Housing", "opening_hours": {"open_now": true}, "photos": [{"height": 1312, "html_attributions": ["<a href=\"https://maps.google.com/maps/contrib/102862696022911089935/photos\">Room Tank Housing</a>"], "photo_reference": "CmRaAAAACCzFGqN3pqgwSrMfCNG4m5KhFHY2M6nS8UzrULGeNhTaK4Kh8-mD-WWjss1isXNZCiJaGJ-MSe3rZA2-aniFacLysYU1mSyvjYEA8Hky91gc-rFG48Wuje1jVhpm_1mKEhD3XLy11GM8hUvsCbLEHbV9GhSABkgdr04FtnYf6SBmfTYWQDOeDg", "width": 2048}], "place_id": "ChIJe66U1ht644kRsbN2wCjqtWs", "plus_code": {"compound_code": "8WV2+38 Boston, Massachusetts, United States", "global_code": "87JC8WV2+38"}, "rating": 4.6, "reference": "ChIJe66U1ht644kRsbN2wCjqtWs", "scope": "GOOGLE", "types": ["real_estate_agency", "point_of_interest", "establishment"], "user_ratings_total": 17, "vicinity": "72 R Kilmarnock Street, Boston"}, "ChIJi-apoPV544kRsD5-WXH7jos": {"geometry": {"location": {"lat": 42.3426723, "lng": -71.09914599999999}, "viewport": {"northeast": {"lat": 42.3439939802915, "lng": -71.09789906970849}, "southwest": {"lat": 42.3412960197085, "lng": -71.1005970302915}}}, "icon": "https://maps.gstatic.com/mapfiles/place_api/icons/generic_business-71.png", "id": "99483475c2842306a378cf24557384740608a427", "name": "Overdrive Media \u2013 Boston Taxi Media", "place_id": "ChIJi-apoPV544kRsD5-WXH7jos", "plus_code": {"compound_code": "8WV2+38 Boston, Massachusetts, United States", "global_code": "87JC8WV2+38"}, "reference": "ChIJi-apoPV544kRsD5-WXH7jos", "scope": "GOOGLE", "types": ["point_of_interest", "establishment"], "vicinity": "72 Kilmarnock Street, Boston"}, "ChIJhagHoPV544kR6AW8akzkdXk": {"geometry": {"location": {"lat": 42.3426252, "lng": -71.0988382}, "viewport": {"northeast": {"lat": 42.34406458029149, "lng": -71.0975336697085}, "southwest": {"lat": 42.3413666197085, "lng": -71.1002316302915}}}, "icon": "https://maps.gstatic.com/mapfiles/place_api/icons/generic_business-71.png", "id": "c814d6957f0ddee727a58f0cb6e78f5f69165285", "name": "70-80 Kilmarnock St Parking", "place_id": "ChIJhagHoPV544kR6AW8akzkdXk", "plus_code": {"compound_code": "8WV2+3F Boston, Massachusetts, United States", "global_code": "87JC8WV2+3F"}, "reference": "ChIJhagHoPV544kR6AW8akzkdXk", "scope": "GOOGLE", "types": ["parking", "point_of_interest", "establishment"], "vicinity": "70-80 Kilmarnock St, Boston"}, "ChIJb0LkmfV544kRij7VAz1ddL8": {"geometry": {"location": {"lat": 42.34313, "lng": -71.09849299999999}, "viewport": {"northeast": {"lat": 42.3445982302915, "lng": -71.09720266970848}, "southwest": {"lat": 42.3419002697085, "lng": -71.09990063029149}}}, "icon": "https://maps.gstatic.com/mapfiles/place_api/icons/school-71.png", "id": "1973174f45c3715c465e7de02a4ce2b6cee1ddcc", "name": "Peterborough Computer Learning Center", "place_id": "ChIJb0LkmfV544kRij7VAz1ddL8", "plus_code": {"compound_code": "8WV2+7J Boston, Massachusetts, United States", "global_code": "87JC8WV2+7J"}, "reference": "ChIJb0LkmfV544kRij7VAz1ddL8", "scope": "GOOGLE", "types": ["point_of_interest", "establishment"], "vicinity": "80 Peterborough Street, Boston"}, "ChIJJUfXC_V544kRvox6y2NRzxQ": {"geometry": {"location": {"lat": 42.34250369999999, "lng": -71.0990927}, "viewport": {"northeast": {"lat": 42.3438288302915, "lng": -71.09783281970849}, "southwest": {"lat": 42.3411308697085, "lng": -71.10053078029149}}}, "icon": "https://maps.gstatic.com/mapfiles/place_api/icons/atm-71.png", "id": "b82f5841bee1e7658758e0cb680896f74a670ea2", "name": "Atlantic ATM", "place_id": "ChIJJUfXC_V544kRvox6y2NRzxQ", "plus_code": {"compound_code": "8WV2+29 Boston, Massachusetts, United States", "global_code": "87JC8WV2+29"}, "reference": "ChIJJUfXC_V544kRvox6y2NRzxQ", "scope": "GOOGLE", "types": ["atm", "finance", "point_of_interest", "establishment"], "vicinity": "76 Kilmarnock Street, Boston"}, "ChIJFzpApfV544kR_1R1_V_dIic": {"geometry": {"location": {"lat": 42.3432869, "lng": -71.0994501}, "viewport": {"northeast": {"lat": 42.3445722302915, "lng": -71.0980697697085}, "southwest": {"lat": 42.3418742697085, "lng": -71.10076773029151}}}, "icon": "https://maps.gstatic.com/mapfiles/place_api/icons/generic_business-71.png", "id": "79cd620092ed79015043dfe402da93b5f18c3fdf", "name": "Peterborough Street Playground", "place_id": "ChIJFzpApfV544kR_1R1_V_dIic", "plus_code": {"compound_code": "8WV2+86 Boston, Massachusetts, United States", "global_code": "87JC8WV2+86"}, "rating": 3.2, "reference": "ChIJFzpApfV544kR_1R1_V_dIic", "scope": "GOOGLE", "types": ["point_of_interest", "establishment"], "user_ratings_total": 6, "vicinity": "Peterborough Street, Boston"}, "ChIJe2T3mvV544kR4-PxARt13xo": {"geometry": {"location": {"lat": 42.34299849999999, "lng": -71.0982301}, "viewport": {"northeast": {"lat": 42.34437228029149, "lng": -71.0968933197085}, "southwest": {"lat": 42.3416743197085, "lng": -71.0995912802915}}}, "icon": "https://maps.gstatic.com/mapfiles/place_api/icons/generic_business-71.png", "id": "e0dc2fe0bf1ac5c0d78a08be0060c9e168a70bbd", "name": "Operation PEACE, office", "place_id": "ChIJe2T3mvV544kR4-PxARt13xo", "plus_code": {"compound_code": "8WV2+5P Boston, Massachusetts, United States", "global_code": "87JC8WV2+5P"}, "reference": "ChIJe2T3mvV544kR4-PxARt13xo", "scope": "GOOGLE", "types": ["point_of_interest", "establishment"], "vicinity": "Private Alley 934, Boston"}}