{"ChIJHzsgeLF544kR4sURRSe_8Gg": {"geometry": {"location": {"lat": 42.33972019999999, "lng": -71.1380321}, "viewport": {"northeast": {"lat": 42.3412289802915, "lng": -71.13557000000002}, "southwest": {"lat": 42.3385310197085, "lng": -71.1407488}}}, "icon": "https://maps.gstatic.com/mapfiles/place_api/icons/geocode-71.png", "id": "3b376abe631dc628ecb0272dadfb610de9ab8f3e", "name": "1-67 Salisbury Rd", "place_id": "ChIJHzsgeLF544kR4sURRSe_8Gg", "reference": "ChIJHzsgeLF544kR4sURRSe_8Gg", "scope": "GOOGLE", "types": ["route"], "vicinity": "Brookline"}, "ChIJpabcKbJ544kRUqdUhNMrCV4": {"geometry": {"location": {"lat": 42.3395524, "lng": -71.1389524}, "viewport": {"northeast": {"lat": 42.3408675302915, "lng": -71.13758756970849}, "southwest": {"lat": 42.3381695697085, "lng": -71.1402855302915}}}, "icon": "https://maps.gstatic.com/mapfiles/place_api/icons/generic_business-71.png", "id": "0b621de164ba5b56117b4aaa25a3931fb231ef91", "name": "Miriam D Mazor Md", "place_id": "ChIJpabcKbJ544kRUqdUhNMrCV4", "plus_code": {"compound_code": "8VQ6+RC Brookline, Massachusetts, United States", "global_code": "87JC8VQ6+RC"}, "reference": "ChIJpabcKbJ544kRUqdUhNMrCV4", "scope": "GOOGLE", "types": ["doctor", "health", "point_of_interest", "establishment"], "vicinity": "51 Salisbury Road, Brookline"}, "ChIJNQ1107N544kRjfewmQWp1J0": {"geometry": {"location": {"lat": 42.3401888, "lng": -71.1393772}, "viewport": {"northeast": {"lat": 42.34152608029149, "lng": -71.13802376970848}, "southwest": {"lat": 42.3388281197085, "lng": -71.14072173029149}}}, "icon": "https://maps.gstatic.com/mapfiles/place_api/icons/generic_business-71.png", "id": "6b048885c2ce4fa2a8d0d9175cf383e8b58f3201", "name": "Whitehouse Jeane", "place_id": "ChIJNQ1107N544kRjfewmQWp1J0", "plus_code": {"compound_code": "8VR6+36 Brookline, Massachusetts, United States", "global_code": "87JC8VR6+36"}, "reference": "ChIJNQ1107N544kRjfewmQWp1J0", "scope": "GOOGLE", "types": ["health", "point_of_interest", "establishment"], "vicinity": "36 Evans Road, Brookline"}, "ChIJhZirQQB544kRB9LbXEfedZQ": {"geometry": {"location": {"lat": 42.33176419999999, "lng": -71.1211635}, "viewport": {"northeast": {"lat": 42.3518109, "lng": -71.1056969}, "southwest": {"lat": 42.29459689999999, "lng": -71.1789959}}}, "icon": "https://maps.gstatic.com/mapfiles/place_api/icons/geocode-71.png", "id": "92986b2d1f69af2f2a7e29d34ced8adfa8573beb", "name": "Brookline", "photos": [{"height": 651, "html_attributions": ["<a href=\"https://maps.google.com/maps/contrib/114772942214832951419/photos\">Michael Ahn</a>"], "photo_reference": "CmRaAAAAr1RW4N8NV1UYIopG7OojajhC6resV4LzVMHi66NLcZW3lbk-BxIhcWte6Uihr07KfYEx6r4rCYfkvKoDAR_Pc_vPUs_YCZ-eEuB99XEnTNfg1dLa5v50uGMtABmHoLYfEhCiAEy01MbOhP8VP6WrKd81GhQTaNQc8_IWuQY7CBoW-Ng1B_31rw", "width": 1608}], "place_id": "ChIJhZirQQB544kRB9LbXEfedZQ", "reference": "ChIJhZirQQB544kRB9LbXEfedZQ", "scope": "GOOGLE", "types": ["locality", "political"], "vicinity": "Brookline"}}