{"ChIJP5DO5W5544kR1PzMWc7Jyu4": {"geometry": {"location": {"lat": 42.31085339999999, "lng": -71.1127571}, "viewport": {"northeast": {"lat": 42.3122023802915, "lng": -71.1114081697085}, "southwest": {"lat": 42.3095044197085, "lng": -71.1141061302915}}}, "icon": "https://maps.gstatic.com/mapfiles/place_api/icons/geocode-71.png", "id": "27b6235c9a708fd4ecc0af37475eb1a1af94f430", "name": "14-12 Harris Ave", "place_id": "ChIJP5DO5W5544kR1PzMWc7Jyu4", "reference": "ChIJP5DO5W5544kR1PzMWc7Jyu4", "scope": "GOOGLE", "types": ["route"], "vicinity": "Boston"}, "ChIJpRvt5W5544kRuMZcKxr3tQc": {"geometry": {"location": {"lat": 42.3109071, "lng": -71.11284979999999}, "viewport": {"northeast": {"lat": 42.31223948029149, "lng": -71.1115025697085}, "southwest": {"lat": 42.3095415197085, "lng": -71.11420053029151}}}, "icon": "https://maps.gstatic.com/mapfiles/place_api/icons/school-71.png", "id": "a8f2c921123bb50dafbf0ec7b6c119bf9ddc84fd", "name": "International Mahayana Yoga Association Inc", "place_id": "ChIJpRvt5W5544kRuMZcKxr3tQc", "plus_code": {"compound_code": "8V6P+9V Boston, Massachusetts, United States", "global_code": "87JC8V6P+9V"}, "reference": "ChIJpRvt5W5544kRuMZcKxr3tQc", "scope": "GOOGLE", "types": ["gym", "health", "point_of_interest", "establishment"], "vicinity": "12 Harris Avenue, Boston"}, "ChIJpRvt5W5544kRVVVvW1-MU5Q": {"geometry": {"location": {"lat": 42.3108751, "lng": -71.1127477}, "viewport": {"northeast": {"lat": 42.3122333802915, "lng": -71.11139771970849}, "southwest": {"lat": 42.3095354197085, "lng": -71.1140956802915}}}, "icon": "https://maps.gstatic.com/mapfiles/place_api/icons/generic_business-71.png", "id": "44498a2e169e383fd957b6a7ee1d7003fd279588", "name": "New Life Health Center", "opening_hours": {"open_now": false}, "place_id": "ChIJpRvt5W5544kRVVVvW1-MU5Q", "plus_code": {"compound_code": "8V6P+9W Boston, Massachusetts, United States", "global_code": "87JC8V6P+9W"}, "reference": "ChIJpRvt5W5544kRVVVvW1-MU5Q", "scope": "GOOGLE", "types": ["health", "point_of_interest", "establishment"], "vicinity": "12 Harris Avenue, Jamaica Plain"}, "ChIJpRvt5W5544kR3iPPiS2hxVQ": {"geometry": {"location": {"lat": 42.3109847, "lng": -71.112808}, "viewport": {"northeast": {"lat": 42.3122698802915, "lng": -71.1114658197085}, "southwest": {"lat": 42.3095719197085, "lng": -71.1141637802915}}}, "icon": "https://maps.gstatic.com/mapfiles/place_api/icons/generic_business-71.png", "id": "2bf7eaadf02e6d27f6d685d49aa0b45cdf9cf8bb", "name": "Lee Bo-In", "place_id": "ChIJpRvt5W5544kR3iPPiS2hxVQ", "plus_code": {"compound_code": "8V6P+9V Boston, Massachusetts, United States", "global_code": "87JC8V6P+9V"}, "reference": "ChIJpRvt5W5544kR3iPPiS2hxVQ", "scope": "GOOGLE", "types": ["doctor", "health", "point_of_interest", "establishment"], "vicinity": "12 Harris Avenue, Jamaica Plain"}, "ChIJ294GlW5544kRLxjPFTiFkrk": {"geometry": {"location": {"lat": 42.3107153, "lng": -71.1136923}, "viewport": {"northeast": {"lat": 42.3121606802915, "lng": -71.11232941970849}, "southwest": {"lat": 42.3094627197085, "lng": -71.11502738029151}}}, "icon": "https://maps.gstatic.com/mapfiles/place_api/icons/generic_business-71.png", "id": "14b5f8e0555b93ba2dc8bda46b992911d0d1d30f", "name": "The Wise Woman Path Spiritual Coaching & Therapy", "opening_hours": {"open_now": true}, "photos": [{"height": 3845, "html_attributions": ["<a href=\"https://maps.google.com/maps/contrib/101422618438972165000/photos\">The Wise Woman Path Spiritual Coaching &amp; Therapy</a>"], "photo_reference": "CmRaAAAARC5lRBbyAPeJbb3U_1U95lV4j5PpiUkjtLBuiz0Jeg2YdGZKn4IvkV_OrASwnMn1mZrz8lqJXeKuKIldkmfwURCXhw47JLH38vhgyELD6utcc_xfwUnEaq_zpSVFtznHEhAxH_NDl_O91p6BfBBUggP5GhTOPfhYacc-vlbsblpJO9096lzbJA", "width": 3840}], "place_id": "ChIJ294GlW5544kRLxjPFTiFkrk", "plus_code": {"compound_code": "8V6P+7G Boston, Massachusetts, United States", "global_code": "87JC8V6P+7G"}, "rating": 5, "reference": "ChIJ294GlW5544kRLxjPFTiFkrk", "scope": "GOOGLE", "types": ["health", "point_of_interest", "establishment"], "user_ratings_total": 3, "vicinity": "7 Harris Avenue 3rd Floor Suite, Jamaica Plain"}, "ChIJGzE9DS1l44kRoOhiASS_fHg": {"geometry": {"location": {"lat": 42.3600825, "lng": -71.0588801}, "viewport": {"northeast": {"lat": 42.40081989999999, "lng": -70.749455}, "southwest": {"lat": 42.22788, "lng": -71.191113}}}, "icon": "https://maps.gstatic.com/mapfiles/place_api/icons/geocode-71.png", "id": "06755c25d2b34d13942a4713971756a55b870ced", "name": "Boston", "photos": [{"height": 3024, "html_attributions": ["<a href=\"https://maps.google.com/maps/contrib/104670289779338733432/photos\">Natalia Zalucean</a>"], "photo_reference": "CmRaAAAAcAEuaLButcQkBAtzU34jXjXogbyuY2QQQt1nY_uBlP163a9EcI1Gi5okgSycB7M6doPQwZCvcKVHNVUnC_xZzaZadJe7yJQk7gAu_z-osd46K4LYRbEmKk-OxF-Sg4-aEhB4ODsfrCHCtfPMGfBhWdR2GhRVsyll1hul3FXL-HknxYikuCZiBQ", "width": 4032}], "place_id": "ChIJGzE9DS1l44kRoOhiASS_fHg", "reference": "ChIJGzE9DS1l44kRoOhiASS_fHg", "scope": "GOOGLE", "types": ["locality", "political"], "vicinity": "Boston"}}