{"ChIJQfIElIF644kRVosqaGKmdgg": {"geometry": {"location": {"lat": 42.3478741, "lng": -71.0507963}, "viewport": {"northeast": {"lat": 42.34964110000006, "lng": -71.03868210000002}, "southwest": {"lat": 42.34569629999994, "lng": -71.06282089999999}}}, "icon": "https://maps.gstatic.com/mapfiles/place_api/icons/geocode-71.png", "id": "fabbb2ecdcd91bf7c451d3271cd531d240f6ea06", "name": "Fort Point Channel Tunnel", "place_id": "ChIJQfIElIF644kRVosqaGKmdgg", "reference": "ChIJQfIElIF644kRVosqaGKmdgg", "scope": "GOOGLE", "types": ["route"], "vicinity": "Boston"}, "ChIJ5S_6j39w44kRTiT_VoOAhqg": {"geometry": {"location": {"lat": 42.3486005, "lng": -71.0501611}, "viewport": {"northeast": {"lat": 42.34989608029149, "lng": -71.04869021970849}, "southwest": {"lat": 42.34719811970849, "lng": -71.0513881802915}}}, "icon": "https://maps.gstatic.com/mapfiles/place_api/icons/generic_business-71.png", "id": "78d58f5e519596178288912549e00fcd87c1c169", "name": "Gazelle", "opening_hours": {"open_now": true}, "photos": [{"height": 3180, "html_attributions": ["<a href=\"https://maps.google.com/maps/contrib/107575273577992488186/photos\">Bob Mader</a>"], "photo_reference": "CmRaAAAAgy2nTkr0_JcNY3eujhiFh_R8HaKattL0L2KQLBeMHj1myFQBA9ZWog9sdSrurjiWNGOzhTPDRFK3uiXEbsJpukqolWOaxy2IhxQe_xMNf2AVrNTJFIamntc3vp8_zeIJEhDliSzbUebdDGZXtKg61m9-GhQCf0cLHjGBvLUH4AUgkWf7aYq3Ag", "width": 2385}], "place_id": "ChIJ5S_6j39w44kRTiT_VoOAhqg", "plus_code": {"compound_code": "8WXX+CW Boston, Massachusetts, United States", "global_code": "87JC8WXX+CW"}, "rating": 1.3, "reference": "ChIJ5S_6j39w44kRTiT_VoOAhqg", "scope": "GOOGLE", "types": ["point_of_interest", "establishment"], "user_ratings_total": 12, "vicinity": "300 A Street, Boston"}, "ChIJoT56L35644kR352Ou0P2Bk8": {"geometry": {"location": {"lat": 42.3480234, "lng": -71.0503134}, "viewport": {"northeast": {"lat": 42.3493812302915, "lng": -71.0489851197085}, "southwest": {"lat": 42.3466832697085, "lng": -71.05168308029151}}}, "icon": "https://maps.gstatic.com/mapfiles/place_api/icons/generic_business-71.png", "id": "22157da6be145015c29842c77d757ab2d9e637b3", "name": "Boston Tenant Coalition", "place_id": "ChIJoT56L35644kR352Ou0P2Bk8", "plus_code": {"compound_code": "8WXX+6V Boston, Massachusetts, United States", "global_code": "87JC8WXX+6V"}, "reference": "ChIJoT56L35644kR352Ou0P2Bk8", "scope": "GOOGLE", "types": ["point_of_interest", "establishment"], "vicinity": "288 A Street, Boston"}, "ChIJjSowK35644kRTr-ZMwBNsrc": {"geometry": {"location": {"lat": 42.3485464, "lng": -71.049996}, "viewport": {"northeast": {"lat": 42.3498757802915, "lng": -71.0486022697085}, "southwest": {"lat": 42.3471778197085, "lng": -71.0513002302915}}}, "icon": "https://maps.gstatic.com/mapfiles/place_api/icons/generic_business-71.png", "id": "89a2bb1553e9ed28a7063db03ad4c18bd3bfaefd", "name": "Hammer Design", "place_id": "ChIJjSowK35644kRTr-ZMwBNsrc", "plus_code": {"compound_code": "8XX2+C2 Boston, Massachusetts, United States", "global_code": "87JC8XX2+C2"}, "reference": "ChIJjSowK35644kRTr-ZMwBNsrc", "scope": "GOOGLE", "types": ["general_contractor", "point_of_interest", "establishment"], "vicinity": "300 A Street, Boston"}, "ChIJzU47Ko9644kRFSGVHKgJqxE": {"geometry": {"location": {"lat": 42.3486365, "lng": -71.0501973}, "viewport": {"northeast": {"lat": 42.3499215302915, "lng": -71.0487023697085}, "southwest": {"lat": 42.3472235697085, "lng": -71.0514003302915}}}, "icon": "https://maps.gstatic.com/mapfiles/place_api/icons/shopping-71.png", "id": "dcb617611132dcdf11b309a8e46e6c0782fe9234", "name": "Environments At Work", "opening_hours": {"open_now": true}, "photos": [{"height": 1520, "html_attributions": ["<a href=\"https://maps.google.com/maps/contrib/118193160598482061258/photos\">Jeremy Valadez</a>"], "photo_reference": "CmRaAAAA4RvgiKkyKlaPuFBJDk11hdw0KdaPu2VABQhk4EXHi_Y6oT4rwactS208AIYBFAr3phpkUyTGKsjTyqGxzhFwkAEg-MfnB5zzqw_Fn94J48HkJ948ELaLOyYMJo9jv5zsEhDx01utPBEQH1YHDpM7iE22GhShhaRuVDNCs99COcn4ffjtl3Tb3A", "width": 2688}], "place_id": "ChIJzU47Ko9644kRFSGVHKgJqxE", "plus_code": {"compound_code": "8WXX+FW Boston, Massachusetts, United States", "global_code": "87JC8WXX+FW"}, "reference": "ChIJzU47Ko9644kRFSGVHKgJqxE", "scope": "GOOGLE", "types": ["furniture_store", "home_goods_store", "store", "general_contractor", "point_of_interest", "establishment"], "vicinity": "300 A Street, Boston"}, "ChIJjSowK35644kRQRvi4uMWsfw": {"geometry": {"location": {"lat": 42.34852499999999, "lng": -71.050026}, "viewport": {"northeast": {"lat": 42.34985228029149, "lng": -71.0486275197085}, "southwest": {"lat": 42.34715431970849, "lng": -71.05132548029151}}}, "icon": "https://maps.gstatic.com/mapfiles/place_api/icons/generic_business-71.png", "id": "ebc2d19eba71796a51e341dd58958e8260c2b1b5", "name": "Integrated Interiors", "opening_hours": {"open_now": true}, "photos": [{"height": 525, "html_attributions": ["<a href=\"https://maps.google.com/maps/contrib/110082717531630501562/photos\">Integrated Interiors</a>"], "photo_reference": "CmRaAAAAr1X-eGjFAdFnem4_oqtUnUW4uZxHF4LFq9IgaKYMdEACl1SMOPWjoJvo8rHdrfOyNMwx9uvw7SDAqgbDD0kmtQEl7oUh3VW2dFJSsXt2UK8azB50ZdRAsqNHB8lYky6IEhDOQD_MsS0ukXewaMzXu0aAGhQ5XiJSpBfTFufWgxmSNT-K-lD6aw", "width": 526}], "place_id": "ChIJjSowK35644kRQRvi4uMWsfw", "plus_code": {"compound_code": "8WXX+CX Boston, Massachusetts, United States", "global_code": "87JC8WXX+CX"}, "rating": 5, "reference": "ChIJjSowK35644kRQRvi4uMWsfw", "scope": "GOOGLE", "types": ["point_of_interest", "establishment"], "user_ratings_total": 1, "vicinity": "300 A Street, Boston"}, "ChIJm1-bLX5644kRemDcS5hGZv8": {"geometry": {"location": {"lat": 42.348451, "lng": -71.050468}, "viewport": {"northeast": {"lat": 42.3497162802915, "lng": -71.04892796970849}, "southwest": {"lat": 42.3470183197085, "lng": -71.05162593029151}}}, "icon": "https://maps.gstatic.com/mapfiles/place_api/icons/generic_business-71.png", "id": "26e2fd50ce1190d3d0635a00caa8d1ebf2334c90", "name": "Rovi", "opening_hours": {"open_now": true}, "photos": [{"height": 1520, "html_attributions": ["<a href=\"https://maps.google.com/maps/contrib/109135141776667517317/photos\">Rovi</a>"], "photo_reference": "CmRaAAAAfS6B0oe0nmxYc_jvmfODISFHwuf0IOswYIwKctf6aUYkt-QJ_wr6P-m9O52XVAKr6IHRIRMIxgMzmXPbuX-rCw6MADpmnu7i_-EN-IRh8_r8MGSJAPbTrmKSX7eSveOmEhDPR5J5RVIzyWhxbiJ7gvV8GhTwdTyz9UkSwNOV6sE1zgL80SWs3g", "width": 2688}], "place_id": "ChIJm1-bLX5644kRemDcS5hGZv8", "plus_code": {"compound_code": "8WXX+9R Boston, Massachusetts, United States", "global_code": "87JC8WXX+9R"}, "rating": 5, "reference": "ChIJm1-bLX5644kRemDcS5hGZv8", "scope": "GOOGLE", "types": ["point_of_interest", "establishment"], "user_ratings_total": 1, "vicinity": "300 A Street #500, Boston"}, "ChIJ0QDT1H9644kRZ0-1c8zmWeM": {"geometry": {"location": {"lat": 42.3485464, "lng": -71.0499959}, "viewport": {"northeast": {"lat": 42.3498757802915, "lng": -71.0486022197085}, "southwest": {"lat": 42.3471778197085, "lng": -71.0513001802915}}}, "icon": "https://maps.gstatic.com/mapfiles/place_api/icons/generic_business-71.png", "id": "5fb4805b1d41a5780a42436bbe9d6c3d65df4d4f", "name": "FilzFelt on", "place_id": "ChIJ0QDT1H9644kRZ0-1c8zmWeM", "plus_code": {"compound_code": "8XX2+C2 Boston, Massachusetts, United States", "global_code": "87JC8XX2+C2"}, "reference": "ChIJ0QDT1H9644kRZ0-1c8zmWeM", "scope": "GOOGLE", "types": ["point_of_interest", "establishment"], "vicinity": "281 Summer Street Suite 100, Boston"}, "ChIJnzi3LX5644kRbTXLYugB8HM": {"geometry": {"location": {"lat": 42.3486334, "lng": -71.050193}, "viewport": {"northeast": {"lat": 42.3499195302915, "lng": -71.04870056970849}, "southwest": {"lat": 42.3472215697085, "lng": -71.05139853029151}}}, "icon": "https://maps.gstatic.com/mapfiles/place_api/icons/generic_business-71.png", "id": "75ca64956c856d24e9bab9c1f11c4fbeece5032c", "name": "Red Hat, Inc.", "photos": [{"height": 3024, "html_attributions": ["<a href=\"https://maps.google.com/maps/contrib/108652907695013350842/photos\">Lee Graham</a>"], "photo_reference": "CmRaAAAAou0ud5M1DY6m5EoMHwoa_iT3dGHdrWZX45RtDw8YUQ9me5TgNeETuSfjkyWWPtK9lm4Lr2BTo4wjXv_mC-ZfP1USBAcayUzyq2MAO7Y4zHoyDlW6kXG4U5iTn4LUyP_QEhA8cCKzxhfeOO6f0BHMiS2_GhQrQiKEZ77GojFc1uuPnqCds7twDA", "width": 4032}], "place_id": "ChIJnzi3LX5644kRbTXLYugB8HM", "plus_code": {"compound_code": "8WXX+FW Boston, Massachusetts, United States", "global_code": "87JC8WXX+FW"}, "rating": 4.9, "reference": "ChIJnzi3LX5644kRbTXLYugB8HM", "scope": "GOOGLE", "types": ["point_of_interest", "establishment"], "user_ratings_total": 28, "vicinity": "300 A Street, Boston"}, "ChIJbyhD039644kRv6pfcrX1XpU": {"geometry": {"location": {"lat": 42.3486365, "lng": -71.0501973}, "viewport": {"northeast": {"lat": 42.3499215302915, "lng": -71.0487023697085}, "southwest": {"lat": 42.3472235697085, "lng": -71.0514003302915}}}, "icon": "https://maps.gstatic.com/mapfiles/place_api/icons/generic_business-71.png", "id": "d235be32c9f207eaa49d172e3e3966f31ae57d38", "name": "Tivo Office", "place_id": "ChIJbyhD039644kRv6pfcrX1XpU", "plus_code": {"compound_code": "8WXX+FW Boston, Massachusetts, United States", "global_code": "87JC8WXX+FW"}, "rating": 5, "reference": "ChIJbyhD039644kRv6pfcrX1XpU", "scope": "GOOGLE", "types": ["point_of_interest", "establishment"], "user_ratings_total": 2, "vicinity": "300 A Street, Boston"}, "ChIJlcMNJX5644kRVtzDeuM3--M": {"geometry": {"location": {"lat": 42.348172, "lng": -71.0507488}, "viewport": {"northeast": {"lat": 42.349992, "lng": -71.04959091970849}, "southwest": {"lat": 42.3460268, "lng": -71.0522888802915}}}, "icon": "https://maps.gstatic.com/mapfiles/place_api/icons/generic_business-71.png", "id": "cc4b0f2c2ac563e238d7c1f8dc5fec9c2dab8f3f", "name": "Channelside Lot Parking", "photos": [{"height": 3024, "html_attributions": ["<a href=\"https://maps.google.com/maps/contrib/104808678925522391214/photos\">Anna Agranovich</a>"], "photo_reference": "CmRaAAAAM46eqwSZTHEkHy84y3Md568MpBr8w2oU4FV6vZAEZ77vURgO8R6RofXvnWAAySW5m3dCz1WOConWJ3BtOIPijgTjPWBlCtWWJ7sxHbhfThIIHKBl_JeWRBy0az1vuFUtEhDO1p9NX21gWmhRLBJ4Y5OUGhQuSwSWSOTzWRc08e2ystlRZi0mYg", "width": 4032}], "place_id": "ChIJlcMNJX5644kRVtzDeuM3--M", "plus_code": {"compound_code": "8WXX+7P Boston, Massachusetts, United States", "global_code": "87JC8WXX+7P"}, "rating": 4.5, "reference": "ChIJlcMNJX5644kRVtzDeuM3--M", "scope": "GOOGLE", "types": ["parking", "point_of_interest", "establishment"], "user_ratings_total": 25, "vicinity": "284 A Street, Boston"}, "ChIJ29dC039644kR8CXgzfL4ihw": {"geometry": {"location": {"lat": 42.3485665, "lng": -71.05013559999999}, "viewport": {"northeast": {"lat": 42.3498706302915, "lng": -71.04868426970849}, "southwest": {"lat": 42.34717266970851, "lng": -71.0513822302915}}}, "icon": "https://maps.gstatic.com/mapfiles/place_api/icons/generic_business-71.png", "id": "282224dd0d84cfbfe886181bf895961dea26e5a3", "name": "Crowd Lending Inc.", "opening_hours": {"open_now": true}, "photos": [{"height": 455, "html_attributions": ["<a href=\"https://maps.google.com/maps/contrib/107884951976600576439/photos\">Crowd Lending Inc.</a>"], "photo_reference": "CmRaAAAA1AExNJXixuKTUeTyNn3579pkeZTEOTJ4RisMB9vxYfgnN8ow-QHWGCJjll9iwKfXJzfoWiTWpiFsUl5z_3DWU_NHS20p4XGK3U64te6r1garqNws3q9TLMBRlk3XyEDUEhC1yosxXBWhjC4nYZ839Om6GhQGopiGsAEK31WCZ1Cb09liJVuumg", "width": 455}], "place_id": "ChIJ29dC039644kR8CXgzfL4ihw", "plus_code": {"compound_code": "8WXX+CW Boston, Massachusetts, United States", "global_code": "87JC8WXX+CW"}, "rating": 5, "reference": "ChIJ29dC039644kR8CXgzfL4ihw", "scope": "GOOGLE", "types": ["finance", "point_of_interest", "establishment"], "user_ratings_total": 1, "vicinity": "300 A Street #101, Boston"}, "ChIJCROeL35644kRSueJPAxUUrY": {"geometry": {"location": {"lat": 42.34806199999999, "lng": -71.050338}, "viewport": {"northeast": {"lat": 42.3494023302915, "lng": -71.04896861970849}, "southwest": {"lat": 42.3467043697085, "lng": -71.05166658029151}}}, "icon": "https://maps.gstatic.com/mapfiles/place_api/icons/bus-71.png", "id": "e0bca40db2600fd7d2757a8b8c8d702a779b59d5", "name": "A St @ Necco St", "place_id": "ChIJCROeL35644kRSueJPAxUUrY", "plus_code": {"compound_code": "8WXX+6V Boston, Massachusetts, United States", "global_code": "87JC8WXX+6V"}, "reference": "ChIJCROeL35644kRSueJPAxUUrY", "scope": "GOOGLE", "types": ["bus_station", "transit_station", "point_of_interest", "establishment"], "vicinity": "United States"}, "ChIJ_f8P039644kRiboU8-3rI90": {"geometry": {"location": {"lat": 42.3486334, "lng": -71.050193}, "viewport": {"northeast": {"lat": 42.3499195302915, "lng": -71.04870056970849}, "southwest": {"lat": 42.3472215697085, "lng": -71.05139853029151}}}, "icon": "https://maps.gstatic.com/mapfiles/place_api/icons/generic_business-71.png", "id": "d2a81e49d094644bc9c88db1f901a9bbfe61d388", "name": "WoWA", "place_id": "ChIJ_f8P039644kRiboU8-3rI90", "plus_code": {"compound_code": "8WXX+FW Boston, Massachusetts, United States", "global_code": "87JC8WXX+FW"}, "reference": "ChIJ_f8P039644kRiboU8-3rI90", "scope": "GOOGLE", "types": ["point_of_interest", "establishment"], "vicinity": "300 A Street, Boston"}, "ChIJVVUF039644kRxl76vu2lG08": {"geometry": {"location": {"lat": 42.34869879999999, "lng": -71.0502875}, "viewport": {"northeast": {"lat": 42.3499610802915, "lng": -71.04874071970849}, "southwest": {"lat": 42.3472631197085, "lng": -71.05143868029151}}}, "icon": "https://maps.gstatic.com/mapfiles/place_api/icons/generic_business-71.png", "id": "23a4a0ed820cbb94878174774a346d520fc6093a", "name": "Corderman & Company, Inc.", "opening_hours": {"open_now": true}, "place_id": "ChIJVVUF039644kRxl76vu2lG08", "plus_code": {"compound_code": "8WXX+FV Boston, Massachusetts, United States", "global_code": "87JC8WXX+FV"}, "reference": "ChIJVVUF039644kRxl76vu2lG08", "scope": "GOOGLE", "types": ["general_contractor", "point_of_interest", "establishment"], "vicinity": "300 A Street #1, Boston"}, "ChIJVcXxMH5644kRBxjVZOyuACs": {"geometry": {"location": {"lat": 42.348172, "lng": -71.0507488}, "viewport": {"northeast": {"lat": 42.34954388029149, "lng": -71.04938191970848}, "southwest": {"lat": 42.3468459197085, "lng": -71.05207988029149}}}, "icon": "https://maps.gstatic.com/mapfiles/place_api/icons/generic_business-71.png", "id": "4aeee47022a4bd9546c06e1a0fafcb0602582f4e", "name": "Zipcar", "opening_hours": {"open_now": true}, "photos": [{"height": 499, "html_attributions": ["<a href=\"https://maps.google.com/maps/contrib/110460863266087816507/photos\">Zipcar</a>"], "photo_reference": "CmRaAAAAgw02YVvGxTBJy2tp-FBfvRPm2UD2SDDyjPtuMkN8oLTdZxJrqfO8-tYzJq-0V9L4Ej3EE7V3fGvpxBidHCUd-scWda0O5U1Q0Q0Linbg8-7ay0PkHGkOigvKjRHKfTloEhA9ZqRjuJJTvESkgsoQaDF6GhRZOUx5HBwwJYh-Vi8OFBmuKxGhSA", "width": 499}], "place_id": "ChIJVcXxMH5644kRBxjVZOyuACs", "plus_code": {"compound_code": "8WXX+7P Boston, Massachusetts, United States", "global_code": "87JC8WXX+7P"}, "reference": "ChIJVcXxMH5644kRBxjVZOyuACs", "scope": "GOOGLE", "types": ["car_rental", "point_of_interest", "establishment"], "vicinity": "284 A Street, Boston"}, "ChIJg9sK1n9644kR_kzL7ej-9C4": {"geometry": {"location": {"lat": 42.3487846, "lng": -71.0499097}, "viewport": {"northeast": {"lat": 42.3501372802915, "lng": -71.04855616970849}, "southwest": {"lat": 42.3474393197085, "lng": -71.0512541302915}}}, "icon": "https://maps.gstatic.com/mapfiles/place_api/icons/generic_business-71.png", "id": "d213635bb025d4306d414db285003cac7cc07d2a", "name": "Modern Continental", "place_id": "ChIJg9sK1n9644kR_kzL7ej-9C4", "plus_code": {"compound_code": "8XX2+G2 Boston, Massachusetts, United States", "global_code": "87JC8XX2+G2"}, "reference": "ChIJg9sK1n9644kR_kzL7ej-9C4", "scope": "GOOGLE", "types": ["point_of_interest", "establishment"], "vicinity": "6 Necco Court, Boston"}, "ChIJGzE9DS1l44kRoOhiASS_fHg": {"geometry": {"location": {"lat": 42.3600825, "lng": -71.0588801}, "viewport": {"northeast": {"lat": 42.40081989999999, "lng": -70.749455}, "southwest": {"lat": 42.22788, "lng": -71.191113}}}, "icon": "https://maps.gstatic.com/mapfiles/place_api/icons/geocode-71.png", "id": "06755c25d2b34d13942a4713971756a55b870ced", "name": "Boston", "photos": [{"height": 3024, "html_attributions": ["<a href=\"https://maps.google.com/maps/contrib/104670289779338733432/photos\">Natalia Zalucean</a>"], "photo_reference": "CmRaAAAANJE_sA6P0mFaRVuFoabjLwB5dYjyWRUmy5sTG_56P2mE-Gd_fKMz14rvHtpgFzjDBen-80t0OoWpBXdchoD_mnaKMg0nfxCoAVyH3sfVNzqVppbYWZIOEMup2_DC0IVHEhBfPf9CORAeMtxHHH2YITkdGhR5xsbUc_BfF3sKMJv-SRPX17BhJg", "width": 4032}], "place_id": "ChIJGzE9DS1l44kRoOhiASS_fHg", "reference": "ChIJGzE9DS1l44kRoOhiASS_fHg", "scope": "GOOGLE", "types": ["locality", "political"], "vicinity": "Boston"}}