{"ChIJ0deZJLtw44kRtH8XgoCoL-s": {"geometry": {"location": {"lat": 42.3667059, "lng": -71.0818156}, "viewport": {"northeast": {"lat": 42.3680548302915, "lng": -71.08046656970849}, "southwest": {"lat": 42.3653568697085, "lng": -71.0831645302915}}}, "icon": "https://maps.gstatic.com/mapfiles/place_api/icons/geocode-71.png", "id": "96bc1a70f0ed312883ff1a6c4c844decab42ee2c", "name": "239-257 Third St", "place_id": "ChIJ0deZJLtw44kRtH8XgoCoL-s", "reference": "ChIJ0deZJLtw44kRtH8XgoCoL-s", "scope": "GOOGLE", "types": ["route"], "vicinity": "Cambridge"}, "ChIJ5X5NFrtw44kRmXhktYBOXuo": {"geometry": {"location": {"lat": 42.3669525, "lng": -71.0808828}, "viewport": {"northeast": {"lat": 42.36833018029149, "lng": -71.07965431970851}, "southwest": {"lat": 42.36563221970849, "lng": -71.08235228029152}}}, "icon": "https://maps.gstatic.com/mapfiles/place_api/icons/generic_business-71.png", "id": "e4b39e71b11169b88cc0857f8500c9bbd4b7c647", "name": "CDL Architects", "place_id": "ChIJ5X5NFrtw44kRmXhktYBOXuo", "plus_code": {"compound_code": "9W89+QJ Cambridge, Massachusetts, United States", "global_code": "87JC9W89+QJ"}, "reference": "ChIJ5X5NFrtw44kRmXhktYBOXuo", "scope": "GOOGLE", "types": ["point_of_interest", "establishment"], "vicinity": "222 Third Street, Cambridge"}, "ChIJI0e1Z7tw44kRnOuLF6tWDUs": {"geometry": {"location": {"lat": 42.3669525, "lng": -71.0808828}, "viewport": {"northeast": {"lat": 42.36833018029149, "lng": -71.07965431970851}, "southwest": {"lat": 42.36563221970849, "lng": -71.08235228029152}}}, "icon": "https://maps.gstatic.com/mapfiles/place_api/icons/generic_business-71.png", "id": "da8fa1d2dadb58c2b48ad6cf269ad609d917c609", "name": "QubeVu", "place_id": "ChIJI0e1Z7tw44kRnOuLF6tWDUs", "plus_code": {"compound_code": "9W89+QJ Cambridge, Massachusetts, United States", "global_code": "87JC9W89+QJ"}, "reference": "ChIJI0e1Z7tw44kRnOuLF6tWDUs", "scope": "GOOGLE", "types": ["point_of_interest", "establishment"], "vicinity": "222 Third Street, Cambridge"}, "ChIJ5X5NFrtw44kRzRauy300OCY": {"geometry": {"location": {"lat": 42.3669525, "lng": -71.0808828}, "viewport": {"northeast": {"lat": 42.36833018029149, "lng": -71.07965431970851}, "southwest": {"lat": 42.36563221970849, "lng": -71.08235228029152}}}, "icon": "https://maps.gstatic.com/mapfiles/place_api/icons/civic_building-71.png", "id": "376b079b8ae9f8a6cc6cad337be4b35cba13f66c", "name": "Zapoint", "place_id": "ChIJ5X5NFrtw44kRzRauy300OCY", "plus_code": {"compound_code": "9W89+QJ Cambridge, Massachusetts, United States", "global_code": "87JC9W89+QJ"}, "reference": "ChIJ5X5NFrtw44kRzRauy300OCY", "scope": "GOOGLE", "types": ["point_of_interest", "establishment"], "vicinity": "222 Third Street, Cambridge"}, "ChIJI0e1Z7tw44kRbsvc1YER7HE": {"geometry": {"location": {"lat": 42.3669525, "lng": -71.0808828}, "viewport": {"northeast": {"lat": 42.36833018029149, "lng": -71.07965431970851}, "southwest": {"lat": 42.36563221970849, "lng": -71.08235228029152}}}, "icon": "https://maps.gstatic.com/mapfiles/place_api/icons/generic_business-71.png", "id": "ff012e8bb116ccb5405b34e0fa7f954efae93c2d", "name": "Us Green Data", "place_id": "ChIJI0e1Z7tw44kRbsvc1YER7HE", "plus_code": {"compound_code": "9W89+QJ Cambridge, Massachusetts, United States", "global_code": "87JC9W89+QJ"}, "reference": "ChIJI0e1Z7tw44kRbsvc1YER7HE", "scope": "GOOGLE", "types": ["point_of_interest", "establishment"], "vicinity": "222 Third Street, Cambridge"}, "ChIJ5X5NFrtw44kROFIp_DkFR8o": {"geometry": {"location": {"lat": 42.3669525, "lng": -71.0808828}, "viewport": {"northeast": {"lat": 42.36833018029149, "lng": -71.07965431970851}, "southwest": {"lat": 42.36563221970849, "lng": -71.08235228029152}}}, "icon": "https://maps.gstatic.com/mapfiles/place_api/icons/generic_business-71.png", "id": "6985d2a33a3b0af72c96fb0bf862e493efc7eed9", "name": "Adconsent", "place_id": "ChIJ5X5NFrtw44kROFIp_DkFR8o", "plus_code": {"compound_code": "9W89+QJ Cambridge, Massachusetts, United States", "global_code": "87JC9W89+QJ"}, "reference": "ChIJ5X5NFrtw44kROFIp_DkFR8o", "scope": "GOOGLE", "types": ["point_of_interest", "establishment"], "vicinity": "222 Third Street, Cambridge"}, "ChIJ7ZyoPbtw44kRuJRNgaQyaGs": {"geometry": {"location": {"lat": 42.36687450000001, "lng": -71.08151780000001}, "viewport": {"northeast": {"lat": 42.3682856802915, "lng": -71.0801535197085}, "southwest": {"lat": 42.3655877197085, "lng": -71.08285148029151}}}, "icon": "https://maps.gstatic.com/mapfiles/place_api/icons/generic_recreational-71.png", "id": "e7d0a98fac0583902cbfd717cd1f88042ee8333a", "name": "Rogers Street Park - Temporary Off Leash Area", "opening_hours": {"open_now": true}, "photos": [{"height": 3024, "html_attributions": ["<a href=\"https://maps.google.com/maps/contrib/107278603469941780383/photos\">Peter Farlow</a>"], "photo_reference": "CmRaAAAAeok6BY5vHOkeBSX38z_aTdiooP6dTPaoF2HxWHfUOEsGRma21deePyiEzkZE6bgWvh5EjJreryk_Nr0aTNzuJ0fScwKEF_ml2r4kBWlXAubEOJKKobCxd2Nl0ZvpQLmNEhAjgoA67BfFJ2kFA3HCDsXfGhTHAQW53BgL8QTQtlr-Rbf5A53afg", "width": 4032}], "place_id": "ChIJ7ZyoPbtw44kRuJRNgaQyaGs", "plus_code": {"compound_code": "9W89+P9 Cambridge, Massachusetts, United States", "global_code": "87JC9W89+P9"}, "rating": 4.2, "reference": "ChIJ7ZyoPbtw44kRuJRNgaQyaGs", "scope": "GOOGLE", "types": ["park", "point_of_interest", "establishment"], "user_ratings_total": 9, "vicinity": "252 Third Street, Cambridge"}, "ChIJI0e1Z7tw44kRlWTdDlt-IEg": {"geometry": {"location": {"lat": 42.3669322, "lng": -71.08093509999999}, "viewport": {"northeast": {"lat": 42.3683211802915, "lng": -71.07968046970849}, "southwest": {"lat": 42.3656232197085, "lng": -71.0823784302915}}}, "icon": "https://maps.gstatic.com/mapfiles/place_api/icons/generic_business-71.png", "id": "cd027f6409ceb809f8beabb5653ad4ff5c8705fa", "name": "Infinio Systems, Inc", "place_id": "ChIJI0e1Z7tw44kRlWTdDlt-IEg", "plus_code": {"compound_code": "9W89+QJ Cambridge, Massachusetts, United States", "global_code": "87JC9W89+QJ"}, "rating": 5, "reference": "ChIJI0e1Z7tw44kRlWTdDlt-IEg", "scope": "GOOGLE", "types": ["point_of_interest", "establishment"], "user_ratings_total": 3, "vicinity": "222 Third Street #3300, Cambridge"}, "ChIJfckSN7tw44kRUVe16W0-mpk": {"geometry": {"location": {"lat": 42.3662236, "lng": -71.0812097}, "viewport": {"northeast": {"lat": 42.3675998302915, "lng": -71.07985446970851}, "southwest": {"lat": 42.3649018697085, "lng": -71.08255243029151}}}, "icon": "https://maps.gstatic.com/mapfiles/place_api/icons/shopping-71.png", "id": "93228c2bc9fcc55e5ab30a3fdc3f6ba10bafaede", "name": "Therion Biologics Corporation", "place_id": "ChIJfckSN7tw44kRUVe16W0-mpk", "plus_code": {"compound_code": "9W89+FG Cambridge, Massachusetts, United States", "global_code": "87JC9W89+FG"}, "reference": "ChIJfckSN7tw44kRUVe16W0-mpk", "scope": "GOOGLE", "types": ["store", "health", "point_of_interest", "establishment"], "vicinity": "76 Rogers Street, Cambridge"}, "ChIJy2AeF7tw44kRcyHCzJdugJo": {"geometry": {"location": {"lat": 42.36725149999999, "lng": -71.0817478}, "viewport": {"northeast": {"lat": 42.36856583029149, "lng": -71.0802933697085}, "southwest": {"lat": 42.3658678697085, "lng": -71.0829913302915}}}, "icon": "https://maps.gstatic.com/mapfiles/place_api/icons/generic_business-71.png", "id": "65a7e59e3e2accb18b0e3d5cab7f9ceae2b8f6af", "name": "Aspmd Inc", "place_id": "ChIJy2AeF7tw44kRcyHCzJdugJo", "plus_code": {"compound_code": "9W89+W8 Cambridge, Massachusetts, United States", "global_code": "87JC9W89+W8"}, "reference": "ChIJy2AeF7tw44kRcyHCzJdugJo", "scope": "GOOGLE", "types": ["finance", "health", "point_of_interest", "establishment"], "vicinity": "229 Third Street, Cambridge"}, "ChIJYQWuR7tw44kRrIRod6hlfdE": {"geometry": {"location": {"lat": 42.3663867, "lng": -71.0808157}, "viewport": {"northeast": {"lat": 42.36766153029149, "lng": -71.0794837197085}, "southwest": {"lat": 42.3649635697085, "lng": -71.08218168029151}}}, "icon": "https://maps.gstatic.com/mapfiles/place_api/icons/generic_recreational-71.png", "id": "481dab47e6fde7f3283f25b3dbd59f82042c6caf", "name": "Rogers Street Park", "photos": [{"height": 2268, "html_attributions": ["<a href=\"https://maps.google.com/maps/contrib/108099959416367501388/photos\">Arindam Banerjee</a>"], "photo_reference": "CmRaAAAANYsBS0iQMYmk6_w-2IIwtZO7huPKo6My6TvzSEbs8G4sbjLckFuKeAI8Cggq5kxJneZTQ6pfGam0GKFFqx0cu39wvUVFrry60KImhj6qxTiCIt9Mg9XrSKXQOjkxfxGGEhDy-tM545hADpmGlLCuCahUGhT1123xVTWvPQ4ua06dyZr0A32eoQ", "width": 4032}], "place_id": "ChIJYQWuR7tw44kRrIRod6hlfdE", "plus_code": {"compound_code": "9W89+HM Cambridge, Massachusetts, United States", "global_code": "87JC9W89+HM"}, "rating": 4.4, "reference": "ChIJYQWuR7tw44kRrIRod6hlfdE", "scope": "GOOGLE", "types": ["park", "point_of_interest", "establishment"], "user_ratings_total": 8, "vicinity": "71 Rogers Street, Cambridge"}, "ChIJX8wwy6Vw44kRh2xoiWSOOsU": {"geometry": {"location": {"lat": 42.3736158, "lng": -71.10973349999999}, "viewport": {"northeast": {"lat": 42.4043839, "lng": -71.06548719999999}, "southwest": {"lat": 42.3523968, "lng": -71.16033209999999}}}, "icon": "https://maps.gstatic.com/mapfiles/place_api/icons/geocode-71.png", "id": "6d2faadca7159347cc68b047055a94b00fec6032", "name": "Cambridge", "photos": [{"height": 2000, "html_attributions": ["<a href=\"https://maps.google.com/maps/contrib/115519834423791060860/photos\">Luca Raggi</a>"], "photo_reference": "CmRaAAAAJkXje6d3eSvPreyQaYmMV0voMGXM4fs8KbUHutkj_qRMdlMHeFoBWbmAJRLjM6FcFJvsC5XS7uzdu3rtM3jBoU_bDO1pvaSSusMXzrVum62oxBSPlFqs2ZERxXABQlSpEhCvT4GflQsO90t9SBQq6e-BGhSznop4SR2RNnkz1MM8RIMdhF89RQ", "width": 3008}], "place_id": "ChIJX8wwy6Vw44kRh2xoiWSOOsU", "reference": "ChIJX8wwy6Vw44kRh2xoiWSOOsU", "scope": "GOOGLE", "types": ["locality", "political"], "vicinity": "Cambridge"}}