{"ChIJmbuDVwp644kRNuO4ZS9wm-E": {"geometry": {"location": {"lat": 42.3536356, "lng": -71.0766562}, "viewport": {"northeast": {"lat": 42.3549845802915, "lng": -71.07530726970849}, "southwest": {"lat": 42.3522866197085, "lng": -71.0780052302915}}}, "icon": "https://maps.gstatic.com/mapfiles/place_api/icons/geocode-71.png", "id": "4d4b7158b776aee8a1c0d851ce4a4bef7a7d3a9b", "name": "278-272 MA-28", "place_id": "ChIJmbuDVwp644kRNuO4ZS9wm-E", "reference": "ChIJmbuDVwp644kRNuO4ZS9wm-E", "scope": "GOOGLE", "types": ["route"], "vicinity": "Boston"}, "ChIJ1eqhUQp644kRBAsceFBClQM": {"geometry": {"location": {"lat": 42.353542, "lng": -71.0770826}, "viewport": {"northeast": {"lat": 42.3547857302915, "lng": -71.07568096970849}, "southwest": {"lat": 42.3520877697085, "lng": -71.07837893029149}}}, "icon": "https://maps.gstatic.com/mapfiles/place_api/icons/school-71.png", "id": "76ec397cf9b31c880df71b484a6aeb66f04ba217", "name": "The Learning Project Elementary School", "opening_hours": {"open_now": true}, "photos": [{"height": 1365, "html_attributions": ["<a href=\"https://maps.google.com/maps/contrib/105865729774490368364/photos\">The Learning Project Elementary School</a>"], "photo_reference": "CmRaAAAA9mwSVs4Zk1JG3pDunnz-l9twZ9TTINVVaP2eF7sYCQd-0RIRGMjPHIJ8nh1n-gAUZmo7ISsKs0pyyOCPsNCU5qIm6WR9QNQjjj8xVTjoS-ryk32bjHW7FOp2W4pI8JoZEhAZ1JcP9GIXx6YKP3DGeICNGhSIdD7yrVDuDVnq-_m-KYvuU0jdag", "width": 2048}], "place_id": "ChIJ1eqhUQp644kRBAsceFBClQM", "plus_code": {"compound_code": "9W3F+C5 Boston, Massachusetts, United States", "global_code": "87JC9W3F+C5"}, "rating": 5, "reference": "ChIJ1eqhUQp644kRBAsceFBClQM", "scope": "GOOGLE", "types": ["point_of_interest", "school", "establishment"], "user_ratings_total": 6, "vicinity": "107 Marlborough Street, Boston"}, "ChIJa8NrWAp644kR_QAZm1ABGeo": {"geometry": {"location": {"lat": 42.35379199999999, "lng": -71.076565}, "viewport": {"northeast": {"lat": 42.3551206802915, "lng": -71.07529051970849}, "southwest": {"lat": 42.3524227197085, "lng": -71.07798848029151}}}, "icon": "https://maps.gstatic.com/mapfiles/place_api/icons/generic_business-71.png", "id": "9c56bae8ecb0d322450f033704f5da18bf3a4e43", "name": "Hale House", "opening_hours": {"open_now": true}, "photos": [{"height": 2246, "html_attributions": ["<a href=\"https://maps.google.com/maps/contrib/116427460595156085173/photos\">Hale House</a>"], "photo_reference": "CmRaAAAA9D0kCgAW-JvAe1vXyfBDipO3Pr67fFUkAOcajAf_oRJqMlrWZNHsTzP3aDeUjWMfzFxGA5EQUeTteYYwf__T8P4wGJv9TCxsFRjTi9QEyKGzMIf7XNKomEWg4utFWLKFEhDXXApmdQJWyRoCEJsqmAANGhS8Z0zmx8DE4zpW5EVkp3HcgzGy6w", "width": 1797}], "place_id": "ChIJa8NrWAp644kR_QAZm1ABGeo", "plus_code": {"compound_code": "9W3F+G9 Boston, Massachusetts, United States", "global_code": "87JC9W3F+G9"}, "rating": 5, "reference": "ChIJa8NrWAp644kR_QAZm1ABGeo", "scope": "GOOGLE", "types": ["health", "point_of_interest", "establishment"], "user_ratings_total": 4, "vicinity": "273 Clarendon Street, Boston"}, "ChIJa8NrWAp644kRAaWP5pO-Sgg": {"geometry": {"location": {"lat": 42.353799, "lng": -71.0765562}, "viewport": {"northeast": {"lat": 42.3551261802915, "lng": -71.07528711970849}, "southwest": {"lat": 42.3524282197085, "lng": -71.0779850802915}}}, "icon": "https://maps.gstatic.com/mapfiles/place_api/icons/generic_business-71.png", "id": "1abb0b964dc707c3e2aa01bc301e42be840ee036", "name": "Hale Barnard Corporation", "opening_hours": {"open_now": true}, "photos": [{"height": 2048, "html_attributions": ["<a href=\"https://maps.google.com/maps/contrib/103843033396040534393/photos\">Hale Barnard Corporation</a>"], "photo_reference": "CmRZAAAA8CmKrrytP-p27qlPRJBbKMXtxEHfRDE-H3oXyfoBWRVrM70j2_ijSUTeCmBcqcxiy1GBzhmL6bsI2WbwYYLG0ifGw3JauCerJBBCMxshmcGaJS0ECn4qO2pC_8fZGflnEhBlAsPFP8ccBLdR45eetZ2ZGhSyZzDDTLqsm79Dkc6XhZp_YljCzw", "width": 1536}], "place_id": "ChIJa8NrWAp644kRAaWP5pO-Sgg", "plus_code": {"compound_code": "9W3F+G9 Boston, Massachusetts, United States", "global_code": "87JC9W3F+G9"}, "rating": 4.5, "reference": "ChIJa8NrWAp644kRAaWP5pO-Sgg", "scope": "GOOGLE", "types": ["health", "point_of_interest", "establishment"], "user_ratings_total": 2, "vicinity": "273 Clarendon Street, Boston"}, "ChIJ_yWdVgp644kRP5EQQrQtqdI": {"geometry": {"location": {"lat": 42.353466, "lng": -71.076762}, "viewport": {"northeast": {"lat": 42.3547816802915, "lng": -71.0753963697085}, "southwest": {"lat": 42.3520837197085, "lng": -71.0780943302915}}}, "icon": "https://maps.gstatic.com/mapfiles/place_api/icons/generic_business-71.png", "id": "bc5db33f83b0bd7e72ae9e43ee63969cf21547b3", "name": "M Doucette Production", "opening_hours": {"open_now": true}, "place_id": "ChIJ_yWdVgp644kRP5EQQrQtqdI", "plus_code": {"compound_code": "9W3F+97 Boston, Massachusetts, United States", "global_code": "87JC9W3F+97"}, "reference": "ChIJ_yWdVgp644kRP5EQQrQtqdI", "scope": "GOOGLE", "types": ["point_of_interest", "establishment"], "vicinity": "103 Marlborough Street, Boston"}, "ChIJm37ZWwp644kRxSeUMxN-Bks": {"geometry": {"location": {"lat": 42.3539271, "lng": -71.0769763}, "viewport": {"northeast": {"lat": 42.35529698029151, "lng": -71.07555041970849}, "southwest": {"lat": 42.35259901970851, "lng": -71.07824838029151}}}, "icon": "https://maps.gstatic.com/mapfiles/place_api/icons/generic_business-71.png", "id": "fe92be6ba829c6618a6431e6146663f366a05a77", "name": "Boston Nutrition Inc", "place_id": "ChIJm37ZWwp644kRxSeUMxN-Bks", "plus_code": {"compound_code": "9W3F+H6 Boston, Massachusetts, United States", "global_code": "87JC9W3F+H6"}, "reference": "ChIJm37ZWwp644kRxSeUMxN-Bks", "scope": "GOOGLE", "types": ["health", "point_of_interest", "establishment"], "vicinity": "278 Clarendon Street, Boston"}, "ChIJwci5Vwp644kR8tmnovFsBhc": {"geometry": {"location": {"lat": 42.3535439, "lng": -71.0767281}, "viewport": {"northeast": {"lat": 42.3549069802915, "lng": -71.07532731970849}, "southwest": {"lat": 42.3522090197085, "lng": -71.0780252802915}}}, "icon": "https://maps.gstatic.com/mapfiles/place_api/icons/generic_business-71.png", "id": "01e48e4102a82472166d60e8bed3a1c977dafe65", "name": "The Crosshair Guide", "place_id": "ChIJwci5Vwp644kR8tmnovFsBhc", "plus_code": {"compound_code": "9W3F+C8 Boston, Massachusetts, United States", "global_code": "87JC9W3F+C8"}, "reference": "ChIJwci5Vwp644kR8tmnovFsBhc", "scope": "GOOGLE", "types": ["point_of_interest", "establishment"], "vicinity": "274 Clarendon Street, Boston"}, "ChIJax_Lpyth54kRiQ9liv8AhIA": {"geometry": {"location": {"lat": 42.3540514, "lng": -71.07661}, "viewport": {"northeast": {"lat": 42.3555198802915, "lng": -71.07531966970849}, "southwest": {"lat": 42.3528219197085, "lng": -71.0780176302915}}}, "icon": "https://maps.gstatic.com/mapfiles/place_api/icons/generic_business-71.png", "id": "2847a2934440826f0993e6f3fabbedff72404387", "name": "James Akers Architectural Illustration", "place_id": "ChIJax_Lpyth54kRiQ9liv8AhIA", "plus_code": {"compound_code": "9W3F+J9 Boston, Massachusetts, United States", "global_code": "87JC9W3F+J9"}, "reference": "ChIJax_Lpyth54kRiQ9liv8AhIA", "scope": "GOOGLE", "types": ["point_of_interest", "establishment"], "vicinity": "199 Beacon Street, Boston"}, "ChIJpwSRVwp644kRt3len_eScEs": {"geometry": {"location": {"lat": 42.3536535, "lng": -71.07657379999999}, "viewport": {"northeast": {"lat": 42.3549915302915, "lng": -71.07526501970848}, "southwest": {"lat": 42.3522935697085, "lng": -71.07796298029149}}}, "icon": "https://maps.gstatic.com/mapfiles/place_api/icons/generic_business-71.png", "id": "2ed098f47a15507dcfa415b9340f13edc7188257", "name": "Mark & Allyson", "place_id": "ChIJpwSRVwp644kRt3len_eScEs", "plus_code": {"compound_code": "9W3F+F9 Boston, Massachusetts, United States", "global_code": "87JC9W3F+F9"}, "reference": "ChIJpwSRVwp644kRt3len_eScEs", "scope": "GOOGLE", "types": ["lawyer", "point_of_interest", "establishment"], "vicinity": "274 Clarendon Street, Boston"}, "ChIJtw4YVgp644kRwGSboH6dVQk": {"geometry": {"location": {"lat": 42.3534452, "lng": -71.0765612}, "viewport": {"northeast": {"lat": 42.35479418029151, "lng": -71.0752122197085}, "southwest": {"lat": 42.35209621970851, "lng": -71.07791018029151}}}, "icon": "https://maps.gstatic.com/mapfiles/place_api/icons/generic_business-71.png", "id": "80c6f2ce77717447a1f2883b3adcd6a2c78a44ac", "name": "271 Parking", "place_id": "ChIJtw4YVgp644kRwGSboH6dVQk", "plus_code": {"compound_code": "9W3F+99 Boston, Massachusetts, United States", "global_code": "87JC9W3F+99"}, "rating": 1, "reference": "ChIJtw4YVgp644kRwGSboH6dVQk", "scope": "GOOGLE", "types": ["parking", "point_of_interest", "establishment"], "user_ratings_total": 1, "vicinity": "271, Boston"}, "ChIJm37ZWwp644kRM6ksMeH-qzA": {"geometry": {"location": {"lat": 42.3539271, "lng": -71.0769763}, "viewport": {"northeast": {"lat": 42.35529698029151, "lng": -71.07555041970849}, "southwest": {"lat": 42.35259901970851, "lng": -71.07824838029151}}}, "icon": "https://maps.gstatic.com/mapfiles/place_api/icons/generic_business-71.png", "id": "ee7c3b045964829ab39b13f8bc49a8a6329f422c", "name": "Adler Gerald MD", "place_id": "ChIJm37ZWwp644kRM6ksMeH-qzA", "plus_code": {"compound_code": "9W3F+H6 Boston, Massachusetts, United States", "global_code": "87JC9W3F+H6"}, "reference": "ChIJm37ZWwp644kRM6ksMeH-qzA", "scope": "GOOGLE", "types": ["doctor", "health", "point_of_interest", "establishment"], "vicinity": "278 Clarendon Street, Boston"}, "ChIJm37ZWwp644kRXSIrcN2l9Ck": {"geometry": {"location": {"lat": 42.3539043, "lng": -71.07695989999999}, "viewport": {"northeast": {"lat": 42.3552735802915, "lng": -71.07553621970848}, "southwest": {"lat": 42.3525756197085, "lng": -71.07823418029149}}}, "icon": "https://maps.gstatic.com/mapfiles/place_api/icons/generic_business-71.png", "id": "e78d8e5698792b1be577e65dcd6f3d0fe097b5fc", "name": "Corinne L. Adler, RD", "place_id": "ChIJm37ZWwp644kRXSIrcN2l9Ck", "plus_code": {"compound_code": "9W3F+H6 Boston, Massachusetts, United States", "global_code": "87JC9W3F+H6"}, "reference": "ChIJm37ZWwp644kRXSIrcN2l9Ck", "scope": "GOOGLE", "types": ["doctor", "health", "point_of_interest", "establishment"], "vicinity": "278 Clarendon Street, Boston"}, "ChIJm37ZWwp644kRZ3gl-CUuuWQ": {"geometry": {"location": {"lat": 42.3539271, "lng": -71.0769763}, "viewport": {"northeast": {"lat": 42.35529698029151, "lng": -71.07555041970849}, "southwest": {"lat": 42.35259901970851, "lng": -71.07824838029151}}}, "icon": "https://maps.gstatic.com/mapfiles/place_api/icons/generic_business-71.png", "id": "5b091ad387c96c8793593dceb6df6c23a5bab965", "name": "278 Clarendon Street", "place_id": "ChIJm37ZWwp644kRZ3gl-CUuuWQ", "plus_code": {"compound_code": "9W3F+H6 Boston, Massachusetts, United States", "global_code": "87JC9W3F+H6"}, "reference": "ChIJm37ZWwp644kRZ3gl-CUuuWQ", "scope": "GOOGLE", "types": ["point_of_interest", "establishment"], "vicinity": "278 Clarendon Street, Boston"}, "ChIJ_1-YUwp644kRS1S5RT04u-A": {"geometry": {"location": {"lat": 42.3533223, "lng": -71.0769681}, "viewport": {"northeast": {"lat": 42.3546520302915, "lng": -71.0756094697085}, "southwest": {"lat": 42.3519540697085, "lng": -71.0783074302915}}}, "icon": "https://maps.gstatic.com/mapfiles/place_api/icons/generic_business-71.png", "id": "b919bee7a6ecf6471edb9424d3d88df70b242fc2", "name": "Advanced American Electronics", "place_id": "ChIJ_1-YUwp644kRS1S5RT04u-A", "plus_code": {"compound_code": "9W3F+86 Boston, Massachusetts, United States", "global_code": "87JC9W3F+86"}, "reference": "ChIJ_1-YUwp644kRS1S5RT04u-A", "scope": "GOOGLE", "types": ["point_of_interest", "establishment"], "vicinity": "110 Marlborough Street # 1, Boston"}, "ChIJpwHLWgp644kRBpqPV74_9Fs": {"geometry": {"location": {"lat": 42.3538405, "lng": -71.0772384}, "viewport": {"northeast": {"lat": 42.3553270802915, "lng": -71.0759576697085}, "southwest": {"lat": 42.3526291197085, "lng": -71.07865563029151}}}, "icon": "https://maps.gstatic.com/mapfiles/place_api/icons/generic_business-71.png", "id": "85647827a5917627c17b0a93a191b938c8c1d194", "name": "Jessica L. Molleur, LicAc", "place_id": "ChIJpwHLWgp644kRBpqPV74_9Fs", "plus_code": {"compound_code": "9W3F+G4 Boston, Massachusetts, United States", "global_code": "87JC9W3F+G4"}, "reference": "ChIJpwHLWgp644kRBpqPV74_9Fs", "scope": "GOOGLE", "types": ["doctor", "health", "point_of_interest", "establishment"], "vicinity": "211 Beacon Street, Boston"}, "ChIJGzE9DS1l44kRoOhiASS_fHg": {"geometry": {"location": {"lat": 42.3600825, "lng": -71.0588801}, "viewport": {"northeast": {"lat": 42.40081989999999, "lng": -70.749455}, "southwest": {"lat": 42.22788, "lng": -71.191113}}}, "icon": "https://maps.gstatic.com/mapfiles/place_api/icons/geocode-71.png", "id": "06755c25d2b34d13942a4713971756a55b870ced", "name": "Boston", "photos": [{"height": 3024, "html_attributions": ["<a href=\"https://maps.google.com/maps/contrib/104670289779338733432/photos\">Natalia Zalucean</a>"], "photo_reference": "CmRaAAAAXEtJq4k_eCC1AmNY-PK1vRSO6Qit2US7_nNER9kgntVbWS84GQJGUKnOmxJ8LxZT1xv2ivW4KVRCFkCZWHzNZga9cMHM2Ppm1IvVtnp-WjqkY6-zx6QUsTHDiVFvae_IEhCY4JxbeDsnjtwLula8UJ8GGhQOtYs5H-70LGKhjdqE09i1zqJMyg", "width": 4032}], "place_id": "ChIJGzE9DS1l44kRoOhiASS_fHg", "reference": "ChIJGzE9DS1l44kRoOhiASS_fHg", "scope": "GOOGLE", "types": ["locality", "political"], "vicinity": "Boston"}}