{"ChIJVUhjqoR544kRMgkbm5B8oVA": {"geometry": {"location": {"lat": 42.32774730000001, "lng": -71.10899619999999}, "viewport": {"northeast": {"lat": 42.32909628029149, "lng": -71.10764721970848}, "southwest": {"lat": 42.3263983197085, "lng": -71.11034518029149}}}, "icon": "https://maps.gstatic.com/mapfiles/place_api/icons/geocode-71.png", "id": "e26c33cbee5ffd7f0542e645ac793be3793ef47f", "name": "278-266 Heath St", "place_id": "ChIJVUhjqoR544kRMgkbm5B8oVA", "reference": "ChIJVUhjqoR544kRMgkbm5B8oVA", "scope": "GOOGLE", "types": ["route"], "vicinity": "Boston"}, "ChIJi3iYV4N544kRehicCJlLIKg": {"geometry": {"location": {"lat": 42.3277095, "lng": -71.1085513}, "viewport": {"northeast": {"lat": 42.32898633029149, "lng": -71.1072957697085}, "southwest": {"lat": 42.32628836970849, "lng": -71.1099937302915}}}, "icon": "https://maps.gstatic.com/mapfiles/place_api/icons/generic_business-71.png", "id": "1353fc743e04e3e4af92cd5998c833f21ae65efa", "name": "Cambridge Uplighting", "photos": [{"height": 550, "html_attributions": ["<a href=\"https://maps.google.com/maps/contrib/117513647406952953357/photos\">Cambridge Uplighting</a>"], "photo_reference": "CmRaAAAALcp5qL9ShmcJrYgbqU3CHsySRUs4aSDLdiuX-T0kpU7FciLiHeIvG_UYrvsNvHj3kIwGgqTFs7PE-uyavZY9COOVUyZngITXRpNXgt49xcZpF131PhbRXD4GEfuXt7aCEhAXHt6GB0dw0q3U-H2qRUpGGhQIS9x8ORQ8hqpcEUvFKTzue2duYg", "width": 360}], "place_id": "ChIJi3iYV4N544kRehicCJlLIKg", "plus_code": {"compound_code": "8VHR+3H Boston, Massachusetts, United States", "global_code": "87JC8VHR+3H"}, "rating": 4, "reference": "ChIJi3iYV4N544kRehicCJlLIKg", "scope": "GOOGLE", "types": ["home_goods_store", "store", "point_of_interest", "food", "establishment"], "user_ratings_total": 1, "vicinity": "251 Heath Street, Boston"}, "ChIJxxE6poR544kRSXflzB63tNo": {"geometry": {"location": {"lat": 42.3277965, "lng": -71.1083926}, "viewport": {"northeast": {"lat": 42.32902133029149, "lng": -71.10720436970851}, "southwest": {"lat": 42.3263233697085, "lng": -71.10990233029152}}}, "icon": "https://maps.gstatic.com/mapfiles/place_api/icons/generic_business-71.png", "id": "6a1ad941fce9903a6e78f9641f41b4db59075e49", "name": "Mpire Solutions", "opening_hours": {"open_now": true}, "photos": [{"height": 300, "html_attributions": ["<a href=\"https://maps.google.com/maps/contrib/117943452565860566140/photos\">Uttam M</a>"], "photo_reference": "CmRaAAAAQL54XXyNr2FA6gil1cLCWOiKV8bvXaj9PwVhoFaNO4KxsBouKVAvnpl4reoFfGlnCeU7wRnu4nRpp5OV7Tj7eM5LUYjR_abgBCZKFtZwZJEj7AlR4R45q0QfZpZXDnr3EhDQYj_3bRUhAZw5D_SxI5ZpGhRbpDXUxh5YVvEeV8RJkHAfzDRHyQ", "width": 300}], "place_id": "ChIJxxE6poR544kRSXflzB63tNo", "plus_code": {"compound_code": "8VHR+4J Boston, Massachusetts, United States", "global_code": "87JC8VHR+4J"}, "rating": 5, "reference": "ChIJxxE6poR544kRSXflzB63tNo", "scope": "GOOGLE", "types": ["point_of_interest", "establishment"], "user_ratings_total": 4, "vicinity": "251 Heath Street #206, Boston"}, "ChIJ1U0YWIN544kRhnJvCQAqhyU": {"geometry": {"location": {"lat": 42.3276836, "lng": -71.10849639999999}, "viewport": {"northeast": {"lat": 42.3289570302915, "lng": -71.10724521970849}, "southwest": {"lat": 42.3262590697085, "lng": -71.10994318029151}}}, "icon": "https://maps.gstatic.com/mapfiles/place_api/icons/generic_business-71.png", "id": "618740482c228a50b6be61dc770d88304809dfb2", "name": "American Brewery Lofts", "photos": [{"height": 5312, "html_attributions": ["<a href=\"https://maps.google.com/maps/contrib/113726002918444388618/photos\">Don Sadowsky</a>"], "photo_reference": "CmRaAAAAqu62S8dpTUK9H4x-VUXz2aT3VIyK3b9DGHV4Jpvr6IhD96g6grHkKadNGkX9CtdKOxtgXscEvY-_QHfGe0LALl2N5zxOOw7Od_IrtDgzFqBn2xF55KH1hMZVBHvkQeAoEhBzVecllp5QUqzEj3OUmMYwGhRFGqtCSzaNqGciyfW2IUKU93BkFQ", "width": 2988}], "place_id": "ChIJ1U0YWIN544kRhnJvCQAqhyU", "plus_code": {"compound_code": "8VHR+3J Boston, Massachusetts, United States", "global_code": "87JC8VHR+3J"}, "rating": 4.7, "reference": "ChIJ1U0YWIN544kRhnJvCQAqhyU", "scope": "GOOGLE", "types": ["point_of_interest", "establishment"], "user_ratings_total": 6, "vicinity": "251 Heath Street, Jamaica Plain"}, "ChIJxTk5WIN544kRaC1ca4R6g9U": {"geometry": {"location": {"lat": 42.327511, "lng": -71.10838199999999}, "viewport": {"northeast": {"lat": 42.3288060302915, "lng": -71.10709466970849}, "southwest": {"lat": 42.3261080697085, "lng": -71.1097926302915}}}, "icon": "https://maps.gstatic.com/mapfiles/place_api/icons/shopping-71.png", "id": "256df9a14738f4acb388ba4015f230bb7794f729", "name": "BackBay Drumming", "opening_hours": {"open_now": true}, "photos": [{"height": 1368, "html_attributions": ["<a href=\"https://maps.google.com/maps/contrib/115032766254806014551/photos\">Ben Kersh</a>"], "photo_reference": "CmRaAAAA0_XijBHbI49knuvS4I2zK0GbLNMiSbzasyDXZy3Loa5vOoyFdedLe1OrSqznmTBCpgy8D__ok_m3gmJviQfQANrS-tzWkkMMRhNmSqXbxW-Lu-g0i-ZH-iuIMfAub2iGEhB_9CF5oxfVeYw10A8VKF3vGhQimUWlaZsrW1zVRX0Wb6A34SKPqA", "width": 2048}], "place_id": "ChIJxTk5WIN544kRaC1ca4R6g9U", "plus_code": {"compound_code": "8VHR+2J Boston, Massachusetts, United States", "global_code": "87JC8VHR+2J"}, "reference": "ChIJxTk5WIN544kRaC1ca4R6g9U", "scope": "GOOGLE", "types": ["electronics_store", "home_goods_store", "store", "point_of_interest", "establishment"], "vicinity": "1121, 251 Heath Street, Boston"}, "ChIJO8_dVrV544kRReCjZrm440w": {"geometry": {"location": {"lat": 42.3276954, "lng": -71.10862759999999}, "viewport": {"northeast": {"lat": 42.3289899302915, "lng": -71.1073489197085}, "southwest": {"lat": 42.3262919697085, "lng": -71.1100468802915}}}, "icon": "https://maps.gstatic.com/mapfiles/place_api/icons/generic_business-71.png", "id": "57d12c3e9ed6d280dd44ac62331e51597bf2c716", "name": "Pink Projects", "photos": [{"height": 250, "html_attributions": ["<a href=\"https://maps.google.com/maps/contrib/100314725052995912632/photos\">Pink Projects</a>"], "photo_reference": "CmRaAAAAx6aeyKWRFJDzsuKed8Ufa7ModApuhlrXXqGJWqDUejyHBulfMKrLg0f7RZHQfSR5ZXYzN1LY0QZidG81zvXyN3SMBF99ad0YtFQ-aV0ek-zvcjFyzT5KS2BRS-6k3VV5EhBQJeCIway_VGfYKTGRuTcLGhQxXYT-H8lzY9JHqaBuyhtw_h3-0g", "width": 250}], "place_id": "ChIJO8_dVrV544kRReCjZrm440w", "plus_code": {"compound_code": "8VHR+3G Boston, Massachusetts, United States", "global_code": "87JC8VHR+3G"}, "reference": "ChIJO8_dVrV544kRReCjZrm440w", "scope": "GOOGLE", "types": ["general_contractor", "point_of_interest", "establishment"], "vicinity": "251 Heath Street #508, Jamaica Plain"}, "ChIJ8QiPV4N544kRnOIFFcjkj3g": {"geometry": {"location": {"lat": 42.3275455, "lng": -71.10847249999999}, "viewport": {"northeast": {"lat": 42.32885058029149, "lng": -71.10718036970849}, "southwest": {"lat": 42.3261526197085, "lng": -71.1098783302915}}}, "icon": "https://maps.gstatic.com/mapfiles/place_api/icons/generic_business-71.png", "id": "93d59c5345200a06d2dea315c9422401377b5f8c", "name": "A.B.C.", "place_id": "ChIJ8QiPV4N544kRnOIFFcjkj3g", "plus_code": {"compound_code": "8VHR+2J Boston, Massachusetts, United States", "global_code": "87JC8VHR+2J"}, "reference": "ChIJ8QiPV4N544kRnOIFFcjkj3g", "scope": "GOOGLE", "types": ["point_of_interest", "establishment"], "vicinity": "251 Heath Street, Boston"}, "ChIJ0aNiV4N544kRwbQ6J04iv_U": {"geometry": {"location": {"lat": 42.3279617, "lng": -71.1091698}, "viewport": {"northeast": {"lat": 42.32933018029149, "lng": -71.10784711970848}, "southwest": {"lat": 42.3266322197085, "lng": -71.1105450802915}}}, "icon": "https://maps.gstatic.com/mapfiles/place_api/icons/bus-71.png", "id": "cbc18596c706c1f60a3c5476aab4cf2d2cf36631", "name": "Heath St opp VA Hospital", "place_id": "ChIJ0aNiV4N544kRwbQ6J04iv_U", "plus_code": {"compound_code": "8VHR+58 Boston, Massachusetts, United States", "global_code": "87JC8VHR+58"}, "reference": "ChIJ0aNiV4N544kRwbQ6J04iv_U", "scope": "GOOGLE", "types": ["bus_station", "transit_station", "point_of_interest", "establishment"], "vicinity": "United States"}, "ChIJT8OqUIN544kRj8xI9EV831s": {"geometry": {"location": {"lat": 42.3278092, "lng": -71.1091854}, "viewport": {"northeast": {"lat": 42.32917288029149, "lng": -71.10781741970848}, "southwest": {"lat": 42.3264749197085, "lng": -71.1105153802915}}}, "icon": "https://maps.gstatic.com/mapfiles/place_api/icons/bus-71.png", "id": "23c648e9e22b0b1e85c9c62db44a7720afa98df2", "name": "Heath St @ VA Hospital", "place_id": "ChIJT8OqUIN544kRj8xI9EV831s", "plus_code": {"compound_code": "8VHR+48 Boston, Massachusetts, United States", "global_code": "87JC8VHR+48"}, "rating": 3, "reference": "ChIJT8OqUIN544kRj8xI9EV831s", "scope": "GOOGLE", "types": ["bus_station", "transit_station", "point_of_interest", "establishment"], "user_ratings_total": 1, "vicinity": "United States"}, "ChIJGzE9DS1l44kRoOhiASS_fHg": {"geometry": {"location": {"lat": 42.3600825, "lng": -71.0588801}, "viewport": {"northeast": {"lat": 42.40081989999999, "lng": -70.749455}, "southwest": {"lat": 42.22788, "lng": -71.191113}}}, "icon": "https://maps.gstatic.com/mapfiles/place_api/icons/geocode-71.png", "id": "06755c25d2b34d13942a4713971756a55b870ced", "name": "Boston", "photos": [{"height": 3024, "html_attributions": ["<a href=\"https://maps.google.com/maps/contrib/104670289779338733432/photos\">Natalia Zalucean</a>"], "photo_reference": "CmRaAAAAjAH1ROnS9P1y0_RYGM9o59Qzv3BQ9Nf-xRwEpPAC-CkIM_ogPO2HEKrxaLLNBrElO4XCsht63ywcED9nIxTp6LBH5m84E4wl1Y1yhjNwSnyyQCwDy8RF0nMmNZS1w_vcEhAaXreC5YGnNg36kMaMXGaPGhTHAHWjxNqDCL7kyLCncby6Yjd8sw", "width": 4032}], "place_id": "ChIJGzE9DS1l44kRoOhiASS_fHg", "reference": "ChIJGzE9DS1l44kRoOhiASS_fHg", "scope": "GOOGLE", "types": ["locality", "political"], "vicinity": "Boston"}}