{"ChIJ7fNuvkl644kR4YDgiEOlfcE": {"geometry": {"location": {"lat": 42.3226508, "lng": -71.0717293}, "viewport": {"northeast": {"lat": 42.3239997802915, "lng": -71.06982690000001}, "southwest": {"lat": 42.3213018197085, "lng": -71.07363169999999}}}, "icon": "https://maps.gstatic.com/mapfiles/place_api/icons/geocode-71.png", "id": "958671016fdf92cb6accd2124ec0c6ff3e445bc5", "name": "34-2 Burrell St", "place_id": "ChIJ7fNuvkl644kR4YDgiEOlfcE", "reference": "ChIJ7fNuvkl644kR4YDgiEOlfcE", "scope": "GOOGLE", "types": ["route"], "vicinity": "Boston"}, "ChIJSVM5vkl644kRJUwsogQKdhM": {"geometry": {"location": {"lat": 42.3224859, "lng": -71.0717137}, "viewport": {"northeast": {"lat": 42.3239078302915, "lng": -71.0704044197085}, "southwest": {"lat": 42.3212098697085, "lng": -71.0731023802915}}}, "icon": "https://maps.gstatic.com/mapfiles/place_api/icons/generic_business-71.png", "id": "18086326ffdf11f48bc589713c66f1893b6389c6", "name": "ADVANCED REALTY COMPANY", "opening_hours": {"open_now": true}, "place_id": "ChIJSVM5vkl644kRJUwsogQKdhM", "plus_code": {"compound_code": "8WCH+X8 Boston, Massachusetts, United States", "global_code": "87JC8WCH+X8"}, "rating": 1, "reference": "ChIJSVM5vkl644kRJUwsogQKdhM", "scope": "GOOGLE", "types": ["real_estate_agency", "point_of_interest", "establishment"], "user_ratings_total": 1, "vicinity": "15 Burrell Street, Boston"}, "ChIJAQCMvUl644kRDmyHI6h2YpA": {"geometry": {"location": {"lat": 42.3225364, "lng": -71.0715745}, "viewport": {"northeast": {"lat": 42.32395443029149, "lng": -71.0702631197085}, "southwest": {"lat": 42.32125646970849, "lng": -71.0729610802915}}}, "icon": "https://maps.gstatic.com/mapfiles/place_api/icons/generic_business-71.png", "id": "875435e38b97b4903bc315a80e274cd254974bf3", "name": "t3 transportation inc", "place_id": "ChIJAQCMvUl644kRDmyHI6h2YpA", "plus_code": {"compound_code": "8WFH+29 Boston, Massachusetts, United States", "global_code": "87JC8WFH+29"}, "reference": "ChIJAQCMvUl644kRDmyHI6h2YpA", "scope": "GOOGLE", "types": ["point_of_interest", "establishment"], "vicinity": "19 Burrell Street, Boston"}, "ChIJ1aoL8kl644kRMPLtiIJ5yi4": {"geometry": {"location": {"lat": 42.32203109999999, "lng": -71.0722593}, "viewport": {"northeast": {"lat": 42.32335078029149, "lng": -71.0709967697085}, "southwest": {"lat": 42.3206528197085, "lng": -71.0736947302915}}}, "icon": "https://maps.gstatic.com/mapfiles/place_api/icons/atm-71.png", "id": "67cfd6d1b4f6a901c8ceb93309080f9c8c066c90", "name": "Merrimak Capital Corporation (ATM)", "place_id": "ChIJ1aoL8kl644kRMPLtiIJ5yi4", "plus_code": {"compound_code": "8WCH+R3 Boston, Massachusetts, United States", "global_code": "87JC8WCH+R3"}, "reference": "ChIJ1aoL8kl644kRMPLtiIJ5yi4", "scope": "GOOGLE", "types": ["atm", "finance", "point_of_interest", "establishment"], "vicinity": "534 Dudley Street, Boston"}, "ChIJzwp38kl644kRECD7GVRETjc": {"geometry": {"location": {"lat": 42.3220377, "lng": -71.0723}, "viewport": {"northeast": {"lat": 42.32336248029149, "lng": -71.07102236970849}, "southwest": {"lat": 42.32066451970849, "lng": -71.07372033029151}}}, "icon": "https://maps.gstatic.com/mapfiles/place_api/icons/shopping-71.png", "id": "f71d33051bb1207337632ccd04c704f59d350b8d", "name": "J. A. Inc. Market La Borinque\u00f1a", "place_id": "ChIJzwp38kl644kRECD7GVRETjc", "plus_code": {"compound_code": "8WCH+R3 Boston, Massachusetts, United States", "global_code": "87JC8WCH+R3"}, "reference": "ChIJzwp38kl644kRECD7GVRETjc", "scope": "GOOGLE", "types": ["grocery_or_supermarket", "store", "point_of_interest", "food", "establishment"], "vicinity": "534 Dudley Street, Boston"}, "ChIJ1aoL8kl644kRnsnrk18Nyww": {"geometry": {"location": {"lat": 42.3220523, "lng": -71.07235659999999}, "viewport": {"northeast": {"lat": 42.3233837302915, "lng": -71.07105931970848}, "southwest": {"lat": 42.3206857697085, "lng": -71.0737572802915}}}, "icon": "https://maps.gstatic.com/mapfiles/place_api/icons/shopping-71.png", "id": "cb77d793b88381405a212ec8ad4259c90c439185", "name": "Market Square Convenience", "photos": [{"height": 2560, "html_attributions": ["<a href=\"https://maps.google.com/maps/contrib/109521926169432098519/photos\">Cherrie Amina</a>"], "photo_reference": "CmRaAAAAvtcaZMOeq_BG-Df8s2NhM2UjGWd5_UQH0o4Jwe_oBdpTpOR4e7KLEps_DsZrt1n5sfrYrDuKH1QFBt6uk1Qxd9C5XGyZ2JH09ley_0-hQc8vorwWDumlYijUWciRhSu0EhDBcKKf3JCEc2BtaAZdEdzzGhQrdNO5O17IxjWkoU_DcpVJsDBi2w", "width": 1920}], "place_id": "ChIJ1aoL8kl644kRnsnrk18Nyww", "plus_code": {"compound_code": "8WCH+R3 Boston, Massachusetts, United States", "global_code": "87JC8WCH+R3"}, "reference": "ChIJ1aoL8kl644kRnsnrk18Nyww", "scope": "GOOGLE", "types": ["grocery_or_supermarket", "store", "point_of_interest", "food", "establishment"], "vicinity": "534 Dudley Street, Roxbury"}, "ChIJGzE9DS1l44kRoOhiASS_fHg": {"geometry": {"location": {"lat": 42.3600825, "lng": -71.0588801}, "viewport": {"northeast": {"lat": 42.40081989999999, "lng": -70.749455}, "southwest": {"lat": 42.22788, "lng": -71.191113}}}, "icon": "https://maps.gstatic.com/mapfiles/place_api/icons/geocode-71.png", "id": "06755c25d2b34d13942a4713971756a55b870ced", "name": "Boston", "photos": [{"height": 3024, "html_attributions": ["<a href=\"https://maps.google.com/maps/contrib/104670289779338733432/photos\">Natalia Zalucean</a>"], "photo_reference": "CmRaAAAAUz2AcZTagiIuhnHWpgmP0BDlzkLIyu1Pgk-nufLiim7UPUWLMv4EPZuwKvBNWj4a-hPsAJHkZCEZJhZ7fkob5h6xdunV6le6FaroTeXQMbxzzbfmW5CwhQ_lY2yEh4cGEhDcGMeeAI5kX84WQSGiEdD3GhR-_znzQHuR7nAsuVXs8v6wNEgidg", "width": 4032}], "place_id": "ChIJGzE9DS1l44kRoOhiASS_fHg", "reference": "ChIJGzE9DS1l44kRoOhiASS_fHg", "scope": "GOOGLE", "types": ["locality", "political"], "vicinity": "Boston"}}