{"ChIJ8z2sOsN744kRndz5eAgj4zs": {"geometry": {"location": {"lat": 42.30277459999999, "lng": -71.0846655}, "viewport": {"northeast": {"lat": 42.30412193029149, "lng": -71.0833115697085}, "southwest": {"lat": 42.30142396970849, "lng": -71.0860095302915}}}, "icon": "https://maps.gstatic.com/mapfiles/place_api/icons/geocode-71.png", "id": "714453b7b5f759785f44867597553d76a7f00063", "name": "8 Old Rd", "place_id": "ChIJ8z2sOsN744kRndz5eAgj4zs", "reference": "ChIJ8z2sOsN744kRndz5eAgj4zs", "scope": "GOOGLE", "types": ["route"], "vicinity": "Boston"}, "ChIJ_VazLcN744kRuXa-UsWlKiE": {"geometry": {"location": {"lat": 42.3025366, "lng": -71.0851015}, "viewport": {"northeast": {"lat": 42.30390653029149, "lng": -71.0838722197085}, "southwest": {"lat": 42.30120856970849, "lng": -71.0865701802915}}}, "icon": "https://maps.gstatic.com/mapfiles/place_api/icons/generic_business-71.png", "id": "24c3e7fcbd2ab0d99592107e5c833e5472148c24", "name": "Diego Neira, Physician", "place_id": "ChIJ_VazLcN744kRuXa-UsWlKiE", "plus_code": {"compound_code": "8W37+2X Boston, Massachusetts, United States", "global_code": "87JC8W37+2X"}, "reference": "ChIJ_VazLcN744kRuXa-UsWlKiE", "scope": "GOOGLE", "types": ["doctor", "health", "point_of_interest", "establishment"], "vicinity": "632 Blue Hill Avenue, Dorchester"}, "ChIJ_VazLcN744kR_qekScrGpy4": {"geometry": {"location": {"lat": 42.3026832, "lng": -71.08516139999999}, "viewport": {"northeast": {"lat": 42.3040442802915, "lng": -71.08388156970848}, "southwest": {"lat": 42.3013463197085, "lng": -71.08657953029149}}}, "icon": "https://maps.gstatic.com/mapfiles/place_api/icons/generic_business-71.png", "id": "02d58a8da527b4dab1bf573fb2a450bdf9c7fe1f", "name": "Harvard Street Neighborhood: Enere Florence N", "place_id": "ChIJ_VazLcN744kR_qekScrGpy4", "plus_code": {"compound_code": "8W37+3W Boston, Massachusetts, United States", "global_code": "87JC8W37+3W"}, "reference": "ChIJ_VazLcN744kR_qekScrGpy4", "scope": "GOOGLE", "types": ["health", "point_of_interest", "establishment"], "vicinity": "632 Blue Hill Avenue, Dorchester"}, "ChIJ_VazLcN744kR0ieqSXnUshw": {"geometry": {"location": {"lat": 42.30241600000001, "lng": -71.0850971}, "viewport": {"northeast": {"lat": 42.3037894802915, "lng": -71.0838882197085}, "southwest": {"lat": 42.3010915197085, "lng": -71.0865861802915}}}, "icon": "https://maps.gstatic.com/mapfiles/place_api/icons/generic_business-71.png", "id": "5f1d049e71406c2096e0bba0504cad3036c37da9", "name": "Harvard Street Neighborhood", "opening_hours": {"open_now": true}, "place_id": "ChIJ_VazLcN744kR0ieqSXnUshw", "plus_code": {"compound_code": "8W27+XX Boston, Massachusetts, United States", "global_code": "87JC8W27+XX"}, "rating": 3.3, "reference": "ChIJ_VazLcN744kR0ieqSXnUshw", "scope": "GOOGLE", "types": ["health", "point_of_interest", "establishment"], "user_ratings_total": 20, "vicinity": "632 Blue Hill Avenue, Dorchester"}, "ChIJ_VazLcN744kRbAYuBftHb2E": {"geometry": {"location": {"lat": 42.3025366, "lng": -71.0851015}, "viewport": {"northeast": {"lat": 42.30390653029149, "lng": -71.0838722197085}, "southwest": {"lat": 42.30120856970849, "lng": -71.0865701802915}}}, "icon": "https://maps.gstatic.com/mapfiles/place_api/icons/generic_business-71.png", "id": "7787ec2be024f07536617501e25021e09abcf767", "name": "Alma P. Arnold, Nurse", "place_id": "ChIJ_VazLcN744kRbAYuBftHb2E", "plus_code": {"compound_code": "8W37+2X Boston, Massachusetts, United States", "global_code": "87JC8W37+2X"}, "reference": "ChIJ_VazLcN744kRbAYuBftHb2E", "scope": "GOOGLE", "types": ["doctor", "health", "point_of_interest", "establishment"], "vicinity": "632 Blue Hill Avenue, Dorchester"}, "ChIJ_VazLcN744kRsfuSpHcYe3M": {"geometry": {"location": {"lat": 42.3026832, "lng": -71.08516139999999}, "viewport": {"northeast": {"lat": 42.3040442802915, "lng": -71.08388156970848}, "southwest": {"lat": 42.3013463197085, "lng": -71.08657953029149}}}, "icon": "https://maps.gstatic.com/mapfiles/place_api/icons/generic_business-71.png", "id": "ece11ef52efe5c74534a744d002f5023f16cbf9a", "name": "Harvard Street Neighborhood: Alexis Mireille C DDS", "opening_hours": {"open_now": true}, "place_id": "ChIJ_VazLcN744kRsfuSpHcYe3M", "plus_code": {"compound_code": "8W37+3W Boston, Massachusetts, United States", "global_code": "87JC8W37+3W"}, "rating": 1, "reference": "ChIJ_VazLcN744kRsfuSpHcYe3M", "scope": "GOOGLE", "types": ["dentist", "health", "point_of_interest", "establishment"], "user_ratings_total": 1, "vicinity": "632 Blue Hill Avenue, Dorchester"}, "ChIJ_VazLcN744kRJxNCSMAgVpQ": {"geometry": {"location": {"lat": 42.3026832, "lng": -71.08516139999999}, "viewport": {"northeast": {"lat": 42.3040442802915, "lng": -71.08388156970848}, "southwest": {"lat": 42.3013463197085, "lng": -71.08657953029149}}}, "icon": "https://maps.gstatic.com/mapfiles/place_api/icons/generic_business-71.png", "id": "9134e464ae2ab2369f5def61048153132656a855", "name": "Harvard Street Neighborhood: Reddy Sailaja K MD", "place_id": "ChIJ_VazLcN744kRJxNCSMAgVpQ", "plus_code": {"compound_code": "8W37+3W Boston, Massachusetts, United States", "global_code": "87JC8W37+3W"}, "reference": "ChIJ_VazLcN744kRJxNCSMAgVpQ", "scope": "GOOGLE", "types": ["doctor", "health", "point_of_interest", "establishment"], "vicinity": "632 Blue Hill Avenue, Dorchester"}, "ChIJCXqrNsN744kR7OA6MXISa2I": {"geometry": {"location": {"lat": 42.303057, "lng": -71.084863}, "viewport": {"northeast": {"lat": 42.3044321302915, "lng": -71.0836693697085}, "southwest": {"lat": 42.3017341697085, "lng": -71.08636733029151}}}, "icon": "https://maps.gstatic.com/mapfiles/place_api/icons/school-71.png", "id": "01dc28bb46c9dea50c49aab669a54a6a535c0b8f", "name": "4 Star Dance Studio", "opening_hours": {"open_now": false}, "photos": [{"height": 1632, "html_attributions": ["<a href=\"https://maps.google.com/maps/contrib/106025950674937549597/photos\">Mr. Wilson</a>"], "photo_reference": "CmRaAAAADc1nC5icHMacwpUYoiz6wj0IpLbq2flU4_RugXeqbB64VgF14bVO7IDfDMU1MGStWZpJddGZ4ag_TpGKuHLjW5xY-CjDO21XjDBau6CZS9H0YtJ0EHeULNPNl4fqfQ0OEhC-lFNA_4lVCbXyWVJX1t6EGhQIRpYTtk3aC8JweatNV_Lg2HVvkA", "width": 920}], "place_id": "ChIJCXqrNsN744kR7OA6MXISa2I", "plus_code": {"compound_code": "8W38+63 Boston, Massachusetts, United States", "global_code": "87JC8W38+63"}, "rating": 4.4, "reference": "ChIJCXqrNsN744kR7OA6MXISa2I", "scope": "GOOGLE", "types": ["point_of_interest", "establishment"], "user_ratings_total": 10, "vicinity": "614 Blue Hill Avenue, Dorchester"}, "ChIJ_VazLcN744kRuWIJ3O2-3DM": {"geometry": {"location": {"lat": 42.3026832, "lng": -71.08516139999999}, "viewport": {"northeast": {"lat": 42.3040442802915, "lng": -71.08388156970848}, "southwest": {"lat": 42.3013463197085, "lng": -71.08657953029149}}}, "icon": "https://maps.gstatic.com/mapfiles/place_api/icons/generic_business-71.png", "id": "cedc5fbffd89472ab7079ca17850aaef139f8eda", "name": "Harvard Street Neighborhood: Anako-Okereke Uduak DDS", "opening_hours": {"open_now": true}, "place_id": "ChIJ_VazLcN744kRuWIJ3O2-3DM", "plus_code": {"compound_code": "8W37+3W Boston, Massachusetts, United States", "global_code": "87JC8W37+3W"}, "rating": 3, "reference": "ChIJ_VazLcN744kRuWIJ3O2-3DM", "scope": "GOOGLE", "types": ["dentist", "health", "point_of_interest", "establishment"], "user_ratings_total": 2, "vicinity": "632 Blue Hill Avenue, Dorchester"}, "ChIJ_VazLcN744kRP3saTUYXBUg": {"geometry": {"location": {"lat": 42.3026832, "lng": -71.08516139999999}, "viewport": {"northeast": {"lat": 42.3040442802915, "lng": -71.08388156970848}, "southwest": {"lat": 42.3013463197085, "lng": -71.08657953029149}}}, "icon": "https://maps.gstatic.com/mapfiles/place_api/icons/generic_business-71.png", "id": "323f0f1713027adcd04e85c3f934eaab42e0e7dd", "name": "Harvard Street Neighborhood: Wright Stephen L MD", "opening_hours": {"open_now": true}, "place_id": "ChIJ_VazLcN744kRP3saTUYXBUg", "plus_code": {"compound_code": "8W37+3W Boston, Massachusetts, United States", "global_code": "87JC8W37+3W"}, "reference": "ChIJ_VazLcN744kRP3saTUYXBUg", "scope": "GOOGLE", "types": ["doctor", "health", "point_of_interest", "establishment"], "vicinity": "632 Blue Hill Avenue, Dorchester"}, "ChIJCXqrNsN744kRn4jSVIL4HLo": {"geometry": {"location": {"lat": 42.30305029999999, "lng": -71.08490929999999}, "viewport": {"northeast": {"lat": 42.30442188029149, "lng": -71.08369466970849}, "southwest": {"lat": 42.30172391970849, "lng": -71.0863926302915}}}, "icon": "https://maps.gstatic.com/mapfiles/place_api/icons/generic_business-71.png", "id": "7d1cacc2c61b20257332e2f64267d5c018b531f6", "name": "Franklin Park Family Dental", "opening_hours": {"open_now": true}, "photos": [{"height": 665, "html_attributions": ["<a href=\"https://maps.google.com/maps/contrib/110663051961622897982/photos\">Franklin Park Family Dental</a>"], "photo_reference": "CmRaAAAA6s1rGus88e4YbRULbTlioa3BzF59yZtuP4cTGtxmem7YXmGe2gtJFhP6IPf4F-pEqF2FF_kgrtTtrJrrYKywxDIYMqG0wC7uQkgN1ZpO-NfU56UIggdrx0SLY0DW0h3xEhCSBMrpffL5irLttWzVAFRWGhSRg5_qQ9ECz49NMBRqLGV5pleSxA", "width": 1000}], "place_id": "ChIJCXqrNsN744kRn4jSVIL4HLo", "plus_code": {"compound_code": "8W38+62 Boston, Massachusetts, United States", "global_code": "87JC8W38+62"}, "rating": 4, "reference": "ChIJCXqrNsN744kRn4jSVIL4HLo", "scope": "GOOGLE", "types": ["dentist", "doctor", "health", "point_of_interest", "establishment"], "user_ratings_total": 22, "vicinity": "614 Blue Hill Avenue, Dorchester"}, "ChIJ_VazLcN744kRy26nEp9xhEQ": {"geometry": {"location": {"lat": 42.3026832, "lng": -71.08516139999999}, "viewport": {"northeast": {"lat": 42.3040442802915, "lng": -71.08388156970848}, "southwest": {"lat": 42.3013463197085, "lng": -71.08657953029149}}}, "icon": "https://maps.gstatic.com/mapfiles/place_api/icons/shopping-71.png", "id": "ed2064994e9c64e7c06a9683d76f0d2f0d36710f", "name": "Harvard Neighborhood Pharmacy", "opening_hours": {"open_now": true}, "place_id": "ChIJ_VazLcN744kRy26nEp9xhEQ", "plus_code": {"compound_code": "8W37+3W Boston, Massachusetts, United States", "global_code": "87JC8W37+3W"}, "reference": "ChIJ_VazLcN744kRy26nEp9xhEQ", "scope": "GOOGLE", "types": ["pharmacy", "store", "health", "point_of_interest", "establishment"], "vicinity": "632 Blue Hill Avenue, Dorchester"}, "ChIJ_VazLcN744kR_keYoEaFgJs": {"geometry": {"location": {"lat": 42.3026832, "lng": -71.08516139999999}, "viewport": {"northeast": {"lat": 42.3040442802915, "lng": -71.08388156970848}, "southwest": {"lat": 42.3013463197085, "lng": -71.08657953029149}}}, "icon": "https://maps.gstatic.com/mapfiles/place_api/icons/generic_business-71.png", "id": "077258e48598d2f131e642239b7d066d1f64380e", "name": "Harvard Street Neighborhood: Kaligian Aram V MD", "place_id": "ChIJ_VazLcN744kR_keYoEaFgJs", "plus_code": {"compound_code": "8W37+3W Boston, Massachusetts, United States", "global_code": "87JC8W37+3W"}, "reference": "ChIJ_VazLcN744kR_keYoEaFgJs", "scope": "GOOGLE", "types": ["doctor", "health", "point_of_interest", "establishment"], "vicinity": "632 Blue Hill Avenue, Dorchester"}, "ChIJV8erNsN744kRu1O_kQTvuro": {"geometry": {"location": {"lat": 42.30298800000001, "lng": -71.0849218}, "viewport": {"northeast": {"lat": 42.3043601302915, "lng": -71.08371031970849}, "southwest": {"lat": 42.30166216970851, "lng": -71.0864082802915}}}, "icon": "https://maps.gstatic.com/mapfiles/place_api/icons/generic_business-71.png", "id": "e61fb85bd77a43db7dff6ae95975001960921033", "name": "Arsis Media Group", "opening_hours": {"open_now": true}, "place_id": "ChIJV8erNsN744kRu1O_kQTvuro", "plus_code": {"compound_code": "8W38+52 Boston, Massachusetts, United States", "global_code": "87JC8W38+52"}, "reference": "ChIJV8erNsN744kRu1O_kQTvuro", "scope": "GOOGLE", "types": ["point_of_interest", "establishment"], "vicinity": "614 Blue Hill Avenue #3c, Boston"}, "ChIJ9UCaNsN744kRYb68ykZXmfQ": {"geometry": {"location": {"lat": 42.30298800000001, "lng": -71.0849218}, "viewport": {"northeast": {"lat": 42.3043601302915, "lng": -71.08371031970849}, "southwest": {"lat": 42.30166216970851, "lng": -71.0864082802915}}}, "icon": "https://maps.gstatic.com/mapfiles/place_api/icons/generic_business-71.png", "id": "7463efeaf7f50b461f839e9eb1b1dbad835b724a", "name": "Polar Global Realty", "place_id": "ChIJ9UCaNsN744kRYb68ykZXmfQ", "plus_code": {"compound_code": "8W38+52 Boston, Massachusetts, United States", "global_code": "87JC8W38+52"}, "reference": "ChIJ9UCaNsN744kRYb68ykZXmfQ", "scope": "GOOGLE", "types": ["real_estate_agency", "point_of_interest", "establishment"], "vicinity": "612A Blue Hill Avenue, Boston"}, "ChIJ_VazLcN744kRWkdIhQkMMDo": {"geometry": {"location": {"lat": 42.30268, "lng": -71.0851623}, "viewport": {"northeast": {"lat": 42.3040410802915, "lng": -71.08388251970848}, "southwest": {"lat": 42.30134311970851, "lng": -71.0865804802915}}}, "icon": "https://maps.gstatic.com/mapfiles/place_api/icons/generic_business-71.png", "id": "c8a1e238afa8bd4880d393e4a1de1c063643a308", "name": "Wha-Ja Woo, MD", "place_id": "ChIJ_VazLcN744kRWkdIhQkMMDo", "plus_code": {"compound_code": "8W37+3W Boston, Massachusetts, United States", "global_code": "87JC8W37+3W"}, "reference": "ChIJ_VazLcN744kRWkdIhQkMMDo", "scope": "GOOGLE", "types": ["doctor", "health", "point_of_interest", "establishment"], "vicinity": "632 Blue Hill Avenue, Boston"}, "ChIJ_VazLcN744kRymvMPTwE2To": {"geometry": {"location": {"lat": 42.3025366, "lng": -71.0851015}, "viewport": {"northeast": {"lat": 42.30390653029149, "lng": -71.0838722197085}, "southwest": {"lat": 42.30120856970849, "lng": -71.0865701802915}}}, "icon": "https://maps.gstatic.com/mapfiles/place_api/icons/generic_business-71.png", "id": "5371ad207bb7901cc505b286891cff0a6bdab8e5", "name": "Knight Robyn", "place_id": "ChIJ_VazLcN744kRymvMPTwE2To", "plus_code": {"compound_code": "8W37+2X Boston, Massachusetts, United States", "global_code": "87JC8W37+2X"}, "reference": "ChIJ_VazLcN744kRymvMPTwE2To", "scope": "GOOGLE", "types": ["doctor", "health", "point_of_interest", "establishment"], "vicinity": "632 Blue Hill Avenue, Dorchester"}, "ChIJ_VazLcN744kRZO1ejQJGj58": {"geometry": {"location": {"lat": 42.30249939999999, "lng": -71.08510749999999}, "viewport": {"northeast": {"lat": 42.30386983029149, "lng": -71.0838810197085}, "southwest": {"lat": 42.3011718697085, "lng": -71.0865789802915}}}, "icon": "https://maps.gstatic.com/mapfiles/place_api/icons/generic_business-71.png", "id": "8196566bd8c408539ddae3ef667c3a7b723d0817", "name": "Crystal D. Palmer, RD", "place_id": "ChIJ_VazLcN744kRZO1ejQJGj58", "plus_code": {"compound_code": "8W27+XX Boston, Massachusetts, United States", "global_code": "87JC8W27+XX"}, "reference": "ChIJ_VazLcN744kRZO1ejQJGj58", "scope": "GOOGLE", "types": ["doctor", "health", "point_of_interest", "establishment"], "vicinity": "632 Blue Hill Avenue, Dorchester, MA 02121, Boston"}, "ChIJ9ThnNsN744kRhO6VR9bNn04": {"geometry": {"location": {"lat": 42.30305029999999, "lng": -71.08490929999999}, "viewport": {"northeast": {"lat": 42.30442188029149, "lng": -71.08369466970849}, "southwest": {"lat": 42.30172391970849, "lng": -71.0863926302915}}}, "icon": "https://maps.gstatic.com/mapfiles/place_api/icons/generic_business-71.png", "id": "c7447ab51b8a556f82113e6df80c98d0011f9132", "name": "Johny Vargas Dominici", "place_id": "ChIJ9ThnNsN744kRhO6VR9bNn04", "plus_code": {"compound_code": "8W38+62 Boston, Massachusetts, United States", "global_code": "87JC8W38+62"}, "reference": "ChIJ9ThnNsN744kRhO6VR9bNn04", "scope": "GOOGLE", "types": ["point_of_interest", "establishment"], "vicinity": "614 Blue Hill Avenue, Dorchester"}, "ChIJGzE9DS1l44kRoOhiASS_fHg": {"geometry": {"location": {"lat": 42.3600825, "lng": -71.0588801}, "viewport": {"northeast": {"lat": 42.40081989999999, "lng": -70.749455}, "southwest": {"lat": 42.22788, "lng": -71.191113}}}, "icon": "https://maps.gstatic.com/mapfiles/place_api/icons/geocode-71.png", "id": "06755c25d2b34d13942a4713971756a55b870ced", "name": "Boston", "photos": [{"height": 3024, "html_attributions": ["<a href=\"https://maps.google.com/maps/contrib/104670289779338733432/photos\">Natalia Zalucean</a>"], "photo_reference": "CmRaAAAAB49r_si28eIj_StKdL6qlTNVcEzcNSvhJObw_5huoLlZj8SYkZSYmhoSVQmhZ4AjvzW018EFC23gRYr7BsfyoPgPHk5wr7N4m_-67HoxwyZVklP2UIAqJ0JqavpT00MHEhDWtyL7zjGd0cobxXp6Eyc5GhRM_OMF3R4EPY-Ay3XzJnkt7Pv1_w", "width": 4032}], "place_id": "ChIJGzE9DS1l44kRoOhiASS_fHg", "reference": "ChIJGzE9DS1l44kRoOhiASS_fHg", "scope": "GOOGLE", "types": ["locality", "political"], "vicinity": "Boston"}, "ChIJN5JoK8N744kRDgI7z9AvJmk": {"geometry": {"location": {"lat": 42.3026832, "lng": -71.08516139999999}, "viewport": {"northeast": {"lat": 42.3040442802915, "lng": -71.08388156970848}, "southwest": {"lat": 42.3013463197085, "lng": -71.08657953029149}}}, "icon": "https://maps.gstatic.com/mapfiles/place_api/icons/generic_business-71.png", "id": "482c23ab7207919f7b7ccf0ea4616d7fb77f011d", "name": "Darline Joseph, FNP", "place_id": "ChIJN5JoK8N744kRDgI7z9AvJmk", "plus_code": {"compound_code": "8W37+3W Boston, Massachusetts, United States", "global_code": "87JC8W37+3W"}, "reference": "ChIJN5JoK8N744kRDgI7z9AvJmk", "scope": "GOOGLE", "types": ["doctor", "health", "point_of_interest", "establishment"], "vicinity": "632 Blue Hill Avenue, Boston"}, "ChIJwS6kNsN744kRyD0Ea-2Vdmk": {"geometry": {"location": {"lat": 42.30305029999999, "lng": -71.08490929999999}, "viewport": {"northeast": {"lat": 42.30442188029149, "lng": -71.08369466970849}, "southwest": {"lat": 42.30172391970849, "lng": -71.0863926302915}}}, "icon": "https://maps.gstatic.com/mapfiles/place_api/icons/generic_business-71.png", "id": "204c83a41fc18e0adc5a063ecb872ff2cbccc510", "name": "Ave & Affil", "place_id": "ChIJwS6kNsN744kRyD0Ea-2Vdmk", "plus_code": {"compound_code": "8W38+62 Boston, Massachusetts, United States", "global_code": "87JC8W38+62"}, "rating": 4, "reference": "ChIJwS6kNsN744kRyD0Ea-2Vdmk", "scope": "GOOGLE", "types": ["point_of_interest", "establishment"], "user_ratings_total": 1, "vicinity": "614 Blue Hill Avenue, Dorchester"}, "ChIJ_VazLcN744kRllXCTp0NoH4": {"geometry": {"location": {"lat": 42.3026832, "lng": -71.08516139999999}, "viewport": {"northeast": {"lat": 42.3040442802915, "lng": -71.08388156970848}, "southwest": {"lat": 42.3013463197085, "lng": -71.08657953029149}}}, "icon": "https://maps.gstatic.com/mapfiles/place_api/icons/generic_business-71.png", "id": "6ab41f173c9aa5972a32ab7a1965a79c772a329e", "name": "Gervais Myriam", "place_id": "ChIJ_VazLcN744kRllXCTp0NoH4", "plus_code": {"compound_code": "8W37+3W Boston, Massachusetts, United States", "global_code": "87JC8W37+3W"}, "reference": "ChIJ_VazLcN744kRllXCTp0NoH4", "scope": "GOOGLE", "types": ["doctor", "health", "point_of_interest", "establishment"], "vicinity": "632 Blue Hill Avenue, Dorchester"}, "ChIJN5JoK8N744kRHm1WzwELSuA": {"geometry": {"location": {"lat": 42.3026832, "lng": -71.08516139999999}, "viewport": {"northeast": {"lat": 42.3040442802915, "lng": -71.08388156970848}, "southwest": {"lat": 42.3013463197085, "lng": -71.08657953029149}}}, "icon": "https://maps.gstatic.com/mapfiles/place_api/icons/generic_business-71.png", "id": "db150dd16a319dd50482cdf763424dc0099be841", "name": "Alyssa A. Joyce, BS", "place_id": "ChIJN5JoK8N744kRHm1WzwELSuA", "plus_code": {"compound_code": "8W37+3W Boston, Massachusetts, United States", "global_code": "87JC8W37+3W"}, "reference": "ChIJN5JoK8N744kRHm1WzwELSuA", "scope": "GOOGLE", "types": ["doctor", "health", "point_of_interest", "establishment"], "vicinity": "632 Blue Hill Avenue, Boston"}, "ChIJ_VazLcN744kRwhCakwXKKG0": {"geometry": {"location": {"lat": 42.30249939999999, "lng": -71.08510749999999}, "viewport": {"northeast": {"lat": 42.30386983029149, "lng": -71.0838810197085}, "southwest": {"lat": 42.3011718697085, "lng": -71.0865789802915}}}, "icon": "https://maps.gstatic.com/mapfiles/place_api/icons/generic_business-71.png", "id": "734900dedbc9a6597e2d306fc6220a257e149894", "name": "Dana Mccabe, NP", "place_id": "ChIJ_VazLcN744kRwhCakwXKKG0", "plus_code": {"compound_code": "8W27+XX Boston, Massachusetts, United States", "global_code": "87JC8W27+XX"}, "reference": "ChIJ_VazLcN744kRwhCakwXKKG0", "scope": "GOOGLE", "types": ["doctor", "health", "point_of_interest", "establishment"], "vicinity": "632 Blue Hill Avenue, Dorchester"}, "ChIJN5JoK8N744kRmqsdzGYgWyo": {"geometry": {"location": {"lat": 42.3026832, "lng": -71.08516139999999}, "viewport": {"northeast": {"lat": 42.3040442802915, "lng": -71.08388156970848}, "southwest": {"lat": 42.3013463197085, "lng": -71.08657953029149}}}, "icon": "https://maps.gstatic.com/mapfiles/place_api/icons/generic_business-71.png", "id": "d01b7768fa79d8a24b5b8e063fbd23f4b1863b67", "name": "Tuyet C. Lech, MS", "place_id": "ChIJN5JoK8N744kRmqsdzGYgWyo", "plus_code": {"compound_code": "8W37+3W Boston, Massachusetts, United States", "global_code": "87JC8W37+3W"}, "reference": "ChIJN5JoK8N744kRmqsdzGYgWyo", "scope": "GOOGLE", "types": ["doctor", "health", "point_of_interest", "establishment"], "vicinity": "632 Blue Hill Avenue, Boston"}, "ChIJ_VazLcN744kRfyeyMw7-Iy0": {"geometry": {"location": {"lat": 42.3026832, "lng": -71.08516139999999}, "viewport": {"northeast": {"lat": 42.3040442802915, "lng": -71.08388156970848}, "southwest": {"lat": 42.3013463197085, "lng": -71.08657953029149}}}, "icon": "https://maps.gstatic.com/mapfiles/place_api/icons/generic_business-71.png", "id": "7b39365bbc5f6ede13c8b25f4c77d6f3c5c89f0b", "name": "Dr. Stephen C. Wright, MD", "place_id": "ChIJ_VazLcN744kRfyeyMw7-Iy0", "plus_code": {"compound_code": "8W37+3W Boston, Massachusetts, United States", "global_code": "87JC8W37+3W"}, "reference": "ChIJ_VazLcN744kRfyeyMw7-Iy0", "scope": "GOOGLE", "types": ["doctor", "health", "point_of_interest", "establishment"], "vicinity": "632 Blue Hill Avenue, Boston"}, "ChIJN5JoK8N744kRb3awatY8ysE": {"geometry": {"location": {"lat": 42.3026832, "lng": -71.08516139999999}, "viewport": {"northeast": {"lat": 42.3040442802915, "lng": -71.08388156970848}, "southwest": {"lat": 42.3013463197085, "lng": -71.08657953029149}}}, "icon": "https://maps.gstatic.com/mapfiles/place_api/icons/generic_business-71.png", "id": "939250e8c4cdf5d18aae224421dfc647b622c476", "name": "Dr. Sharon L. Marable, MD", "place_id": "ChIJN5JoK8N744kRb3awatY8ysE", "plus_code": {"compound_code": "8W37+3W Boston, Massachusetts, United States", "global_code": "87JC8W37+3W"}, "reference": "ChIJN5JoK8N744kRb3awatY8ysE", "scope": "GOOGLE", "types": ["doctor", "health", "point_of_interest", "establishment"], "vicinity": "632 Blue Hill Avenue, Boston"}, "ChIJ_VazLcN744kRX0db3E2EXyw": {"geometry": {"location": {"lat": 42.3026832, "lng": -71.08516139999999}, "viewport": {"northeast": {"lat": 42.3040442802915, "lng": -71.08388156970848}, "southwest": {"lat": 42.3013463197085, "lng": -71.08657953029149}}}, "icon": "https://maps.gstatic.com/mapfiles/place_api/icons/generic_business-71.png", "id": "f547005ef7336dc6cd84e672721198ed6ce7eca5", "name": "Dr. Felix U. Mayers, MD", "place_id": "ChIJ_VazLcN744kRX0db3E2EXyw", "plus_code": {"compound_code": "8W37+3W Boston, Massachusetts, United States", "global_code": "87JC8W37+3W"}, "reference": "ChIJ_VazLcN744kRX0db3E2EXyw", "scope": "GOOGLE", "types": ["doctor", "health", "point_of_interest", "establishment"], "vicinity": "632 Blue Hill Avenue, Boston"}, "ChIJ_VazLcN744kRjzW7LdR22vQ": {"geometry": {"location": {"lat": 42.3026832, "lng": -71.08516139999999}, "viewport": {"northeast": {"lat": 42.3040442802915, "lng": -71.08388156970848}, "southwest": {"lat": 42.3013463197085, "lng": -71.08657953029149}}}, "icon": "https://maps.gstatic.com/mapfiles/place_api/icons/generic_business-71.png", "id": "e83ace971445f28acb9891c95928a974f1ba4bda", "name": "Dr. Jennifer L. Shaw, MD", "place_id": "ChIJ_VazLcN744kRjzW7LdR22vQ", "plus_code": {"compound_code": "8W37+3W Boston, Massachusetts, United States", "global_code": "87JC8W37+3W"}, "reference": "ChIJ_VazLcN744kRjzW7LdR22vQ", "scope": "GOOGLE", "types": ["doctor", "health", "point_of_interest", "establishment"], "vicinity": "632 Blue Hill Avenue, Boston"}, "ChIJ_VazLcN744kRSD58GsOKP3Q": {"geometry": {"location": {"lat": 42.3025366, "lng": -71.0851015}, "viewport": {"northeast": {"lat": 42.30390653029149, "lng": -71.0838722197085}, "southwest": {"lat": 42.30120856970849, "lng": -71.0865701802915}}}, "icon": "https://maps.gstatic.com/mapfiles/place_api/icons/generic_business-71.png", "id": "1e7a75597e878a764fbcba3bdbd9c6d6317d9bdc", "name": "Hispanic Academy", "place_id": "ChIJ_VazLcN744kRSD58GsOKP3Q", "plus_code": {"compound_code": "8W37+2X Boston, Massachusetts, United States", "global_code": "87JC8W37+2X"}, "reference": "ChIJ_VazLcN744kRSD58GsOKP3Q", "scope": "GOOGLE", "types": ["health", "point_of_interest", "establishment"], "vicinity": "632 Blue Hill Avenue, Dorchester"}, "ChIJQ9xcJcN744kRab5JxPcb1JI": {"geometry": {"location": {"lat": 42.302767, "lng": -71.084486}, "viewport": {"northeast": {"lat": 42.30414203029149, "lng": -71.08321281970849}, "southwest": {"lat": 42.3014440697085, "lng": -71.0859107802915}}}, "icon": "https://maps.gstatic.com/mapfiles/place_api/icons/bus-71.png", "id": "f25ccc521eae6066e234205f89438c65916c3fbc", "name": "Old Rd @ Ellington St", "place_id": "ChIJQ9xcJcN744kRab5JxPcb1JI", "plus_code": {"compound_code": "8W38+46 Boston, Massachusetts, United States", "global_code": "87JC8W38+46"}, "reference": "ChIJQ9xcJcN744kRab5JxPcb1JI", "scope": "GOOGLE", "types": ["bus_station", "transit_station", "point_of_interest", "establishment"], "vicinity": "United States"}, "ChIJN5JoK8N744kR6_T5UJuH5l8": {"geometry": {"location": {"lat": 42.3026832, "lng": -71.08516139999999}, "viewport": {"northeast": {"lat": 42.3040442802915, "lng": -71.08388156970848}, "southwest": {"lat": 42.3013463197085, "lng": -71.08657953029149}}}, "icon": "https://maps.gstatic.com/mapfiles/place_api/icons/generic_business-71.png", "id": "f25302bc012fcbf770ea4f77da643c332728b677", "name": "Dr. Young Ah Choi, DMD", "place_id": "ChIJN5JoK8N744kR6_T5UJuH5l8", "plus_code": {"compound_code": "8W37+3W Boston, Massachusetts, United States", "global_code": "87JC8W37+3W"}, "reference": "ChIJN5JoK8N744kR6_T5UJuH5l8", "scope": "GOOGLE", "types": ["dentist", "health", "point_of_interest", "establishment"], "vicinity": "632 Blue Hill Avenue, Boston"}, "ChIJ_VazLcN744kRVir95aKFiig": {"geometry": {"location": {"lat": 42.3026832, "lng": -71.08516139999999}, "viewport": {"northeast": {"lat": 42.3040442802915, "lng": -71.08388156970848}, "southwest": {"lat": 42.3013463197085, "lng": -71.08657953029149}}}, "icon": "https://maps.gstatic.com/mapfiles/place_api/icons/shopping-71.png", "id": "e6b74490ed1e0aaab260d852a620f5b36497d49f", "name": "Edward I. Ezedi, R", "place_id": "ChIJ_VazLcN744kRVir95aKFiig", "plus_code": {"compound_code": "8W37+3W Boston, Massachusetts, United States", "global_code": "87JC8W37+3W"}, "reference": "ChIJ_VazLcN744kRVir95aKFiig", "scope": "GOOGLE", "types": ["pharmacy", "store", "health", "point_of_interest", "establishment"], "vicinity": "632 Blue Hill Avenue, Boston"}, "ChIJfzhnNsN744kR3AP3ZUAxel0": {"geometry": {"location": {"lat": 42.30305029999999, "lng": -71.08490929999999}, "viewport": {"northeast": {"lat": 42.30442188029149, "lng": -71.08369466970849}, "southwest": {"lat": 42.30172391970849, "lng": -71.0863926302915}}}, "icon": "https://maps.gstatic.com/mapfiles/place_api/icons/shopping-71.png", "id": "9edd3d71e704b226d0a3713122a944d5a1b1581f", "name": "Ny Divas Little Divas Dresses", "place_id": "ChIJfzhnNsN744kR3AP3ZUAxel0", "plus_code": {"compound_code": "8W38+62 Boston, Massachusetts, United States", "global_code": "87JC8W38+62"}, "reference": "ChIJfzhnNsN744kR3AP3ZUAxel0", "scope": "GOOGLE", "types": ["clothing_store", "store", "point_of_interest", "establishment"], "vicinity": "614 Blue Hill Avenue, Dorchester"}, "ChIJP1SzLcN744kRvkHFihaReZ0": {"geometry": {"location": {"lat": 42.3025367, "lng": -71.0851015}, "viewport": {"northeast": {"lat": 42.30390663029149, "lng": -71.0838722197085}, "southwest": {"lat": 42.3012086697085, "lng": -71.0865701802915}}}, "icon": "https://maps.gstatic.com/mapfiles/place_api/icons/generic_business-71.png", "id": "e6bb30c19f7169868b24940b81767e4385bfdd80", "name": "Dr. Christopher Zimmerman, MD", "place_id": "ChIJP1SzLcN744kRvkHFihaReZ0", "plus_code": {"compound_code": "8W37+2X Boston, Massachusetts, United States", "global_code": "87JC8W37+2X"}, "rating": 4, "reference": "ChIJP1SzLcN744kRvkHFihaReZ0", "scope": "GOOGLE", "types": ["doctor", "health", "point_of_interest", "establishment"], "user_ratings_total": 1, "vicinity": "632 Blue Hill Avenue, Boston"}, "ChIJ___vK8N744kR9tCbirh2D_o": {"geometry": {"location": {"lat": 42.30249939999999, "lng": -71.08510749999999}, "viewport": {"northeast": {"lat": 42.30386983029149, "lng": -71.0838810197085}, "southwest": {"lat": 42.3011718697085, "lng": -71.0865789802915}}}, "icon": "https://maps.gstatic.com/mapfiles/place_api/icons/generic_business-71.png", "id": "f765f5a14950e88cad3584b40de996afa5af7428", "name": "Jean Noel, MD", "opening_hours": {"open_now": true}, "place_id": "ChIJ___vK8N744kR9tCbirh2D_o", "plus_code": {"compound_code": "8W27+XX Boston, Massachusetts, United States", "global_code": "87JC8W27+XX"}, "reference": "ChIJ___vK8N744kR9tCbirh2D_o", "scope": "GOOGLE", "types": ["doctor", "health", "point_of_interest", "establishment"], "vicinity": "632 Blue Hill Avenue, Dorchester"}, "ChIJT8X4K8N744kRjsLYCM0RXg0": {"geometry": {"location": {"lat": 42.30249939999999, "lng": -71.08510749999999}, "viewport": {"northeast": {"lat": 42.30386983029149, "lng": -71.0838810197085}, "southwest": {"lat": 42.3011718697085, "lng": -71.0865789802915}}}, "icon": "https://maps.gstatic.com/mapfiles/place_api/icons/generic_business-71.png", "id": "d2b3d87c570c746afefd93e8d35d0876d7997b7f", "name": "Uduak Anako-Okereke, DMD", "opening_hours": {"open_now": true}, "place_id": "ChIJT8X4K8N744kRjsLYCM0RXg0", "plus_code": {"compound_code": "8W27+XX Boston, Massachusetts, United States", "global_code": "87JC8W27+XX"}, "reference": "ChIJT8X4K8N744kRjsLYCM0RXg0", "scope": "GOOGLE", "types": ["dentist", "health", "point_of_interest", "establishment"], "vicinity": "632 Blue Hill Avenue, Boston"}, "ChIJ3RfBm0Z644kRQXL9VtcZDpo": {"geometry": {"location": {"lat": 42.30298800000001, "lng": -71.0849218}, "viewport": {"northeast": {"lat": 42.3043601302915, "lng": -71.08371031970849}, "southwest": {"lat": 42.30166216970851, "lng": -71.0864082802915}}}, "icon": "https://maps.gstatic.com/mapfiles/place_api/icons/generic_business-71.png", "id": "668cbc0ee6119a74a8f3c9ce1f2bd6cd380d0a99", "name": "Law Offices of Susan T. Aguiar", "opening_hours": {"open_now": true}, "place_id": "ChIJ3RfBm0Z644kRQXL9VtcZDpo", "plus_code": {"compound_code": "8W38+52 Boston, Massachusetts, United States", "global_code": "87JC8W38+52"}, "reference": "ChIJ3RfBm0Z644kRQXL9VtcZDpo", "scope": "GOOGLE", "types": ["lawyer", "point_of_interest", "establishment"], "vicinity": "612A Blue Hill Avenue, Boston"}, "ChIJCXqrNsN744kRBRHntqd8K_Q": {"geometry": {"location": {"lat": 42.30305029999999, "lng": -71.08490929999999}, "viewport": {"northeast": {"lat": 42.30442188029149, "lng": -71.08369466970849}, "southwest": {"lat": 42.30172391970849, "lng": -71.0863926302915}}}, "icon": "https://maps.gstatic.com/mapfiles/place_api/icons/generic_business-71.png", "id": "c2bd83a0edb3925ef928567d6f781c7bcc310e5c", "name": "Money Wise Solutions", "place_id": "ChIJCXqrNsN744kRBRHntqd8K_Q", "plus_code": {"compound_code": "8W38+62 Boston, Massachusetts, United States", "global_code": "87JC8W38+62"}, "reference": "ChIJCXqrNsN744kRBRHntqd8K_Q", "scope": "GOOGLE", "types": ["finance", "point_of_interest", "establishment"], "vicinity": "614 Blue Hill Avenue, Dorchester"}, "ChIJfzhnNsN744kRjN0oNQCmb2Y": {"geometry": {"location": {"lat": 42.30305029999999, "lng": -71.08490929999999}, "viewport": {"northeast": {"lat": 42.30442188029149, "lng": -71.08369466970849}, "southwest": {"lat": 42.30172391970849, "lng": -71.0863926302915}}}, "icon": "https://maps.gstatic.com/mapfiles/place_api/icons/shopping-71.png", "id": "bbb9423505536ead307fb36e1a83f3ec3811a90f", "name": "Crystal Wireless", "place_id": "ChIJfzhnNsN744kRjN0oNQCmb2Y", "plus_code": {"compound_code": "8W38+62 Boston, Massachusetts, United States", "global_code": "87JC8W38+62"}, "reference": "ChIJfzhnNsN744kRjN0oNQCmb2Y", "scope": "GOOGLE", "types": ["store", "point_of_interest", "establishment"], "vicinity": "614 Blue Hill Avenue, Dorchester"}, "ChIJFS-kNsN744kRkDJR-2INa_A": {"geometry": {"location": {"lat": 42.3030503, "lng": -71.0849092}, "viewport": {"northeast": {"lat": 42.3044218802915, "lng": -71.0836946197085}, "southwest": {"lat": 42.3017239197085, "lng": -71.0863925802915}}}, "icon": "https://maps.gstatic.com/mapfiles/place_api/icons/generic_business-71.png", "id": "5057f9001f60b307f58b8d1388071180dcdd719c", "name": "Dentonic Inc", "place_id": "ChIJFS-kNsN744kRkDJR-2INa_A", "plus_code": {"compound_code": "8W38+62 Boston, Massachusetts, United States", "global_code": "87JC8W38+62"}, "reference": "ChIJFS-kNsN744kRkDJR-2INa_A", "scope": "GOOGLE", "types": ["dentist", "health", "point_of_interest", "establishment"], "vicinity": "614 Blue Hill Avenue B, Dorchester"}, "ChIJW5IiMsN744kRfA_0ROItFlk": {"geometry": {"location": {"lat": 42.3029122, "lng": -71.08507829999999}, "viewport": {"northeast": {"lat": 42.3042281802915, "lng": -71.08376876970848}, "southwest": {"lat": 42.3015302197085, "lng": -71.0864667302915}}}, "icon": "https://maps.gstatic.com/mapfiles/place_api/icons/restaurant-71.png", "id": "1086dcb26dca4f9325a77e84699389d670e3ee61", "name": "Bocao Latin Flavor", "photos": [{"height": 3504, "html_attributions": ["<a href=\"https://maps.google.com/maps/contrib/103978258777404256304/photos\">ShurikenPlay</a>"], "photo_reference": "CmRaAAAA3Y69NsS3P4_7LB6QLNRaRA5qSFmB6g9pAyBJEAdN9LBGqGdFUwDrteb2zGfNv6_8Y53ggCfTcsKUTzNUlzvN2pSLD3k2ssEnJ3lviwkxJnnUMZU68FSMn3EZfblqBjRiEhACMP1b5jyIEdGiuSp-aofPGhSKrpOiK_uJBPsWKJTPvj9NeObR2A", "width": 4672}], "place_id": "ChIJW5IiMsN744kRfA_0ROItFlk", "plus_code": {"compound_code": "8W37+5X Boston, Massachusetts, United States", "global_code": "87JC8W37+5X"}, "rating": 4.2, "reference": "ChIJW5IiMsN744kRfA_0ROItFlk", "scope": "GOOGLE", "types": ["restaurant", "point_of_interest", "food", "establishment"], "user_ratings_total": 19, "vicinity": "Boston"}, "ChIJaey9LcN744kRP1u_G68jxwQ": {"geometry": {"location": {"lat": 42.30276799999999, "lng": -71.085185}, "viewport": {"northeast": {"lat": 42.3041248802915, "lng": -71.08388116970849}, "southwest": {"lat": 42.3014269197085, "lng": -71.0865791302915}}}, "icon": "https://maps.gstatic.com/mapfiles/place_api/icons/bus-71.png", "id": "7f95bef2e0d07bcea21cee3755c8d5e16f2181bd", "name": "Blue Hill Ave @ Ellington St - Franklin Park Zoo", "place_id": "ChIJaey9LcN744kRP1u_G68jxwQ", "plus_code": {"compound_code": "8W37+4W Boston, Massachusetts, United States", "global_code": "87JC8W37+4W"}, "reference": "ChIJaey9LcN744kRP1u_G68jxwQ", "scope": "GOOGLE", "types": ["bus_station", "transit_station", "point_of_interest", "establishment"], "vicinity": "United States"}, "ChIJ12IuMsN744kRULyFmSD3KC0": {"geometry": {"location": {"lat": 42.3029736, "lng": -71.0850547}, "viewport": {"northeast": {"lat": 42.3043354302915, "lng": -71.08378211970849}, "southwest": {"lat": 42.3016374697085, "lng": -71.08648008029151}}}, "icon": "https://maps.gstatic.com/mapfiles/place_api/icons/generic_business-71.png", "id": "660857be8cab979ac3cf1be53b80d05fff031939", "name": "Rose's Hair Design", "place_id": "ChIJ12IuMsN744kRULyFmSD3KC0", "plus_code": {"compound_code": "8W37+5X Boston, Massachusetts, United States", "global_code": "87JC8W37+5X"}, "rating": 4.8, "reference": "ChIJ12IuMsN744kRULyFmSD3KC0", "scope": "GOOGLE", "types": ["beauty_salon", "point_of_interest", "establishment"], "user_ratings_total": 4, "vicinity": "Boston"}}