{"ChIJe-AiHcV544kRkqOMTb4VXkg": {"geometry": {"location": {"lat": 42.35336239999999, "lng": -71.1301354}, "viewport": {"northeast": {"lat": 42.35471113029149, "lng": -71.12879381970849}, "southwest": {"lat": 42.35201316970849, "lng": -71.13149178029151}}}, "icon": "https://maps.gstatic.com/mapfiles/place_api/icons/geocode-71.png", "id": "cb17e6887089f383a67dd8ba54208acb8ecd8a43", "name": "66-54 Linden St", "place_id": "ChIJe-AiHcV544kRkqOMTb4VXkg", "reference": "ChIJe-AiHcV544kRkqOMTb4VXkg", "scope": "GOOGLE", "types": ["route"], "vicinity": "Boston"}, "ChIJfef_5sR544kRnl6-6diFavM": {"geometry": {"location": {"lat": 42.3535747, "lng": -71.1294407}, "viewport": {"northeast": {"lat": 42.35494518029149, "lng": -71.1280938697085}, "southwest": {"lat": 42.3522472197085, "lng": -71.13079183029151}}}, "icon": "https://maps.gstatic.com/mapfiles/place_api/icons/generic_business-71.png", "id": "2b405b779fc01c3daba4a51f949982a600578636", "name": "FRUGAL FITNESS BEST-SELLING EBOOKS", "opening_hours": {"open_now": true}, "place_id": "ChIJfef_5sR544kRnl6-6diFavM", "plus_code": {"compound_code": "9V3C+C6 Boston, Massachusetts, United States", "global_code": "87JC9V3C+C6"}, "reference": "ChIJfef_5sR544kRnl6-6diFavM", "scope": "GOOGLE", "types": ["store", "health", "point_of_interest", "food", "establishment"], "vicinity": "41 Gardner Street #2, Allston"}, "ChIJDQs-bb5544kRxswVqP3V0zY": {"geometry": {"location": {"lat": 42.3536551, "lng": -71.1301189}, "viewport": {"northeast": {"lat": 42.3549717302915, "lng": -71.1287669197085}, "southwest": {"lat": 42.3522737697085, "lng": -71.13146488029152}}}, "icon": "https://maps.gstatic.com/mapfiles/place_api/icons/generic_business-71.png", "id": "c363ab859179052ff71b8245afb9fbc6c7547528", "name": "Linden Realty Rentals LLC", "opening_hours": {"open_now": true}, "photos": [{"height": 480, "html_attributions": ["<a href=\"https://maps.google.com/maps/contrib/114091055363769183447/photos\">Linden Realty Rentals LLC</a>"], "photo_reference": "CmRaAAAAMLrRUvVE9ZR2qk35f4tcwjP3OaF3gNYHoRMXUPNs3dtv71NC10BSFKR9CGz2gI7e4tGaFY_nq2ndjRlIr_1wGyd2V2V5AfL6aTQfnbEOL0pz2V3eruKXHyPGRWr02CrcEhCzT8-sf7v5TSPLXbCdoSZuGhRgwF8X2lzvRybzwINQ-aJdWG5mPA", "width": 640}], "place_id": "ChIJDQs-bb5544kRxswVqP3V0zY", "plus_code": {"compound_code": "9V39+FX Boston, Massachusetts, United States", "global_code": "87JC9V39+FX"}, "rating": 5, "reference": "ChIJDQs-bb5544kRxswVqP3V0zY", "scope": "GOOGLE", "types": ["point_of_interest", "establishment"], "user_ratings_total": 1, "vicinity": "31 Gardner Street a, Allston"}, "ChIJT-Tk48R544kR8fmUkqKKFj4": {"geometry": {"location": {"lat": 42.3534888, "lng": -71.12968049999999}, "viewport": {"northeast": {"lat": 42.3548991802915, "lng": -71.12833721970848}, "southwest": {"lat": 42.3522012197085, "lng": -71.13103518029149}}}, "icon": "https://maps.gstatic.com/mapfiles/place_api/icons/generic_business-71.png", "id": "c141db1ce663a87ef482813493d12afb28f41c70", "name": "Zipcar", "opening_hours": {"open_now": true}, "photos": [{"height": 499, "html_attributions": ["<a href=\"https://maps.google.com/maps/contrib/108262674496426577542/photos\">Zipcar</a>"], "photo_reference": "CmRaAAAAs0pDqXJTLOBALQGPbXsJTsOPRYZ42zz7wlLqslc2zYC8CltLOja2BK1-t-Ov9etpOwdTguyW4ozId39Ntnea3OvM821C5r1t8RrfSBddlurtHvV2DrsLwRBdcxvFKpuiEhA-SwL6a_X93fs9TvGbdU4eGhQKlck4MxJzBTXvoYTZYhPWWVzEWQ", "width": 499}], "place_id": "ChIJT-Tk48R544kR8fmUkqKKFj4", "plus_code": {"compound_code": "9V3C+94 Boston, Massachusetts, United States", "global_code": "87JC9V3C+94"}, "reference": "ChIJT-Tk48R544kR8fmUkqKKFj4", "scope": "GOOGLE", "types": ["car_rental", "point_of_interest", "establishment"], "vicinity": "35 Gardner Street, Boston"}, "ChIJGzE9DS1l44kRoOhiASS_fHg": {"geometry": {"location": {"lat": 42.3600825, "lng": -71.0588801}, "viewport": {"northeast": {"lat": 42.40081989999999, "lng": -70.749455}, "southwest": {"lat": 42.22788, "lng": -71.191113}}}, "icon": "https://maps.gstatic.com/mapfiles/place_api/icons/geocode-71.png", "id": "06755c25d2b34d13942a4713971756a55b870ced", "name": "Boston", "photos": [{"height": 3024, "html_attributions": ["<a href=\"https://maps.google.com/maps/contrib/104670289779338733432/photos\">Natalia Zalucean</a>"], "photo_reference": "CmRaAAAAlNaNArYp2ACl3UkvCDqhfBc6rfY9tM69vx2kBjr4SYvV3SopbIoUwe49nGl5hm721HwEQPF5VkgshuzFHfI-eh5tuZ0ut987eiy1YpZ1ey8P5hFN7JXB-uMbN_-6eQl-EhBeC6Pwawl9EbNTLRQfreD1GhQHLygJ_2qctcUR6RGlYln6mPPxlg", "width": 4032}], "place_id": "ChIJGzE9DS1l44kRoOhiASS_fHg", "reference": "ChIJGzE9DS1l44kRoOhiASS_fHg", "scope": "GOOGLE", "types": ["locality", "political"], "vicinity": "Boston"}}