{"ChIJSbyG24R544kRP5o22rdSs0s": {"geometry": {"location": {"lat": 42.32932859999999, "lng": -71.1086685}, "viewport": {"northeast": {"lat": 42.33168525000003, "lng": -71.1065607}, "southwest": {"lat": 42.32736544999995, "lng": -71.10964190000001}}}, "icon": "https://maps.gstatic.com/mapfiles/place_api/icons/geocode-71.png", "id": "be094984c635ebf9ed2c6b5a65b58769414f86f0", "name": "171-299 Fisher Ave", "place_id": "ChIJSbyG24R544kRP5o22rdSs0s", "reference": "ChIJSbyG24R544kRP5o22rdSs0s", "scope": "GOOGLE", "types": ["route"], "vicinity": "Boston"}, "ChIJ32as5YR544kRuHVx9J7jmU4": {"geometry": {"location": {"lat": 42.32917939999999, "lng": -71.10673700000001}, "viewport": {"northeast": {"lat": 42.33060433029149, "lng": -71.1054156697085}, "southwest": {"lat": 42.32790636970849, "lng": -71.10811363029151}}}, "icon": "https://maps.gstatic.com/mapfiles/place_api/icons/doctor-71.png", "id": "02c83834404bd93b4a07bb8b2384329a9bad80f8", "name": "New England Baptist Hospital", "opening_hours": {"open_now": true}, "photos": [{"height": 1365, "html_attributions": ["<a href=\"https://maps.google.com/maps/contrib/104062777930220960482/photos\">New England Baptist Hospital</a>"], "photo_reference": "CmRaAAAAFWcA694cQSYFvNW1C8M1Y44-qiYMZLsYvmL34HFrYKlOqmjH21xFYA_YKxUKECc11Z_4qZK8K0SaVJHQZJwLIwb3nWaNZfiBVkwsDYu2gwvVFelXPac1KgMeo6IAaHqXEhAaXCM2m33w0FJu2PGcXafGGhQZ41QUbey6ID_H4cJpoqX6G1YBbg", "width": 2048}], "place_id": "ChIJ32as5YR544kRuHVx9J7jmU4", "plus_code": {"compound_code": "8VHV+M8 Boston, Massachusetts, United States", "global_code": "87JC8VHV+M8"}, "rating": 4.3, "reference": "ChIJ32as5YR544kRuHVx9J7jmU4", "scope": "GOOGLE", "types": ["hospital", "point_of_interest", "establishment"], "user_ratings_total": 45, "vicinity": "125 Parker Hill Avenue, Boston"}, "ChIJibiG-IR544kRuefUpKHmRXI": {"geometry": {"location": {"lat": 42.3292908, "lng": -71.1071875}, "viewport": {"northeast": {"lat": 42.3306343302915, "lng": -71.10562586970849}, "southwest": {"lat": 42.3279363697085, "lng": -71.1083238302915}}}, "icon": "https://maps.gstatic.com/mapfiles/place_api/icons/generic_business-71.png", "id": "1847a806585066ea58c25f5b0580c098d8d93b4c", "name": "Dr. Umer Dasti", "place_id": "ChIJibiG-IR544kRuefUpKHmRXI", "plus_code": {"compound_code": "8VHV+P4 Boston, Massachusetts, United States", "global_code": "87JC8VHV+P4"}, "reference": "ChIJibiG-IR544kRuefUpKHmRXI", "scope": "GOOGLE", "types": ["doctor", "health", "point_of_interest", "establishment"], "vicinity": "125 Parker Hill Avenue, Boston"}, "ChIJHWp3X4R544kRw_Ani6cdTV0": {"geometry": {"location": {"lat": 42.3286062, "lng": -71.1061837}, "viewport": {"northeast": {"lat": 42.32993098029149, "lng": -71.1048303197085}, "southwest": {"lat": 42.3272330197085, "lng": -71.1075282802915}}}, "icon": "https://maps.gstatic.com/mapfiles/place_api/icons/generic_recreational-71.png", "id": "e838e5f16c120783eaf7c4bdee4100718ba19bb7", "name": "BNAF Parcel", "place_id": "ChIJHWp3X4R544kRw_Ani6cdTV0", "reference": "ChIJHWp3X4R544kRw_Ani6cdTV0", "scope": "GOOGLE", "types": ["park", "premise", "point_of_interest", "establishment"], "vicinity": "Boston"}, "ChIJGzE9DS1l44kRoOhiASS_fHg": {"geometry": {"location": {"lat": 42.3600825, "lng": -71.0588801}, "viewport": {"northeast": {"lat": 42.40081989999999, "lng": -70.749455}, "southwest": {"lat": 42.22788, "lng": -71.191113}}}, "icon": "https://maps.gstatic.com/mapfiles/place_api/icons/geocode-71.png", "id": "06755c25d2b34d13942a4713971756a55b870ced", "name": "Boston", "photos": [{"height": 3024, "html_attributions": ["<a href=\"https://maps.google.com/maps/contrib/104670289779338733432/photos\">Natalia Zalucean</a>"], "photo_reference": "CmRaAAAA2211KpYAR_SSjH6V4kG9GLN1VOFLR0jxEyawaOyUxiFzsJdwcxZEi7pQ4sUbBmIB14LEjmb6qMDMavfUnn8YL28zV_uqrCBz7Yu9C5H5GIYM7Hrnc8RGki08iN4hbxWAEhClfjAwprz8Je76FvSJQSkRGhQSWYvX6n2j9Mnn8HLRl-sOI8UIdQ", "width": 4032}], "place_id": "ChIJGzE9DS1l44kRoOhiASS_fHg", "reference": "ChIJGzE9DS1l44kRoOhiASS_fHg", "scope": "GOOGLE", "types": ["locality", "political"], "vicinity": "Boston"}}