{"ChIJGzE9DS1l44kRoOhiASS_fHg": {"geometry": {"location": {"lat": 42.3600825, "lng": -71.0588801}, "viewport": {"northeast": {"lat": 42.40081989999999, "lng": -70.749455}, "southwest": {"lat": 42.22788, "lng": -71.191113}}}, "icon": "https://maps.gstatic.com/mapfiles/place_api/icons/geocode-71.png", "id": "06755c25d2b34d13942a4713971756a55b870ced", "name": "Boston", "photos": [{"height": 3024, "html_attributions": ["<a href=\"https://maps.google.com/maps/contrib/104670289779338733432/photos\">Natalia Zalucean</a>"], "photo_reference": "CmRaAAAAsb9m3o3-slRMNnnskCOkp1qahIZot7cOvFZ1KACGpJsGzazbX6rIQeMkc1iYmOhL-SjvBKvO4s6zMuZF7HoM0zDV3RnpYdVXY3vAW2ALZppAUPjj_49X-L2V-6nvVCuxEhAAQG8XEEfQZujGvsfRrxVSGhT8d8yAsaTbeO_CDtnHBlTGtiO79g", "width": 4032}], "place_id": "ChIJGzE9DS1l44kRoOhiASS_fHg", "reference": "ChIJGzE9DS1l44kRoOhiASS_fHg", "scope": "GOOGLE", "types": ["locality", "political"], "vicinity": "Boston"}, "ChIJu2Argp5w44kRAecWXgt_18s": {"geometry": {"location": {"lat": 42.3541675, "lng": -71.0704279}, "viewport": {"northeast": {"lat": 42.35800205000001, "lng": -71.06542379999999}, "southwest": {"lat": 42.34999304999999, "lng": -71.0743482}}}, "icon": "https://maps.gstatic.com/mapfiles/place_api/icons/generic_recreational-71.png", "id": "30b56cb5c641ea45304aacdf1b4ca83ecba5b7c1", "name": "Boston Public Garden", "opening_hours": {"open_now": true}, "photos": [{"height": 1071, "html_attributions": ["<a href=\"https://maps.google.com/maps/contrib/105282359844601589596/photos\">Karl Kindstr\u00f6m Andersson</a>"], "photo_reference": "CmRaAAAA6gs3dcUWAREPMx5_-4ZCWKxLVnlmNaHPMOQTmiyQBNzg4OrDv71jxFM4SyCS-BTv2F9Ujbur5SgyaXcqeueqUXle5B43HpSbLyh9jzyY2z7bOy5ntF90kmcJEfthBL88EhBsssZavnTICnX5MnD2iArtGhR2oip3O4O8ziwdLzLvmI4Wida83Q", "width": 1600}], "place_id": "ChIJu2Argp5w44kRAecWXgt_18s", "plus_code": {"compound_code": "9W3H+MR Boston, Massachusetts, United States", "global_code": "87JC9W3H+MR"}, "rating": 4.8, "reference": "ChIJu2Argp5w44kRAecWXgt_18s", "scope": "GOOGLE", "types": ["park", "point_of_interest", "establishment"], "user_ratings_total": 5355, "vicinity": "4 Charles Street, Boston"}, "ChIJMeuQ2Z9w44kREGXiqsqbTw8": {"geometry": {"location": {"lat": 42.3548251, "lng": -71.07141829999999}, "viewport": {"northeast": {"lat": 42.3561740802915, "lng": -71.0700693197085}, "southwest": {"lat": 42.3534761197085, "lng": -71.0727672802915}}}, "icon": "https://maps.gstatic.com/mapfiles/place_api/icons/museum-71.png", "id": "baf8060048a0626551d3a4928c1a8327066bd687", "name": "Ether Monument", "opening_hours": {"open_now": true}, "photos": [{"height": 3456, "html_attributions": ["<a href=\"https://maps.google.com/maps/contrib/107947330762699743834/photos\">Jay MacIntyre</a>"], "photo_reference": "CmRaAAAAGrejZqz8hqCOlXIAC_kMwpE5wbA1nfGqCTKs0ENBHvpRSOaTQ3Iqm6GAGLfdPqYu5kSihSoS4zMH_cndNaYbru_ezLFKCUpwoQKc4jynUWBqjfk4LR5CpxWet0B5qVFSEhDFj6Bj7idlACZ9G_TSfyZfGhQkGcqn9yrbnrCA4SFtNwDH6_0LTQ", "width": 4608}], "place_id": "ChIJMeuQ2Z9w44kREGXiqsqbTw8", "plus_code": {"compound_code": "9W3H+WC Boston, Massachusetts, United States", "global_code": "87JC9W3H+WC"}, "rating": 4.6, "reference": "ChIJMeuQ2Z9w44kREGXiqsqbTw8", "scope": "GOOGLE", "types": ["point_of_interest", "establishment"], "user_ratings_total": 33, "vicinity": "Arlington St & Marlborough St, Boston"}, "ChIJXaEQfXV644kRpCxqk4YWBCY": {"geometry": {"location": {"lat": 42.3544252, "lng": -71.0711984}, "viewport": {"northeast": {"lat": 42.3557741802915, "lng": -71.06984941970849}, "southwest": {"lat": 42.35307621970851, "lng": -71.07254738029151}}}, "icon": "https://maps.gstatic.com/mapfiles/place_api/icons/generic_business-71.png", "id": "181c16b1273d96e442cd0393d8bc09266d91f5e3", "name": "\u6ce2\u58eb\u987f\u516c\u5171\u82b1\u56ed\u82b1\u575b", "place_id": "ChIJXaEQfXV644kRpCxqk4YWBCY", "plus_code": {"compound_code": "9W3H+QG Boston, Massachusetts, United States", "global_code": "87JC9W3H+QG"}, "rating": 5, "reference": "ChIJXaEQfXV644kRpCxqk4YWBCY", "scope": "GOOGLE", "types": ["point_of_interest", "establishment"], "user_ratings_total": 1, "vicinity": "Boston"}, "ChIJMY7lf3V644kR09FxLMQvF50": {"geometry": {"location": {"lat": 42.3544049, "lng": -71.0706381}, "viewport": {"northeast": {"lat": 42.3555985802915, "lng": -71.0698643697085}, "southwest": {"lat": 42.3529006197085, "lng": -71.0725623302915}}}, "icon": "https://maps.gstatic.com/mapfiles/place_api/icons/generic_business-71.png", "id": "ed19ecd6c0ddc26ff604a1eeb82b431e2f3b2935", "name": "Robin Williams Park Bench", "opening_hours": {"open_now": true}, "photos": [{"height": 2988, "html_attributions": ["<a href=\"https://maps.google.com/maps/contrib/103963791946084183658/photos\">Albert Ly</a>"], "photo_reference": "CmRaAAAAzcXkNLnnnI2fUBX5pLye0sp53gNsW0ZfRaF_QiH2DzQl9ABr3CMeZ90eSUjrm1ilyCFbR__CmqMj98A0ENHg8NvJkRnpM5FFQpbwu3WcAL3ByNBDX7CbUnX0uumNVAlwEhCJmBFta37c2VcOrYW_D7_QGhQ5eWrnbJFZz7v7PaxvNpcgkUa0ow", "width": 5312}], "place_id": "ChIJMY7lf3V644kR09FxLMQvF50", "plus_code": {"compound_code": "9W3H+QP Boston, Massachusetts, United States", "global_code": "87JC9W3H+QP"}, "rating": 4.7, "reference": "ChIJMY7lf3V644kR09FxLMQvF50", "scope": "GOOGLE", "types": ["point_of_interest", "establishment"], "user_ratings_total": 23, "vicinity": "13 Arlington Street, Boston"}, "ChIJk4IDLJ5w44kRnIetV3vm6MM": {"geometry": {"location": {"lat": 42.35469399999999, "lng": -71.0702257}, "viewport": {"northeast": {"lat": 42.3560429802915, "lng": -71.06887671970848}, "southwest": {"lat": 42.3533450197085, "lng": -71.07157468029149}}}, "icon": "https://maps.gstatic.com/mapfiles/place_api/icons/generic_business-71.png", "id": "fc44ae0ae33ce70d1ccefad873e40fc23978fe7b", "name": "\u6ce2\u58eb\u987f\u516c\u5171\u82b1\u56ed\u6e56\u5fc3\u5c9b", "place_id": "ChIJk4IDLJ5w44kRnIetV3vm6MM", "plus_code": {"compound_code": "9W3H+VW Boston, Massachusetts, United States", "global_code": "87JC9W3H+VW"}, "rating": 5, "reference": "ChIJk4IDLJ5w44kRnIetV3vm6MM", "scope": "GOOGLE", "types": ["point_of_interest", "establishment"], "user_ratings_total": 1, "vicinity": "Boston"}}