{"ChIJk7ST5QN844kR6bII10mTm48": {"geometry": {"location": {"lat": 42.2767615, "lng": -71.0923385}, "viewport": {"northeast": {"lat": 42.2781308302915, "lng": -71.0910203697085}, "southwest": {"lat": 42.2754328697085, "lng": -71.09371833029151}}}, "icon": "https://maps.gstatic.com/mapfiles/place_api/icons/geocode-71.png", "id": "a16c320070f0756aa88c2ffe844c3c786665c4d2", "name": "618-600 Norfolk St", "place_id": "ChIJk7ST5QN844kR6bII10mTm48", "reference": "ChIJk7ST5QN844kR6bII10mTm48", "scope": "GOOGLE", "types": ["route"], "vicinity": "Boston"}, "ChIJtQ9Ac_h744kRXgfGXh14Y-8": {"geometry": {"location": {"lat": 42.2766814, "lng": -71.09317560000001}, "viewport": {"northeast": {"lat": 42.27803158029149, "lng": -71.09193676970848}, "southwest": {"lat": 42.2753336197085, "lng": -71.09463473029149}}}, "icon": "https://maps.gstatic.com/mapfiles/place_api/icons/atm-71.png", "id": "4796b4c279519704c46cdb2287976798ccb05e1b", "name": "Cardtronics ATM", "place_id": "ChIJtQ9Ac_h744kRXgfGXh14Y-8", "plus_code": {"compound_code": "7WG4+MP Boston, Massachusetts, United States", "global_code": "87JC7WG4+MP"}, "reference": "ChIJtQ9Ac_h744kRXgfGXh14Y-8", "scope": "GOOGLE", "types": ["atm", "finance", "store", "point_of_interest", "food", "establishment"], "vicinity": "1366 Blue Hill Avenue, Mattapan"}, "ChIJM5JWxAN844kRNdJi3zUx2Po": {"geometry": {"location": {"lat": 42.2766966, "lng": -71.0932107}, "viewport": {"northeast": {"lat": 42.27804658029149, "lng": -71.09195416970849}, "southwest": {"lat": 42.2753486197085, "lng": -71.09465213029151}}}, "icon": "https://maps.gstatic.com/mapfiles/place_api/icons/generic_business-71.png", "id": "69e2992ea8092ca6c53e2ead0648b76e1120e6a6", "name": "Peoples Best Care Chiropractic", "opening_hours": {"open_now": true}, "place_id": "ChIJM5JWxAN844kRNdJi3zUx2Po", "plus_code": {"compound_code": "7WG4+MP Boston, Massachusetts, United States", "global_code": "87JC7WG4+MP"}, "reference": "ChIJM5JWxAN844kRNdJi3zUx2Po", "scope": "GOOGLE", "types": ["health", "point_of_interest", "establishment"], "vicinity": "1370 Blue Hill Avenue, Mattapan"}, "ChIJfRZMwQN844kRdJ-gIRovJmc": {"geometry": {"location": {"lat": 42.2765131, "lng": -71.0931633}, "viewport": {"northeast": {"lat": 42.27786338029149, "lng": -71.0919322697085}, "southwest": {"lat": 42.2751654197085, "lng": -71.0946302302915}}}, "icon": "https://maps.gstatic.com/mapfiles/place_api/icons/generic_business-71.png", "id": "81cc06bb72055fc41d9ea017a5b7689aa9e32c6d", "name": "Blue Wave Laundry", "opening_hours": {"open_now": true}, "photos": [{"height": 2448, "html_attributions": ["<a href=\"https://maps.google.com/maps/contrib/109282806721050818423/photos\">tata toure</a>"], "photo_reference": "CmRaAAAAv4rLsSQjD0IfmgTVXHIqNoOF96r_n1G5EUUylHgZxofXUblMNpRE0zzaiiq2KScnekYNTmhh4mh4kwh6ZsmxkOalhzpo00F8cuRnEiSKGE3fWGud9EkZErdlgoIPEMDCEhBkehXqVupAMr3QOdkyQOISGhRQmkRtVIGn7RQmvqKOxtxgPJ8C8w", "width": 3264}], "place_id": "ChIJfRZMwQN844kRdJ-gIRovJmc", "plus_code": {"compound_code": "7WG4+JP Boston, Massachusetts, United States", "global_code": "87JC7WG4+JP"}, "rating": 4.1, "reference": "ChIJfRZMwQN844kRdJ-gIRovJmc", "scope": "GOOGLE", "types": ["laundry", "point_of_interest", "establishment"], "user_ratings_total": 55, "vicinity": "1372 Blue Hill Avenue, Mattapan"}, "ChIJAQAjwgN844kRiYtR6-hTovk": {"geometry": {"location": {"lat": 42.2765484, "lng": -71.09296479999999}, "viewport": {"northeast": {"lat": 42.27794293029149, "lng": -71.09155456970849}, "southwest": {"lat": 42.2752449697085, "lng": -71.0942525302915}}}, "icon": "https://maps.gstatic.com/mapfiles/place_api/icons/generic_business-71.png", "id": "40bab74d7a129237a2dfe44b405cbcdca68107df", "name": "A Purcell & Sons Construction", "place_id": "ChIJAQAjwgN844kRiYtR6-hTovk", "plus_code": {"compound_code": "7WG4+JR Boston, Massachusetts, United States", "global_code": "87JC7WG4+JR"}, "reference": "ChIJAQAjwgN844kRiYtR6-hTovk", "scope": "GOOGLE", "types": ["point_of_interest", "establishment"], "vicinity": "9 Babson Street, Boston"}, "ChIJ__977gN844kRgtagvzdZyA4": {"geometry": {"location": {"lat": 42.2764224, "lng": -71.09228}, "viewport": {"northeast": {"lat": 42.2778553802915, "lng": -71.09104476970849}, "southwest": {"lat": 42.27515741970851, "lng": -71.09374273029151}}}, "icon": "https://maps.gstatic.com/mapfiles/place_api/icons/generic_business-71.png", "id": "4f6fb69b29acd30c3c8bcd5fae7b0f0e5b0a22fe", "name": "Hour House Boston", "place_id": "ChIJ__977gN844kRgtagvzdZyA4", "plus_code": {"compound_code": "7WG5+H3 Boston, Massachusetts, United States", "global_code": "87JC7WG5+H3"}, "reference": "ChIJ__977gN844kRgtagvzdZyA4", "scope": "GOOGLE", "types": ["point_of_interest", "establishment"], "vicinity": "\u200b\u200b612, Norfolk Street, Mattapan"}, "ChIJpbkR2QN844kRHoKg82A9XA4": {"geometry": {"location": {"lat": 42.27669, "lng": -71.09315699999999}, "viewport": {"northeast": {"lat": 42.2780402802915, "lng": -71.0919273697085}, "southwest": {"lat": 42.2753423197085, "lng": -71.0946253302915}}}, "icon": "https://maps.gstatic.com/mapfiles/place_api/icons/generic_business-71.png", "id": "0a1e514a85fb959c9ae184a8c3005a699e29e029", "name": "Symmetric Hair & Nail Designers", "opening_hours": {"open_now": true}, "photos": [{"height": 3264, "html_attributions": ["<a href=\"https://maps.google.com/maps/contrib/109070703366192257276/photos\">Carline Erilus</a>"], "photo_reference": "CmRaAAAA0vHp_CM1dLH9PzCSWPqXspq6KlsJXs5iX_GVuzH7lLESS9Ts8g2V4oJaN-0FlAPkFExVyqvpTnsRoRLqDil11eGg4igHwzgGvu6ZOJh0tqb95HQ4fVwop41fbi6PDqJMEhAes7VprPtNvg2Z_Lm8eV4-GhRC48fI5enibthQKxtdW59kjKrEYQ", "width": 1836}], "place_id": "ChIJpbkR2QN844kRHoKg82A9XA4", "plus_code": {"compound_code": "7WG4+MP Boston, Massachusetts, United States", "global_code": "87JC7WG4+MP"}, "rating": 4.7, "reference": "ChIJpbkR2QN844kRHoKg82A9XA4", "scope": "GOOGLE", "types": ["beauty_salon", "point_of_interest", "establishment"], "user_ratings_total": 9, "vicinity": "1366 Blue Hill Avenue # B, Mattapan"}, "ChIJpbkR2QN844kRrM2OFnRMrKI": {"geometry": {"location": {"lat": 42.27669, "lng": -71.09315699999999}, "viewport": {"northeast": {"lat": 42.2780402802915, "lng": -71.0919273697085}, "southwest": {"lat": 42.2753423197085, "lng": -71.0946253302915}}}, "icon": "https://maps.gstatic.com/mapfiles/place_api/icons/shopping-71.png", "id": "49283f518368e9bb77660e34ba0a9a7373a14e99", "name": "Blue Hill Star", "opening_hours": {"open_now": true}, "place_id": "ChIJpbkR2QN844kRrM2OFnRMrKI", "plus_code": {"compound_code": "7WG4+MP Boston, Massachusetts, United States", "global_code": "87JC7WG4+MP"}, "rating": 3.2, "reference": "ChIJpbkR2QN844kRrM2OFnRMrKI", "scope": "GOOGLE", "types": ["grocery_or_supermarket", "store", "point_of_interest", "food", "establishment"], "user_ratings_total": 5, "vicinity": "1366 Blue Hill Avenue, Mattapan"}, "ChIJpbkR2QN844kRH7VaW22RBeQ": {"geometry": {"location": {"lat": 42.27669, "lng": -71.09315699999999}, "viewport": {"northeast": {"lat": 42.2780402802915, "lng": -71.0919273697085}, "southwest": {"lat": 42.2753423197085, "lng": -71.0946253302915}}}, "icon": "https://maps.gstatic.com/mapfiles/place_api/icons/generic_business-71.png", "id": "77954adf4ca3718709d5d3fb6513cc9deda87e35", "name": "DSH Management Co", "place_id": "ChIJpbkR2QN844kRH7VaW22RBeQ", "plus_code": {"compound_code": "7WG4+MP Boston, Massachusetts, United States", "global_code": "87JC7WG4+MP"}, "reference": "ChIJpbkR2QN844kRH7VaW22RBeQ", "scope": "GOOGLE", "types": ["point_of_interest", "establishment"], "vicinity": "1366 Blue Hill Avenue, Mattapan"}, "ChIJM5JWxAN844kRkEfFgQlUslk": {"geometry": {"location": {"lat": 42.2766814, "lng": -71.09317560000001}, "viewport": {"northeast": {"lat": 42.27803158029149, "lng": -71.09193676970848}, "southwest": {"lat": 42.2753336197085, "lng": -71.09463473029149}}}, "icon": "https://maps.gstatic.com/mapfiles/place_api/icons/generic_business-71.png", "id": "31056cb108ebdc161254911eb70baa27263160c3", "name": "Unk", "place_id": "ChIJM5JWxAN844kRkEfFgQlUslk", "plus_code": {"compound_code": "7WG4+MP Boston, Massachusetts, United States", "global_code": "87JC7WG4+MP"}, "reference": "ChIJM5JWxAN844kRkEfFgQlUslk", "scope": "GOOGLE", "types": ["health", "point_of_interest", "establishment"], "vicinity": "1370 Blue Hill Avenue, Mattapan"}, "ChIJYU0JxAN844kRzY_jAluAgVI": {"geometry": {"location": {"lat": 42.2766814, "lng": -71.09317560000001}, "viewport": {"northeast": {"lat": 42.27803158029149, "lng": -71.09193676970848}, "southwest": {"lat": 42.2753336197085, "lng": -71.09463473029149}}}, "icon": "https://maps.gstatic.com/mapfiles/place_api/icons/generic_business-71.png", "id": "7f065e814454bbed42074d47391897998439ec79", "name": "DR Laura Jude Gregor Hodne, DC", "place_id": "ChIJYU0JxAN844kRzY_jAluAgVI", "plus_code": {"compound_code": "7WG4+MP Boston, Massachusetts, United States", "global_code": "87JC7WG4+MP"}, "reference": "ChIJYU0JxAN844kRzY_jAluAgVI", "scope": "GOOGLE", "types": ["health", "point_of_interest", "establishment"], "vicinity": "1370 Blue Hill Avenue, Mattapan"}, "ChIJGzE9DS1l44kRoOhiASS_fHg": {"geometry": {"location": {"lat": 42.3600825, "lng": -71.0588801}, "viewport": {"northeast": {"lat": 42.40081989999999, "lng": -70.749455}, "southwest": {"lat": 42.22788, "lng": -71.191113}}}, "icon": "https://maps.gstatic.com/mapfiles/place_api/icons/geocode-71.png", "id": "06755c25d2b34d13942a4713971756a55b870ced", "name": "Boston", "photos": [{"height": 3024, "html_attributions": ["<a href=\"https://maps.google.com/maps/contrib/104670289779338733432/photos\">Natalia Zalucean</a>"], "photo_reference": "CmRaAAAAQgDkh6LQzQNZPScc2mgcjb2j23k9Jevjsf65rO4NFEay9difiqjnrS78buFMQir1yO2UzKSgg5qcP_ErAT618QQf0Ho7N598aE-OG9VphDjkLzogv5ityFV4VCPJAG_dEhBGeHsbGvtc05Q_7MzAQZiCGhS-1Fx6wmE412w4HrD_Vpi6UPqImA", "width": 4032}], "place_id": "ChIJGzE9DS1l44kRoOhiASS_fHg", "reference": "ChIJGzE9DS1l44kRoOhiASS_fHg", "scope": "GOOGLE", "types": ["locality", "political"], "vicinity": "Boston"}}