{"ChIJ46NRFrN744kRHkzTC0fusVk": {"geometry": {"location": {"lat": 42.3142448, "lng": -71.0656123}, "viewport": {"northeast": {"lat": 42.3155958302915, "lng": -71.06425661970849}, "southwest": {"lat": 42.3128978697085, "lng": -71.0669545802915}}}, "icon": "https://maps.gstatic.com/mapfiles/place_api/icons/geocode-71.png", "id": "5dbd63d478f7c630deb08200296013a6e4e6a23c", "name": "48-40 Hancock St", "place_id": "ChIJ46NRFrN744kRHkzTC0fusVk", "reference": "ChIJ46NRFrN744kRHkzTC0fusVk", "scope": "GOOGLE", "types": ["route"], "vicinity": "Boston"}, "ChIJS91yPLN744kRiTVyNIsROBk": {"geometry": {"location": {"lat": 42.314625, "lng": -71.0654807}, "viewport": {"northeast": {"lat": 42.3159378302915, "lng": -71.06427606970848}, "southwest": {"lat": 42.3132398697085, "lng": -71.0669740302915}}}, "icon": "https://maps.gstatic.com/mapfiles/place_api/icons/generic_business-71.png", "id": "ce382099d11dedcdf39cb5cf4769518e1aae5985", "name": "Cape Verdian Adult Day Health", "place_id": "ChIJS91yPLN744kRiTVyNIsROBk", "plus_code": {"compound_code": "8W7M+VR Boston, Massachusetts, United States", "global_code": "87JC8W7M+VR"}, "rating": 4.3, "reference": "ChIJS91yPLN744kRiTVyNIsROBk", "scope": "GOOGLE", "types": ["point_of_interest", "establishment"], "user_ratings_total": 7, "vicinity": "34 Hancock Street, Dorchester"}, "ChIJ3_tvPbN744kRIhQsLfn2XbA": {"geometry": {"location": {"lat": 42.314377, "lng": -71.0654079}, "viewport": {"northeast": {"lat": 42.3156907302915, "lng": -71.06417786970849}, "southwest": {"lat": 42.3129927697085, "lng": -71.0668758302915}}}, "icon": "https://maps.gstatic.com/mapfiles/place_api/icons/generic_business-71.png", "id": "a196cb85c2c661261f89d26c1cc3e2deb2d94e02", "name": "Edna's Beauty Salon", "place_id": "ChIJ3_tvPbN744kRIhQsLfn2XbA", "plus_code": {"compound_code": "8W7M+QR Boston, Massachusetts, United States", "global_code": "87JC8W7M+QR"}, "rating": 4.3, "reference": "ChIJ3_tvPbN744kRIhQsLfn2XbA", "scope": "GOOGLE", "types": ["beauty_salon", "hair_care", "point_of_interest", "establishment"], "user_ratings_total": 15, "vicinity": "40 Hancock Street, Dorchester"}, "ChIJ3_tvPbN744kRQ0hC32fwUns": {"geometry": {"location": {"lat": 42.314377, "lng": -71.0654079}, "viewport": {"northeast": {"lat": 42.3156907302915, "lng": -71.06417786970849}, "southwest": {"lat": 42.3129927697085, "lng": -71.0668758302915}}}, "icon": "https://maps.gstatic.com/mapfiles/place_api/icons/generic_business-71.png", "id": "2d53e467e51b668cf09edfeb00a4525d4751e764", "name": "40 Hancock", "photos": [{"height": 2336, "html_attributions": ["<a href=\"https://maps.google.com/maps/contrib/108641628014679060018/photos\">Paul Gosling</a>"], "photo_reference": "CmRaAAAAVuTF3OkfEV1v-78CO-YxByG0kkentBIFQwQv7KrsyjDsT_SFgU6INYx2km53Rm3FPp9XyjYfrowZwqrA263skG1K36hB7sJClug68Cy0ECjwDrC-MrhPjimUEhD8UjRxEhDkty4qgM6DOnpRBTkvjjagGhRvTZLdS33fzG5FYFb6Gk7cE5-lxw", "width": 4160}], "place_id": "ChIJ3_tvPbN744kRQ0hC32fwUns", "plus_code": {"compound_code": "8W7M+QR Boston, Massachusetts, United States", "global_code": "87JC8W7M+QR"}, "rating": 3.7, "reference": "ChIJ3_tvPbN744kRQ0hC32fwUns", "scope": "GOOGLE", "types": ["point_of_interest", "establishment"], "user_ratings_total": 9, "vicinity": "40 Hancock Street, Dorchester"}, "ChIJ3_tvPbN744kRaP1medQBiDs": {"geometry": {"location": {"lat": 42.314377, "lng": -71.0654079}, "viewport": {"northeast": {"lat": 42.3156907302915, "lng": -71.06417786970849}, "southwest": {"lat": 42.3129927697085, "lng": -71.0668758302915}}}, "icon": "https://maps.gstatic.com/mapfiles/place_api/icons/generic_business-71.png", "id": "6051ae08b149ee74deaa9bd1dcb45805ec218f18", "name": "Global Barber Shop", "place_id": "ChIJ3_tvPbN744kRaP1medQBiDs", "plus_code": {"compound_code": "8W7M+QR Boston, Massachusetts, United States", "global_code": "87JC8W7M+QR"}, "rating": 4.3, "reference": "ChIJ3_tvPbN744kRaP1medQBiDs", "scope": "GOOGLE", "types": ["hair_care", "health", "point_of_interest", "establishment"], "user_ratings_total": 6, "vicinity": "40 Hancock Street # B, Dorchester"}, "ChIJ8dwbFrN744kRTRBWJBg3pYs": {"geometry": {"location": {"lat": 42.3143002, "lng": -71.0657743}, "viewport": {"northeast": {"lat": 42.31572278029149, "lng": -71.0644459697085}, "southwest": {"lat": 42.3130248197085, "lng": -71.06714393029151}}}, "icon": "https://maps.gstatic.com/mapfiles/place_api/icons/restaurant-71.png", "id": "14acb4a4848bb8db0932a332462c1e14b7477442", "name": "Kriola Restaurant", "photos": [{"height": 3024, "html_attributions": ["<a href=\"https://maps.google.com/maps/contrib/111692344667608285684/photos\">A.J. Cardoso</a>"], "photo_reference": "CmRaAAAAF47KI1AYtlcQjspqc9IiEJju6omz_nIDT6F3h3iOxfsIcAGbccKa8So33PeBwAwHH8ORxXpLEthN3qpFkemOx-TtBFP8wxqlbDETlvSPbyuUss4bsl119kiFzq8rPv2UEhDq3MYa6jd2hgMoWGViSHc9GhSmNXfR6Rlsb-woww_o1SIof23gXA", "width": 4032}], "place_id": "ChIJ8dwbFrN744kRTRBWJBg3pYs", "plus_code": {"compound_code": "8W7M+PM Boston, Massachusetts, United States", "global_code": "87JC8W7M+PM"}, "rating": 4.9, "reference": "ChIJ8dwbFrN744kRTRBWJBg3pYs", "scope": "GOOGLE", "types": ["restaurant", "point_of_interest", "food", "establishment"], "user_ratings_total": 8, "vicinity": "33 Hancock Street, Dorchester"}, "ChIJYxnlO7N744kRoZHpVAPozS0": {"geometry": {"location": {"lat": 42.3146699, "lng": -71.0654229}, "viewport": {"northeast": {"lat": 42.3159765802915, "lng": -71.0642545197085}, "southwest": {"lat": 42.3132786197085, "lng": -71.0669524802915}}}, "icon": "https://maps.gstatic.com/mapfiles/place_api/icons/generic_business-71.png", "id": "ff2ee0eaf3d8cbd23e9675df39522749b82c4541", "name": "Edward D. Segel, PT", "place_id": "ChIJYxnlO7N744kRoZHpVAPozS0", "plus_code": {"compound_code": "8W7M+VR Boston, Massachusetts, United States", "global_code": "87JC8W7M+VR"}, "reference": "ChIJYxnlO7N744kRoZHpVAPozS0", "scope": "GOOGLE", "types": ["physiotherapist", "health", "point_of_interest", "establishment"], "vicinity": "28 Hancock Street, Dorchester"}, "ChIJGzE9DS1l44kRoOhiASS_fHg": {"geometry": {"location": {"lat": 42.3600825, "lng": -71.0588801}, "viewport": {"northeast": {"lat": 42.40081989999999, "lng": -70.749455}, "southwest": {"lat": 42.22788, "lng": -71.191113}}}, "icon": "https://maps.gstatic.com/mapfiles/place_api/icons/geocode-71.png", "id": "06755c25d2b34d13942a4713971756a55b870ced", "name": "Boston", "photos": [{"height": 3024, "html_attributions": ["<a href=\"https://maps.google.com/maps/contrib/104670289779338733432/photos\">Natalia Zalucean</a>"], "photo_reference": "CmRaAAAAkbzRkhOOu9t1RUdIcuKd8MfC7Ac7fbXSXTlLzB7sDACAZgRrAwN0xycDHdHRFlaTmjC6v0mm-1w3HEBRTGGitB8IgNbM5xgeImOULubuH2taLMJXCa3DcYYJjR_4pgfUEhAabhSUZCigKZC84SSv0t2IGhQX1P3aCHkL8lyLgpZ6l4W3sWrNPg", "width": 4032}], "place_id": "ChIJGzE9DS1l44kRoOhiASS_fHg", "reference": "ChIJGzE9DS1l44kRoOhiASS_fHg", "scope": "GOOGLE", "types": ["locality", "political"], "vicinity": "Boston"}}