{"ChIJ38lfQWx644kR2Hvm_P51wNM": {"geometry": {"location": {"lat": 42.3414024, "lng": -71.0694579}, "viewport": {"northeast": {"lat": 42.3427513302915, "lng": -71.06810886970848}, "southwest": {"lat": 42.3400533697085, "lng": -71.0708068302915}}}, "icon": "https://maps.gstatic.com/mapfiles/place_api/icons/geocode-71.png", "id": "25bb22c9126eec77e2f6ca811008895c91549e54", "name": "1358-1350 Washington St", "place_id": "ChIJ38lfQWx644kR2Hvm_P51wNM", "reference": "ChIJ38lfQWx644kR2Hvm_P51wNM", "scope": "GOOGLE", "types": ["route"], "vicinity": "Boston"}, "ChIJi9ngFmx644kRGkTvIKGxtHY": {"geometry": {"location": {"lat": 42.341004, "lng": -71.068731}, "viewport": {"northeast": {"lat": 42.3422920302915, "lng": -71.06741511970849}, "southwest": {"lat": 42.3395940697085, "lng": -71.07011308029149}}}, "icon": "https://maps.gstatic.com/mapfiles/place_api/icons/school-71.png", "id": "ab71d104d308b51f02cb26d9d4f4ab384885dc8d", "name": "Cathedral High School", "opening_hours": {"open_now": false}, "photos": [{"height": 607, "html_attributions": ["<a href=\"https://maps.google.com/maps/contrib/103554208742834171479/photos\">Cathedral High School</a>"], "photo_reference": "CmRaAAAAUNH5nw1BPfPffzX9OdKT3ZFwVUG1JImzHxAdzBCGAenwj6nNL1afh9NspL05krb2iATDpx8Jmrvz5Ah-d6sOmYsw51nPbj3gs7oFlNdTFh8xt7cYDKMO-1ImEbEyLyDLEhCXF32sXg33i5s6JGaHgjOPGhR8wm7675LDWmoiJQCl6ePM4zBPEw", "width": 1080}], "place_id": "ChIJi9ngFmx644kRGkTvIKGxtHY", "plus_code": {"compound_code": "8WRJ+CG Boston, Massachusetts, United States", "global_code": "87JC8WRJ+CG"}, "rating": 4.4, "reference": "ChIJi9ngFmx644kRGkTvIKGxtHY", "scope": "GOOGLE", "types": ["point_of_interest", "school", "establishment"], "user_ratings_total": 7, "vicinity": "74 Union Park Street, Boston"}, "ChIJRb9UEGx644kRxpp_n--Onj8": {"geometry": {"location": {"lat": 42.34075470000001, "lng": -71.0695126}, "viewport": {"northeast": {"lat": 42.3420886802915, "lng": -71.0682709197085}, "southwest": {"lat": 42.3393907197085, "lng": -71.0709688802915}}}, "icon": "https://maps.gstatic.com/mapfiles/place_api/icons/worship_general-71.png", "id": "51d6213432aba142327af4ea7525bf47c70c2cde", "name": "Cathedral of the Holy Cross", "photos": [{"height": 3120, "html_attributions": ["<a href=\"https://maps.google.com/maps/contrib/109511566901894499767/photos\">Jean Olivier LAURENDEAU</a>"], "photo_reference": "CmRaAAAAM4RWdcBdsH5UWoSx_jCqy_VPT8RJjDS_C8P4Se4G0hJTJ4jH15IMG3OmaMbJsD1dYsJnxqw5FWCRAaNvjtYgpe8Kk6oqBrZPaXX_9CsR_zsQyi7NoWgkVwf3oeB7v6QmEhBWefUtgGC7ebtWjyMvw7P5GhR0cWe9g43K8v1R9CuSS5RiqIGk7Q", "width": 4160}], "place_id": "ChIJRb9UEGx644kRxpp_n--Onj8", "plus_code": {"compound_code": "8WRJ+85 Boston, Massachusetts, United States", "global_code": "87JC8WRJ+85"}, "rating": 4.7, "reference": "ChIJRb9UEGx644kRxpp_n--Onj8", "scope": "GOOGLE", "types": ["church", "place_of_worship", "point_of_interest", "establishment"], "user_ratings_total": 61, "vicinity": "1400 Washington Street, Boston"}, "ChIJrR_jFWx644kRbepSBbVKTkY": {"geometry": {"location": {"lat": 42.3410039, "lng": -71.06873139999999}, "viewport": {"northeast": {"lat": 42.3422920302915, "lng": -71.0674154697085}, "southwest": {"lat": 42.3395940697085, "lng": -71.0701134302915}}}, "icon": "https://maps.gstatic.com/mapfiles/place_api/icons/generic_business-71.png", "id": "c0a973e4e8718436d92d8f1272314417a1ac1c1f", "name": "The Business of Doing Good", "place_id": "ChIJrR_jFWx644kRbepSBbVKTkY", "plus_code": {"compound_code": "8WRJ+CG Boston, Massachusetts, United States", "global_code": "87JC8WRJ+CG"}, "reference": "ChIJrR_jFWx644kRbepSBbVKTkY", "scope": "GOOGLE", "types": ["point_of_interest", "establishment"], "vicinity": "74 Union Park Street, Boston"}, "ChIJi9ngFmx644kR5CSpifg5LM0": {"geometry": {"location": {"lat": 42.3410039, "lng": -71.06873139999999}, "viewport": {"northeast": {"lat": 42.3422920302915, "lng": -71.0674154697085}, "southwest": {"lat": 42.3395940697085, "lng": -71.0701134302915}}}, "icon": "https://maps.gstatic.com/mapfiles/place_api/icons/generic_business-71.png", "id": "e1f6c6fa2ae22a69fbc051784eccfeacdfd5f202", "name": "Daka St Helen's House", "place_id": "ChIJi9ngFmx644kR5CSpifg5LM0", "plus_code": {"compound_code": "8WRJ+CG Boston, Massachusetts, United States", "global_code": "87JC8WRJ+CG"}, "reference": "ChIJi9ngFmx644kR5CSpifg5LM0", "scope": "GOOGLE", "types": ["health", "point_of_interest", "establishment"], "vicinity": "74 Union Park Street, Boston"}, "ChIJCbyCQWx644kRt6-GGVAH7zg": {"geometry": {"location": {"lat": 42.34130799999999, "lng": -71.069417}, "viewport": {"northeast": {"lat": 42.34263428029149, "lng": -71.0681236697085}, "southwest": {"lat": 42.33993631970849, "lng": -71.0708216302915}}}, "icon": "https://maps.gstatic.com/mapfiles/place_api/icons/bus-71.png", "id": "a374b424c0d88b00e22eeac68843d652270d3594", "name": "Washington St @ Union Pk", "place_id": "ChIJCbyCQWx644kRt6-GGVAH7zg", "plus_code": {"compound_code": "8WRJ+G6 Boston, Massachusetts, United States", "global_code": "87JC8WRJ+G6"}, "reference": "ChIJCbyCQWx644kRt6-GGVAH7zg", "scope": "GOOGLE", "types": ["bus_station", "transit_station", "point_of_interest", "establishment"], "vicinity": "United States"}, "ChIJ2SP0Q2x644kR7Gg_ZNi9HEY": {"geometry": {"location": {"lat": 42.34146700000001, "lng": -71.0695332}, "viewport": {"northeast": {"lat": 42.3427790302915, "lng": -71.0681590197085}, "southwest": {"lat": 42.3400810697085, "lng": -71.07085698029151}}}, "icon": "https://maps.gstatic.com/mapfiles/place_api/icons/generic_business-71.png", "id": "6fa563e42373c43194285acec825382c4f726edb", "name": "Washington Street Valet", "place_id": "ChIJ2SP0Q2x644kR7Gg_ZNi9HEY", "plus_code": {"compound_code": "8WRJ+H5 Boston, Massachusetts, United States", "global_code": "87JC8WRJ+H5"}, "reference": "ChIJ2SP0Q2x644kR7Gg_ZNi9HEY", "scope": "GOOGLE", "types": ["parking", "point_of_interest", "establishment"], "vicinity": "1375 Washington Street, Boston"}, "ChIJk8D9cwx744kRo5Otj8c6cdg": {"geometry": {"location": {"lat": 42.341577, "lng": -71.069312}, "viewport": {"northeast": {"lat": 42.3428784802915, "lng": -71.06792941970849}, "southwest": {"lat": 42.3401805197085, "lng": -71.0706273802915}}}, "icon": "https://maps.gstatic.com/mapfiles/place_api/icons/restaurant-71.png", "id": "ded15f70fe45a540e94d30a30f60db8ccbbfa7a0", "name": "Burro Bar South End", "opening_hours": {"open_now": true}, "photos": [{"height": 4032, "html_attributions": ["<a href=\"https://maps.google.com/maps/contrib/104665049683747178219/photos\">Jillian Burgess</a>"], "photo_reference": "CmRaAAAAn6mGaqB9zgCN5YLFnWnaT0oMNYsWLLgRpNRpSFLV4UlHnkbM7YrCC2mQpzRSrfqDUrNPv1Gf7LgElqdzWlBThQsJ1Gu8d59t-26ByxitwIudvl-JRfoseKoJqRCr4_1HEhDBtVbySUcHkZN3LPT9-PsaGhRXPsp6U0W5-fMcF73ACOsvC9JdtA", "width": 3024}], "place_id": "ChIJk8D9cwx744kRo5Otj8c6cdg", "plus_code": {"compound_code": "8WRJ+J7 Boston, Massachusetts, United States", "global_code": "87JC8WRJ+J7"}, "price_level": 2, "rating": 4.5, "reference": "ChIJk8D9cwx744kRo5Otj8c6cdg", "scope": "GOOGLE", "types": ["restaurant", "point_of_interest", "food", "establishment"], "user_ratings_total": 94, "vicinity": "2140, 1357 Washington Street, Boston"}, "ChIJGzE9DS1l44kRoOhiASS_fHg": {"geometry": {"location": {"lat": 42.3600825, "lng": -71.0588801}, "viewport": {"northeast": {"lat": 42.40081989999999, "lng": -70.749455}, "southwest": {"lat": 42.22788, "lng": -71.191113}}}, "icon": "https://maps.gstatic.com/mapfiles/place_api/icons/geocode-71.png", "id": "06755c25d2b34d13942a4713971756a55b870ced", "name": "Boston", "photos": [{"height": 3024, "html_attributions": ["<a href=\"https://maps.google.com/maps/contrib/104670289779338733432/photos\">Natalia Zalucean</a>"], "photo_reference": "CmRaAAAAI2w-I_9Id-5ktecd66usA3vPCxNl13uDW8NNdUDIxRtY9Mmd4WAowT5rmvnMX6BJW_AqLfFAMuZZbE1Kr57UkSDZcb2-8PF2KupSuLrrdzDsQ0duzTq9nHhgNuS1JRZyEhCIIu2KA9Amn8ejmBUsV6-bGhQmv3F9Xhz643mlN8Q-QrJPpJj3sA", "width": 4032}], "place_id": "ChIJGzE9DS1l44kRoOhiASS_fHg", "reference": "ChIJGzE9DS1l44kRoOhiASS_fHg", "scope": "GOOGLE", "types": ["locality", "political"], "vicinity": "Boston"}}