{"ChIJcWGhq3J844kRqyA47oxwhLA": {"geometry": {"location": {"lat": 42.2695136, "lng": -71.0733381}, "viewport": {"northeast": {"lat": 42.2708625302915, "lng": -71.0719890697085}, "southwest": {"lat": 42.2681645697085, "lng": -71.0746870302915}}}, "icon": "https://maps.gstatic.com/mapfiles/place_api/icons/geocode-71.png", "id": "34d5f5a84175e95d9bb7168864694816d558e879", "name": "114-106 Eliot St", "place_id": "ChIJcWGhq3J844kRqyA47oxwhLA", "reference": "ChIJcWGhq3J844kRqyA47oxwhLA", "scope": "GOOGLE", "types": ["route"], "vicinity": "Milton"}, "ChIJm5L1s3J844kR2REPY2FG8Rg": {"geometry": {"location": {"lat": 42.26936980000001, "lng": -71.07344119999999}, "viewport": {"northeast": {"lat": 42.2706807302915, "lng": -71.0720023697085}, "southwest": {"lat": 42.2679827697085, "lng": -71.0747003302915}}}, "icon": "https://maps.gstatic.com/mapfiles/place_api/icons/restaurant-71.png", "id": "4ff3a6be1dd8991114f923a82b1087c7a395f9ab", "name": "The Plate", "opening_hours": {"open_now": true}, "photos": [{"height": 4032, "html_attributions": ["<a href=\"https://maps.google.com/maps/contrib/111555170240291436349/photos\">Anthony Craig Evans</a>"], "photo_reference": "CmRaAAAAXxkp9uoScC4MUGL5JASyzXQ4RWQVru90M22bMCfYRIF2cE4NLRdf5JXNcA03BnQ2cgsO7J3wg5mWgajdfCnLffuExcDqOuEQSOepNv42nnJ5cCebUT-Ce7dxHcQ88JkKEhCRjz6OSJ1FSy_2_TNFe8BvGhQN5uixFXuJpBHQSwdKFP2U6sBcLw", "width": 3024}], "place_id": "ChIJm5L1s3J844kR2REPY2FG8Rg", "plus_code": {"compound_code": "7W9G+PJ Milton, Massachusetts, United States", "global_code": "87JC7W9G+PJ"}, "rating": 4.5, "reference": "ChIJm5L1s3J844kR2REPY2FG8Rg", "scope": "GOOGLE", "types": ["restaurant", "point_of_interest", "food", "establishment"], "user_ratings_total": 60, "vicinity": "27 Central Avenue, Milton"}, "ChIJ1do8tHJ844kRe9nYtmIXxfU": {"geometry": {"location": {"lat": 42.2694475, "lng": -71.07282099999999}, "viewport": {"northeast": {"lat": 42.2708191802915, "lng": -71.07163891970849}, "southwest": {"lat": 42.2681212197085, "lng": -71.0743368802915}}}, "icon": "https://maps.gstatic.com/mapfiles/place_api/icons/generic_business-71.png", "id": "86d2ff1043e6058226be97e22dc2ae36a393e8f7", "name": "Mackie's Barber Shop", "opening_hours": {"open_now": true}, "photos": [{"height": 720, "html_attributions": ["<a href=\"https://maps.google.com/maps/contrib/105893742553866454377/photos\">From a Google User</a>"], "photo_reference": "CmRaAAAAfzb0_hHJLKwzfxM8gvXDVeVqwX1ao2TwXXIyoqgWTUyJOqYRoCpfGEGB8PDN9Yk8lDvdgIJ4KysDuNFVMaPgXQJliQfqo1UOQwVNhipD3DRrNgDdSnur1CYRvJFhbb7CEhAIH5jE733gsQoBD4D35522GhR2WNTQt4RBoUDzFkZDKboK_O2eWw", "width": 960}], "place_id": "ChIJ1do8tHJ844kRe9nYtmIXxfU", "plus_code": {"compound_code": "7W9G+QV Milton, Massachusetts, United States", "global_code": "87JC7W9G+QV"}, "rating": 4.6, "reference": "ChIJ1do8tHJ844kRe9nYtmIXxfU", "scope": "GOOGLE", "types": ["hair_care", "health", "point_of_interest", "establishment"], "user_ratings_total": 36, "vicinity": "20 Central Avenue, Milton"}, "ChIJgW4xtHJ844kRgPLGMtQy9rs": {"geometry": {"location": {"lat": 42.26985279999999, "lng": -71.0730052}, "viewport": {"northeast": {"lat": 42.2711928302915, "lng": -71.0717259697085}, "southwest": {"lat": 42.2684948697085, "lng": -71.07442393029152}}}, "icon": "https://maps.gstatic.com/mapfiles/place_api/icons/generic_business-71.png", "id": "f3d0c4b24153d5649553f11380e8b12766b115da", "name": "Central Cleaners Inc", "opening_hours": {"open_now": true}, "place_id": "ChIJgW4xtHJ844kRgPLGMtQy9rs", "plus_code": {"compound_code": "7W9G+WQ Milton, Massachusetts, United States", "global_code": "87JC7W9G+WQ"}, "rating": 3.3, "reference": "ChIJgW4xtHJ844kRgPLGMtQy9rs", "scope": "GOOGLE", "types": ["laundry", "point_of_interest", "establishment"], "user_ratings_total": 6, "vicinity": "14 Central Avenue, Milton"}, "ChIJPwD0s3J844kRWQKRhwAMRDU": {"geometry": {"location": {"lat": 42.2693237, "lng": -71.07343770000001}, "viewport": {"northeast": {"lat": 42.2706395302915, "lng": -71.0720150197085}, "southwest": {"lat": 42.2679415697085, "lng": -71.07471298029151}}}, "icon": "https://maps.gstatic.com/mapfiles/place_api/icons/generic_business-71.png", "id": "152d96eea054a75543eec74502d12176c1c1f592", "name": "At Home Elder Care Inc", "opening_hours": {"open_now": true}, "place_id": "ChIJPwD0s3J844kRWQKRhwAMRDU", "plus_code": {"compound_code": "7W9G+PJ Milton, Massachusetts, United States", "global_code": "87JC7W9G+PJ"}, "reference": "ChIJPwD0s3J844kRWQKRhwAMRDU", "scope": "GOOGLE", "types": ["health", "point_of_interest", "establishment"], "vicinity": "29 Central Avenue, Milton"}, "ChIJ6UNRsnJ844kRc5CJpqPY85s": {"geometry": {"location": {"lat": 42.2700666, "lng": -71.0734576}, "viewport": {"northeast": {"lat": 42.2714319302915, "lng": -71.0719871197085}, "southwest": {"lat": 42.2687339697085, "lng": -71.0746850802915}}}, "icon": "https://maps.gstatic.com/mapfiles/place_api/icons/generic_business-71.png", "id": "2de853a62a1da71fedb7e54f5b57dd03ad05a0fb", "name": "Central Ave", "photos": [{"height": 568, "html_attributions": ["<a href=\"https://maps.google.com/maps/contrib/114630214792647393528/photos\">Maurits Vink</a>"], "photo_reference": "CmRaAAAAQVhP1HBvdALv1s6d2M2CUseyU5lJI83UlUIMhUbeP1nYRF_2VtzO6_891EaFofi3h9148jBXGROlevVC0PJRZpDU5GSuQaOoXM4hebRaWFh7ree9GtWKJ8WBFarAx2bzEhA7YrX_iD2cq2D6TB43JBhTGhRqmUI5UAbs-d1x2rxS7W-eknqwTA", "width": 1024}], "place_id": "ChIJ6UNRsnJ844kRc5CJpqPY85s", "plus_code": {"compound_code": "7WCG+2J Milton, Massachusetts, United States", "global_code": "87JC7WCG+2J"}, "rating": 5, "reference": "ChIJ6UNRsnJ844kRc5CJpqPY85s", "scope": "GOOGLE", "types": ["light_rail_station", "transit_station", "point_of_interest", "establishment"], "user_ratings_total": 3, "vicinity": "23 Central Avenue, Milton"}, "ChIJN1YatHJ844kR_deM9xr2QIM": {"geometry": {"location": {"lat": 42.269343, "lng": -71.0729556}, "viewport": {"northeast": {"lat": 42.27072038029149, "lng": -71.0717209697085}, "southwest": {"lat": 42.26802241970849, "lng": -71.0744189302915}}}, "icon": "https://maps.gstatic.com/mapfiles/place_api/icons/shopping-71.png", "id": "89daf518852947e57c02fc418c3a567ee889e94b", "name": "Central Liquor Mart Inc", "opening_hours": {"open_now": true}, "photos": [{"height": 1536, "html_attributions": ["<a href=\"https://maps.google.com/maps/contrib/111202291165252859104/photos\">Central Liquor Mart Inc</a>"], "photo_reference": "CmRaAAAAl8Uwdszn1b0Cx4lq6QaVFlvfFItAo5paAL56AZdj0kBteF6U4bd_Oi8jcN2YreuTW4ahAvdVAUp7OWqojaP7ghzm9r9XSAr6wrzzQNIynJ1b9d2WU9C2do8gTlFfVAgWEhA55BKMPe7IjtxuQRGYQ_TTGhRIiLnD8dJVYVv5G9o6651pOI9vwA", "width": 2048}], "place_id": "ChIJN1YatHJ844kR_deM9xr2QIM", "plus_code": {"compound_code": "7W9G+PR Milton, Massachusetts, United States", "global_code": "87JC7W9G+PR"}, "rating": 3.8, "reference": "ChIJN1YatHJ844kR_deM9xr2QIM", "scope": "GOOGLE", "types": ["liquor_store", "store", "point_of_interest", "food", "establishment"], "user_ratings_total": 4, "vicinity": "26 Central Avenue, Milton"}, "ChIJsw0EpXJ844kRQDeZNfwDO-k": {"geometry": {"location": {"lat": 42.2697736, "lng": -71.0725357}, "viewport": {"northeast": {"lat": 42.27108398029151, "lng": -71.07116211970849}, "southwest": {"lat": 42.26838601970851, "lng": -71.0738600802915}}}, "icon": "https://maps.gstatic.com/mapfiles/place_api/icons/generic_business-71.png", "id": "56048c8231f45cc39f1668caf869ba1f4c259860", "name": "William Raveis Real Estate", "opening_hours": {"open_now": true}, "photos": [{"height": 640, "html_attributions": ["<a href=\"https://maps.google.com/maps/contrib/116398596606390360492/photos\">William Raveis Real Estate</a>"], "photo_reference": "CmRaAAAAUcyxRaytEZw8a27Ae2F-L0L7DrAijTjPcAXi85oLqWiyW3nG-duX103gBBKan1I_0R37veyBxHhOAvyxB6lPGvS851pnMbi1BhS0Dtjz5h4H6oDdTXM2UOlY9IWamjJOEhC9wzdXH7o0giZsPoT-sfmQGhTYn-euutE5qfRPJFwP9RxcnIJ46A", "width": 480}], "place_id": "ChIJsw0EpXJ844kRQDeZNfwDO-k", "plus_code": {"compound_code": "7W9G+WX Milton, Massachusetts, United States", "global_code": "87JC7W9G+WX"}, "rating": 5, "reference": "ChIJsw0EpXJ844kRQDeZNfwDO-k", "scope": "GOOGLE", "types": ["real_estate_agency", "point_of_interest", "establishment"], "user_ratings_total": 1, "vicinity": "95 Eliot Street, Milton"}, "ChIJbZ8GtHJ844kRtmgEQkkU7xQ": {"geometry": {"location": {"lat": 42.2701915, "lng": -71.0732227}, "viewport": {"northeast": {"lat": 42.27154438029149, "lng": -71.07184886970849}, "southwest": {"lat": 42.2688464197085, "lng": -71.0745468302915}}}, "icon": "https://maps.gstatic.com/mapfiles/place_api/icons/generic_business-71.png", "id": "96eb19db7f50af2f073c396fc2e0096f01dd7a82", "name": "Sullivan Insurance Inc.", "opening_hours": {"open_now": true}, "place_id": "ChIJbZ8GtHJ844kRtmgEQkkU7xQ", "plus_code": {"compound_code": "7WCG+3P Milton, Massachusetts, United States", "global_code": "87JC7WCG+3P"}, "reference": "ChIJbZ8GtHJ844kRtmgEQkkU7xQ", "scope": "GOOGLE", "types": ["insurance_agency", "finance", "point_of_interest", "establishment"], "vicinity": "30 Central Avenue, Milton"}, "ChIJ6wIYtHJ844kRcR2NlY3yUoc": {"geometry": {"location": {"lat": 42.2693942, "lng": -71.0728744}, "viewport": {"northeast": {"lat": 42.2708181302915, "lng": -71.0715723197085}, "southwest": {"lat": 42.2681201697085, "lng": -71.0742702802915}}}, "icon": "https://maps.gstatic.com/mapfiles/place_api/icons/restaurant-71.png", "id": "0f0397ba0d756566184421788b66260fbe1631fc", "name": "Tino's Pizza", "opening_hours": {"open_now": true}, "photos": [{"height": 2322, "html_attributions": ["<a href=\"https://maps.google.com/maps/contrib/116388047455453393002/photos\">felipe buarque</a>"], "photo_reference": "CmRaAAAAisUMWp68TNrATwSVgiV6PWr5oMP4KZ7oZGgTTZIssR_lRHmeSE_HRdgE0XkcjUzQEsZGkHOWILPkUNy4-louupWGVJ3wT_wmWNt9EzuzBvwHNQDfiT3W3SzvoV9GgIIKEhAeGaatG-kdpMxleR93TzVwGhRVmI-6g9E_NTlqr_ZYETDp_MgehQ", "width": 4128}], "place_id": "ChIJ6wIYtHJ844kRcR2NlY3yUoc", "plus_code": {"compound_code": "7W9G+QV Milton, Massachusetts, United States", "global_code": "87JC7W9G+QV"}, "price_level": 1, "rating": 3.8, "reference": "ChIJ6wIYtHJ844kRcR2NlY3yUoc", "scope": "GOOGLE", "types": ["restaurant", "point_of_interest", "food", "establishment"], "user_ratings_total": 35, "vicinity": "22 Central Avenue, Milton"}, "ChIJMSHIrnJ844kRJYJUM0aw15k": {"geometry": {"location": {"lat": 42.2696779, "lng": -71.07298779999999}, "viewport": {"northeast": {"lat": 42.2710283302915, "lng": -71.07171151970849}, "southwest": {"lat": 42.2683303697085, "lng": -71.07440948029151}}}, "icon": "https://maps.gstatic.com/mapfiles/place_api/icons/atm-71.png", "id": "20ec009d330c824774ed6afe2be326eb23669806", "name": "ATM", "place_id": "ChIJMSHIrnJ844kRJYJUM0aw15k", "plus_code": {"compound_code": "7W9G+VR Milton, Massachusetts, United States", "global_code": "87JC7W9G+VR"}, "reference": "ChIJMSHIrnJ844kRJYJUM0aw15k", "scope": "GOOGLE", "types": ["atm", "finance", "point_of_interest", "establishment"], "vicinity": "26 Central Avenue, Milton"}, "ChIJr83nVG1844kRsstjjvj1-rY": {"geometry": {"location": {"lat": 42.2694283, "lng": -71.0734015}, "viewport": {"northeast": {"lat": 42.2707383302915, "lng": -71.0719605697085}, "southwest": {"lat": 42.26804036970851, "lng": -71.0746585302915}}}, "icon": "https://maps.gstatic.com/mapfiles/place_api/icons/shopping-71.png", "id": "91f195b3f7588a157fc183466a12a55959ed7cc2", "name": "Craft and Cru", "opening_hours": {"open_now": true}, "photos": [{"height": 1080, "html_attributions": ["<a href=\"https://maps.google.com/maps/contrib/104318571337516491781/photos\">Riley Taylor</a>"], "photo_reference": "CmRaAAAABXfj8lMJB4DnmgxMpJ6hN7OoCNjT057mhTUjh2dQ0xjvWLO7yzb49sXUteAtLYYKKz4hO1wkCDbwiJDs9Ue-7mFhRDpK3tQJKVLgea11n2Go1SSpOQXpHqvznQ1JIPd_EhBMz4ZDVYjQGGp13Yp_gpBrGhSwmuY4W-zU1R-HVYzBmzTA0ndhsQ", "width": 1080}], "place_id": "ChIJr83nVG1844kRsstjjvj1-rY", "plus_code": {"compound_code": "7W9G+QJ Milton, Massachusetts, United States", "global_code": "87JC7W9G+QJ"}, "rating": 4.8, "reference": "ChIJr83nVG1844kRsstjjvj1-rY", "scope": "GOOGLE", "types": ["liquor_store", "store", "point_of_interest", "establishment"], "user_ratings_total": 13, "vicinity": "25 Central Avenue, Milton"}, "ChIJLUqcqXJ844kRizjmCeUgivg": {"geometry": {"location": {"lat": 42.269406, "lng": -71.07311299999999}, "viewport": {"northeast": {"lat": 42.27076023029149, "lng": -71.07178516970849}, "southwest": {"lat": 42.26806226970849, "lng": -71.0744831302915}}}, "icon": "https://maps.gstatic.com/mapfiles/place_api/icons/bus-71.png", "id": "724ed40fafce5f7b772924348a07bfce72f14bec", "name": "Central Avenue and Elloit Street", "place_id": "ChIJLUqcqXJ844kRizjmCeUgivg", "plus_code": {"compound_code": "7W9G+QQ Milton, Massachusetts, United States", "global_code": "87JC7W9G+QQ"}, "rating": 4.5, "reference": "ChIJLUqcqXJ844kRizjmCeUgivg", "scope": "GOOGLE", "types": ["bus_station", "transit_station", "point_of_interest", "establishment"], "user_ratings_total": 2, "vicinity": "United States"}, "ChIJ3RA7tHJ844kRBIRFG4nmGzI": {"geometry": {"location": {"lat": 42.2697541, "lng": -71.0728998}, "viewport": {"northeast": {"lat": 42.27242005, "lng": -71.0718724197085}, "southwest": {"lat": 42.26886545000001, "lng": -71.0745703802915}}}, "icon": "https://maps.gstatic.com/mapfiles/place_api/icons/generic_business-71.png", "id": "c440f46e091c0d3344022fd413ef5adf282d3166", "name": "Central Avenue Garage", "place_id": "ChIJ3RA7tHJ844kRBIRFG4nmGzI", "plus_code": {"compound_code": "7W9G+WR Milton, Massachusetts, United States", "global_code": "87JC7W9G+WR"}, "rating": 4.8, "reference": "ChIJ3RA7tHJ844kRBIRFG4nmGzI", "scope": "GOOGLE", "types": ["car_repair", "point_of_interest", "establishment"], "user_ratings_total": 9, "vicinity": "18 Central Avenue, Milton"}, "ChIJ2S9jqXJ844kRhra1YFyAvmE": {"geometry": {"location": {"lat": 42.2693837, "lng": -71.0729406}, "viewport": {"northeast": {"lat": 42.2707566802915, "lng": -71.0717066197085}, "southwest": {"lat": 42.2680587197085, "lng": -71.0744045802915}}}, "icon": "https://maps.gstatic.com/mapfiles/place_api/icons/cafe-71.png", "id": "92d60a2e70dffd120398a1dd332cba84c2b5e720", "name": "Coffee Break Cafe", "opening_hours": {"open_now": true}, "photos": [{"height": 2988, "html_attributions": ["<a href=\"https://maps.google.com/maps/contrib/112103500918270969721/photos\">A Hoyt</a>"], "photo_reference": "CmRaAAAA54i1ZSn8ego1YTsDUIhlHiMv81lRNOM_DaSYrcL5IhAjbrPjsbM65g4Kp0s4V9IHuNtWa9T01l4-AvlYi7Zk0K6LnTQDuhAMSKu-AAS-bWn3PxXxtTaC2VNaZSICXPiNEhDOTXVsE-KvYUF7ltKMm4A1GhRNbEN1UPZaXzDFohhA23380tainA", "width": 5312}], "place_id": "ChIJ2S9jqXJ844kRhra1YFyAvmE", "plus_code": {"compound_code": "7W9G+QR Milton, Massachusetts, United States", "global_code": "87JC7W9G+QR"}, "price_level": 1, "rating": 4.5, "reference": "ChIJ2S9jqXJ844kRhra1YFyAvmE", "scope": "GOOGLE", "types": ["cafe", "store", "point_of_interest", "food", "establishment"], "user_ratings_total": 40, "vicinity": "24 Central Avenue, Milton"}, "ChIJE5P8qXJ844kRrqEczx6tIKQ": {"geometry": {"location": {"lat": 42.2692861, "lng": -71.0731374}, "viewport": {"northeast": {"lat": 42.2706558302915, "lng": -71.07183736970849}, "southwest": {"lat": 42.2679578697085, "lng": -71.0745353302915}}}, "icon": "https://maps.gstatic.com/mapfiles/place_api/icons/generic_business-71.png", "id": "8651c2b47971db424a2ecf1d1d01d8f5b5a5dd86", "name": "Orchid Dry Clean", "place_id": "ChIJE5P8qXJ844kRrqEczx6tIKQ", "plus_code": {"compound_code": "7W9G+PP Milton, Massachusetts, United States", "global_code": "87JC7W9G+PP"}, "reference": "ChIJE5P8qXJ844kRrqEczx6tIKQ", "scope": "GOOGLE", "types": ["point_of_interest", "establishment"], "vicinity": "Milton"}, "ChIJtbXMqXJ844kReE5o4wGHEXw": {"geometry": {"location": {"lat": 42.2692985, "lng": -71.0729915}, "viewport": {"northeast": {"lat": 42.2706864802915, "lng": -71.0717464197085}, "southwest": {"lat": 42.2679885197085, "lng": -71.07444438029151}}}, "icon": "https://maps.gstatic.com/mapfiles/place_api/icons/generic_business-71.png", "id": "e37692a5bb7ec999886114a043b0e67e3ac594ca", "name": "William J. Sullivan Insurance Agency", "place_id": "ChIJtbXMqXJ844kReE5o4wGHEXw", "plus_code": {"compound_code": "7W9G+PR Milton, Massachusetts, United States", "global_code": "87JC7W9G+PR"}, "reference": "ChIJtbXMqXJ844kReE5o4wGHEXw", "scope": "GOOGLE", "types": ["insurance_agency", "point_of_interest", "establishment"], "vicinity": "Milton"}, "ChIJ8_PysnJ844kRmsNvOQpYUuQ": {"geometry": {"location": {"lat": 42.26998020000001, "lng": -71.0734508}, "viewport": {"northeast": {"lat": 42.2713365802915, "lng": -71.07205276970849}, "southwest": {"lat": 42.2686386197085, "lng": -71.07475073029151}}}, "icon": "https://maps.gstatic.com/mapfiles/place_api/icons/generic_business-71.png", "id": "5ca079dd683604b0e6d75ec3174035a26d51e6c3", "name": "Central Ave", "place_id": "ChIJ8_PysnJ844kRmsNvOQpYUuQ", "plus_code": {"compound_code": "7W9G+XJ Milton, Massachusetts, United States", "global_code": "87JC7W9G+XJ"}, "rating": 5, "reference": "ChIJ8_PysnJ844kRmsNvOQpYUuQ", "scope": "GOOGLE", "types": ["light_rail_station", "transit_station", "point_of_interest", "establishment"], "user_ratings_total": 2, "vicinity": "23 Central Avenue, Milton"}, "ChIJp9X-s3J844kRQaWC1ZVZbKA": {"geometry": {"location": {"lat": 42.2692329, "lng": -71.0731571}, "viewport": {"northeast": {"lat": 42.2706060302915, "lng": -71.0718651697085}, "southwest": {"lat": 42.2679080697085, "lng": -71.07456313029151}}}, "icon": "https://maps.gstatic.com/mapfiles/place_api/icons/generic_business-71.png", "id": "aa29dc9e1390ab0e6678d12a7a78d5d3d940e89a", "name": "Total Touch Hair Stylists", "place_id": "ChIJp9X-s3J844kRQaWC1ZVZbKA", "plus_code": {"compound_code": "7W9G+MP Milton, Massachusetts, United States", "global_code": "87JC7W9G+MP"}, "reference": "ChIJp9X-s3J844kRQaWC1ZVZbKA", "scope": "GOOGLE", "types": ["beauty_salon", "point_of_interest", "establishment"], "vicinity": "34 Central Avenue, Milton"}, "ChIJSwYBXcx944kRtfz9EwDxS2s": {"geometry": {"location": {"lat": 42.24953209999999, "lng": -71.0661653}, "viewport": {"northeast": {"lat": 42.277699, "lng": -71.0314899}, "southwest": {"lat": 42.2007769, "lng": -71.1308081}}}, "icon": "https://maps.gstatic.com/mapfiles/place_api/icons/geocode-71.png", "id": "6e461294a62d87cdb4630ef38ecfd5ec87d90876", "name": "Milton", "photos": [{"height": 2268, "html_attributions": ["<a href=\"https://maps.google.com/maps/contrib/117412595138128548837/photos\">george howard</a>"], "photo_reference": "CmRaAAAA6XTjdROnCrZz3GW0ZCiAaYsvzeS5U0OhTsRJAVEB1RQo0pocTemmh1pXDUGNeErxF5QIw_6IA3vu1f-BJpVNauFFq9ikHt8tvLR30QGbSgofFauAvTGiu3yuD0HrLIaREhASzoXe4INz69JB-QTeJclAGhQEzwE76mu5IExBW-pawX5_PWp98A", "width": 4032}], "place_id": "ChIJSwYBXcx944kRtfz9EwDxS2s", "reference": "ChIJSwYBXcx944kRtfz9EwDxS2s", "scope": "GOOGLE", "types": ["locality", "political"], "vicinity": "Milton"}, "ChIJN2m_s3J844kRs3jkypbH4e4": {"geometry": {"location": {"lat": 42.270098, "lng": -71.073275}, "viewport": {"northeast": {"lat": 42.2714469802915, "lng": -71.07192601970849}, "southwest": {"lat": 42.2687490197085, "lng": -71.07462398029149}}}, "icon": "https://maps.gstatic.com/mapfiles/place_api/icons/bus-71.png", "id": "4a56d4f9ab82cd98550abbc7878ad9c5bcb5a95d", "name": "Central Ave @ Central Ave Station", "place_id": "ChIJN2m_s3J844kRs3jkypbH4e4", "plus_code": {"compound_code": "7WCG+2M Milton, Massachusetts, United States", "global_code": "87JC7WCG+2M"}, "reference": "ChIJN2m_s3J844kRs3jkypbH4e4", "scope": "GOOGLE", "types": ["bus_station", "transit_station", "point_of_interest", "establishment"], "vicinity": "United States"}, "ChIJ20R6u3J844kR65zNOw8gqOk": {"geometry": {"location": {"lat": 42.2697717, "lng": -71.0725614}, "viewport": {"northeast": {"lat": 42.27107918029149, "lng": -71.0711859697085}, "southwest": {"lat": 42.26838121970849, "lng": -71.0738839302915}}}, "icon": "https://maps.gstatic.com/mapfiles/place_api/icons/restaurant-71.png", "id": "754a711fc132a033db275800825199b258c931d8", "name": "Biga Breads", "place_id": "ChIJ20R6u3J844kR65zNOw8gqOk", "plus_code": {"compound_code": "7W9G+WX Milton, Massachusetts, United States", "global_code": "87JC7W9G+WX"}, "reference": "ChIJ20R6u3J844kR65zNOw8gqOk", "scope": "GOOGLE", "types": ["bakery", "store", "point_of_interest", "food", "establishment"], "vicinity": "95 Eliot Street, Milton"}, "ChIJN2m_s3J844kRS9yONMor4T0": {"geometry": {"location": {"lat": 42.270172, "lng": -71.07316}, "viewport": {"northeast": {"lat": 42.2715209802915, "lng": -71.0718110197085}, "southwest": {"lat": 42.2688230197085, "lng": -71.07450898029151}}}, "icon": "https://maps.gstatic.com/mapfiles/place_api/icons/bus-71.png", "id": "86249abb8b69b4902bb53190517a804e487debfc", "name": "Central Ave @ Central Ave Station", "place_id": "ChIJN2m_s3J844kRS9yONMor4T0", "plus_code": {"compound_code": "7WCG+3P Milton, Massachusetts, United States", "global_code": "87JC7WCG+3P"}, "reference": "ChIJN2m_s3J844kRS9yONMor4T0", "scope": "GOOGLE", "types": ["bus_station", "transit_station", "point_of_interest", "establishment"], "vicinity": "United States"}}