{"ChIJcTkqjRx844kRBa2URBSSjfE": {"geometry": {"location": {"lat": 42.2706391, "lng": -71.09270649999999}, "viewport": {"northeast": {"lat": 42.27204963029151, "lng": -71.09149086970848}, "southwest": {"lat": 42.26935166970851, "lng": -71.0941888302915}}}, "icon": "https://maps.gstatic.com/mapfiles/place_api/icons/geocode-71.png", "id": "1548868479e0122509c91c70d6baa3c51c3a2794", "name": "162-120 Babson St", "place_id": "ChIJcTkqjRx844kRBa2URBSSjfE", "reference": "ChIJcTkqjRx844kRBa2URBSSjfE", "scope": "GOOGLE", "types": ["route"], "vicinity": "Boston"}, "ChIJPbQVkBx844kR9Kd3X-bLke0": {"geometry": {"location": {"lat": 42.27078439999999, "lng": -71.0921408}, "viewport": {"northeast": {"lat": 42.2722211802915, "lng": -71.0907078697085}, "southwest": {"lat": 42.2695232197085, "lng": -71.0934058302915}}}, "icon": "https://maps.gstatic.com/mapfiles/place_api/icons/school-71.png", "id": "bb67ff81ee22bcdf5a3f11e66dacb7e3d346b1f8", "name": "Saint Angela Elementary School", "place_id": "ChIJPbQVkBx844kR9Kd3X-bLke0", "plus_code": {"compound_code": "7WC5+84 Boston, Massachusetts, United States", "global_code": "87JC7WC5+84"}, "reference": "ChIJPbQVkBx844kR9Kd3X-bLke0", "scope": "GOOGLE", "types": ["point_of_interest", "school", "establishment"], "vicinity": "Boston"}, "ChIJfW1-lhx844kRw4i5xU9ezb0": {"geometry": {"location": {"lat": 42.27123590000001, "lng": -71.0924687}, "viewport": {"northeast": {"lat": 42.27256688029151, "lng": -71.09114046970849}, "southwest": {"lat": 42.26986891970851, "lng": -71.09383843029151}}}, "icon": "https://maps.gstatic.com/mapfiles/place_api/icons/school-71.png", "id": "bdf665ed698721473b84d28004863ed26b487570", "name": "Papa John Paul ii Catholic Academy", "place_id": "ChIJfW1-lhx844kRw4i5xU9ezb0", "plus_code": {"compound_code": "7WC5+F2 Boston, Massachusetts, United States", "global_code": "87JC7WC5+F2"}, "reference": "ChIJfW1-lhx844kRw4i5xU9ezb0", "scope": "GOOGLE", "types": ["school", "point_of_interest", "establishment"], "vicinity": "19 Fremont Street, Boston"}, "ChIJDQwB7hx844kRG9DDCPUx5vU": {"geometry": {"location": {"lat": 42.270928, "lng": -71.093248}, "viewport": {"northeast": {"lat": 42.2722792302915, "lng": -71.09205261970848}, "southwest": {"lat": 42.2695812697085, "lng": -71.0947505802915}}}, "icon": "https://maps.gstatic.com/mapfiles/place_api/icons/generic_business-71.png", "id": "ba1700aec7031afcc65d2122ee47ea0a51064597", "name": "Keke Fleurissaint Financial", "opening_hours": {"open_now": true}, "place_id": "ChIJDQwB7hx844kRG9DDCPUx5vU", "plus_code": {"compound_code": "7WC4+9P Boston, Massachusetts, United States", "global_code": "87JC7WC4+9P"}, "rating": 3, "reference": "ChIJDQwB7hx844kRG9DDCPUx5vU", "scope": "GOOGLE", "types": ["finance", "point_of_interest", "establishment"], "user_ratings_total": 1, "vicinity": "1550 Blue Hill Avenue, Mattapan"}, "ChIJ8-ekkRx844kRs87cx4VBM4A": {"geometry": {"location": {"lat": 42.27078439999999, "lng": -71.0921408}, "viewport": {"northeast": {"lat": 42.2721818802915, "lng": -71.09099381970849}, "southwest": {"lat": 42.2694839197085, "lng": -71.09369178029151}}}, "icon": "https://maps.gstatic.com/mapfiles/place_api/icons/school-71.png", "id": "b4edb3a841716d77a6cab1893692159db597dba0", "name": "Pope John Paul II Catholic Academy - Mattapan Campus", "place_id": "ChIJ8-ekkRx844kRs87cx4VBM4A", "plus_code": {"compound_code": "7WC5+84 Boston, Massachusetts, United States", "global_code": "87JC7WC5+84"}, "rating": 3.5, "reference": "ChIJ8-ekkRx844kRs87cx4VBM4A", "scope": "GOOGLE", "types": ["school", "point_of_interest", "establishment"], "user_ratings_total": 2, "vicinity": "120 Babson Street, Mattapan"}, "ChIJg0456hx844kRQp1Nb96MdSc": {"geometry": {"location": {"lat": 42.27140289999999, "lng": -71.0931583}, "viewport": {"northeast": {"lat": 42.2727547302915, "lng": -71.0920013697085}, "southwest": {"lat": 42.2700567697085, "lng": -71.0946993302915}}}, "icon": "https://maps.gstatic.com/mapfiles/place_api/icons/worship_general-71.png", "id": "b65131905a19d88f0fe321b5f716f2a4b978bc79", "name": "St Angela Merici Church", "photos": [{"height": 4032, "html_attributions": ["<a href=\"https://maps.google.com/maps/contrib/116992083054326192872/photos\">Chris Godfrey</a>"], "photo_reference": "CmRaAAAApK0g2FhRh3pPCNxLe5kfwfkBgfp99vUdP0KEP5CIdV0_cAa7GJ7xaf-0XI4wu2MqMRZMJhOMmigFYLkbYGQ0BtiV0UPohh4GkrL7ygQje4E1BMYOjbcIMzVugQvi-zjvEhBQQ7RL4H-AmGTvoMwL-i4VGhQF7SY65kapTdspif_kqRqwbdjGdA", "width": 2268}], "place_id": "ChIJg0456hx844kRQp1Nb96MdSc", "plus_code": {"compound_code": "7WC4+HP Boston, Massachusetts, United States", "global_code": "87JC7WC4+HP"}, "rating": 4.4, "reference": "ChIJg0456hx844kRQp1Nb96MdSc", "scope": "GOOGLE", "types": ["church", "place_of_worship", "point_of_interest", "establishment"], "user_ratings_total": 9, "vicinity": "1548 Blue Hill Avenue, Mattapan"}, "ChIJDQwB7hx844kRpYA2bwJ7IQI": {"geometry": {"location": {"lat": 42.270928, "lng": -71.093248}, "viewport": {"northeast": {"lat": 42.2722792302915, "lng": -71.09205261970848}, "southwest": {"lat": 42.2695812697085, "lng": -71.0947505802915}}}, "icon": "https://maps.gstatic.com/mapfiles/place_api/icons/generic_business-71.png", "id": "6ae7fcf424b50aa3d385bf3189956544e62becd8", "name": "KEKE FINANCIAL SERVICES", "opening_hours": {"open_now": true}, "place_id": "ChIJDQwB7hx844kRpYA2bwJ7IQI", "plus_code": {"compound_code": "7WC4+9P Boston, Massachusetts, United States", "global_code": "87JC7WC4+9P"}, "reference": "ChIJDQwB7hx844kRpYA2bwJ7IQI", "scope": "GOOGLE", "types": ["finance", "point_of_interest", "establishment"], "vicinity": "1550 Blue Hill Avenue, Mattapan"}, "ChIJc5zK40t944kRmS942jTt9aw": {"geometry": {"location": {"lat": 42.270928, "lng": -71.093248}, "viewport": {"northeast": {"lat": 42.2722792302915, "lng": -71.09205261970848}, "southwest": {"lat": 42.2695812697085, "lng": -71.0947505802915}}}, "icon": "https://maps.gstatic.com/mapfiles/place_api/icons/generic_business-71.png", "id": "9bf386c03128b113da18b32d8adfe0497e21d0df", "name": "Econosurance", "opening_hours": {"open_now": true}, "photos": [{"height": 1672, "html_attributions": ["<a href=\"https://maps.google.com/maps/contrib/100954489492967753416/photos\">Econosurance</a>"], "photo_reference": "CmRaAAAA4wMafUHYV7LLSyvADtI4yQ-UBYb7EZ7CJ0TY81e3QUun-oXtpPTF1LPmQ66cfmgptHnvLFtnTfAAY-qFLdamWeAWeZPjafenaYpVMcpMvBHlH6qNXg26Y7vX3BDjhLv-EhA6dkc1B8xZ4XoiklV0Fv3kGhRWTDBBKVMc1afwleiipivwZTRf5g", "width": 2508}], "place_id": "ChIJc5zK40t944kRmS942jTt9aw", "plus_code": {"compound_code": "7WC4+9P Boston, Massachusetts, United States", "global_code": "87JC7WC4+9P"}, "rating": 5, "reference": "ChIJc5zK40t944kRmS942jTt9aw", "scope": "GOOGLE", "types": ["insurance_agency", "point_of_interest", "establishment"], "user_ratings_total": 2, "vicinity": "2102, 1550 Blue Hill Avenue, Mattapan"}, "ChIJGzE9DS1l44kRoOhiASS_fHg": {"geometry": {"location": {"lat": 42.3600825, "lng": -71.0588801}, "viewport": {"northeast": {"lat": 42.40081989999999, "lng": -70.749455}, "southwest": {"lat": 42.22788, "lng": -71.191113}}}, "icon": "https://maps.gstatic.com/mapfiles/place_api/icons/geocode-71.png", "id": "06755c25d2b34d13942a4713971756a55b870ced", "name": "Boston", "photos": [{"height": 3024, "html_attributions": ["<a href=\"https://maps.google.com/maps/contrib/104670289779338733432/photos\">Natalia Zalucean</a>"], "photo_reference": "CmRaAAAAGXlU7UW2Wxj6IxQNmx0vd5mafoA_UbtWQWn7aaniLZ13DdjVICkfPhWyVWrUJh8bqRB6NIdDyxecamYj4SVSqfaKD44Vm82QVCWTUP9M1oSfwuKNk0htz779cfFZwXOYEhC6X7aQQB5DfwxJZlueL9kCGhRfKr_ZRXy64efckVa51GhvayzUsw", "width": 4032}], "place_id": "ChIJGzE9DS1l44kRoOhiASS_fHg", "reference": "ChIJGzE9DS1l44kRoOhiASS_fHg", "scope": "GOOGLE", "types": ["locality", "political"], "vicinity": "Boston"}}