{"ChIJdUc_Jb5544kRhg0dRHkjpMs": {"geometry": {"location": {"lat": 42.3410938, "lng": -71.1217467}, "viewport": {"northeast": {"lat": 42.3424449802915, "lng": -71.12039701970849}, "southwest": {"lat": 42.3397470197085, "lng": -71.1230949802915}}}, "icon": "https://maps.gstatic.com/mapfiles/place_api/icons/geocode-71.png", "id": "c61ae1126046a4c23b98e41d98025d3e168d209e", "name": "26-14 Webster St", "place_id": "ChIJdUc_Jb5544kRhg0dRHkjpMs", "reference": "ChIJdUc_Jb5544kRhg0dRHkjpMs", "scope": "GOOGLE", "types": ["route"], "vicinity": "Brookline"}, "ChIJSy00L75544kRolRdoln9zWI": {"geometry": {"location": {"lat": 42.3412302, "lng": -71.1214868}, "viewport": {"northeast": {"lat": 42.34258163029151, "lng": -71.1201513197085}, "southwest": {"lat": 42.33988366970851, "lng": -71.1228492802915}}}, "icon": "https://maps.gstatic.com/mapfiles/place_api/icons/generic_business-71.png", "id": "5bc801133068782cfcce9c69ff16a03f524815f2", "name": "Webster Street Parking", "place_id": "ChIJSy00L75544kRolRdoln9zWI", "plus_code": {"compound_code": "8VRH+FC Brookline, Massachusetts, United States", "global_code": "87JC8VRH+FC"}, "reference": "ChIJSy00L75544kRolRdoln9zWI", "scope": "GOOGLE", "types": ["parking", "point_of_interest", "establishment"], "vicinity": "Webster Street, Brookline"}, "ChIJCZW4Jb5544kR9sAkL8bomac": {"geometry": {"location": {"lat": 42.3409032, "lng": -71.12171940000002}, "viewport": {"northeast": {"lat": 42.3423401302915, "lng": -71.1203422197085}, "southwest": {"lat": 42.3396421697085, "lng": -71.12304018029151}}}, "icon": "https://maps.gstatic.com/mapfiles/place_api/icons/generic_business-71.png", "id": "2d62c1b919459b756c7b909ae6158079a3d0c5be", "name": "Boris Maiden Law Office", "place_id": "ChIJCZW4Jb5544kR9sAkL8bomac", "plus_code": {"compound_code": "8VRH+98 Brookline, Massachusetts, United States", "global_code": "87JC8VRH+98"}, "rating": 5, "reference": "ChIJCZW4Jb5544kR9sAkL8bomac", "scope": "GOOGLE", "types": ["lawyer", "point_of_interest", "establishment"], "user_ratings_total": 2, "vicinity": "14 Webster Street, Brookline"}, "ChIJ1Rd2Jr5544kRXYFXlo-KZ64": {"geometry": {"location": {"lat": 42.3408449, "lng": -71.1217813}, "viewport": {"northeast": {"lat": 42.34231458029151, "lng": -71.1203936197085}, "southwest": {"lat": 42.33961661970851, "lng": -71.1230915802915}}}, "icon": "https://maps.gstatic.com/mapfiles/place_api/icons/generic_business-71.png", "id": "bd61df34f7c0b5eb8032ac2b9e925cdf53fe778d", "name": "Boston Smile Center", "opening_hours": {"open_now": true}, "photos": [{"height": 768, "html_attributions": ["<a href=\"https://maps.google.com/maps/contrib/105377110185119641339/photos\">Boston Smile Center</a>"], "photo_reference": "CmRaAAAAs-4ch1DYW7-NHZEY7qn-rsLrFMEsCMN_gCXOJnqJ1meibWX0DwZSJWq8nwnCQ_MIacC13EaVhCeRPW7ymLfa7aFuMEEE5siK4DpTfovALWJyHyJi8yboUBY0Sx64eQbKEhD50uDPZ6Dg1ehf-T_FC9luGhT9YP9mjM8vlA_qam9JO-rRqY_l0Q", "width": 1155}], "place_id": "ChIJ1Rd2Jr5544kRXYFXlo-KZ64", "plus_code": {"compound_code": "8VRH+87 Brookline, Massachusetts, United States", "global_code": "87JC8VRH+87"}, "rating": 4.9, "reference": "ChIJ1Rd2Jr5544kRXYFXlo-KZ64", "scope": "GOOGLE", "types": ["dentist", "health", "point_of_interest", "establishment"], "user_ratings_total": 78, "vicinity": "12 Webster Street, Brookline"}, "ChIJTQwJJb5544kRBLhMQd_3fWE": {"geometry": {"location": {"lat": 42.3409035, "lng": -71.12174310000002}, "viewport": {"northeast": {"lat": 42.3423422802915, "lng": -71.1203653197085}, "southwest": {"lat": 42.3396443197085, "lng": -71.12306328029152}}}, "icon": "https://maps.gstatic.com/mapfiles/place_api/icons/generic_business-71.png", "id": "b7d74986cfcc86b61b8bb3a76b7fa57f841605e3", "name": "Yes We Travel, Inc", "opening_hours": {"open_now": true}, "photos": [{"height": 1365, "html_attributions": ["<a href=\"https://maps.google.com/maps/contrib/106914202872764398354/photos\">Alexander Novikov</a>"], "photo_reference": "CmRaAAAAh4J1o3ZWhDZjRASPBVdk4mSDh7dg5F9XatBB3yekO7L4I7c60l_D7nPj6f1782aTGEOmOwBR4NOO-zxhth7XfwypDDrT4vkIYAI9k7HOoHMnH9_FoxTRT6vW-LN46Z_DEhAPc7V4x8ns936lV7HU631bGhSxmWgP9T0XR-EIaDrqUZuatfXgDg", "width": 2048}], "place_id": "ChIJTQwJJb5544kRBLhMQd_3fWE", "plus_code": {"compound_code": "8VRH+98 Brookline, Massachusetts, United States", "global_code": "87JC8VRH+98"}, "rating": 3.3, "reference": "ChIJTQwJJb5544kRBLhMQd_3fWE", "scope": "GOOGLE", "types": ["travel_agency", "lodging", "point_of_interest", "establishment"], "user_ratings_total": 12, "vicinity": "16 Webster Street, Brookline"}, "ChIJwZkrOr5544kRJcU3QC2LUUk": {"geometry": {"location": {"lat": 42.3409555, "lng": -71.1224312}, "viewport": {"northeast": {"lat": 42.3424287802915, "lng": -71.12101826970849}, "southwest": {"lat": 42.3397308197085, "lng": -71.12371623029149}}}, "icon": "https://maps.gstatic.com/mapfiles/place_api/icons/generic_business-71.png", "id": "78e081113a2c4471e912eab00031142ce063d415", "name": "Christine Fetterer, DPT", "place_id": "ChIJwZkrOr5544kRJcU3QC2LUUk", "plus_code": {"compound_code": "8VRH+92 Brookline, Massachusetts, United States", "global_code": "87JC8VRH+92"}, "reference": "ChIJwZkrOr5544kRJcU3QC2LUUk", "scope": "GOOGLE", "types": ["physiotherapist", "health", "point_of_interest", "establishment"], "vicinity": "30 Webster Street, Brookline"}, "ChIJwZkrOr5544kRB--ZnM0c_XQ": {"geometry": {"location": {"lat": 42.3409555, "lng": -71.1224312}, "viewport": {"northeast": {"lat": 42.3424287802915, "lng": -71.12101826970849}, "southwest": {"lat": 42.3397308197085, "lng": -71.12371623029149}}}, "icon": "https://maps.gstatic.com/mapfiles/place_api/icons/generic_business-71.png", "id": "283248d01ea2af1d7c1e1897e35d95360907616a", "name": "Koryn E. Fienberg, PTA", "place_id": "ChIJwZkrOr5544kRB--ZnM0c_XQ", "plus_code": {"compound_code": "8VRH+92 Brookline, Massachusetts, United States", "global_code": "87JC8VRH+92"}, "reference": "ChIJwZkrOr5544kRB--ZnM0c_XQ", "scope": "GOOGLE", "types": ["physiotherapist", "health", "point_of_interest", "establishment"], "vicinity": "30 Webster Street, Brookline, MA 02446, Brookline"}, "ChIJwZkrOr5544kRHaPbfL5YieY": {"geometry": {"location": {"lat": 42.3409555, "lng": -71.1224312}, "viewport": {"northeast": {"lat": 42.3424287802915, "lng": -71.12101826970849}, "southwest": {"lat": 42.3397308197085, "lng": -71.12371623029149}}}, "icon": "https://maps.gstatic.com/mapfiles/place_api/icons/generic_business-71.png", "id": "b0f97ea1df5863d8844d34a85180c4eb0a75a3c4", "name": "Emilie Codogni, Otrl", "place_id": "ChIJwZkrOr5544kRHaPbfL5YieY", "plus_code": {"compound_code": "8VRH+92 Brookline, Massachusetts, United States", "global_code": "87JC8VRH+92"}, "reference": "ChIJwZkrOr5544kRHaPbfL5YieY", "scope": "GOOGLE", "types": ["health", "point_of_interest", "establishment"], "vicinity": "30 Webster Street, Brookline, MA 02446, Brookline"}, "ChIJwZkrOr5544kRLGGzWRlSTNQ": {"geometry": {"location": {"lat": 42.3409555, "lng": -71.1224312}, "viewport": {"northeast": {"lat": 42.3424287802915, "lng": -71.12101826970849}, "southwest": {"lat": 42.3397308197085, "lng": -71.12371623029149}}}, "icon": "https://maps.gstatic.com/mapfiles/place_api/icons/generic_business-71.png", "id": "c0834dfac9275e983038ac21ad2178d2c776e3f9", "name": "Ronald J. Christopher Jr, OTR", "place_id": "ChIJwZkrOr5544kRLGGzWRlSTNQ", "plus_code": {"compound_code": "8VRH+92 Brookline, Massachusetts, United States", "global_code": "87JC8VRH+92"}, "reference": "ChIJwZkrOr5544kRLGGzWRlSTNQ", "scope": "GOOGLE", "types": ["health", "point_of_interest", "establishment"], "vicinity": "30 Webster Street, Brookline, MA 02446, Brookline"}, "ChIJjehbOr5544kRsloMeSvrHzk": {"geometry": {"location": {"lat": 42.3411103, "lng": -71.12223589999999}, "viewport": {"northeast": {"lat": 42.3424954802915, "lng": -71.1208742197085}, "southwest": {"lat": 42.3397975197085, "lng": -71.1235721802915}}}, "icon": "https://maps.gstatic.com/mapfiles/place_api/icons/generic_business-71.png", "id": "d30aa797cbd40999446b650bef0da28060965fd8", "name": "Melissa Rodier, MS", "place_id": "ChIJjehbOr5544kRsloMeSvrHzk", "plus_code": {"compound_code": "8VRH+C4 Brookline, Massachusetts, United States", "global_code": "87JC8VRH+C4"}, "reference": "ChIJjehbOr5544kRsloMeSvrHzk", "scope": "GOOGLE", "types": ["physiotherapist", "health", "point_of_interest", "establishment"], "vicinity": "30 Webster Street, Brookline"}, "ChIJwZkrOr5544kRiZU0iOqArYo": {"geometry": {"location": {"lat": 42.3409555, "lng": -71.1224312}, "viewport": {"northeast": {"lat": 42.3424287802915, "lng": -71.12101826970849}, "southwest": {"lat": 42.3397308197085, "lng": -71.12371623029149}}}, "icon": "https://maps.gstatic.com/mapfiles/place_api/icons/generic_business-71.png", "id": "7482ac62e6a8c19303c165dcfe9ae4fd102da1aa", "name": "Marybeth A. Cellucci-Ford, MSPT", "place_id": "ChIJwZkrOr5544kRiZU0iOqArYo", "plus_code": {"compound_code": "8VRH+92 Brookline, Massachusetts, United States", "global_code": "87JC8VRH+92"}, "reference": "ChIJwZkrOr5544kRiZU0iOqArYo", "scope": "GOOGLE", "types": ["physiotherapist", "health", "point_of_interest", "establishment"], "vicinity": "30 Webster Street, Brookline"}, "ChIJwZkrOr5544kRMehsxXgBYZo": {"geometry": {"location": {"lat": 42.3409555, "lng": -71.1224312}, "viewport": {"northeast": {"lat": 42.3424287802915, "lng": -71.12101826970849}, "southwest": {"lat": 42.3397308197085, "lng": -71.12371623029149}}}, "icon": "https://maps.gstatic.com/mapfiles/place_api/icons/generic_business-71.png", "id": "9588588f6f72438d6b1a8dd54d0ecbd9bd26ffed", "name": "Luciana Russo, MS", "place_id": "ChIJwZkrOr5544kRMehsxXgBYZo", "plus_code": {"compound_code": "8VRH+92 Brookline, Massachusetts, United States", "global_code": "87JC8VRH+92"}, "reference": "ChIJwZkrOr5544kRMehsxXgBYZo", "scope": "GOOGLE", "types": ["doctor", "health", "point_of_interest", "establishment"], "vicinity": "30 Webster Street, Brookline"}, "ChIJwZkrOr5544kRKbwKl1vM_-A": {"geometry": {"location": {"lat": 42.3409555, "lng": -71.1224312}, "viewport": {"northeast": {"lat": 42.3424287802915, "lng": -71.12101826970849}, "southwest": {"lat": 42.3397308197085, "lng": -71.12371623029149}}}, "icon": "https://maps.gstatic.com/mapfiles/place_api/icons/generic_business-71.png", "id": "752422ba4091116a685ad0fa49110d172f58ca04", "name": "Rosemary Blau, PT", "place_id": "ChIJwZkrOr5544kRKbwKl1vM_-A", "plus_code": {"compound_code": "8VRH+92 Brookline, Massachusetts, United States", "global_code": "87JC8VRH+92"}, "reference": "ChIJwZkrOr5544kRKbwKl1vM_-A", "scope": "GOOGLE", "types": ["physiotherapist", "health", "point_of_interest", "establishment"], "vicinity": "30 Webster Street, Brookline"}, "ChIJjehbOr5544kR8TB5a6q0dzE": {"geometry": {"location": {"lat": 42.3411103, "lng": -71.12223589999999}, "viewport": {"northeast": {"lat": 42.3424954802915, "lng": -71.1208742197085}, "southwest": {"lat": 42.3397975197085, "lng": -71.1235721802915}}}, "icon": "https://maps.gstatic.com/mapfiles/place_api/icons/generic_business-71.png", "id": "75e1a1b1615ee016111e9e52bc2035f38c1d85ef", "name": "Taylor R. Sands, Cota", "place_id": "ChIJjehbOr5544kR8TB5a6q0dzE", "plus_code": {"compound_code": "8VRH+C4 Brookline, Massachusetts, United States", "global_code": "87JC8VRH+C4"}, "reference": "ChIJjehbOr5544kR8TB5a6q0dzE", "scope": "GOOGLE", "types": ["physiotherapist", "health", "point_of_interest", "establishment"], "vicinity": "30 Webster Street, Brookline"}, "ChIJ03U8Jb5544kRDdxQt6-uTU0": {"geometry": {"location": {"lat": 42.3408943, "lng": -71.1216728}, "viewport": {"northeast": {"lat": 42.34233158029149, "lng": -71.12029551970849}, "southwest": {"lat": 42.33963361970849, "lng": -71.1229934802915}}}, "icon": "https://maps.gstatic.com/mapfiles/place_api/icons/generic_business-71.png", "id": "466e9acdac0f00163bcdff74aca2a8751e1f0f87", "name": "Knowledge Foundation Inc", "place_id": "ChIJ03U8Jb5544kRDdxQt6-uTU0", "plus_code": {"compound_code": "8VRH+98 Brookline, Massachusetts, United States", "global_code": "87JC8VRH+98"}, "reference": "ChIJ03U8Jb5544kRDdxQt6-uTU0", "scope": "GOOGLE", "types": ["point_of_interest", "establishment"], "vicinity": "18 Webster Street, Brookline"}, "ChIJgWKdJr5544kRZBreTnCftLQ": {"geometry": {"location": {"lat": 42.3409317, "lng": -71.12145629999999}, "viewport": {"northeast": {"lat": 42.34233398029151, "lng": -71.1200913197085}, "southwest": {"lat": 42.33963601970851, "lng": -71.12278928029151}}}, "icon": "https://maps.gstatic.com/mapfiles/place_api/icons/school-71.png", "id": "9cfebb53871488859e02298c37c66488f740ac8e", "name": "Career in Dental Assisting", "place_id": "ChIJgWKdJr5544kRZBreTnCftLQ", "plus_code": {"compound_code": "8VRH+9C Brookline, Massachusetts, United States", "global_code": "87JC8VRH+9C"}, "reference": "ChIJgWKdJr5544kRZBreTnCftLQ", "scope": "GOOGLE", "types": ["school", "point_of_interest", "establishment"], "vicinity": "12 Webster Street, Brookline"}, "ChIJa_TXOr5544kRSMu5ZMia-to": {"geometry": {"location": {"lat": 42.3409801, "lng": -71.1218988}, "viewport": {"northeast": {"lat": 42.3423961302915, "lng": -71.12052581970849}, "southwest": {"lat": 42.3396981697085, "lng": -71.1232237802915}}}, "icon": "https://maps.gstatic.com/mapfiles/place_api/icons/generic_business-71.png", "id": "629654c875d7d738e0623b378de6d84f19adfcc5", "name": "Webster Place Condominiums", "place_id": "ChIJa_TXOr5544kRSMu5ZMia-to", "plus_code": {"compound_code": "8VRH+96 Brookline, Massachusetts, United States", "global_code": "87JC8VRH+96"}, "reference": "ChIJa_TXOr5544kRSMu5ZMia-to", "scope": "GOOGLE", "types": ["point_of_interest", "establishment"], "vicinity": "20 Webster Street, Brookline"}, "ChIJa_TXOr5544kRIewthCCbcRg": {"geometry": {"location": {"lat": 42.3409801, "lng": -71.1218988}, "viewport": {"northeast": {"lat": 42.3423961302915, "lng": -71.12052581970849}, "southwest": {"lat": 42.3396981697085, "lng": -71.1232237802915}}}, "icon": "https://maps.gstatic.com/mapfiles/place_api/icons/generic_business-71.png", "id": "3fb0d7f71541cda278676bfcdd44aa8034d217fc", "name": "Nadjmi Sassan DDS", "place_id": "ChIJa_TXOr5544kRIewthCCbcRg", "plus_code": {"compound_code": "8VRH+96 Brookline, Massachusetts, United States", "global_code": "87JC8VRH+96"}, "reference": "ChIJa_TXOr5544kRIewthCCbcRg", "scope": "GOOGLE", "types": ["dentist", "health", "point_of_interest", "establishment"], "vicinity": "20 Webster Street, Brookline"}, "ChIJa_TXOr5544kRqe6nyUhB6uw": {"geometry": {"location": {"lat": 42.3409801, "lng": -71.1218988}, "viewport": {"northeast": {"lat": 42.3423961302915, "lng": -71.12052581970849}, "southwest": {"lat": 42.3396981697085, "lng": -71.1232237802915}}}, "icon": "https://maps.gstatic.com/mapfiles/place_api/icons/generic_business-71.png", "id": "74d0889dda905aa5eac8ded087799ef8732f7220", "name": "Erin Fitzgerald, MA", "place_id": "ChIJa_TXOr5544kRqe6nyUhB6uw", "plus_code": {"compound_code": "8VRH+96 Brookline, Massachusetts, United States", "global_code": "87JC8VRH+96"}, "reference": "ChIJa_TXOr5544kRqe6nyUhB6uw", "scope": "GOOGLE", "types": ["doctor", "health", "point_of_interest", "establishment"], "vicinity": "20 Webster Street, Brookline"}, "ChIJhZirQQB544kRB9LbXEfedZQ": {"geometry": {"location": {"lat": 42.33176419999999, "lng": -71.1211635}, "viewport": {"northeast": {"lat": 42.3518109, "lng": -71.1056969}, "southwest": {"lat": 42.29459689999999, "lng": -71.1789959}}}, "icon": "https://maps.gstatic.com/mapfiles/place_api/icons/geocode-71.png", "id": "92986b2d1f69af2f2a7e29d34ced8adfa8573beb", "name": "Brookline", "photos": [{"height": 651, "html_attributions": ["<a href=\"https://maps.google.com/maps/contrib/114772942214832951419/photos\">Michael Ahn</a>"], "photo_reference": "CmRaAAAAaTrq8g_tN9CVVvP3hdeW2HE7V3bJ5qIFgxRu5cEo177o2dpz8WSjIfrZT2a0jHj1qSWDYi188PspEQgxd4B5Y7Uhw5s5CMzYTSVD8F7oOW6O2iNJ3V2m8a7JQkjETgiFEhAswaC9r--ZyRuA3lXNN3LyGhTYQq9eIb0PdET8KD0uoP3UJAh4SA", "width": 1608}], "place_id": "ChIJhZirQQB544kRB9LbXEfedZQ", "reference": "ChIJhZirQQB544kRB9LbXEfedZQ", "scope": "GOOGLE", "types": ["locality", "political"], "vicinity": "Brookline"}, "ChIJwZkrOr5544kR0--BFn9DuBU": {"geometry": {"location": {"lat": 42.340953, "lng": -71.12241999999999}, "viewport": {"northeast": {"lat": 42.3424259802915, "lng": -71.12100721970849}, "southwest": {"lat": 42.3397280197085, "lng": -71.1237051802915}}}, "icon": "https://maps.gstatic.com/mapfiles/place_api/icons/generic_business-71.png", "id": "2a3cbfa852e7e6827142eef59e33239b9ba4a860", "name": "Vernaglia Sara", "place_id": "ChIJwZkrOr5544kR0--BFn9DuBU", "plus_code": {"compound_code": "8VRH+92 Brookline, Massachusetts, United States", "global_code": "87JC8VRH+92"}, "reference": "ChIJwZkrOr5544kR0--BFn9DuBU", "scope": "GOOGLE", "types": ["physiotherapist", "health", "point_of_interest", "establishment"], "vicinity": "30 Webster Street, Brookline"}, "ChIJwZkrOr5544kRkst8YNn_SkI": {"geometry": {"location": {"lat": 42.3409555, "lng": -71.1224312}, "viewport": {"northeast": {"lat": 42.3424287802915, "lng": -71.12101826970849}, "southwest": {"lat": 42.3397308197085, "lng": -71.12371623029149}}}, "icon": "https://maps.gstatic.com/mapfiles/place_api/icons/generic_business-71.png", "id": "d23cc383a864f8b7cfc1de5580430b2fc5c29546", "name": "Donald G. Walker, Cota", "place_id": "ChIJwZkrOr5544kRkst8YNn_SkI", "plus_code": {"compound_code": "8VRH+92 Brookline, Massachusetts, United States", "global_code": "87JC8VRH+92"}, "reference": "ChIJwZkrOr5544kRkst8YNn_SkI", "scope": "GOOGLE", "types": ["health", "point_of_interest", "establishment"], "vicinity": "30 Webster Street, Brookline, MA 02446, Brookline"}}