{"ChIJGWIATmp644kRpeKqW3KJIPM": {"geometry": {"location": {"lat": 42.3373732, "lng": -71.06982409999999}, "viewport": {"northeast": {"lat": 42.33872213029149, "lng": -71.0684751197085}, "southwest": {"lat": 42.3360241697085, "lng": -71.0711730802915}}}, "icon": "https://maps.gstatic.com/mapfiles/place_api/icons/geocode-71.png", "id": "d38fcb24e442fbbe7a7c43fe6dcc1be3e1be7125", "name": "73-109 E Brookline St", "place_id": "ChIJGWIATmp644kRpeKqW3KJIPM", "reference": "ChIJGWIATmp644kRpeKqW3KJIPM", "scope": "GOOGLE", "types": ["route"], "vicinity": "Boston"}, "ChIJ-bPitWt644kRZjakFdnpNHE": {"geometry": {"location": {"lat": 42.33784480000001, "lng": -71.0691384}, "viewport": {"northeast": {"lat": 42.33920543029149, "lng": -71.06777171970849}, "southwest": {"lat": 42.33650746970849, "lng": -71.07046968029151}}}, "icon": "https://maps.gstatic.com/mapfiles/place_api/icons/doctor-71.png", "id": "d72539ad36469a920efe3fc3e3c65846c8984f51", "name": "boston medical center", "place_id": "ChIJ-bPitWt644kRZjakFdnpNHE", "plus_code": {"compound_code": "8WQJ+48 Boston, Massachusetts, United States", "global_code": "87JC8WQJ+48"}, "reference": "ChIJ-bPitWt644kRZjakFdnpNHE", "scope": "GOOGLE", "types": ["hospital", "point_of_interest", "establishment"], "vicinity": "100 East Canton Street, Boston"}, "ChIJd1UtTGp644kR4sJBMIngr5E": {"geometry": {"location": {"lat": 42.3374604, "lng": -71.0696942}, "viewport": {"northeast": {"lat": 42.3387661802915, "lng": -71.06841066970848}, "southwest": {"lat": 42.3360682197085, "lng": -71.0711086302915}}}, "icon": "https://maps.gstatic.com/mapfiles/place_api/icons/generic_business-71.png", "id": "acd74c9646a8cf6a7c5d021fcd353d440b19fde7", "name": "David Gosselin & Associates", "opening_hours": {"open_now": true}, "place_id": "ChIJd1UtTGp644kR4sJBMIngr5E", "plus_code": {"compound_code": "8WPJ+X4 Boston, Massachusetts, United States", "global_code": "87JC8WPJ+X4"}, "reference": "ChIJd1UtTGp644kR4sJBMIngr5E", "scope": "GOOGLE", "types": ["general_contractor", "point_of_interest", "establishment"], "vicinity": "94 East Brookline Street, Boston"}, "ChIJyW8RqWt644kRJTkpsQxCPKQ": {"geometry": {"location": {"lat": 42.33814719999999, "lng": -71.0703293}, "viewport": {"northeast": {"lat": 42.3396472302915, "lng": -71.0687593697085}, "southwest": {"lat": 42.33694926970851, "lng": -71.07145733029151}}}, "icon": "https://maps.gstatic.com/mapfiles/place_api/icons/generic_business-71.png", "id": "bbd4b609987cc538719ea6def2e4ee6145fd8e21", "name": "ABM Parking", "place_id": "ChIJyW8RqWt644kRJTkpsQxCPKQ", "plus_code": {"compound_code": "8WQH+7V Boston, Massachusetts, United States", "global_code": "87JC8WQH+7V"}, "reference": "ChIJyW8RqWt644kRJTkpsQxCPKQ", "scope": "GOOGLE", "types": ["parking", "point_of_interest", "establishment"], "vicinity": "39E East Canton Street, Boston"}, "ChIJlRPQqGt644kRU_Chzrz0htk": {"geometry": {"location": {"lat": 42.338208, "lng": -71.07015849999999}, "viewport": {"northeast": {"lat": 42.33957093029149, "lng": -71.06889446970848}, "southwest": {"lat": 42.33687296970849, "lng": -71.0715924302915}}}, "icon": "https://maps.gstatic.com/mapfiles/place_api/icons/generic_recreational-71.png", "id": "d269d15b2a27784607830d57b7972ba905c34d41", "name": "Harrison Urban Garden", "place_id": "ChIJlRPQqGt644kRU_Chzrz0htk", "reference": "ChIJlRPQqGt644kRU_Chzrz0htk", "scope": "GOOGLE", "types": ["park", "premise", "point_of_interest", "establishment"], "vicinity": "Boston"}, "ChIJGzE9DS1l44kRoOhiASS_fHg": {"geometry": {"location": {"lat": 42.3600825, "lng": -71.0588801}, "viewport": {"northeast": {"lat": 42.40081989999999, "lng": -70.749455}, "southwest": {"lat": 42.22788, "lng": -71.191113}}}, "icon": "https://maps.gstatic.com/mapfiles/place_api/icons/geocode-71.png", "id": "06755c25d2b34d13942a4713971756a55b870ced", "name": "Boston", "photos": [{"height": 3024, "html_attributions": ["<a href=\"https://maps.google.com/maps/contrib/104670289779338733432/photos\">Natalia Zalucean</a>"], "photo_reference": "CmRaAAAAVCBwI6Ji8VGMJYAhDD6bG1CRzQ4-0opoVFhHnabEK0wN5Aev6CVEPJTag1oEPLhya-lBTcbvWdOGCMkU1R4qp114FKKCMLhEQ5JWqFQucN3DC3MVrB62OTdyWO6kIRedEhBlqx1LmMQ5rB7pM9KohAV5GhQfDBnZGorM0KFjjseKTklqi1hzLw", "width": 4032}], "place_id": "ChIJGzE9DS1l44kRoOhiASS_fHg", "reference": "ChIJGzE9DS1l44kRoOhiASS_fHg", "scope": "GOOGLE", "types": ["locality", "political"], "vicinity": "Boston"}}