{"ChIJcYqslpx644kR0vOqpHL5Fd4": {"geometry": {"location": {"lat": 42.34464449999999, "lng": -71.0360452}, "viewport": {"northeast": {"lat": 42.3459934802915, "lng": -71.03469616970848}, "southwest": {"lat": 42.3432955197085, "lng": -71.03739413029149}}}, "icon": "https://maps.gstatic.com/mapfiles/place_api/icons/geocode-71.png", "id": "46c47949dd39ac11908884a46ce706a1ebc5d989", "name": "8 Drydock Ave", "place_id": "ChIJcYqslpx644kR0vOqpHL5Fd4", "reference": "ChIJcYqslpx644kR0vOqpHL5Fd4", "scope": "GOOGLE", "types": ["route"], "vicinity": "Boston"}, "ChIJsfKAvZx644kRnV18dhttJSw": {"geometry": {"location": {"lat": 42.34459129999999, "lng": -71.0364127}, "viewport": {"northeast": {"lat": 42.3459562802915, "lng": -71.0350642697085}, "southwest": {"lat": 42.3432583197085, "lng": -71.0377622302915}}}, "icon": "https://maps.gstatic.com/mapfiles/place_api/icons/generic_business-71.png", "id": "e94ce0a55fe28ecdbc4e0f2684803a7541e30894", "name": "A L Larsen Co", "place_id": "ChIJsfKAvZx644kRnV18dhttJSw", "plus_code": {"compound_code": "8XV7+RC Boston, Massachusetts, United States", "global_code": "87JC8XV7+RC"}, "reference": "ChIJsfKAvZx644kRnV18dhttJSw", "scope": "GOOGLE", "types": ["point_of_interest", "establishment"], "vicinity": "21 Dry Dock Avenue # 7, Boston"}, "ChIJsfKAvZx644kRd0P_e_DRhQs": {"geometry": {"location": {"lat": 42.34459129999999, "lng": -71.0364127}, "viewport": {"northeast": {"lat": 42.3459562802915, "lng": -71.0350642697085}, "southwest": {"lat": 42.3432583197085, "lng": -71.0377622302915}}}, "icon": "https://maps.gstatic.com/mapfiles/place_api/icons/generic_business-71.png", "id": "fbbf74d8ae1a92123f81a2991b40d05c49f8ee6f", "name": "Tribeca Builders", "photos": [{"height": 4128, "html_attributions": ["<a href=\"https://maps.google.com/maps/contrib/117926619306626590955/photos\">David c Mccormack</a>"], "photo_reference": "CmRaAAAAEErrd8ITN5Xcc6wVzViy9WqhkADwGsT1orJOpePP9HkkXk_GoNoTVhAkQC_qq0TEXDjJSQPYQCaVySK56ErTPf5CAUtjYBcSFWmUawSfHYJ4gx11ju9Q_aqKrUynH2qHEhAwL9rDHRdkdrNB6O3wLBztGhRYc-alID-wwWYXuobmoKw62zuGZw", "width": 3096}], "place_id": "ChIJsfKAvZx644kRd0P_e_DRhQs", "plus_code": {"compound_code": "8XV7+RC Boston, Massachusetts, United States", "global_code": "87JC8XV7+RC"}, "reference": "ChIJsfKAvZx644kRd0P_e_DRhQs", "scope": "GOOGLE", "types": ["general_contractor", "point_of_interest", "establishment"], "vicinity": "21 Dry Dock Avenue # 7, Boston"}, "ChIJkyHdlZx644kRRIQ8-dNxEcY": {"geometry": {"location": {"lat": 42.3447437, "lng": -71.0363019}, "viewport": {"northeast": {"lat": 42.34604128029149, "lng": -71.03495116970849}, "southwest": {"lat": 42.34334331970849, "lng": -71.0376491302915}}}, "icon": "https://maps.gstatic.com/mapfiles/place_api/icons/generic_business-71.png", "id": "4b4882b804599766a3a4f95bff7da28fd7e2e490", "name": "Vertex Pharmaceuticals", "place_id": "ChIJkyHdlZx644kRRIQ8-dNxEcY", "plus_code": {"compound_code": "8XV7+VF Boston, Massachusetts, United States", "global_code": "87JC8XV7+VF"}, "reference": "ChIJkyHdlZx644kRRIQ8-dNxEcY", "scope": "GOOGLE", "types": ["health", "point_of_interest", "establishment"], "vicinity": "Dry Dock Avenue, Boston"}, "ChIJX1-rvpx644kRMIZnEzsE0jg": {"geometry": {"location": {"lat": 42.344804, "lng": -71.0366992}, "viewport": {"northeast": {"lat": 42.34617323029151, "lng": -71.0353910197085}, "southwest": {"lat": 42.34347526970851, "lng": -71.0380889802915}}}, "icon": "https://maps.gstatic.com/mapfiles/place_api/icons/generic_business-71.png", "id": "18834800289f1cd11231df670c752ffe28386463", "name": "Shipco Transport Inc", "opening_hours": {"open_now": true}, "place_id": "ChIJX1-rvpx644kRMIZnEzsE0jg", "plus_code": {"compound_code": "8XV7+W8 Boston, Massachusetts, United States", "global_code": "87JC8XV7+W8"}, "rating": 1, "reference": "ChIJX1-rvpx644kRMIZnEzsE0jg", "scope": "GOOGLE", "types": ["point_of_interest", "establishment"], "user_ratings_total": 3, "vicinity": "1 Harbor Street, Boston"}, "ChIJ2UlBvZx644kRgxDJt7-QTBU": {"geometry": {"location": {"lat": 42.3443235, "lng": -71.036057}, "viewport": {"northeast": {"lat": 42.3457548802915, "lng": -71.03471091970849}, "southwest": {"lat": 42.3430569197085, "lng": -71.0374088802915}}}, "icon": "https://maps.gstatic.com/mapfiles/place_api/icons/generic_business-71.png", "id": "377003673217c7d27935a4ae5b9b8d8501ef2d4b", "name": "Identogo", "place_id": "ChIJ2UlBvZx644kRgxDJt7-QTBU", "plus_code": {"compound_code": "8XV7+PH Boston, Massachusetts, United States", "global_code": "87JC8XV7+PH"}, "rating": 4.3, "reference": "ChIJ2UlBvZx644kRgxDJt7-QTBU", "scope": "GOOGLE", "types": ["point_of_interest", "establishment"], "user_ratings_total": 22, "vicinity": "5/11 Dry Dock Avenue, Boston"}, "ChIJe4EWvJx644kRl9U84MDjczc": {"geometry": {"location": {"lat": 42.3447823, "lng": -71.0366722}, "viewport": {"northeast": {"lat": 42.3460571802915, "lng": -71.03532071970848}, "southwest": {"lat": 42.3433592197085, "lng": -71.0380186802915}}}, "icon": "https://maps.gstatic.com/mapfiles/place_api/icons/generic_business-71.png", "id": "7ed22a769d5f7f711527164d4901b46a3e142c95", "name": "Harbor Place", "place_id": "ChIJe4EWvJx644kRl9U84MDjczc", "plus_code": {"compound_code": "8XV7+W8 Boston, Massachusetts, United States", "global_code": "87JC8XV7+W8"}, "reference": "ChIJe4EWvJx644kRl9U84MDjczc", "scope": "GOOGLE", "types": ["point_of_interest", "establishment"], "vicinity": "Dry Dock Avenue, Boston"}, "ChIJnV-rvpx644kRrSU2_L0YWGY": {"geometry": {"location": {"lat": 42.344804, "lng": -71.0366992}, "viewport": {"northeast": {"lat": 42.34617323029151, "lng": -71.0353910197085}, "southwest": {"lat": 42.34347526970851, "lng": -71.0380889802915}}}, "icon": "https://maps.gstatic.com/mapfiles/place_api/icons/generic_business-71.png", "id": "406fd31009576ec735036695c5f238d4fcc8a54a", "name": "Geo Trans International Inc", "place_id": "ChIJnV-rvpx644kRrSU2_L0YWGY", "plus_code": {"compound_code": "8XV7+W8 Boston, Massachusetts, United States", "global_code": "87JC8XV7+W8"}, "reference": "ChIJnV-rvpx644kRrSU2_L0YWGY", "scope": "GOOGLE", "types": ["point_of_interest", "establishment"], "vicinity": "1 Harbor Street, Boston"}, "ChIJb_9XvJx644kRoRvXBuWkGWE": {"geometry": {"location": {"lat": 42.34462049999999, "lng": -71.036637}, "viewport": {"northeast": {"lat": 42.3459520802915, "lng": -71.03528741970848}, "southwest": {"lat": 42.3432541197085, "lng": -71.0379853802915}}}, "icon": "https://maps.gstatic.com/mapfiles/place_api/icons/generic_business-71.png", "id": "604bd9cae0589e5e87791148a6ce407f284c0c77", "name": "Genesis Management Group LLC", "place_id": "ChIJb_9XvJx644kRoRvXBuWkGWE", "plus_code": {"compound_code": "8XV7+R8 Boston, Massachusetts, United States", "global_code": "87JC8XV7+R8"}, "rating": 2.3, "reference": "ChIJb_9XvJx644kRoRvXBuWkGWE", "scope": "GOOGLE", "types": ["real_estate_agency", "point_of_interest", "establishment"], "user_ratings_total": 3, "vicinity": "7 Dry Dock Avenue, Boston"}, "ChIJD7BXlpx644kRgsLlDixn-Js": {"geometry": {"location": {"lat": 42.3443235, "lng": -71.036057}, "viewport": {"northeast": {"lat": 42.3457548802915, "lng": -71.03471091970849}, "southwest": {"lat": 42.3430569197085, "lng": -71.0374088802915}}}, "icon": "https://maps.gstatic.com/mapfiles/place_api/icons/generic_business-71.png", "id": "5cc572bd2360221f56e2b0ac5e3c77936f998dd0", "name": "North Coast Seafoods", "opening_hours": {"open_now": true}, "photos": [{"height": 901, "html_attributions": ["<a href=\"https://maps.google.com/maps/contrib/106691871629772686150/photos\">North Coast Seafoods</a>"], "photo_reference": "CmRaAAAAr4B6crF-gh4E62uIsgBwd1Bsl8ySWiKtT_26y74xFc-HHDkCLJZjrl894l4e3K0dAtN2oqpUpHTrllGnWk2b7bMxSOB6Qwp2ed6uOyIXxGw89kJ2OFGTAEUYAVPricZQEhDT3HJLsVLaKN6JLtUIgwUyGhR29AOMg62mNcH65wMtmQh199xNxg", "width": 2336}], "place_id": "ChIJD7BXlpx644kRgsLlDixn-Js", "plus_code": {"compound_code": "8XV7+PH Boston, Massachusetts, United States", "global_code": "87JC8XV7+PH"}, "rating": 4.4, "reference": "ChIJD7BXlpx644kRgsLlDixn-Js", "scope": "GOOGLE", "types": ["point_of_interest", "food", "establishment"], "user_ratings_total": 29, "vicinity": "5 Dry Dock Avenue, Boston"}, "ChIJGzE9DS1l44kRoOhiASS_fHg": {"geometry": {"location": {"lat": 42.3600825, "lng": -71.0588801}, "viewport": {"northeast": {"lat": 42.40081989999999, "lng": -70.749455}, "southwest": {"lat": 42.22788, "lng": -71.191113}}}, "icon": "https://maps.gstatic.com/mapfiles/place_api/icons/geocode-71.png", "id": "06755c25d2b34d13942a4713971756a55b870ced", "name": "Boston", "photos": [{"height": 3024, "html_attributions": ["<a href=\"https://maps.google.com/maps/contrib/104670289779338733432/photos\">Natalia Zalucean</a>"], "photo_reference": "CmRaAAAAjDrzGhyfqP3j4bVjGBfS-tEgwXT7hrQb-VttiVYWzMoRsS61ZHfBO79Q1K5w983f8OI__NRoxNpNEoQ_k0yr61y0SvA7Ee3xlSJzsYSK0iBF2e0bXzYeUCIU-WZNyq86EhDLTjmsO9X8JQHL2l8nj8C5GhRKO0_MJgOK0Z-vIIZf-F5NwSKTjA", "width": 4032}], "place_id": "ChIJGzE9DS1l44kRoOhiASS_fHg", "reference": "ChIJGzE9DS1l44kRoOhiASS_fHg", "scope": "GOOGLE", "types": ["locality", "political"], "vicinity": "Boston"}}