{"ChIJbytNbexw44kRciOnVIuM9xM": {"geometry": {"location": {"lat": 42.37634629999999, "lng": -71.0667924}, "viewport": {"northeast": {"lat": 42.3776952802915, "lng": -71.0654434697085}, "southwest": {"lat": 42.37499731970851, "lng": -71.0681414302915}}}, "icon": "https://maps.gstatic.com/mapfiles/place_api/icons/geocode-71.png", "id": "dba7be53afe6ee4aa0b3aee90cb560e3cad60dca", "name": "51-99 Lawrence St", "place_id": "ChIJbytNbexw44kRciOnVIuM9xM", "reference": "ChIJbytNbexw44kRciOnVIuM9xM", "scope": "GOOGLE", "types": ["route"], "vicinity": "Boston"}, "ChIJuzWMdexw44kRQu5AN4dNZmQ": {"geometry": {"location": {"lat": 42.3763698, "lng": -71.0677907}, "viewport": {"northeast": {"lat": 42.37786723029149, "lng": -71.0662115197085}, "southwest": {"lat": 42.37516926970849, "lng": -71.06890948029151}}}, "icon": "https://maps.gstatic.com/mapfiles/place_api/icons/cemetery_grave-71.png", "id": "818ce478bc04431eff85e9c610d31c718d761a53", "name": "Phipps Street Burying Ground", "place_id": "ChIJuzWMdexw44kRQu5AN4dNZmQ", "plus_code": {"compound_code": "9WGJ+GV Boston, Massachusetts, United States", "global_code": "87JC9WGJ+GV"}, "rating": 5, "reference": "ChIJuzWMdexw44kRQu5AN4dNZmQ", "scope": "GOOGLE", "types": ["cemetery", "point_of_interest", "establishment"], "user_ratings_total": 2, "vicinity": "Phipps Street, Charlestown"}, "ChIJGzE9DS1l44kRoOhiASS_fHg": {"geometry": {"location": {"lat": 42.3600825, "lng": -71.0588801}, "viewport": {"northeast": {"lat": 42.40081989999999, "lng": -70.749455}, "southwest": {"lat": 42.22788, "lng": -71.191113}}}, "icon": "https://maps.gstatic.com/mapfiles/place_api/icons/geocode-71.png", "id": "06755c25d2b34d13942a4713971756a55b870ced", "name": "Boston", "photos": [{"height": 3024, "html_attributions": ["<a href=\"https://maps.google.com/maps/contrib/104670289779338733432/photos\">Natalia Zalucean</a>"], "photo_reference": "CmRaAAAAXcyTeN4aKIqjQPhlNP-Lhgm1cubnCyi28TLjn1AwKAVYJEfySFtI1siRfMtsbJBL5ch7SHT3HAT7Tm_vcxPDTonqrMWkvXZIwKIY7EdE2JuU1DGuEk-QIurx6TNl0jrxEhBFP09mzgR7u1gHMshJH7CkGhSQy6jzkT8tMpqwh73_vkCHsqB0tg", "width": 4032}], "place_id": "ChIJGzE9DS1l44kRoOhiASS_fHg", "reference": "ChIJGzE9DS1l44kRoOhiASS_fHg", "scope": "GOOGLE", "types": ["locality", "political"], "vicinity": "Boston"}}