{"ChIJv8aNE9d544kRo8k5l-cSs5c": {"geometry": {"location": {"lat": 42.3622896, "lng": -71.1348994}, "viewport": {"northeast": {"lat": 42.3634769302915, "lng": -71.1333699697085}, "southwest": {"lat": 42.3607789697085, "lng": -71.1360679302915}}}, "icon": "https://maps.gstatic.com/mapfiles/place_api/icons/geocode-71.png", "id": "410b41e4024e9edcc04fbfe1e9917eb99b09255c", "name": "1-19 Westford St", "place_id": "ChIJv8aNE9d544kRo8k5l-cSs5c", "reference": "ChIJv8aNE9d544kRo8k5l-cSs5c", "scope": "GOOGLE", "types": ["route"], "vicinity": "Boston"}, "ChIJlWlzldF544kRN-6Tp9chO2k": {"geometry": {"location": {"lat": 42.36295270000001, "lng": -71.1350623}, "viewport": {"northeast": {"lat": 42.36431303029151, "lng": -71.1335877197085}, "southwest": {"lat": 42.36161506970851, "lng": -71.13628568029151}}}, "icon": "https://maps.gstatic.com/mapfiles/place_api/icons/generic_business-71.png", "id": "c4d70ed206475891de2050e76ca225b4d506670c", "name": "AEI Speakers Bureau", "opening_hours": {"open_now": true}, "photos": [{"height": 4019, "html_attributions": ["<a href=\"https://maps.google.com/maps/contrib/100484900194546616337/photos\">AEI Speakers Bureau</a>"], "photo_reference": "CmRaAAAAswHQMiJuoGiQmA3GZvTwBXdGfTVfrCyvijm_7FWa3Efit2jw5GoSTFiGrp84pQD9L1i26wtMfmz2jd9aKNibwelfnWGeYIHmzm1PavgwZnz8Ob5n9sq2V2waye2xGfmYEhBWlKKMcIjKE155lNEBNQGeGhRMjta50UcSPkNtFfWeLUQqXi9dtg", "width": 4016}], "place_id": "ChIJlWlzldF544kRN-6Tp9chO2k", "plus_code": {"compound_code": "9V77+5X Boston, Massachusetts, United States", "global_code": "87JC9V77+5X"}, "rating": 4, "reference": "ChIJlWlzldF544kRN-6Tp9chO2k", "scope": "GOOGLE", "types": ["point_of_interest", "establishment"], "user_ratings_total": 2, "vicinity": "300 Western Avenue Ste 2, Allston"}, "ChIJE_CVmNd544kRfDpSLW21ZC4": {"geometry": {"location": {"lat": 42.3629125, "lng": -71.1346164}, "viewport": {"northeast": {"lat": 42.36427443029149, "lng": -71.13319506970849}, "southwest": {"lat": 42.3615764697085, "lng": -71.1358930302915}}}, "icon": "https://maps.gstatic.com/mapfiles/place_api/icons/generic_business-71.png", "id": "fcd045b4d8b4e3fd5faaa75607d2c7820774f519", "name": "Enterprise Rent-A-Car", "opening_hours": {"open_now": true}, "photos": [{"height": 525, "html_attributions": ["<a href=\"https://maps.google.com/maps/contrib/101214118508224582419/photos\">Enterprise Rent-A-Car</a>"], "photo_reference": "CmRaAAAA_Qdm41BZXTmHfK4RAuE_QQqSCTcgO3g_-JWxGRbz_Z3zBBczht0DoDPpBOJFsr55G0-ORlqHeHrR8ixqqDkLUGTtJ5xJQ_EB7Q5_r83S9mcGMENGNA7oLD6xJneYB8IUEhB6yDEwXOVxZuLt6_lY9k7jGhTpp21xqm5HTeXf-2qNZbSlDvfujA", "width": 700}], "place_id": "ChIJE_CVmNd544kRfDpSLW21ZC4", "plus_code": {"compound_code": "9V78+55 Boston, Massachusetts, United States", "global_code": "87JC9V78+55"}, "rating": 4.6, "reference": "ChIJE_CVmNd544kRfDpSLW21ZC4", "scope": "GOOGLE", "types": ["car_rental", "point_of_interest", "establishment"], "user_ratings_total": 88, "vicinity": "292 Western Avenue, Allston"}, "ChIJi_irB6KC44kRAVg8sK8tEGs": {"geometry": {"location": {"lat": 42.3629317, "lng": -71.13508329999999}, "viewport": {"northeast": {"lat": 42.36419558029149, "lng": -71.13378691970848}, "southwest": {"lat": 42.36149761970849, "lng": -71.1364848802915}}}, "icon": "https://maps.gstatic.com/mapfiles/place_api/icons/generic_business-71.png", "id": "b9023d3e99f3aea003c8d3baec41b170efd228d6", "name": "Ballroom in Boston", "opening_hours": {"open_now": true}, "photos": [{"height": 2988, "html_attributions": ["<a href=\"https://maps.google.com/maps/contrib/110518120536916800885/photos\">Berk USTA</a>"], "photo_reference": "CmRZAAAAOp9wLhXb2Hice9De6J3zNruYXACi-eoZaSTEbiA-5xUJoG282e__fOomxpbSzSCtOKVMliwkr3hudwdrBDMiCXpLMOhUkz25Icr1-g3PFBBuONNgViGtszf1qDPeV40cEhAWCgdPp3kz_PHel2wnJgYLGhRHJbqv_UiMbIekAvDS-tGqHKHlng", "width": 5312}], "place_id": "ChIJi_irB6KC44kRAVg8sK8tEGs", "plus_code": {"compound_code": "9V77+5X Boston, Massachusetts, United States", "global_code": "87JC9V77+5X"}, "rating": 4.7, "reference": "ChIJi_irB6KC44kRAVg8sK8tEGs", "scope": "GOOGLE", "types": ["point_of_interest", "establishment"], "user_ratings_total": 35, "vicinity": "300 Western Avenue, Allston"}, "ChIJ_XbYp9d544kR5_TC9BJLB30": {"geometry": {"location": {"lat": 42.3629083, "lng": -71.1350697}, "viewport": {"northeast": {"lat": 42.3641799802915, "lng": -71.13376851970851}, "southwest": {"lat": 42.3614820197085, "lng": -71.13646648029152}}}, "icon": "https://maps.gstatic.com/mapfiles/place_api/icons/generic_business-71.png", "id": "cc05d1e90baf6a20962c17594147cdc6c261f24d", "name": "Northern Light Productions", "photos": [{"height": 1000, "html_attributions": ["<a href=\"https://maps.google.com/maps/contrib/101151264066704297075/photos\">Northern Light Productions</a>"], "photo_reference": "CmRaAAAARgwe6oudQXGwHuwVk8JscrVVyWhki0GmWvZDtiWSAnB8XuihJEQlEtrtg6-L6KAKPmhxoMDxImmpi3iivQRd4sHJpG3__xZC5o5KXuKNaUhLJQd6VkN7zctME0FgmY9lEhCLnY77Iv37PrL5LLaDm1CnGhSvAym_km-fZvvM9fG68u41oUVyJg", "width": 3000}], "place_id": "ChIJ_XbYp9d544kR5_TC9BJLB30", "plus_code": {"compound_code": "9V77+5X Boston, Massachusetts, United States", "global_code": "87JC9V77+5X"}, "rating": 5, "reference": "ChIJ_XbYp9d544kR5_TC9BJLB30", "scope": "GOOGLE", "types": ["point_of_interest", "establishment"], "user_ratings_total": 1, "vicinity": "300 Western Avenue # 2, Allston"}, "ChIJVSKb3VF444kREGdDKn4z0pA": {"geometry": {"location": {"lat": 42.36290820000001, "lng": -71.1350697}, "viewport": {"northeast": {"lat": 42.3641798802915, "lng": -71.1337684697085}, "southwest": {"lat": 42.36148191970851, "lng": -71.13646643029152}}}, "icon": "https://maps.gstatic.com/mapfiles/place_api/icons/school-71.png", "id": "26eb08eeffde7ab6e645cd961a2d0e8251646249", "name": "Yal-Day-New Day Care Center", "opening_hours": {"open_now": true}, "photos": [{"height": 2000, "html_attributions": ["<a href=\"https://maps.google.com/maps/contrib/113148764710063415537/photos\">Yal-Day-New Day Care Center</a>"], "photo_reference": "CmRaAAAAPzNKk1vrQGhKMf9qXliP7bu22i8H1cUeuunwysjlmjwK4Ngw9ntRLNCFGmdzIh9z8Ut34I4R-xiAoZmPA3r3_fGT6EjQDRIDxFx00nfPa61-vJlzx04LJJoI2U3gO8iDEhDTAdp_oONcQsz-mT-QSi6GGhR2aUmfVZB6H_tb_kZN1oA_R7sNhQ", "width": 3008}], "place_id": "ChIJVSKb3VF444kREGdDKn4z0pA", "plus_code": {"compound_code": "9V77+5X Boston, Massachusetts, United States", "global_code": "87JC9V77+5X"}, "reference": "ChIJVSKb3VF444kREGdDKn4z0pA", "scope": "GOOGLE", "types": ["point_of_interest", "school", "establishment"], "vicinity": "300 Western Avenue, Allston"}, "ChIJcSGOEdd544kRu6_T0iOwzG8": {"geometry": {"location": {"lat": 42.3623193, "lng": -71.1348704}, "viewport": {"northeast": {"lat": 42.3636641302915, "lng": -71.13349826970848}, "southwest": {"lat": 42.3609661697085, "lng": -71.13619623029149}}}, "icon": "https://maps.gstatic.com/mapfiles/place_api/icons/generic_business-71.png", "id": "81fb298ec18e077825fc807ff9d23d94754c87bd", "name": "Real Cleaning \u2013 Boston Area Housecleaning and Maid Service", "place_id": "ChIJcSGOEdd544kRu6_T0iOwzG8", "plus_code": {"compound_code": "9V68+W3 Boston, Massachusetts, United States", "global_code": "87JC9V68+W3"}, "reference": "ChIJcSGOEdd544kRu6_T0iOwzG8", "scope": "GOOGLE", "types": ["point_of_interest", "establishment"], "vicinity": "11 Westford Street, Boston"}, "ChIJ_XbYp9d544kR45WwH1xWyTw": {"geometry": {"location": {"lat": 42.3629317, "lng": -71.13508329999999}, "viewport": {"northeast": {"lat": 42.36419558029149, "lng": -71.13378691970848}, "southwest": {"lat": 42.36149761970849, "lng": -71.1364848802915}}}, "icon": "https://maps.gstatic.com/mapfiles/place_api/icons/generic_business-71.png", "id": "c39368c28826f72e3f6028a9f7c249c61254d9ea", "name": "Backstage PT", "opening_hours": {"open_now": true}, "photos": [{"height": 1536, "html_attributions": ["<a href=\"https://maps.google.com/maps/contrib/104979962688330981966/photos\">Backstage PT</a>"], "photo_reference": "CmRaAAAAPlQafkVT1EwSYbsl0lJnPYz7GYNs3pbMvIBG37-Kg1g4A-usf_mMEqS2aEYmyWjPcq5OGA-UhCGmTPBaQh7kNW51w_WdL09ugmv4u_mrx44EH7X6YO-rpSduBXWjzLkNEhCPiRKk9siPY47yY9va2wWcGhR0tgLCLrineO7dHbXkxF_bGBgMsA", "width": 2048}], "place_id": "ChIJ_XbYp9d544kR45WwH1xWyTw", "plus_code": {"compound_code": "9V77+5X Boston, Massachusetts, United States", "global_code": "87JC9V77+5X"}, "reference": "ChIJ_XbYp9d544kR45WwH1xWyTw", "scope": "GOOGLE", "types": ["health", "point_of_interest", "establishment"], "vicinity": "300 Western Avenue, Allston"}, "ChIJDd6qRi9444kRN1gLLloQEpw": {"geometry": {"location": {"lat": 42.362908, "lng": -71.13507}, "viewport": {"northeast": {"lat": 42.36417983029149, "lng": -71.1337687197085}, "southwest": {"lat": 42.36148186970849, "lng": -71.1364666802915}}}, "icon": "https://maps.gstatic.com/mapfiles/place_api/icons/generic_business-71.png", "id": "f9537034de08fed8a48c0d0620e23f839e32e98a", "name": "Pixmix Video Services", "photos": [{"height": 1944, "html_attributions": ["<a href=\"https://maps.google.com/maps/contrib/113082543905469339623/photos\">Pixmix Video Services</a>"], "photo_reference": "CmRaAAAAMWM2wMCl1b2xqaJHnsdlaTbdLd8yF--u2ofmu5ZeF6m8sgDI2jrRMTylpeLW8h03jk6oK4UXIQp8CK6nVDBuPGZv2waEqJuUqhJpoJnUK5HtScxnSnLuaQKtg-mp2_iJEhCLXtG3vBLusip8W3bV7OtNGhQafplb1R5Dk59i8MXT9OMhU9rhRg", "width": 2592}], "place_id": "ChIJDd6qRi9444kRN1gLLloQEpw", "plus_code": {"compound_code": "9V77+5X Boston, Massachusetts, United States", "global_code": "87JC9V77+5X"}, "rating": 5, "reference": "ChIJDd6qRi9444kRN1gLLloQEpw", "scope": "GOOGLE", "types": ["point_of_interest", "establishment"], "user_ratings_total": 2, "vicinity": "300 Western Avenue, Boston"}, "ChIJNQZZCNd544kRVpx3ixwfnc0": {"geometry": {"location": {"lat": 42.36290820000001, "lng": -71.1350697}, "viewport": {"northeast": {"lat": 42.3641798802915, "lng": -71.1337684697085}, "southwest": {"lat": 42.36148191970851, "lng": -71.13646643029152}}}, "icon": "https://maps.gstatic.com/mapfiles/place_api/icons/school-71.png", "id": "3b4474d4c6a086a02ed0231788f76711f0b5a711", "name": "Yal Day New Daycare", "place_id": "ChIJNQZZCNd544kRVpx3ixwfnc0", "plus_code": {"compound_code": "9V77+5X Boston, Massachusetts, United States", "global_code": "87JC9V77+5X"}, "reference": "ChIJNQZZCNd544kRVpx3ixwfnc0", "scope": "GOOGLE", "types": ["point_of_interest", "establishment"], "vicinity": "296-300 Western Avenue, Boston"}, "ChIJ_XbYp9d544kRF-WEX0S94-A": {"geometry": {"location": {"lat": 42.3629319, "lng": -71.1350573}, "viewport": {"northeast": {"lat": 42.3642860802915, "lng": -71.13358341970849}, "southwest": {"lat": 42.3615881197085, "lng": -71.13628138029149}}}, "icon": "https://maps.gstatic.com/mapfiles/place_api/icons/generic_business-71.png", "id": "ea6892f916948c1409c05c12718096866dd3a232", "name": "Kelly Gaiotti, DPT", "place_id": "ChIJ_XbYp9d544kRF-WEX0S94-A", "plus_code": {"compound_code": "9V77+5X Boston, Massachusetts, United States", "global_code": "87JC9V77+5X"}, "reference": "ChIJ_XbYp9d544kRF-WEX0S94-A", "scope": "GOOGLE", "types": ["physiotherapist", "health", "point_of_interest", "establishment"], "vicinity": "300 Western Avenue, Allston"}, "ChIJ_XbYp9d544kRlqJKzE234gs": {"geometry": {"location": {"lat": 42.3629319, "lng": -71.1350573}, "viewport": {"northeast": {"lat": 42.3642860802915, "lng": -71.13358341970849}, "southwest": {"lat": 42.3615881197085, "lng": -71.13628138029149}}}, "icon": "https://maps.gstatic.com/mapfiles/place_api/icons/generic_business-71.png", "id": "23146003e84f9e6349324b0bc35739a1eabb60a6", "name": "Peter L. Breen Jr, MSPT", "place_id": "ChIJ_XbYp9d544kRlqJKzE234gs", "plus_code": {"compound_code": "9V77+5X Boston, Massachusetts, United States", "global_code": "87JC9V77+5X"}, "reference": "ChIJ_XbYp9d544kRlqJKzE234gs", "scope": "GOOGLE", "types": ["physiotherapist", "health", "point_of_interest", "establishment"], "vicinity": "300 Western Avenue, Allston"}, "ChIJjYgSZ_d544kRcLuSPWlxy-Y": {"geometry": {"location": {"lat": 42.362932, "lng": -71.135057}, "viewport": {"northeast": {"lat": 42.3642861802915, "lng": -71.1335832697085}, "southwest": {"lat": 42.3615882197085, "lng": -71.1362812302915}}}, "icon": "https://maps.gstatic.com/mapfiles/place_api/icons/generic_business-71.png", "id": "07a85251c5c63a4d5e6bc72a59d4efac22ea87b3", "name": "Perfect Eyebrows", "opening_hours": {"open_now": true}, "photos": [{"height": 1152, "html_attributions": ["<a href=\"https://maps.google.com/maps/contrib/110970388642895146283/photos\">Perfect Eyebrows</a>"], "photo_reference": "CmRaAAAA0Zgi6FeyGrziuQXy8OqUZl7Jp3WfiVChpKuD_f1pjZOwLUJcB9HeIduWpIO34Lu5oJHakTw8nE-1aZaqmWIoadyW9Kc87ck_tSBoPzyI2YtGQBPN96KaymCdjJwowUSGEhDG31GDpUaIgSRCA0qnHnm6GhSbHQKi7u3BTtQBO2DsMmg8Ngo9_A", "width": 2048}], "place_id": "ChIJjYgSZ_d544kRcLuSPWlxy-Y", "plus_code": {"compound_code": "9V77+5X Boston, Massachusetts, United States", "global_code": "87JC9V77+5X"}, "rating": 4.9, "reference": "ChIJjYgSZ_d544kRcLuSPWlxy-Y", "scope": "GOOGLE", "types": ["beauty_salon", "hair_care", "spa", "point_of_interest", "establishment"], "user_ratings_total": 12, "vicinity": "300 Western Avenue #4, Boston"}, "ChIJ_XbYp9d544kRfM1IcnSkpHM": {"geometry": {"location": {"lat": 42.3629083, "lng": -71.1350697}, "viewport": {"northeast": {"lat": 42.3641799802915, "lng": -71.13376851970851}, "southwest": {"lat": 42.3614820197085, "lng": -71.13646648029152}}}, "icon": "https://maps.gstatic.com/mapfiles/place_api/icons/bank_dollar-71.png", "id": "8b985082d59d1c00fddacbaeb7e35e8d0958e43d", "name": "Century Bank", "opening_hours": {"open_now": false}, "photos": [{"height": 2268, "html_attributions": ["<a href=\"https://maps.google.com/maps/contrib/117219169851260022012/photos\">KHOGELICOM HUSSEINCOM</a>"], "photo_reference": "CmRaAAAAl47jJkWHNhP4PZchPAgDk6JEGspAymp4mUl0hQrTIDE-edf4iFvSvyQIXoV321TUr4xFhGyaQluFLC0mhCrMkO-hQ3p9rfijKhQKeUAh4HXgzhuobHEO6RXuOoFQgYoxEhD1Gy7GtHCEGcE2r-8Qkn_NGhQ0QIaLVo4ORlXT7XTu2KJf6Tv9bA", "width": 4032}], "place_id": "ChIJ_XbYp9d544kRfM1IcnSkpHM", "plus_code": {"compound_code": "9V77+5X Boston, Massachusetts, United States", "global_code": "87JC9V77+5X"}, "rating": 4, "reference": "ChIJ_XbYp9d544kRfM1IcnSkpHM", "scope": "GOOGLE", "types": ["bank", "atm", "finance", "point_of_interest", "establishment"], "user_ratings_total": 4, "vicinity": "300 Western Avenue, Allston"}, "ChIJCT7Xp9d544kR1zHIywHsy4A": {"geometry": {"location": {"lat": 42.3629317, "lng": -71.13508329999999}, "viewport": {"northeast": {"lat": 42.36419558029149, "lng": -71.13378691970848}, "southwest": {"lat": 42.36149761970849, "lng": -71.1364848802915}}}, "icon": "https://maps.gstatic.com/mapfiles/place_api/icons/atm-71.png", "id": "185044e6da3e6f20c3827676f3f17fbd3ad3c86c", "name": "ATM", "place_id": "ChIJCT7Xp9d544kR1zHIywHsy4A", "plus_code": {"compound_code": "9V77+5X Boston, Massachusetts, United States", "global_code": "87JC9V77+5X"}, "rating": 5, "reference": "ChIJCT7Xp9d544kR1zHIywHsy4A", "scope": "GOOGLE", "types": ["atm", "finance", "point_of_interest", "establishment"], "user_ratings_total": 1, "vicinity": "300 Western Avenue, Allston"}, "ChIJZwxGCNd544kRwx6Ohe2c_eA": {"geometry": {"location": {"lat": 42.36295270000001, "lng": -71.1350623}, "viewport": {"northeast": {"lat": 42.36431303029151, "lng": -71.1335877197085}, "southwest": {"lat": 42.36161506970851, "lng": -71.13628568029151}}}, "icon": "https://maps.gstatic.com/mapfiles/place_api/icons/shopping-71.png", "id": "f3bbb05ef0cf3ab4e04edbf95164725da00c7ce6", "name": "Hearing Health USA", "opening_hours": {"open_now": true}, "place_id": "ChIJZwxGCNd544kRwx6Ohe2c_eA", "plus_code": {"compound_code": "9V77+5X Boston, Massachusetts, United States", "global_code": "87JC9V77+5X"}, "rating": 5, "reference": "ChIJZwxGCNd544kRwx6Ohe2c_eA", "scope": "GOOGLE", "types": ["doctor", "store", "health", "point_of_interest", "establishment"], "user_ratings_total": 2, "vicinity": "300 Western Avenue Suite 3, Allston"}, "ChIJGzE9DS1l44kRoOhiASS_fHg": {"geometry": {"location": {"lat": 42.3600825, "lng": -71.0588801}, "viewport": {"northeast": {"lat": 42.40081989999999, "lng": -70.749455}, "southwest": {"lat": 42.22788, "lng": -71.191113}}}, "icon": "https://maps.gstatic.com/mapfiles/place_api/icons/geocode-71.png", "id": "06755c25d2b34d13942a4713971756a55b870ced", "name": "Boston", "photos": [{"height": 3024, "html_attributions": ["<a href=\"https://maps.google.com/maps/contrib/104670289779338733432/photos\">Natalia Zalucean</a>"], "photo_reference": "CmRaAAAA9TelqF9P2rSbTPOWkwKbb2L-DMnC55dKMuUs7E-ELmW-njlFgQKhqXkkU8GaQYrlIBu0gTtHSrNxuN7NrJkI6ysSgXqK7yig-B1uMM8YpyOgIcdBFmiwoJxTTRApqth7EhDCG2EfQVz79Tcbl0QYdgefGhTH_fWHMkSreLRNy5JjfQNQRBW7TQ", "width": 4032}], "place_id": "ChIJGzE9DS1l44kRoOhiASS_fHg", "reference": "ChIJGzE9DS1l44kRoOhiASS_fHg", "scope": "GOOGLE", "types": ["locality", "political"], "vicinity": "Boston"}}