{"ChIJwXHMuXV644kREBRDq4qK3dQ": {"geometry": {"location": {"lat": 42.3525018, "lng": -71.0692667}, "viewport": {"northeast": {"lat": 42.3538507302915, "lng": -71.0679177697085}, "southwest": {"lat": 42.3511527697085, "lng": -71.07061573029151}}}, "icon": "https://maps.gstatic.com/mapfiles/place_api/icons/geocode-71.png", "id": "69258b69016f1b14f8e9b9c026143e3bf518aa60", "name": "Hadassah Way", "place_id": "ChIJwXHMuXV644kREBRDq4qK3dQ", "reference": "ChIJwXHMuXV644kREBRDq4qK3dQ", "scope": "GOOGLE", "types": ["route"], "vicinity": "Boston"}, "ChIJrePZpHV644kRaupqiZRD-00": {"geometry": {"location": {"lat": 42.3525183, "lng": -71.0690761}, "viewport": {"northeast": {"lat": 42.35376353029149, "lng": -71.0677529197085}, "southwest": {"lat": 42.3510655697085, "lng": -71.07045088029152}}}, "icon": "https://maps.gstatic.com/mapfiles/place_api/icons/generic_business-71.png", "id": "3cd85f33444db5a0e1dca8adc21f07304dcc3f88", "name": "Tadeusz Kosciuszko Statue", "opening_hours": {"open_now": true}, "photos": [{"height": 2992, "html_attributions": ["<a href=\"https://maps.google.com/maps/contrib/112163558251413006250/photos\">Carbo Kuo</a>"], "photo_reference": "CmRaAAAA556ZgtBq1IH-0mlCMJKqUmbichJnlO99yQS44jYK2fsS5QWjDe8tDEG22mwuOf_nfHE_Y98P1yDEE7h0P8i_AIDRti6efWL-PIsGVRwN81JZTahuDZg43dWKh7mcfT3GEhBTJXOh66JZKB-G2vhQ_4cNGhSbmaPj8KAqqu3cZ1_b--gJCOTI0A", "width": 4000}], "place_id": "ChIJrePZpHV644kRaupqiZRD-00", "plus_code": {"compound_code": "9W3J+29 Boston, Massachusetts, United States", "global_code": "87JC9W3J+29"}, "rating": 4.9, "reference": "ChIJrePZpHV644kRaupqiZRD-00", "scope": "GOOGLE", "types": ["point_of_interest", "establishment"], "user_ratings_total": 8, "vicinity": "Boston"}, "ChIJn2amxnV644kRquvLBPsb7sk": {"geometry": {"location": {"lat": 42.3526039, "lng": -71.0688024}, "viewport": {"northeast": {"lat": 42.35384818029149, "lng": -71.06740431970849}, "southwest": {"lat": 42.3511502197085, "lng": -71.0701022802915}}}, "icon": "https://maps.gstatic.com/mapfiles/place_api/icons/generic_business-71.png", "id": "7e189fdfccc5b1c751c208e40e67b8bf29a6c5ee", "name": "Thomas Cass Statue", "opening_hours": {"open_now": true}, "photos": [{"height": 768, "html_attributions": ["<a href=\"https://maps.google.com/maps/contrib/103734572029059605573/photos\">Pat B</a>"], "photo_reference": "CmRaAAAAXzZ6Up7frtZuGbP3t7lQ6usrQRIolWfJPBe9Lt4aHgy6Zf26RwzbRT2ViLT5O-wfeBJMbXoxw856b1Dd19M9L7phQCuukV5xEMnasxiz1W0yAiua0u0MFfXgSVKphjpFEhBg1Fj8W6A194TO5ii4FzNFGhSu-6DM7mRaHDdogafxs-BZuzWxug", "width": 512}], "place_id": "ChIJn2amxnV644kRquvLBPsb7sk", "plus_code": {"compound_code": "9W3J+2F Boston, Massachusetts, United States", "global_code": "87JC9W3J+2F"}, "rating": 4.5, "reference": "ChIJn2amxnV644kRquvLBPsb7sk", "scope": "GOOGLE", "types": ["point_of_interest", "establishment"], "user_ratings_total": 4, "vicinity": "Boston"}, "ChIJa2rYl3V644kRUE_XA5FAH5s": {"geometry": {"location": {"lat": 42.3530964, "lng": -71.069701}, "viewport": {"northeast": {"lat": 42.3544453802915, "lng": -71.06835201970848}, "southwest": {"lat": 42.3517474197085, "lng": -71.0710499802915}}}, "icon": "https://maps.gstatic.com/mapfiles/place_api/icons/generic_business-71.png", "id": "0fd7521875b8ca325462f490ae08c2b64d46ff24", "name": "\u6ce2\u58eb\u987f\u516c\u5171\u82b1\u56ed\u6e56\u5fc3\u4ead", "place_id": "ChIJa2rYl3V644kRUE_XA5FAH5s", "plus_code": {"compound_code": "9W3J+64 Boston, Massachusetts, United States", "global_code": "87JC9W3J+64"}, "rating": 5, "reference": "ChIJa2rYl3V644kRUE_XA5FAH5s", "scope": "GOOGLE", "types": ["point_of_interest", "establishment"], "user_ratings_total": 1, "vicinity": "Boston"}, "ChIJGzE9DS1l44kRoOhiASS_fHg": {"geometry": {"location": {"lat": 42.3600825, "lng": -71.0588801}, "viewport": {"northeast": {"lat": 42.40081989999999, "lng": -70.749455}, "southwest": {"lat": 42.22788, "lng": -71.191113}}}, "icon": "https://maps.gstatic.com/mapfiles/place_api/icons/geocode-71.png", "id": "06755c25d2b34d13942a4713971756a55b870ced", "name": "Boston", "photos": [{"height": 3024, "html_attributions": ["<a href=\"https://maps.google.com/maps/contrib/104670289779338733432/photos\">Natalia Zalucean</a>"], "photo_reference": "CmRaAAAAVjt4F_OF61svSgpKuDZ7_DekSIpRa5yq5jsrIPdMzUREnEO0AdfmwgZLuvlGLHtDE0xbRAwefYtiQJuE5Wg0FZIEYSYty61-AiNAgM9i5wBhsgSnTc6OjKtmnZWRAxDZEhBc20WEFPcGyvqNeZ5RQznUGhQEURpJwzKw29M7rC69cyf8ELeizg", "width": 4032}], "place_id": "ChIJGzE9DS1l44kRoOhiASS_fHg", "reference": "ChIJGzE9DS1l44kRoOhiASS_fHg", "scope": "GOOGLE", "types": ["locality", "political"], "vicinity": "Boston"}}