{"ChIJa5VJ5rp744kR2Z9MumR4Jjg": {"geometry": {"location": {"lat": 42.303817, "lng": -71.0633235}, "viewport": {"northeast": {"lat": 42.3051559302915, "lng": -71.06199966970848}, "southwest": {"lat": 42.3024579697085, "lng": -71.06469763029149}}}, "icon": "https://maps.gstatic.com/mapfiles/place_api/icons/geocode-71.png", "id": "bc1022dc97188a9e03747731c000b53fc7da3fac", "name": "93-97 Mt Ida Rd", "place_id": "ChIJa5VJ5rp744kR2Z9MumR4Jjg", "reference": "ChIJa5VJ5rp744kR2Z9MumR4Jjg", "scope": "GOOGLE", "types": ["route"], "vicinity": "Boston"}, "ChIJr46-psN744kRxcggzJTIigM": {"geometry": {"location": {"lat": 42.3037388, "lng": -71.06326949999999}, "viewport": {"northeast": {"lat": 42.30509808029149, "lng": -71.06188516970849}, "southwest": {"lat": 42.30240011970849, "lng": -71.0645831302915}}}, "icon": "https://maps.gstatic.com/mapfiles/place_api/icons/generic_business-71.png", "id": "a3265a1e77a4704c0cc6a46405dcf1db74e5939f", "name": "Rugby Practice - Ronan", "place_id": "ChIJr46-psN744kRxcggzJTIigM", "plus_code": {"compound_code": "8W3P+FM Boston, Massachusetts, United States", "global_code": "87JC8W3P+FM"}, "reference": "ChIJr46-psN744kRxcggzJTIigM", "scope": "GOOGLE", "types": ["gym", "health", "point_of_interest", "establishment"], "vicinity": "Dorchester"}, "ChIJmfnY3rp744kRsb4kPO7qaow": {"geometry": {"location": {"lat": 42.3033501, "lng": -71.0628358}, "viewport": {"northeast": {"lat": 42.3046713802915, "lng": -71.0615975697085}, "southwest": {"lat": 42.3019734197085, "lng": -71.0642955302915}}}, "icon": "https://maps.gstatic.com/mapfiles/place_api/icons/generic_business-71.png", "id": "2ed146d17c0e8802bb9f42289369ab1cf7aec0da", "name": "gelitha", "place_id": "ChIJmfnY3rp744kRsb4kPO7qaow", "plus_code": {"compound_code": "8W3P+8V Boston, Massachusetts, United States", "global_code": "87JC8W3P+8V"}, "reference": "ChIJmfnY3rp744kRsb4kPO7qaow", "scope": "GOOGLE", "types": ["point_of_interest", "establishment"], "vicinity": "154 Mount Ida Road, Dorchester"}, "ChIJGzE9DS1l44kRoOhiASS_fHg": {"geometry": {"location": {"lat": 42.3600825, "lng": -71.0588801}, "viewport": {"northeast": {"lat": 42.40081989999999, "lng": -70.749455}, "southwest": {"lat": 42.22788, "lng": -71.191113}}}, "icon": "https://maps.gstatic.com/mapfiles/place_api/icons/geocode-71.png", "id": "06755c25d2b34d13942a4713971756a55b870ced", "name": "Boston", "photos": [{"height": 3024, "html_attributions": ["<a href=\"https://maps.google.com/maps/contrib/104670289779338733432/photos\">Natalia Zalucean</a>"], "photo_reference": "CmRaAAAAz5jYnUe6JOjpTQxlGsHVP1TSXyc8O3QpU8xaGigBnjAAq47BX31-ZTma6oW2Ua0rVecPESHlcaJ84oREKE-2uMIe3d6qfQiTfrXWtZ3Wf2HIE1oxK2gE2YQUaBotOg-wEhAT-hKLc4o9fqr3ynXu2eBXGhTvMhDB-jx2IEv1QNZ1bMNWChEeYA", "width": 4032}], "place_id": "ChIJGzE9DS1l44kRoOhiASS_fHg", "reference": "ChIJGzE9DS1l44kRoOhiASS_fHg", "scope": "GOOGLE", "types": ["locality", "political"], "vicinity": "Boston"}}