{"ChIJndeDSOh544kRwr2b3IDdok8": {"geometry": {"location": {"lat": 42.3514639, "lng": -71.11940899999999}, "viewport": {"northeast": {"lat": 42.35281288029149, "lng": -71.11769575}, "southwest": {"lat": 42.3501149197085, "lng": -71.12112235}}}, "icon": "https://maps.gstatic.com/mapfiles/place_api/icons/geocode-71.png", "id": "8d0092681017b008ffbdcf44e9c788e5681c0333", "name": "988-950 Hwy 20", "place_id": "ChIJndeDSOh544kRwr2b3IDdok8", "reference": "ChIJndeDSOh544kRwr2b3IDdok8", "scope": "GOOGLE", "types": ["route"], "vicinity": "Brookline"}, "ChIJZ3xYKOh544kRst9LQiLflgg": {"geometry": {"location": {"lat": 42.3513192, "lng": -71.1205976}, "viewport": {"northeast": {"lat": 42.3528085302915, "lng": -71.11921941970849}, "southwest": {"lat": 42.3501105697085, "lng": -71.12191738029149}}}, "icon": "https://maps.gstatic.com/mapfiles/place_api/icons/generic_business-71.png", "id": "4a31c075164710a11744f2424d3161a46aec2193", "name": "Enterprise Rent-A-Car", "opening_hours": {"open_now": true}, "photos": [{"height": 5312, "html_attributions": ["<a href=\"https://maps.google.com/maps/contrib/118082242918990164441/photos\">Shay Pat</a>"], "photo_reference": "CmRaAAAAiT9p2r19TA75ora73j0R7oKEXIMB2dzDkbQK2u-jvgrf24ZPIkYWwkGixjlTKl_iM_I5fWPUjhrvlphIWVhnXDOtp-tDJQy99xE35or1zTh1KcTXfAkDK8jxiUXwcYyNEhB3cNkqgtCvhYep0dJ68d6TGhSeFLT9yrTx0rFLnlmyaOniMwLN1A", "width": 2988}], "place_id": "ChIJZ3xYKOh544kRst9LQiLflgg", "plus_code": {"compound_code": "9V2H+GQ Brookline, Massachusetts, United States", "global_code": "87JC9V2H+GQ"}, "rating": 4.5, "reference": "ChIJZ3xYKOh544kRst9LQiLflgg", "scope": "GOOGLE", "types": ["car_rental", "point_of_interest", "establishment"], "user_ratings_total": 163, "vicinity": "996 Commonwealth Avenue, Boston"}, "ChIJ5VQra_B544kRNkT07xOdn2A": {"geometry": {"location": {"lat": 42.35136799999999, "lng": -71.120992}, "viewport": {"northeast": {"lat": 42.3528553302915, "lng": -71.1196129197085}, "southwest": {"lat": 42.3501573697085, "lng": -71.12231088029151}}}, "icon": "https://maps.gstatic.com/mapfiles/place_api/icons/school-71.png", "id": "79246f1d7b0c4afa3c59f2340821c1322c1473b7", "name": "Boston University Metropolitan College", "opening_hours": {"open_now": true}, "photos": [{"height": 259, "html_attributions": ["<a href=\"https://maps.google.com/maps/contrib/115194677810969387240/photos\">Boston University Metropolitan College</a>"], "photo_reference": "CmRaAAAAgUl771TtPaGj7NVKv1W7rC2OqY0LDncy829lR4pwWVuCe5wJioMfkGqBj81UAJjR4kF8pob2N0IeCcvX9P6JV8hKDMqL4B-Jx3BrmghaRuMMAFLiVIVdFAPbJxXfSntUEhBeKpKMlX9PFau2TvmXhetQGhQCG6OQAW8AsVBvEuYjPSQsqLxarw", "width": 259}], "place_id": "ChIJ5VQra_B544kRNkT07xOdn2A", "plus_code": {"compound_code": "9V2H+GJ Brookline, Massachusetts, United States", "global_code": "87JC9V2H+GJ"}, "rating": 4.6, "reference": "ChIJ5VQra_B544kRNkT07xOdn2A", "scope": "GOOGLE", "types": ["university", "point_of_interest", "establishment"], "user_ratings_total": 8, "vicinity": "1010 Commonwealth Avenue, Boston"}, "ChIJvfV-Reh544kRkGhvElyxaow": {"geometry": {"location": {"lat": 42.3512129, "lng": -71.1198971}, "viewport": {"northeast": {"lat": 42.3527131302915, "lng": -71.1185142197085}, "southwest": {"lat": 42.35001516970851, "lng": -71.12121218029151}}}, "icon": "https://maps.gstatic.com/mapfiles/place_api/icons/shopping-71.png", "id": "0b166a3ff7c6dcae3010f2ab66a56783c838af1a", "name": "Firestone Complete Auto Care", "opening_hours": {"open_now": true}, "photos": [{"height": 3024, "html_attributions": ["<a href=\"https://maps.google.com/maps/contrib/114124617657018940900/photos\">gerard mclean</a>"], "photo_reference": "CmRaAAAA5Cd7JUWFC-bayb4ZUMpvn3g2qUti7JYbuXAuFSJhFYPeT6lu2lDb8eVeiQUjHr_mOOQUEABGqfwIU5OdbKDAty-NLncXzPuvKVSamcVPIgVVw9wB7REn5Nl2RsN7ZLghEhDNCAtH0A9PYJ1avx2CwQ1qGhQllBXSUpGMwOYwPJI_egZq9fIj4g", "width": 5376}], "place_id": "ChIJvfV-Reh544kRkGhvElyxaow", "plus_code": {"compound_code": "9V2J+F2 Brookline, Massachusetts, United States", "global_code": "87JC9V2J+F2"}, "rating": 3.7, "reference": "ChIJvfV-Reh544kRkGhvElyxaow", "scope": "GOOGLE", "types": ["car_repair", "store", "point_of_interest", "establishment"], "user_ratings_total": 113, "vicinity": "972 Commonwealth Avenue, Boston"}, "ChIJ8RGa0ul544kR0pWBQVISFoY": {"geometry": {"location": {"lat": 42.350938, "lng": -71.120328}, "viewport": {"northeast": {"lat": 42.35229123029149, "lng": -71.1190137697085}, "southwest": {"lat": 42.34959326970849, "lng": -71.12171173029151}}}, "icon": "https://maps.gstatic.com/mapfiles/place_api/icons/generic_business-71.png", "id": "e3724c47b764c703fccef7e6ef37d5263ceae6cc", "name": "Mosaic Eye Publishing", "photos": [{"height": 433, "html_attributions": ["<a href=\"https://maps.google.com/maps/contrib/115916038057675328142/photos\">Mosaic Eye Publishing</a>"], "photo_reference": "CmRaAAAArE87b4Ty18FwoWejih_R7oQbI42CJ0Mj7LwnPlFHSSlIgDSRJ1GfOnHQEVJRbVtlf6guyjM29szc0hTsEfGz-mtxzq0eKkS5pqdp07eJi999IOgv2QedbMC9xW0lm-sYEhB1zB6jV430wqy-hQWbZmBVGhRCI8xWhfPCOBV34P5ArEDey32UaQ", "width": 432}], "place_id": "ChIJ8RGa0ul544kR0pWBQVISFoY", "plus_code": {"compound_code": "9V2H+9V Brookline, Massachusetts, United States", "global_code": "87JC9V2H+9V"}, "reference": "ChIJ8RGa0ul544kR0pWBQVISFoY", "scope": "GOOGLE", "types": ["point_of_interest", "establishment"], "vicinity": "16 Crowninshield Road, Brookline"}, "ChIJNWQIOuh544kR2IJc1-0D-4M": {"geometry": {"location": {"lat": 42.3512074, "lng": -71.1197444}, "viewport": {"northeast": {"lat": 42.3527011802915, "lng": -71.1183629697085}, "southwest": {"lat": 42.3500032197085, "lng": -71.1210609302915}}}, "icon": "https://maps.gstatic.com/mapfiles/place_api/icons/shopping-71.png", "id": "dd0b4ed482237a741976f7f0ba2ce1f37fc128dd", "name": "Bridgestone", "place_id": "ChIJNWQIOuh544kR2IJc1-0D-4M", "plus_code": {"compound_code": "9V2J+F4 Brookline, Massachusetts, United States", "global_code": "87JC9V2J+F4"}, "rating": 1, "reference": "ChIJNWQIOuh544kR2IJc1-0D-4M", "scope": "GOOGLE", "types": ["car_repair", "store", "point_of_interest", "establishment"], "user_ratings_total": 1, "vicinity": "972 Commonwealth Avenue, Boston"}, "ChIJA54azel544kRauFu6mRuvuE": {"geometry": {"location": {"lat": 42.350905, "lng": -71.120203}, "viewport": {"northeast": {"lat": 42.35226653029149, "lng": -71.1189568697085}, "southwest": {"lat": 42.3495685697085, "lng": -71.12165483029152}}}, "icon": "https://maps.gstatic.com/mapfiles/place_api/icons/generic_business-71.png", "id": "7bcb4cf195c0135e4782b129abbd20f104f121f7", "name": "Garnet Solutions", "opening_hours": {"open_now": true}, "place_id": "ChIJA54azel544kRauFu6mRuvuE", "plus_code": {"compound_code": "9V2H+9W Brookline, Massachusetts, United States", "global_code": "87JC9V2H+9W"}, "reference": "ChIJA54azel544kRauFu6mRuvuE", "scope": "GOOGLE", "types": ["point_of_interest", "establishment"], "vicinity": "16 Crowninshield Road, Brookline"}, "ChIJSUBPoe9544kRP-sW_HhHQtY": {"geometry": {"location": {"lat": 42.3513678, "lng": -71.1209922}, "viewport": {"northeast": {"lat": 42.3528552302915, "lng": -71.11961311970849}, "southwest": {"lat": 42.3501572697085, "lng": -71.12231108029151}}}, "icon": "https://maps.gstatic.com/mapfiles/place_api/icons/school-71.png", "id": "48d8f39a6a72b9922655790fc4f80dedf65e84e1", "name": "Boston University Metropolitan College", "opening_hours": {"open_now": true}, "photos": [{"height": 904, "html_attributions": ["<a href=\"https://maps.google.com/maps/contrib/118329638286065568788/photos\">e Bay</a>"], "photo_reference": "CmRaAAAA2JkQy8vCYT__AwbTR9V8XH8zO6QDlsqYuXMLs0MzIXmxaOT_vJKd5J2RTh9-s-kHPpha-Pj7ji6rmXLm6EL4Zg6IYcuNxi_2cxhxvB90MM1SYA-tpfVATkaXY7SNyhSKEhAYCxUlJ_DkIfO4nEJ2cvZsGhQ6Pe2GO4l3PieqcewLTUisv0aQtQ", "width": 1919}], "place_id": "ChIJSUBPoe9544kRP-sW_HhHQtY", "plus_code": {"compound_code": "9V2H+GJ Brookline, Massachusetts, United States", "global_code": "87JC9V2H+GJ"}, "rating": 5, "reference": "ChIJSUBPoe9544kRP-sW_HhHQtY", "scope": "GOOGLE", "types": ["point_of_interest", "establishment"], "user_ratings_total": 1, "vicinity": "1010 Commonwealth Avenue, Boston"}, "ChIJL8QUwYF544kRREF2iO3tjuc": {"geometry": {"location": {"lat": 42.3513678, "lng": -71.1209922}, "viewport": {"northeast": {"lat": 42.3528552302915, "lng": -71.11961311970849}, "southwest": {"lat": 42.3501572697085, "lng": -71.12231108029151}}}, "icon": "https://maps.gstatic.com/mapfiles/place_api/icons/school-71.png", "id": "984670416b98d9d9371a14eeb8576ee05da3d065", "name": "Boston University Metropolitan College", "photos": [{"height": 2268, "html_attributions": ["<a href=\"https://maps.google.com/maps/contrib/113684668760615028941/photos\">Jeff Behn</a>"], "photo_reference": "CmRaAAAAe5DtnbfonkelyOEnfObmMBkBJP6HObnM6AkrdG8F9BBT3gBl2-yVqwJdFC9H4Wqx1hCrsJuQxOSEyt-cikOCb-8beKZvE8SUAr1Qc66v6q8ueFnOhxza9eo_X6UTmHvTEhD7z6FzTtiXtgqb5DGjU_tOGhQKif5fsOHoPi_6GqVVt49VFNDnDg", "width": 4032}], "place_id": "ChIJL8QUwYF544kRREF2iO3tjuc", "plus_code": {"compound_code": "9V2H+GJ Brookline, Massachusetts, United States", "global_code": "87JC9V2H+GJ"}, "reference": "ChIJL8QUwYF544kRREF2iO3tjuc", "scope": "GOOGLE", "types": ["point_of_interest", "establishment"], "vicinity": "1010 Commonwealth Avenue, Boston"}, "ChIJGzE9DS1l44kRoOhiASS_fHg": {"geometry": {"location": {"lat": 42.3600825, "lng": -71.0588801}, "viewport": {"northeast": {"lat": 42.40081989999999, "lng": -70.749455}, "southwest": {"lat": 42.22788, "lng": -71.191113}}}, "icon": "https://maps.gstatic.com/mapfiles/place_api/icons/geocode-71.png", "id": "06755c25d2b34d13942a4713971756a55b870ced", "name": "Boston", "photos": [{"height": 3024, "html_attributions": ["<a href=\"https://maps.google.com/maps/contrib/104670289779338733432/photos\">Natalia Zalucean</a>"], "photo_reference": "CmRaAAAA4iC76rL1iQNkRA4YQedXUdqcMoYvtMmiwSgLxCkbp9J4G3V0ghXecQYR_NmIvrU0sdAYbTcgBReHd6LAqJzekB7jIk0DwMN8C-VS5NW-tnTSxfbphgGMligiF037L6XkEhBwuPZLVwGb8mde1pNtQ0uoGhQWrBCK30IKYdxz5NaS8xXZ51U9-A", "width": 4032}], "place_id": "ChIJGzE9DS1l44kRoOhiASS_fHg", "reference": "ChIJGzE9DS1l44kRoOhiASS_fHg", "scope": "GOOGLE", "types": ["locality", "political"], "vicinity": "Boston"}}