{"ChIJWVfQNXx544kRz2tx176jieM": {"geometry": {"location": {"lat": 42.3156952, "lng": -71.1006484}, "viewport": {"northeast": {"lat": 42.3170530802915, "lng": -71.09927446970849}, "southwest": {"lat": 42.3143551197085, "lng": -71.1019724302915}}}, "icon": "https://maps.gstatic.com/mapfiles/place_api/icons/geocode-71.png", "id": "ad1b92eb71ffe8b4fb7ee9b8a680267e3c07f34d", "name": "140-112 School St", "place_id": "ChIJWVfQNXx544kRz2tx176jieM", "reference": "ChIJWVfQNXx544kRz2tx176jieM", "scope": "GOOGLE", "types": ["route"], "vicinity": "Boston"}, "ChIJA-POyn1544kRZ-uCfZOBqdU": {"geometry": {"location": {"lat": 42.315622, "lng": -71.10025399999999}, "viewport": {"northeast": {"lat": 42.3169129302915, "lng": -71.09903836970848}, "southwest": {"lat": 42.3142149697085, "lng": -71.10173633029149}}}, "icon": "https://maps.gstatic.com/mapfiles/place_api/icons/generic_business-71.png", "id": "36ec3cbc8573dd080f564eb89dba051cf821b69a", "name": "Berkana Institute", "place_id": "ChIJA-POyn1544kRZ-uCfZOBqdU", "plus_code": {"compound_code": "8V8X+6V Boston, Massachusetts, United States", "global_code": "87JC8V8X+6V"}, "rating": 5, "reference": "ChIJA-POyn1544kRZ-uCfZOBqdU", "scope": "GOOGLE", "types": ["point_of_interest", "establishment"], "user_ratings_total": 1, "vicinity": "125 School Street # 1, Roxbury"}, "ChIJGzE9DS1l44kRoOhiASS_fHg": {"geometry": {"location": {"lat": 42.3600825, "lng": -71.0588801}, "viewport": {"northeast": {"lat": 42.40081989999999, "lng": -70.749455}, "southwest": {"lat": 42.22788, "lng": -71.191113}}}, "icon": "https://maps.gstatic.com/mapfiles/place_api/icons/geocode-71.png", "id": "06755c25d2b34d13942a4713971756a55b870ced", "name": "Boston", "photos": [{"height": 3024, "html_attributions": ["<a href=\"https://maps.google.com/maps/contrib/104670289779338733432/photos\">Natalia Zalucean</a>"], "photo_reference": "CmRaAAAA_7y-VlFYGyKBD8B_ySJjM0JFMr5bsHeQLZoeEI_eyZwMtxX2mpyLYCS6U9xllx0TBvkAKTPvZnP4BbHMBmhs1JhMN9e_vLYfJbfG4rkHhOeThphFfRyNCD5barg1hMijEhBg7Cw9li96Xyajr8Rp8syrGhSjluS5fCAUMQxZDu2I7fxDPaV14w", "width": 4032}], "place_id": "ChIJGzE9DS1l44kRoOhiASS_fHg", "reference": "ChIJGzE9DS1l44kRoOhiASS_fHg", "scope": "GOOGLE", "types": ["locality", "political"], "vicinity": "Boston"}}