{"ChIJjZMoc1F644kRufDlwu7HWzg": {"geometry": {"location": {"lat": 42.32016489999999, "lng": -71.0581314}, "viewport": {"northeast": {"lat": 42.32153733029151, "lng": -71.05679311970849}, "southwest": {"lat": 42.31883936970851, "lng": -71.05949108029151}}}, "icon": "https://maps.gstatic.com/mapfiles/place_api/icons/geocode-71.png", "id": "031573486d256b00969e5604a63589df5314cac1", "name": "771-787 Columbia Rd", "place_id": "ChIJjZMoc1F644kRufDlwu7HWzg", "reference": "ChIJjZMoc1F644kRufDlwu7HWzg", "scope": "GOOGLE", "types": ["route"], "vicinity": "Boston"}, "ChIJA3mOcVF644kRpROcbzGtqNg": {"geometry": {"location": {"lat": 42.31988399999999, "lng": -71.058065}, "viewport": {"northeast": {"lat": 42.3213666802915, "lng": -71.0567764197085}, "southwest": {"lat": 42.3186687197085, "lng": -71.0594743802915}}}, "icon": "https://maps.gstatic.com/mapfiles/place_api/icons/generic_business-71.png", "id": "82f5f47456b14cec4d16836584078c2c79d69324", "name": "ERP Associates Inc", "place_id": "ChIJA3mOcVF644kRpROcbzGtqNg", "plus_code": {"compound_code": "8W9R+XQ Boston, Massachusetts, United States", "global_code": "87JC8W9R+XQ"}, "reference": "ChIJA3mOcVF644kRpROcbzGtqNg", "scope": "GOOGLE", "types": ["point_of_interest", "establishment"], "vicinity": "779 Columbia Road #2, Dorchester"}, "ChIJA3mOcVF644kR3K6rCoefuUo": {"geometry": {"location": {"lat": 42.31988399999999, "lng": -71.058065}, "viewport": {"northeast": {"lat": 42.3213666802915, "lng": -71.0567764197085}, "southwest": {"lat": 42.3186687197085, "lng": -71.0594743802915}}}, "icon": "https://maps.gstatic.com/mapfiles/place_api/icons/generic_business-71.png", "id": "40757219375bb4e0ce45e19200f302d30a6ce06c", "name": "Itconsulting", "place_id": "ChIJA3mOcVF644kR3K6rCoefuUo", "plus_code": {"compound_code": "8W9R+XQ Boston, Massachusetts, United States", "global_code": "87JC8W9R+XQ"}, "reference": "ChIJA3mOcVF644kR3K6rCoefuUo", "scope": "GOOGLE", "types": ["point_of_interest", "establishment"], "vicinity": "779 Columbia Road, Dorchester"}, "ChIJyRp0fFF644kRVdK7tGeJXYI": {"geometry": {"location": {"lat": 42.3192726, "lng": -71.05822669999999}, "viewport": {"northeast": {"lat": 42.3206761302915, "lng": -71.0568570697085}, "southwest": {"lat": 42.3179781697085, "lng": -71.05955503029152}}}, "icon": "https://maps.gstatic.com/mapfiles/place_api/icons/generic_recreational-71.png", "id": "cfb68ce82ac3a61f87e3b13cd23f92935ca7104f", "name": "Mullen Square", "place_id": "ChIJyRp0fFF644kRVdK7tGeJXYI", "reference": "ChIJyRp0fFF644kRVdK7tGeJXYI", "scope": "GOOGLE", "types": ["park", "premise", "point_of_interest", "establishment"], "vicinity": "Boston"}, "ChIJGzE9DS1l44kRoOhiASS_fHg": {"geometry": {"location": {"lat": 42.3600825, "lng": -71.0588801}, "viewport": {"northeast": {"lat": 42.40081989999999, "lng": -70.749455}, "southwest": {"lat": 42.22788, "lng": -71.191113}}}, "icon": "https://maps.gstatic.com/mapfiles/place_api/icons/geocode-71.png", "id": "06755c25d2b34d13942a4713971756a55b870ced", "name": "Boston", "photos": [{"height": 3024, "html_attributions": ["<a href=\"https://maps.google.com/maps/contrib/104670289779338733432/photos\">Natalia Zalucean</a>"], "photo_reference": "CmRaAAAAyoAd8a9lsAfqMNEoRS24JmJ6RXdLzhyhea6tUFOVtD_Hp4dTtR3w2cdDtLXMwc4IrJaz8E-_awOMDPA9UTqySayBJFv_rCJzScgDo1nMPrja37h2iWlOwfRDFMCLU7BAEhB7JMjZlXttAM_C0Mc-fll8GhSkueunb2o0ncSSzFMKRzILRgeUrQ", "width": 4032}], "place_id": "ChIJGzE9DS1l44kRoOhiASS_fHg", "reference": "ChIJGzE9DS1l44kRoOhiASS_fHg", "scope": "GOOGLE", "types": ["locality", "political"], "vicinity": "Boston"}}