{"ChIJ9ZcLmJ9w44kR4rghpMFGFZg": {"geometry": {"location": {"lat": 42.3565324, "lng": -71.0720805}, "viewport": {"northeast": {"lat": 42.3578793802915, "lng": -71.07073071970851}, "southwest": {"lat": 42.3551814197085, "lng": -71.07342868029151}}}, "icon": "https://maps.gstatic.com/mapfiles/place_api/icons/geocode-71.png", "id": "4d1f924ebdc53ec34da48f9ec570fbe40b9b7917", "name": "91-105 Chestnut St", "place_id": "ChIJ9ZcLmJ9w44kR4rghpMFGFZg", "reference": "ChIJ9ZcLmJ9w44kR4rghpMFGFZg", "scope": "GOOGLE", "types": ["route"], "vicinity": "Boston"}, "ChIJw2o1u59w44kR1FOonG2PMrc": {"geometry": {"location": {"lat": 42.3564719, "lng": -71.0718037}, "viewport": {"northeast": {"lat": 42.3578405302915, "lng": -71.0703677197085}, "southwest": {"lat": 42.3551425697085, "lng": -71.07306568029152}}}, "icon": "https://maps.gstatic.com/mapfiles/place_api/icons/school-71.png", "id": "331693a27e20415f17a4fd0688febefc79a60447", "name": "Park Street School", "photos": [{"height": 3036, "html_attributions": ["<a href=\"https://maps.google.com/maps/contrib/116236843875675753106/photos\">gauthier mzr</a>"], "photo_reference": "CmRaAAAA-UcrIGPJC6N2X6qgYyLS4klrD4cJIH14zFSUNfACSAJC-cu0mvLt4JWmR8pFDffW3a5LUmJx5ACbmHNqurt7u6001dPdHV-M9AEMLPdxVVfOHvyF5lBQBd3-0qpg5U8_EhBpZmD0oDM6M7XiBGANa6xmGhShYRUoNpRfOVTGG71xRI-5roeWyw", "width": 4048}], "place_id": "ChIJw2o1u59w44kR1FOonG2PMrc", "plus_code": {"compound_code": "9W4H+H7 Boston, Massachusetts, United States", "global_code": "87JC9W4H+H7"}, "rating": 5, "reference": "ChIJw2o1u59w44kR1FOonG2PMrc", "scope": "GOOGLE", "types": ["school", "point_of_interest", "establishment"], "user_ratings_total": 4, "vicinity": "67 Brimmer Street, Boston"}, "ChIJsdxQ_Z5w44kRKxqZB5nNlww": {"geometry": {"location": {"lat": 42.3570549, "lng": -71.0717137}, "viewport": {"northeast": {"lat": 42.3584270302915, "lng": -71.07037411970849}, "southwest": {"lat": 42.3557290697085, "lng": -71.07307208029151}}}, "icon": "https://maps.gstatic.com/mapfiles/place_api/icons/generic_business-71.png", "id": "502c87fce9592445bc3a17fde970f5419de4d8af", "name": "Millicent Harvey Photography", "place_id": "ChIJsdxQ_Z5w44kRKxqZB5nNlww", "plus_code": {"compound_code": "9W4H+R8 Boston, Massachusetts, United States", "global_code": "87JC9W4H+R8"}, "reference": "ChIJsdxQ_Z5w44kRKxqZB5nNlww", "scope": "GOOGLE", "types": ["point_of_interest", "establishment"], "vicinity": "44 Lime Street, Boston"}, "ChIJP42Io59w44kR2qPG1_t2_jg": {"geometry": {"location": {"lat": 42.3564464, "lng": -71.071737}, "viewport": {"northeast": {"lat": 42.35787043029149, "lng": -71.0704161697085}, "southwest": {"lat": 42.35517246970849, "lng": -71.0731141302915}}}, "icon": "https://maps.gstatic.com/mapfiles/place_api/icons/generic_business-71.png", "id": "8caf43e572a1b2d6f67085139ec288241b68e463", "name": "Indoor-Restore Environmental Services", "opening_hours": {"open_now": true}, "photos": [{"height": 800, "html_attributions": ["<a href=\"https://maps.google.com/maps/contrib/104161879300523181272/photos\">Indoor-Restore Environmental Services</a>"], "photo_reference": "CmRaAAAANjM0fS2kmQLAXPDwfzqjAjMs2H5GIUQM_n3I1xVe3I_GQKU52jKuUCWUc69R7Fn5Dp5F6ccfnCa6FPVYkIqo_lwxfViKn4xmfQn1tRUBqbsqy0iNd5_boNFEB72rn9z3EhCUDaGhkKAPiDjRalkPIaF6GhSrcZihubZRYXbk2_mS6tfZEoT5FA", "width": 1067}], "place_id": "ChIJP42Io59w44kR2qPG1_t2_jg", "plus_code": {"compound_code": "9W4H+H8 Boston, Massachusetts, United States", "global_code": "87JC9W4H+H8"}, "reference": "ChIJP42Io59w44kR2qPG1_t2_jg", "scope": "GOOGLE", "types": ["general_contractor", "point_of_interest", "establishment"], "vicinity": "110 Chestnut Street #112, Boston"}, "ChIJq6rep59w44kRgxwp5JYRjVw": {"geometry": {"location": {"lat": 42.356783, "lng": -71.0712973}, "viewport": {"northeast": {"lat": 42.35809348029149, "lng": -71.0699328197085}, "southwest": {"lat": 42.35539551970849, "lng": -71.0726307802915}}}, "icon": "https://maps.gstatic.com/mapfiles/place_api/icons/generic_business-71.png", "id": "cabb2df526b6b9f6d05ec8b03e6b3e6c1484c423", "name": "Soft10", "place_id": "ChIJq6rep59w44kRgxwp5JYRjVw", "plus_code": {"compound_code": "9W4H+PF Boston, Massachusetts, United States", "global_code": "87JC9W4H+PF"}, "reference": "ChIJq6rep59w44kRgxwp5JYRjVw", "scope": "GOOGLE", "types": ["point_of_interest", "establishment"], "vicinity": "83 Chestnut Street, Boston"}, "ChIJefZGB59w44kRMDjVMFNpAIM": {"geometry": {"location": {"lat": 42.3569134, "lng": -71.0709941}, "viewport": {"northeast": {"lat": 42.3581945802915, "lng": -71.06961781970848}, "southwest": {"lat": 42.3554966197085, "lng": -71.0723157802915}}}, "icon": "https://maps.gstatic.com/mapfiles/place_api/icons/restaurant-71.png", "id": "411b982c05e1e640c76c6d9bd4703e624baa5045", "name": "75 Chestnut", "opening_hours": {"open_now": false}, "photos": [{"height": 3096, "html_attributions": ["<a href=\"https://maps.google.com/maps/contrib/116066487747980620868/photos\">Ipek Salahor</a>"], "photo_reference": "CmRaAAAA7zjXwiEovwbXI6OGIY1oYwY5C1GSrH3jh6trYsJdj5nC00xTDCmsBjYEf8aAQU4ItgcImdB7z4mMk5jiMLnyDnes73pB-AXqWzbAP1a-tOtzYxq-wqYdsA_NYkkIaUTiEhDSzmS8N6BH_0-ds1g42ylAGhQsjuL8z-WgSAIk9oIg1sAKLo_fbw", "width": 4128}], "place_id": "ChIJefZGB59w44kRMDjVMFNpAIM", "plus_code": {"compound_code": "9W4H+QJ Boston, Massachusetts, United States", "global_code": "87JC9W4H+QJ"}, "price_level": 2, "rating": 4.4, "reference": "ChIJefZGB59w44kRMDjVMFNpAIM", "scope": "GOOGLE", "types": ["restaurant", "point_of_interest", "food", "establishment"], "user_ratings_total": 238, "vicinity": "75 Chestnut Street, Boston"}, "ChIJ4TLjCp9w44kR4JBRChGmKQ0": {"geometry": {"location": {"lat": 42.3571713, "lng": -71.07192309999999}, "viewport": {"northeast": {"lat": 42.3585356802915, "lng": -71.07058126970851}, "southwest": {"lat": 42.3558377197085, "lng": -71.07327923029152}}}, "icon": "https://maps.gstatic.com/mapfiles/place_api/icons/generic_business-71.png", "id": "e13b4622ee05d6be40535e7cc2e6eebf0244904f", "name": "Baystate Advisors", "place_id": "ChIJ4TLjCp9w44kR4JBRChGmKQ0", "plus_code": {"compound_code": "9W4H+V6 Boston, Massachusetts, United States", "global_code": "87JC9W4H+V6"}, "reference": "ChIJ4TLjCp9w44kR4JBRChGmKQ0", "scope": "GOOGLE", "types": ["accounting", "finance", "point_of_interest", "establishment"], "vicinity": "7 Otis Place #3, Boston"}, "ChIJPSVbqp9w44kRttJHn1kSbPE": {"geometry": {"location": {"lat": 42.3567141, "lng": -71.0707504}, "viewport": {"northeast": {"lat": 42.3581114302915, "lng": -71.0694208697085}, "southwest": {"lat": 42.3554134697085, "lng": -71.0721188302915}}}, "icon": "https://maps.gstatic.com/mapfiles/place_api/icons/shopping-71.png", "id": "1d3015425671abc430ac89b21769a22fd6681588", "name": "Body Magic", "place_id": "ChIJPSVbqp9w44kRttJHn1kSbPE", "plus_code": {"compound_code": "9W4H+MM Boston, Massachusetts, United States", "global_code": "87JC9W4H+MM"}, "reference": "ChIJPSVbqp9w44kRttJHn1kSbPE", "scope": "GOOGLE", "types": ["store", "point_of_interest", "establishment"], "vicinity": "96 Chestnut Street, Boston"}, "ChIJt6hcD59w44kRjAMz9CFAkf4": {"geometry": {"location": {"lat": 42.3573057, "lng": -71.071356}, "viewport": {"northeast": {"lat": 42.35860278029151, "lng": -71.0699859197085}, "southwest": {"lat": 42.35590481970851, "lng": -71.0726838802915}}}, "icon": "https://maps.gstatic.com/mapfiles/place_api/icons/generic_business-71.png", "id": "3a1b959addfbd10fbadd7d7ba86a0824b01c7885", "name": "J Development Group", "place_id": "ChIJt6hcD59w44kRjAMz9CFAkf4", "plus_code": {"compound_code": "9W4H+WF Boston, Massachusetts, United States", "global_code": "87JC9W4H+WF"}, "reference": "ChIJt6hcD59w44kRjAMz9CFAkf4", "scope": "GOOGLE", "types": ["real_estate_agency", "point_of_interest", "establishment"], "vicinity": "25 Lime Street, Boston"}, "ChIJAe2NoZ9w44kReGMqjHTcGuI": {"geometry": {"location": {"lat": 42.3567233, "lng": -71.0719459}, "viewport": {"northeast": {"lat": 42.3579992302915, "lng": -71.07056631970849}, "southwest": {"lat": 42.3553012697085, "lng": -71.07326428029151}}}, "icon": "https://maps.gstatic.com/mapfiles/place_api/icons/generic_business-71.png", "id": "f54169813e9f535b8c5615468e947d718fae03de", "name": "Bogan Thomas", "place_id": "ChIJAe2NoZ9w44kReGMqjHTcGuI", "plus_code": {"compound_code": "9W4H+M6 Boston, Massachusetts, United States", "global_code": "87JC9W4H+M6"}, "reference": "ChIJAe2NoZ9w44kReGMqjHTcGuI", "scope": "GOOGLE", "types": ["finance", "point_of_interest", "establishment"], "vicinity": "95 Chestnut Street, Boston"}, "ChIJq6qamJ9w44kR-nuDiBm553w": {"geometry": {"location": {"lat": 42.3566583, "lng": -71.0721083}, "viewport": {"northeast": {"lat": 42.3579469302915, "lng": -71.0707340697085}, "southwest": {"lat": 42.35524896970851, "lng": -71.0734320302915}}}, "icon": "https://maps.gstatic.com/mapfiles/place_api/icons/generic_business-71.png", "id": "070f8e0822049b9698b445122ca2845bf4bc4860", "name": "Veronica Castellucci", "place_id": "ChIJq6qamJ9w44kR-nuDiBm553w", "plus_code": {"compound_code": "9W4H+M5 Boston, Massachusetts, United States", "global_code": "87JC9W4H+M5"}, "reference": "ChIJq6qamJ9w44kR-nuDiBm553w", "scope": "GOOGLE", "types": ["general_contractor", "point_of_interest", "establishment"], "vicinity": "101 Chestnut Street Suite N, Boston"}, "ChIJqfjFmZ9w44kRfuBSycek7OM": {"geometry": {"location": {"lat": 42.3566583, "lng": -71.07210839999999}, "viewport": {"northeast": {"lat": 42.3579469302915, "lng": -71.07073416970847}, "southwest": {"lat": 42.35524896970851, "lng": -71.0734321302915}}}, "icon": "https://maps.gstatic.com/mapfiles/place_api/icons/generic_business-71.png", "id": "0e223f90c931658af29485353746c3b20d82f46b", "name": "101 Chestnut Doorman", "place_id": "ChIJqfjFmZ9w44kRfuBSycek7OM", "plus_code": {"compound_code": "9W4H+M5 Boston, Massachusetts, United States", "global_code": "87JC9W4H+M5"}, "reference": "ChIJqfjFmZ9w44kRfuBSycek7OM", "scope": "GOOGLE", "types": ["point_of_interest", "establishment"], "vicinity": "101 Chestnut Street, Boston"}, "ChIJnTC6up9w44kRpjRmsRVFvts": {"geometry": {"location": {"lat": 42.356305, "lng": -71.0713849}, "viewport": {"northeast": {"lat": 42.3576370802915, "lng": -71.07010871970849}, "southwest": {"lat": 42.3549391197085, "lng": -71.07280668029149}}}, "icon": "https://maps.gstatic.com/mapfiles/place_api/icons/generic_business-71.png", "id": "11838b4cc4cfcdc9feceb98ca07e40404788ab64", "name": "Brimmer St- Garage", "place_id": "ChIJnTC6up9w44kRpjRmsRVFvts", "plus_code": {"compound_code": "9W4H+GC Boston, Massachusetts, United States", "global_code": "87JC9W4H+GC"}, "rating": 2.5, "reference": "ChIJnTC6up9w44kRpjRmsRVFvts", "scope": "GOOGLE", "types": ["parking", "point_of_interest", "establishment"], "user_ratings_total": 2, "vicinity": "15 Byron St, Boston"}, "ChIJO6Ukqp9w44kRnOsT4xmlDH8": {"geometry": {"location": {"lat": 42.3566878, "lng": -71.0708453}, "viewport": {"northeast": {"lat": 42.3580876302915, "lng": -71.0695167697085}, "southwest": {"lat": 42.3553896697085, "lng": -71.0722147302915}}}, "icon": "https://maps.gstatic.com/mapfiles/place_api/icons/generic_business-71.png", "id": "51650b1223d2892d3f8b6155ae68d0adb66c3296", "name": "Boston Film & Video Productions", "place_id": "ChIJO6Ukqp9w44kRnOsT4xmlDH8", "plus_code": {"compound_code": "9W4H+MM Boston, Massachusetts, United States", "global_code": "87JC9W4H+MM"}, "reference": "ChIJO6Ukqp9w44kRnOsT4xmlDH8", "scope": "GOOGLE", "types": ["point_of_interest", "establishment"], "vicinity": "98 Chestnut Street # 1, Boston"}, "ChIJGzE9DS1l44kRoOhiASS_fHg": {"geometry": {"location": {"lat": 42.3600825, "lng": -71.0588801}, "viewport": {"northeast": {"lat": 42.40081989999999, "lng": -70.749455}, "southwest": {"lat": 42.22788, "lng": -71.191113}}}, "icon": "https://maps.gstatic.com/mapfiles/place_api/icons/geocode-71.png", "id": "06755c25d2b34d13942a4713971756a55b870ced", "name": "Boston", "photos": [{"height": 3024, "html_attributions": ["<a href=\"https://maps.google.com/maps/contrib/104670289779338733432/photos\">Natalia Zalucean</a>"], "photo_reference": "CmRaAAAAMnisLjMY7g9dUqbV1-XzxRM0sP3X6Krr7rBVUp30OHmV6oL6JpN4qkOgjlAIpDE6vVP09VgEs0IiKwRqLeGNdiYsuKftV-lmeDXQCyeb-UiaWOR9VpsJ_7a201XHzCWJEhCGOd03Awt6_7-acbEnAljVGhS76MTmct3YWosT2kg6c99p7b7MkQ", "width": 4032}], "place_id": "ChIJGzE9DS1l44kRoOhiASS_fHg", "reference": "ChIJGzE9DS1l44kRoOhiASS_fHg", "scope": "GOOGLE", "types": ["locality", "political"], "vicinity": "Boston"}}