{"ChIJ3Ta9uzB644kR7oNuKeTrAgs": {"geometry": {"location": {"lat": 42.3268421, "lng": -71.0804861}, "viewport": {"northeast": {"lat": 42.32850945000005, "lng": -71.0791574197085}, "southwest": {"lat": 42.32517444999996, "lng": -71.0818553802915}}}, "icon": "https://maps.gstatic.com/mapfiles/place_api/icons/geocode-71.png", "id": "4f029da4e1a070541f49065bb4aff143c4f1b1eb", "name": "98-12 Greenville St", "place_id": "ChIJ3Ta9uzB644kR7oNuKeTrAgs", "reference": "ChIJ3Ta9uzB644kR7oNuKeTrAgs", "scope": "GOOGLE", "types": ["route"], "vicinity": "Boston"}, "ChIJzQd3nzB644kRd8jeJSOojHY": {"geometry": {"location": {"lat": 42.327569, "lng": -71.0809174}, "viewport": {"northeast": {"lat": 42.3289343802915, "lng": -71.0794449697085}, "southwest": {"lat": 42.3262364197085, "lng": -71.08214293029151}}}, "icon": "https://maps.gstatic.com/mapfiles/place_api/icons/generic_business-71.png", "id": "ceed1bbb0b4b5b77c7d192d41f861436c1e57cdb", "name": "Home For Little Wanderers", "place_id": "ChIJzQd3nzB644kRd8jeJSOojHY", "plus_code": {"compound_code": "8WH9+2J Boston, Massachusetts, United States", "global_code": "87JC8WH9+2J"}, "rating": 5, "reference": "ChIJzQd3nzB644kRd8jeJSOojHY", "scope": "GOOGLE", "types": ["point_of_interest", "establishment"], "user_ratings_total": 3, "vicinity": "17 Greenville Street, Roxbury"}, "ChIJp0-9Azp644kRLvQrsQ_n8sE": {"geometry": {"location": {"lat": 42.3278692, "lng": -71.079734}, "viewport": {"northeast": {"lat": 42.3292050802915, "lng": -71.07821081970849}, "southwest": {"lat": 42.3265071197085, "lng": -71.0809087802915}}}, "icon": "https://maps.gstatic.com/mapfiles/place_api/icons/school-71.png", "id": "b6fbdbaf8c92783356db249613cbb59a8338a716", "name": "Associated Early Care & Education", "place_id": "ChIJp0-9Azp644kRLvQrsQ_n8sE", "plus_code": {"compound_code": "8WHC+44 Boston, Massachusetts, United States", "global_code": "87JC8WHC+44"}, "rating": 3, "reference": "ChIJp0-9Azp644kRLvQrsQ_n8sE", "scope": "GOOGLE", "types": ["point_of_interest", "establishment"], "user_ratings_total": 2, "vicinity": "11 Mount Pleasant Avenue, Roxbury"}, "ChIJp0-9Azp644kR489ocnNoPvc": {"geometry": {"location": {"lat": 42.3278692, "lng": -71.079734}, "viewport": {"northeast": {"lat": 42.3292050802915, "lng": -71.07821081970849}, "southwest": {"lat": 42.3265071197085, "lng": -71.0809087802915}}}, "icon": "https://maps.gstatic.com/mapfiles/place_api/icons/generic_business-71.png", "id": "0cea6c26db6c9c134f01e51946f4db1fb70d7a19", "name": "Project Family Independence", "place_id": "ChIJp0-9Azp644kR489ocnNoPvc", "plus_code": {"compound_code": "8WHC+44 Boston, Massachusetts, United States", "global_code": "87JC8WHC+44"}, "rating": 5, "reference": "ChIJp0-9Azp644kR489ocnNoPvc", "scope": "GOOGLE", "types": ["point_of_interest", "establishment"], "user_ratings_total": 1, "vicinity": "11 Mount Pleasant Avenue # 103, Roxbury"}, "ChIJx8y7Azp644kRlG6eepiIqzU": {"geometry": {"location": {"lat": 42.3278692, "lng": -71.079734}, "viewport": {"northeast": {"lat": 42.3292050802915, "lng": -71.07821081970849}, "southwest": {"lat": 42.3265071197085, "lng": -71.0809087802915}}}, "icon": "https://maps.gstatic.com/mapfiles/place_api/icons/school-71.png", "id": "652cd53394464456e1d2bebe5254adcaef994cec", "name": "nurtury school", "place_id": "ChIJx8y7Azp644kRlG6eepiIqzU", "plus_code": {"compound_code": "8WHC+44 Boston, Massachusetts, United States", "global_code": "87JC8WHC+44"}, "rating": 5, "reference": "ChIJx8y7Azp644kRlG6eepiIqzU", "scope": "GOOGLE", "types": ["school", "point_of_interest", "establishment"], "user_ratings_total": 2, "vicinity": "11 Mount Pleasant Avenue, Roxbury"}, "ChIJq6pWdTp644kR3uL5C2B3Lp4": {"geometry": {"location": {"lat": 42.32771049999999, "lng": -71.0809989}, "viewport": {"northeast": {"lat": 42.3290802302915, "lng": -71.07950466970848}, "southwest": {"lat": 42.3263822697085, "lng": -71.0822026302915}}}, "icon": "https://maps.gstatic.com/mapfiles/place_api/icons/shopping-71.png", "id": "41dd40afd5e14f7cdc1c88e4b44f48f9143df159", "name": "Lenape, Inc.", "opening_hours": {"open_now": true}, "place_id": "ChIJq6pWdTp644kR3uL5C2B3Lp4", "plus_code": {"compound_code": "8WH9+3J Boston, Massachusetts, United States", "global_code": "87JC8WH9+3J"}, "reference": "ChIJq6pWdTp644kR3uL5C2B3Lp4", "scope": "GOOGLE", "types": ["store", "point_of_interest", "establishment"], "vicinity": "15 Greenville Street, Boston"}, "ChIJ0T6wpDB644kRWiRWoX5GaWw": {"geometry": {"location": {"lat": 42.3270537, "lng": -71.0805522}, "viewport": {"northeast": {"lat": 42.3283990302915, "lng": -71.0792308697085}, "southwest": {"lat": 42.3257010697085, "lng": -71.0819288302915}}}, "icon": "https://maps.gstatic.com/mapfiles/place_api/icons/generic_business-71.png", "id": "f55df679efb4fda12ba84cf56bb86160615bcf5f", "name": "Kings Affordable Construction Co", "place_id": "ChIJ0T6wpDB644kRWiRWoX5GaWw", "plus_code": {"compound_code": "8WG9+RQ Boston, Massachusetts, United States", "global_code": "87JC8WG9+RQ"}, "rating": 4, "reference": "ChIJ0T6wpDB644kRWiRWoX5GaWw", "scope": "GOOGLE", "types": ["general_contractor", "point_of_interest", "establishment"], "user_ratings_total": 1, "vicinity": "21 Greenville Street # 1, Roxbury"}, "ChIJGzE9DS1l44kRoOhiASS_fHg": {"geometry": {"location": {"lat": 42.3600825, "lng": -71.0588801}, "viewport": {"northeast": {"lat": 42.40081989999999, "lng": -70.749455}, "southwest": {"lat": 42.22788, "lng": -71.191113}}}, "icon": "https://maps.gstatic.com/mapfiles/place_api/icons/geocode-71.png", "id": "06755c25d2b34d13942a4713971756a55b870ced", "name": "Boston", "photos": [{"height": 3024, "html_attributions": ["<a href=\"https://maps.google.com/maps/contrib/104670289779338733432/photos\">Natalia Zalucean</a>"], "photo_reference": "CmRaAAAAOO0N59LdAeXgyZtVsr07zLwViYf04KIsfm-5Wbeln80IlAd2JdrH4cbRcC726ZojK7voJcu06k3Adi7_Hv87vLn0rDTV0OCBONEx_9msK2EyxsKMjihsJ2_TLF_SZlY3EhCscnoJGNkA1jKmfXcsLU2VGhQJlDty2jh-Sbr15o0ryY1cJrWVgw", "width": 4032}], "place_id": "ChIJGzE9DS1l44kRoOhiASS_fHg", "reference": "ChIJGzE9DS1l44kRoOhiASS_fHg", "scope": "GOOGLE", "types": ["locality", "political"], "vicinity": "Boston"}}