{"ChIJvekCxvB544kRwpdf0p0kbN0": {"geometry": {"location": {"lat": 42.3484105, "lng": -71.1034212}, "viewport": {"northeast": {"lat": 42.3497682802915, "lng": -71.0987799}, "southwest": {"lat": 42.3470703197085, "lng": -71.10805710000001}}}, "icon": "https://maps.gstatic.com/mapfiles/place_api/icons/geocode-71.png", "id": "9670a09fc7983cf3573d543866ad1841d3fd705e", "name": "Massachusetts Turnpike", "place_id": "ChIJvekCxvB544kRwpdf0p0kbN0", "reference": "ChIJvekCxvB544kRwpdf0p0kbN0", "scope": "GOOGLE", "types": ["route"], "vicinity": "Boston"}, "ChIJv-A95vB544kRD8S_QGhlqmY": {"geometry": {"location": {"lat": 42.3488725, "lng": -71.104806}, "viewport": {"northeast": {"lat": 42.3502895302915, "lng": -71.1034364697085}, "southwest": {"lat": 42.3475915697085, "lng": -71.1061344302915}}}, "icon": "https://maps.gstatic.com/mapfiles/place_api/icons/school-71.png", "id": "623eaeeca5a12868afa522ae7c3a93396ebf84bc", "name": "Department of Sociology", "place_id": "ChIJv-A95vB544kRD8S_QGhlqmY", "plus_code": {"compound_code": "8VXW+G3 Boston, Massachusetts, United States", "global_code": "87JC8VXW+G3"}, "reference": "ChIJv-A95vB544kRD8S_QGhlqmY", "scope": "GOOGLE", "types": ["point_of_interest", "establishment"], "vicinity": "100 Cummington Mall #260, Boston"}, "ChIJMbu93PB544kRO5y8A91H7w8": {"geometry": {"location": {"lat": 42.34880829999999, "lng": -71.1044579}, "viewport": {"northeast": {"lat": 42.35022703029149, "lng": -71.10308231970849}, "southwest": {"lat": 42.34752906970849, "lng": -71.10578028029151}}}, "icon": "https://maps.gstatic.com/mapfiles/place_api/icons/school-71.png", "id": "7c9c531eceebb579c31cf68885b2293ccfc0e110", "name": "Department of Psychology", "place_id": "ChIJMbu93PB544kRO5y8A91H7w8", "plus_code": {"compound_code": "8VXW+G6 Boston, Massachusetts, United States", "global_code": "87JC8VXW+G6"}, "reference": "ChIJMbu93PB544kRO5y8A91H7w8", "scope": "GOOGLE", "types": ["point_of_interest", "establishment"], "vicinity": "48 Cummington Mall, Boston"}, "ChIJuaaF0fB544kR5wb6BxIbmNQ": {"geometry": {"location": {"lat": 42.3488189, "lng": -71.1044996}, "viewport": {"northeast": {"lat": 42.3502373802915, "lng": -71.1031296197085}, "southwest": {"lat": 42.3475394197085, "lng": -71.1058275802915}}}, "icon": "https://maps.gstatic.com/mapfiles/place_api/icons/school-71.png", "id": "17060c8c272c706054029693f15ff85f3e2790e6", "name": "Department of Psychological and Brain Sciences", "photos": [{"height": 3024, "html_attributions": ["<a href=\"https://maps.google.com/maps/contrib/110085678809892687483/photos\">Pradeep Malu</a>"], "photo_reference": "CmRZAAAAO3UMk_1V9doIpfahO2wiC12BKA4V3K-1_8zmMUjHLAKNdAvw873iU0tNKs73-YXGx-5WRXmynbOORWStDfTmeuL2-NxADJWHmn7fSP5Iy3qh86f7Pa4ZEYsP4B4Zyg7uEhAE1fXux3k2HaDPBZQgZjPiGhSky1z-67Hnzr8s831_S8uJ_RMeAw", "width": 4032}], "place_id": "ChIJuaaF0fB544kR5wb6BxIbmNQ", "plus_code": {"compound_code": "8VXW+G6 Boston, Massachusetts, United States", "global_code": "87JC8VXW+G6"}, "rating": 5, "reference": "ChIJuaaF0fB544kR5wb6BxIbmNQ", "scope": "GOOGLE", "types": ["point_of_interest", "establishment"], "user_ratings_total": 1, "vicinity": "64 Cummington Mall, Boston"}, "ChIJl3rlxPB544kRd-JBBpNIQnk": {"geometry": {"location": {"lat": 42.3489883, "lng": -71.1042313}, "viewport": {"northeast": {"lat": 42.35030503029149, "lng": -71.10289206970849}, "southwest": {"lat": 42.3476070697085, "lng": -71.1055900302915}}}, "icon": "https://maps.gstatic.com/mapfiles/place_api/icons/generic_business-71.png", "id": "8a639724ee4c907f20c26745d26d1868a1c43b59", "name": "Math for America Boston", "place_id": "ChIJl3rlxPB544kRd-JBBpNIQnk", "plus_code": {"compound_code": "8VXW+H8 Boston, Massachusetts, United States", "global_code": "87JC8VXW+H8"}, "reference": "ChIJl3rlxPB544kRd-JBBpNIQnk", "scope": "GOOGLE", "types": ["point_of_interest", "establishment"], "vicinity": "111 Cummington Mall, Boston"}, "ChIJmXrlxPB544kRUaaVR1dHrEQ": {"geometry": {"location": {"lat": 42.3489883, "lng": -71.1042312}, "viewport": {"northeast": {"lat": 42.35030503029149, "lng": -71.1028919697085}, "southwest": {"lat": 42.3476070697085, "lng": -71.1055899302915}}}, "icon": "https://maps.gstatic.com/mapfiles/place_api/icons/generic_business-71.png", "id": "6a0c75e69198e46da9c9dcca6a11fff3086e84cf", "name": "PROMYS", "place_id": "ChIJmXrlxPB544kRUaaVR1dHrEQ", "plus_code": {"compound_code": "8VXW+H8 Boston, Massachusetts, United States", "global_code": "87JC8VXW+H8"}, "reference": "ChIJmXrlxPB544kRUaaVR1dHrEQ", "scope": "GOOGLE", "types": ["point_of_interest", "establishment"], "vicinity": "111 Cummington Mall, Boston"}, "ChIJbRSpw_B544kRKe51ve-oaWw": {"geometry": {"location": {"lat": 42.3490964, "lng": -71.10452889999999}, "viewport": {"northeast": {"lat": 42.3503850302915, "lng": -71.10319811970848}, "southwest": {"lat": 42.3476870697085, "lng": -71.1058960802915}}}, "icon": "https://maps.gstatic.com/mapfiles/place_api/icons/school-71.png", "id": "d742c62a2856e440c483ed476d2e178d1f535f53", "name": "Department of Computer Science", "place_id": "ChIJbRSpw_B544kRKe51ve-oaWw", "plus_code": {"compound_code": "8VXW+J5 Boston, Massachusetts, United States", "global_code": "87JC8VXW+J5"}, "reference": "ChIJbRSpw_B544kRKe51ve-oaWw", "scope": "GOOGLE", "types": ["point_of_interest", "establishment"], "vicinity": "111 Cummington Mall, Boston"}, "ChIJGzE9DS1l44kRoOhiASS_fHg": {"geometry": {"location": {"lat": 42.3600825, "lng": -71.0588801}, "viewport": {"northeast": {"lat": 42.40081989999999, "lng": -70.749455}, "southwest": {"lat": 42.22788, "lng": -71.191113}}}, "icon": "https://maps.gstatic.com/mapfiles/place_api/icons/geocode-71.png", "id": "06755c25d2b34d13942a4713971756a55b870ced", "name": "Boston", "photos": [{"height": 3024, "html_attributions": ["<a href=\"https://maps.google.com/maps/contrib/104670289779338733432/photos\">Natalia Zalucean</a>"], "photo_reference": "CmRaAAAAA9cYqr1EWoZatRD7wXVy9k-3Ch8X-5FW9FyHYQgZWshz7pTa-y05Z5buR2KYKYN1lcpJUh2Gy15nL8CVFr2i8Vq1RC82-mYWBwm0ovkVrW5i1GGmbL748kdRkuJIe9H9EhDIKvgEroASaXXuJqJaVbumGhT02VQzjPX69Bce5CXPQatWr2BgRg", "width": 4032}], "place_id": "ChIJGzE9DS1l44kRoOhiASS_fHg", "reference": "ChIJGzE9DS1l44kRoOhiASS_fHg", "scope": "GOOGLE", "types": ["locality", "political"], "vicinity": "Boston"}}