{"ChIJZ3zI2Fxw44kRkBivobDQDrE": {"geometry": {"location": {"lat": 42.3704873, "lng": -71.0389618}, "viewport": {"northeast": {"lat": 42.3718363302915, "lng": -71.0376145697085}, "southwest": {"lat": 42.3691383697085, "lng": -71.04031253029152}}}, "icon": "https://maps.gstatic.com/mapfiles/place_api/icons/geocode-71.png", "id": "b06b211f0ba761c137d687c63dea5aff01305be5", "name": "24-2 Meridian St", "place_id": "ChIJZ3zI2Fxw44kRkBivobDQDrE", "reference": "ChIJZ3zI2Fxw44kRkBivobDQDrE", "scope": "GOOGLE", "types": ["route"], "vicinity": "Boston"}, "ChIJtZbT21xw44kRjn7c4-bdAaI": {"geometry": {"location": {"lat": 42.3705632, "lng": -71.0391677}, "viewport": {"northeast": {"lat": 42.3719142302915, "lng": -71.03771721970848}, "southwest": {"lat": 42.3692162697085, "lng": -71.04041518029149}}}, "icon": "https://maps.gstatic.com/mapfiles/place_api/icons/bank_dollar-71.png", "id": "b38fb88e191171a602ad68496fbcb153c54b1d1a", "name": "East Boston Savings Bank", "opening_hours": {"open_now": false}, "photos": [{"height": 3024, "html_attributions": ["<a href=\"https://maps.google.com/maps/contrib/105366534392351652564/photos\">Andrew Capobianco</a>"], "photo_reference": "CmRaAAAA0RYD_UoDLPdTx59vNDI_xAPslHxY3uQK1I2D6uVsTx61yNBjOnU_flYv_V3slD0dCiN1xaLXUd0T7qAv8UU50Vcnmw8qpdHqn5EFv3KGO1smPBSh8i9nD2SQSdoGwVJtEhBaxS5XP0OBVoIG57rtzWJAGhR9N-Q0H6MTM-9Q_Gz1KDxlPpyEmw", "width": 4032}], "place_id": "ChIJtZbT21xw44kRjn7c4-bdAaI", "plus_code": {"compound_code": "9XC6+68 Boston, Massachusetts, United States", "global_code": "87JC9XC6+68"}, "rating": 4.7, "reference": "ChIJtZbT21xw44kRjn7c4-bdAaI", "scope": "GOOGLE", "types": ["bank", "atm", "finance", "point_of_interest", "establishment"], "user_ratings_total": 13, "vicinity": "10 Meridian Street, East Boston"}, "ChIJXeIPO1xw44kRBkyf0vJ5IXI": {"geometry": {"location": {"lat": 42.370774, "lng": -71.040004}, "viewport": {"northeast": {"lat": 42.3720624802915, "lng": -71.03870326970849}, "southwest": {"lat": 42.3693645197085, "lng": -71.0414012302915}}}, "icon": "https://maps.gstatic.com/mapfiles/place_api/icons/shopping-71.png", "id": "b06c807bdb1f5c13d8c968896d9162f8a8f9a9c0", "name": "Girle Tata Boutique", "opening_hours": {"open_now": true}, "photos": [{"height": 3024, "html_attributions": ["<a href=\"https://maps.google.com/maps/contrib/114494460419328748638/photos\">Girle Tata Boutique</a>"], "photo_reference": "CmRaAAAAJ_uhRwc9lof3S4HrJIEq29yv8nu-U2syskbHqkbuBFs5ep58Sd1twjqZP0M33Guk4Azlzjis1ofdUcDanT3IuNruOdAD8M34mZJJU7_eGXXnlq3xAx6FV4hmyoFNTP2fEhD5LBY8XurP842OmvUFPLwIGhTgCeEo347Pt3ZTLDD7k26YIpI33g", "width": 4032}], "place_id": "ChIJXeIPO1xw44kRBkyf0vJ5IXI", "plus_code": {"compound_code": "9XC5+8X Boston, Massachusetts, United States", "global_code": "87JC9XC5+8X"}, "reference": "ChIJXeIPO1xw44kRBkyf0vJ5IXI", "scope": "GOOGLE", "types": ["clothing_store", "store", "point_of_interest", "establishment"], "vicinity": "84-86 Maverick St, Blue Line, East Boston"}, "ChIJj2_121xw44kRlig0IuS0lA4": {"geometry": {"location": {"lat": 42.370746, "lng": -71.03912129999999}, "viewport": {"northeast": {"lat": 42.3720964302915, "lng": -71.03769726970847}, "southwest": {"lat": 42.3693984697085, "lng": -71.0403952302915}}}, "icon": "https://maps.gstatic.com/mapfiles/place_api/icons/generic_business-71.png", "id": "2f134d37630fb1b875de3fa0f493b3167d0c9b4b", "name": "Maya Insurance", "photos": [{"height": 327, "html_attributions": ["<a href=\"https://maps.google.com/maps/contrib/108567448511274176771/photos\">Maya Insurance</a>"], "photo_reference": "CmRaAAAAxw-SxfDUYokjBafX9V4t7QhURVdEYGmnhD5ZI0E0cy6fEm0M0xNVyveKrBi_9kJ6vbKFrbRavVz29hiOMTm9fpYq0_-4fmV2q3VMglpTbt7qKsm5jHPQmSWQE_0gwFDmEhBE6BmM-Kvd0nKAqn-_9z1MGhQ21UCQuzNOjMmSu0zr6o6OBj_DUg", "width": 380}], "place_id": "ChIJj2_121xw44kRlig0IuS0lA4", "plus_code": {"compound_code": "9XC6+79 Boston, Massachusetts, United States", "global_code": "87JC9XC6+79"}, "reference": "ChIJj2_121xw44kRlig0IuS0lA4", "scope": "GOOGLE", "types": ["insurance_agency", "point_of_interest", "establishment"], "vicinity": "20 Meridian Street, East Boston"}, "ChIJB-u74Vxw44kRyC1ckEaEz5Q": {"geometry": {"location": {"lat": 42.37062089999999, "lng": -71.03966419999999}, "viewport": {"northeast": {"lat": 42.37191128029149, "lng": -71.03836191970849}, "southwest": {"lat": 42.36921331970849, "lng": -71.0410598802915}}}, "icon": "https://maps.gstatic.com/mapfiles/place_api/icons/generic_business-71.png", "id": "7f3094089e069aafc2adb6415d9b1a4cec5e67e5", "name": "Facilities Management & Maintenance", "place_id": "ChIJB-u74Vxw44kRyC1ckEaEz5Q", "plus_code": {"compound_code": "9XC6+64 Boston, Massachusetts, United States", "global_code": "87JC9XC6+64"}, "reference": "ChIJB-u74Vxw44kRyC1ckEaEz5Q", "scope": "GOOGLE", "types": ["point_of_interest", "establishment"], "vicinity": "108 Maverick Street, East Boston"}, "ChIJj2_121xw44kRFyMpbqVEvn4": {"geometry": {"location": {"lat": 42.3707526, "lng": -71.03908630000001}, "viewport": {"northeast": {"lat": 42.3721026802915, "lng": -71.0376798697085}, "southwest": {"lat": 42.3694047197085, "lng": -71.0403778302915}}}, "icon": "https://maps.gstatic.com/mapfiles/place_api/icons/generic_business-71.png", "id": "bbed42e0859b7359e5041a1b7a4dcd5eb8094592", "name": "Macias L Manuel", "place_id": "ChIJj2_121xw44kRFyMpbqVEvn4", "plus_code": {"compound_code": "9XC6+89 Boston, Massachusetts, United States", "global_code": "87JC9XC6+89"}, "rating": 5, "reference": "ChIJj2_121xw44kRFyMpbqVEvn4", "scope": "GOOGLE", "types": ["lawyer", "point_of_interest", "establishment"], "user_ratings_total": 1, "vicinity": "20 Meridian Street # 3, Boston"}, "ChIJHwCaP1tw44kRzJNrUNsCY6Q": {"geometry": {"location": {"lat": 42.370635, "lng": -71.03967399999999}, "viewport": {"northeast": {"lat": 42.3719217302915, "lng": -71.03837466970849}, "southwest": {"lat": 42.3692237697085, "lng": -71.0410726302915}}}, "icon": "https://maps.gstatic.com/mapfiles/place_api/icons/generic_business-71.png", "id": "c2c372761fdb15059b80ae8fdeff1628326215c2", "name": "Advertising & Photography Studio - Advphoto Studio", "opening_hours": {"open_now": true}, "photos": [{"height": 3861, "html_attributions": ["<a href=\"https://maps.google.com/maps/contrib/100178246880772484840/photos\">Advertising &amp; Photography Studio - Advphoto Studio</a>"], "photo_reference": "CmRaAAAAyQcOjClv3bGpMdtvIPAa9j8JV373lt5G58A9uW0EJplQpbO8ial0fs-WWScHVtzLiN8_PhS93WPgL0PZeo8ztHpeymdAFRGcY6YGemATc_6Cz6XQMZpaD3bSW5-MJ39tEhAcncuyLYKhNVJup3IWVQdoGhQZ-yY3Jc5vPN4mXsCZutAAOLlxoA", "width": 2574}], "place_id": "ChIJHwCaP1tw44kRzJNrUNsCY6Q", "plus_code": {"compound_code": "9XC6+74 Boston, Massachusetts, United States", "global_code": "87JC9XC6+74"}, "rating": 5, "reference": "ChIJHwCaP1tw44kRzJNrUNsCY6Q", "scope": "GOOGLE", "types": ["point_of_interest", "establishment"], "user_ratings_total": 1, "vicinity": "106 Maverick Street, Boston"}, "ChIJl5gG31xw44kRVvpb6iMLd1Q": {"geometry": {"location": {"lat": 42.3704189, "lng": -71.0392275}, "viewport": {"northeast": {"lat": 42.3717705802915, "lng": -71.03774451970848}, "southwest": {"lat": 42.3690726197085, "lng": -71.04044248029149}}}, "icon": "https://maps.gstatic.com/mapfiles/place_api/icons/atm-71.png", "id": "40644d62416aef3558fac72d80d79e1bcdd751aa", "name": "Santander Walk-Up ATM", "opening_hours": {"open_now": true}, "photos": [{"height": 450, "html_attributions": ["<a href=\"https://maps.google.com/maps/contrib/110902393226302300753/photos\">Santander Walk-Up ATM</a>"], "photo_reference": "CmRaAAAACXk5_mvkImQ_iXrtAQqoiNui6VqeUmtRBGe2k_EPL15Geljmixvxy4E8lQljF8KzTajwM6ACgBxCYjC6eId8ifPt7ZGn3bMVcnF0g-8IfHBrT0HlrGWYj_BaQZQQCI8BEhDgot7yuABbC0XtImk3nOPrGhQffCnJ_YyoEcfs06gfxbPEQMlW3w", "width": 450}], "place_id": "ChIJl5gG31xw44kRVvpb6iMLd1Q", "plus_code": {"compound_code": "9XC6+58 Boston, Massachusetts, United States", "global_code": "87JC9XC6+58"}, "rating": 4, "reference": "ChIJl5gG31xw44kRVvpb6iMLd1Q", "scope": "GOOGLE", "types": ["atm", "insurance_agency", "finance", "point_of_interest", "establishment"], "user_ratings_total": 2, "vicinity": "2 Meridian Street, East Boston"}, "ChIJG93UIV1w44kRTRrUqct4kzE": {"geometry": {"location": {"lat": 42.370253, "lng": -71.0394927}, "viewport": {"northeast": {"lat": 42.3716529302915, "lng": -71.0381037197085}, "southwest": {"lat": 42.3689549697085, "lng": -71.04080168029151}}}, "icon": "https://maps.gstatic.com/mapfiles/place_api/icons/generic_business-71.png", "id": "b24fdb945769f53d4effbf0ff36b2e3ce3306596", "name": "Minas Brazil", "place_id": "ChIJG93UIV1w44kRTRrUqct4kzE", "plus_code": {"compound_code": "9XC6+46 Boston, Massachusetts, United States", "global_code": "87JC9XC6+46"}, "reference": "ChIJG93UIV1w44kRTRrUqct4kzE", "scope": "GOOGLE", "types": ["finance", "point_of_interest", "establishment"], "vicinity": "123 Maverick Street, Boston"}, "ChIJrdzUIV1w44kRZV2Sm-VrZN4": {"geometry": {"location": {"lat": 42.370253, "lng": -71.0394927}, "viewport": {"northeast": {"lat": 42.3716529302915, "lng": -71.0381037197085}, "southwest": {"lat": 42.3689549697085, "lng": -71.04080168029151}}}, "icon": "https://maps.gstatic.com/mapfiles/place_api/icons/atm-71.png", "id": "5b2ee89f66a22b8e22a66ac363749c2f5d03d1cc", "name": "Access to Money", "place_id": "ChIJrdzUIV1w44kRZV2Sm-VrZN4", "plus_code": {"compound_code": "9XC6+46 Boston, Massachusetts, United States", "global_code": "87JC9XC6+46"}, "reference": "ChIJrdzUIV1w44kRZV2Sm-VrZN4", "scope": "GOOGLE", "types": ["atm", "finance", "point_of_interest", "establishment"], "vicinity": "123 Maverick Street, Boston"}, "ChIJXy3s51xw44kRRaewfr0qzEM": {"geometry": {"location": {"lat": 42.37102489999999, "lng": -71.0394245}, "viewport": {"northeast": {"lat": 42.3723243302915, "lng": -71.03796316970849}, "southwest": {"lat": 42.3696263697085, "lng": -71.0406611302915}}}, "icon": "https://maps.gstatic.com/mapfiles/place_api/icons/generic_business-71.png", "id": "341d0e3345bda31f6b7cffd198b372f8d9a4a53b", "name": "Italian American", "place_id": "ChIJXy3s51xw44kRRaewfr0qzEM", "plus_code": {"compound_code": "9XC6+C6 Boston, Massachusetts, United States", "global_code": "87JC9XC6+C6"}, "rating": 3.8, "reference": "ChIJXy3s51xw44kRRaewfr0qzEM", "scope": "GOOGLE", "types": ["point_of_interest", "establishment"], "user_ratings_total": 6, "vicinity": "60 Paris Street, Boston"}, "ChIJAWK311xw44kRpLpXEdnhFv4": {"geometry": {"location": {"lat": 42.3702619, "lng": -71.0394132}, "viewport": {"northeast": {"lat": 42.3716457302915, "lng": -71.03803686970848}, "southwest": {"lat": 42.36894776970851, "lng": -71.0407348302915}}}, "icon": "https://maps.gstatic.com/mapfiles/place_api/icons/generic_business-71.png", "id": "d791ec4308eb5466209a74b2d733c0a11e14e416", "name": "UPS Access Point", "place_id": "ChIJAWK311xw44kRpLpXEdnhFv4", "plus_code": {"compound_code": "9XC6+46 Boston, Massachusetts, United States", "global_code": "87JC9XC6+46"}, "rating": 3.3, "reference": "ChIJAWK311xw44kRpLpXEdnhFv4", "scope": "GOOGLE", "types": ["point_of_interest", "establishment"], "user_ratings_total": 4, "vicinity": "123 Maverick Street, Boston"}, "ChIJWwy8Jl1w44kRujd8mWvTpyg": {"geometry": {"location": {"lat": 42.37040620000001, "lng": -71.0391724}, "viewport": {"northeast": {"lat": 42.37175733029149, "lng": -71.03771666970849}, "southwest": {"lat": 42.36905936970849, "lng": -71.04041463029151}}}, "icon": "https://maps.gstatic.com/mapfiles/place_api/icons/bank_dollar-71.png", "id": "5552f1346e2de40bd5f4c7eb2d6d1d04d392aee5", "name": "Santander Bank", "opening_hours": {"open_now": true}, "photos": [{"height": 2326, "html_attributions": ["<a href=\"https://maps.google.com/maps/contrib/112062765386853623389/photos\">Santander Bank</a>"], "photo_reference": "CmRaAAAAplNtfavyU8ZiKA6Qo70u3irGkYPIeGC2J7j83IEkBIPGjQc-52olEQ82bHayClxZGTurJTT-94AFcD-QK0ybrgbpZ3q-5cvDABzONixtT5HJlIYd3PbjWqBIGPyZftBIEhCNJ1JqN6De9wa8-ags2SOCGhRbAc94O2EqWC8l8WlNCvvAbB3Ssg", "width": 2326}], "place_id": "ChIJWwy8Jl1w44kRujd8mWvTpyg", "plus_code": {"compound_code": "9XC6+58 Boston, Massachusetts, United States", "global_code": "87JC9XC6+58"}, "rating": 4.3, "reference": "ChIJWwy8Jl1w44kRujd8mWvTpyg", "scope": "GOOGLE", "types": ["bank", "insurance_agency", "finance", "point_of_interest", "establishment"], "user_ratings_total": 7, "vicinity": "2 Meridian Street, East Boston"}, "ChIJN7XUIV1w44kRdDSPGYFff0k": {"geometry": {"location": {"lat": 42.3702106, "lng": -71.0394483}, "viewport": {"northeast": {"lat": 42.3716192802915, "lng": -71.0380524697085}, "southwest": {"lat": 42.3689213197085, "lng": -71.04075043029151}}}, "icon": "https://maps.gstatic.com/mapfiles/place_api/icons/generic_business-71.png", "id": "7130281100b55b0e8232c6ddcfd8ed20b7b4db17", "name": "MoneyGram", "opening_hours": {"open_now": true}, "photos": [{"height": 300, "html_attributions": ["<a href=\"https://maps.google.com/maps/contrib/109496763562512182425/photos\">MoneyGram</a>"], "photo_reference": "CmRaAAAA8XdG5EvTuA01Yj__ZPqbnz_jxA9mIgjnRUVGj7IiZ9QVo48X1gEGJtunCPAumkukmuy5rHoxEhGu9sdSYJBNkokz3iwC_vFceVncMDCcN-UrJuaqpA6usHKEWVlfKzD7EhDhtoabdMYQmYExyjxVDKwmGhQ_RNgRbC2VGcbOm0Jn6o4Mcau1uQ", "width": 300}], "place_id": "ChIJN7XUIV1w44kRdDSPGYFff0k", "plus_code": {"compound_code": "9XC6+36 Boston, Massachusetts, United States", "global_code": "87JC9XC6+36"}, "reference": "ChIJN7XUIV1w44kRdDSPGYFff0k", "scope": "GOOGLE", "types": ["finance", "point_of_interest", "establishment"], "vicinity": "123 Maverick Street, East Boston"}, "ChIJ8Tnl_ztw44kRTxr3leObmCw": {"geometry": {"location": {"lat": 42.3707544, "lng": -71.0390862}, "viewport": {"northeast": {"lat": 42.3721044802915, "lng": -71.0376798697085}, "southwest": {"lat": 42.36940651970851, "lng": -71.0403778302915}}}, "icon": "https://maps.gstatic.com/mapfiles/place_api/icons/generic_business-71.png", "id": "68f21375758ea602a06b34ce8d0689f1fc80d2a5", "name": "Carlos Le\u00f3n Style", "opening_hours": {"open_now": true}, "photos": [{"height": 333, "html_attributions": ["<a href=\"https://maps.google.com/maps/contrib/115176417458930994528/photos\">Carlos Le\u00f3n Style</a>"], "photo_reference": "CmRaAAAASvKFUR1O8GVhFeBPeWFKldRlDgd_w5hdRhOEJLBOJ7-kGgOa9URn_ePJbhO8i9U0aUQk7lJLHDXcQqAz_leOQFqMmaBUYi9NbJdb2e2QvWZRCRVnHQ9OEOI07B04p_wMEhD8mZjeNyDv2Y7ApzauFtplGhTS2ESW-oWOF4_S7petIUpkcsKUkw", "width": 333}], "place_id": "ChIJ8Tnl_ztw44kRTxr3leObmCw", "plus_code": {"compound_code": "9XC6+89 Boston, Massachusetts, United States", "global_code": "87JC9XC6+89"}, "rating": 5, "reference": "ChIJ8Tnl_ztw44kRTxr3leObmCw", "scope": "GOOGLE", "types": ["hair_care", "point_of_interest", "establishment"], "user_ratings_total": 3, "vicinity": "2, 20 Meridian Street, East Boston"}, "ChIJyX7TIV1w44kRPRgPgsompqc": {"geometry": {"location": {"lat": 42.3702706, "lng": -71.03941809999999}, "viewport": {"northeast": {"lat": 42.3716519802915, "lng": -71.03804371970848}, "southwest": {"lat": 42.3689540197085, "lng": -71.0407416802915}}}, "icon": "https://maps.gstatic.com/mapfiles/place_api/icons/shopping-71.png", "id": "b15497da2ec50e81c0a97fe74099d96a5056a8d9", "name": "Latin Envios", "opening_hours": {"open_now": true}, "photos": [{"height": 3264, "html_attributions": ["<a href=\"https://maps.google.com/maps/contrib/114718236956721953290/photos\">Lawrence Hui</a>"], "photo_reference": "CmRaAAAAg08PSoC9sH83ZhfyGwPztJrTjE3hPietvMdSdSDPOXzpiiN8nrTeL_OW7pflD98DBue0jdGEo9q8jizQC_slZ1iXmP7YaEod4igRZ-pRU2sgTGk_mEwbKbuciM2utNFrEhDprNSyXZa5vPvj5Ou_fD9NGhRoj65eFkNb6wXJV-u0oYdMCUkIjg", "width": 1836}], "place_id": "ChIJyX7TIV1w44kRPRgPgsompqc", "plus_code": {"compound_code": "9XC6+46 Boston, Massachusetts, United States", "global_code": "87JC9XC6+46"}, "rating": 2.9, "reference": "ChIJyX7TIV1w44kRPRgPgsompqc", "scope": "GOOGLE", "types": ["accounting", "finance", "store", "point_of_interest", "establishment"], "user_ratings_total": 8, "vicinity": "123 Maverick Street, East Boston"}, "ChIJB-u74Vxw44kRodK8rtXvnjs": {"geometry": {"location": {"lat": 42.37062089999999, "lng": -71.03966419999999}, "viewport": {"northeast": {"lat": 42.37191128029149, "lng": -71.03836191970849}, "southwest": {"lat": 42.36921331970849, "lng": -71.0410598802915}}}, "icon": "https://maps.gstatic.com/mapfiles/place_api/icons/generic_business-71.png", "id": "27d3ab23e642fb41c7d0b7b5e49d684ca8e8e505", "name": "Interbartolo Michael", "place_id": "ChIJB-u74Vxw44kRodK8rtXvnjs", "plus_code": {"compound_code": "9XC6+64 Boston, Massachusetts, United States", "global_code": "87JC9XC6+64"}, "reference": "ChIJB-u74Vxw44kRodK8rtXvnjs", "scope": "GOOGLE", "types": ["point_of_interest", "establishment"], "vicinity": "108 Maverick Street, East Boston"}, "ChIJVYGQwz1x44kRNgl52InJ99g": {"geometry": {"location": {"lat": 42.3706187, "lng": -71.0396784}, "viewport": {"northeast": {"lat": 42.3719122302915, "lng": -71.03837366970849}, "southwest": {"lat": 42.3692142697085, "lng": -71.04107163029151}}}, "icon": "https://maps.gstatic.com/mapfiles/place_api/icons/generic_business-71.png", "id": "1f3493bc17e228abd2f2442f7b07c6ddf8266d5a", "name": "Bloom \u2014 Dry Cleaning & Alterations", "opening_hours": {"open_now": true}, "photos": [{"height": 3024, "html_attributions": ["<a href=\"https://maps.google.com/maps/contrib/105113131166775955609/photos\">Bloom \u2014 Dry Cleaning &amp; Alterations</a>"], "photo_reference": "CmRaAAAAmu_HAO7gbSTRmax86uLSKXVvo01fZcP39xytUkJZo12XDZmvjVK3gh0j_IId_EsMm9TGms4mcvE4ydqqDOXNBuvWEpH0_MXXxn-xWgAqU6GK05kkCD8iGzr7XmeJ7qpSEhAZM8k2pjp0lLRHj6sYbfmUGhQvUr0piBy1X-E9STeijEeSHJx9Lg", "width": 4032}], "place_id": "ChIJVYGQwz1x44kRNgl52InJ99g", "plus_code": {"compound_code": "9XC6+64 Boston, Massachusetts, United States", "global_code": "87JC9XC6+64"}, "rating": 4.1, "reference": "ChIJVYGQwz1x44kRNgl52InJ99g", "scope": "GOOGLE", "types": ["laundry", "point_of_interest", "establishment"], "user_ratings_total": 10, "vicinity": "108 Maverick Street, Boston"}, "ChIJ4Ujg5lxw44kRH7NYuXm8lm0": {"geometry": {"location": {"lat": 42.37088579999999, "lng": -71.0395692}, "viewport": {"northeast": {"lat": 42.37217998029149, "lng": -71.03809596970848}, "southwest": {"lat": 42.3694820197085, "lng": -71.0407939302915}}}, "icon": "https://maps.gstatic.com/mapfiles/place_api/icons/generic_business-71.png", "id": "5d9e9b8065c1c4e143b27933ee313d0facdc2dc3", "name": "48 Paris St Parking", "place_id": "ChIJ4Ujg5lxw44kRH7NYuXm8lm0", "plus_code": {"compound_code": "9XC6+95 Boston, Massachusetts, United States", "global_code": "87JC9XC6+95"}, "reference": "ChIJ4Ujg5lxw44kRH7NYuXm8lm0", "scope": "GOOGLE", "types": ["parking", "point_of_interest", "establishment"], "vicinity": "48 Paris Street, Boston"}, "ChIJGzE9DS1l44kRoOhiASS_fHg": {"geometry": {"location": {"lat": 42.3600825, "lng": -71.0588801}, "viewport": {"northeast": {"lat": 42.40081989999999, "lng": -70.749455}, "southwest": {"lat": 42.22788, "lng": -71.191113}}}, "icon": "https://maps.gstatic.com/mapfiles/place_api/icons/geocode-71.png", "id": "06755c25d2b34d13942a4713971756a55b870ced", "name": "Boston", "photos": [{"height": 3024, "html_attributions": ["<a href=\"https://maps.google.com/maps/contrib/104670289779338733432/photos\">Natalia Zalucean</a>"], "photo_reference": "CmRaAAAAndNolpPQgQ7Oi2lDN1UVsOpC4YKCWT7CUeGzB4AbSOeZpL9d23akP3xY4rOK8HGWX0chN_RFB8Rdob7QLRLKRaQrx4cgK_bHovBKY5AE_cInMwCduEbleAhXQlpTDoD7EhA2v-_W5i9Mn8a8DlJT6miiGhRXYT5ZfQ6NGjP6hL08cd7r96SXPw", "width": 4032}], "place_id": "ChIJGzE9DS1l44kRoOhiASS_fHg", "reference": "ChIJGzE9DS1l44kRoOhiASS_fHg", "scope": "GOOGLE", "types": ["locality", "political"], "vicinity": "Boston"}, "ChIJKVEGH11w44kR_So-b0xG_ao": {"geometry": {"location": {"lat": 42.3703369, "lng": -71.0395568}, "viewport": {"northeast": {"lat": 42.3717156802915, "lng": -71.03818441970849}, "southwest": {"lat": 42.3690177197085, "lng": -71.0408823802915}}}, "icon": "https://maps.gstatic.com/mapfiles/place_api/icons/generic_business-71.png", "id": "a9adab19b7831674e102d51cf11254851d6aec4f", "name": "Burbujas Laundry", "opening_hours": {"open_now": true}, "photos": [{"height": 5312, "html_attributions": ["<a href=\"https://maps.google.com/maps/contrib/102990991537043308776/photos\">Johana Jimenez</a>"], "photo_reference": "CmRaAAAAYZ31V5j5MTaafLls34ccY0U1SXKyn7yHpGt8N6dIrf710rD4Vsbtv6jjCdd1ttE3sWWwqCW-H3f0TpygSqY8GIlUBY5hiItXaKsdUl_5eroW5xzBilNVWyZlQJ2b9rjwEhDZQYHGOOtxZkUfjojWq6ygGhSdhOY7UaXqqhHWI5yxvf4KYMbt1w", "width": 2988}], "place_id": "ChIJKVEGH11w44kR_So-b0xG_ao", "plus_code": {"compound_code": "9XC6+45 Boston, Massachusetts, United States", "global_code": "87JC9XC6+45"}, "rating": 4.6, "reference": "ChIJKVEGH11w44kR_So-b0xG_ao", "scope": "GOOGLE", "types": ["laundry", "point_of_interest", "establishment"], "user_ratings_total": 14, "vicinity": "115 Maverick Street, Boston"}, "ChIJq6qqapxw44kRTUWi0BAwSfg": {"geometry": {"location": {"lat": 42.3702688, "lng": -71.0395721}, "viewport": {"northeast": {"lat": 42.3716755302915, "lng": -71.0381777697085}, "southwest": {"lat": 42.3689775697085, "lng": -71.0408757302915}}}, "icon": "https://maps.gstatic.com/mapfiles/place_api/icons/shopping-71.png", "id": "13cc889545b01f0427331e4f9496e4dd45b01f1d", "name": "Mark Floor Services", "place_id": "ChIJq6qqapxw44kRTUWi0BAwSfg", "plus_code": {"compound_code": "9XC6+45 Boston, Massachusetts, United States", "global_code": "87JC9XC6+45"}, "reference": "ChIJq6qqapxw44kRTUWi0BAwSfg", "scope": "GOOGLE", "types": ["home_goods_store", "store", "point_of_interest", "establishment"], "vicinity": "117 Maverick Street, Boston"}, "ChIJ5YyBH11w44kRRDWswZsITo4": {"geometry": {"location": {"lat": 42.370253, "lng": -71.0394927}, "viewport": {"northeast": {"lat": 42.3716529302915, "lng": -71.0381037197085}, "southwest": {"lat": 42.3689549697085, "lng": -71.04080168029151}}}, "icon": "https://maps.gstatic.com/mapfiles/place_api/icons/generic_business-71.png", "id": "9e75af1253315d9898eee83f9fddca33c9895a24", "name": "First Class", "opening_hours": {"open_now": true}, "photos": [{"height": 5312, "html_attributions": ["<a href=\"https://maps.google.com/maps/contrib/117590389348498380407/photos\">Maggie Lopez</a>"], "photo_reference": "CmRaAAAA_8jPo1uLtGQMCJjuh8abK3586y6RxwU83qkPRhNL4Im237X6ic9fpVDapyVPW7vSCIdqYBKkxclS8RnXnTSFFKIh1yj8ejpjInyyW6XEcQAIrtV4M3jS574Mc6NBIRpcEhB80DJ4UulpbrE2t65WQlpbGhRDBaEI-Xh1RimUr38f04cXHDfJzg", "width": 2988}], "place_id": "ChIJ5YyBH11w44kRRDWswZsITo4", "plus_code": {"compound_code": "9XC6+46 Boston, Massachusetts, United States", "global_code": "87JC9XC6+46"}, "rating": 4, "reference": "ChIJ5YyBH11w44kRRDWswZsITo4", "scope": "GOOGLE", "types": ["beauty_salon", "hair_care", "point_of_interest", "establishment"], "user_ratings_total": 20, "vicinity": "121 Maverick Street, Boston"}, "ChIJcev121xw44kRQgjRwnVNI6E": {"geometry": {"location": {"lat": 42.370746, "lng": -71.03912129999999}, "viewport": {"northeast": {"lat": 42.3720964302915, "lng": -71.03769726970847}, "southwest": {"lat": 42.3693984697085, "lng": -71.0403952302915}}}, "icon": "https://maps.gstatic.com/mapfiles/place_api/icons/generic_business-71.png", "id": "dccca1a6c8b275172e66f9e8d568c9ddafe16101", "name": "Team InterGroup Realty", "opening_hours": {"open_now": true}, "place_id": "ChIJcev121xw44kRQgjRwnVNI6E", "plus_code": {"compound_code": "9XC6+79 Boston, Massachusetts, United States", "global_code": "87JC9XC6+79"}, "rating": 1, "reference": "ChIJcev121xw44kRQgjRwnVNI6E", "scope": "GOOGLE", "types": ["real_estate_agency", "point_of_interest", "establishment"], "user_ratings_total": 1, "vicinity": "18 Meridian Street, East Boston"}, "ChIJcev121xw44kRcVmL4YfQJfI": {"geometry": {"location": {"lat": 42.370746, "lng": -71.03912129999999}, "viewport": {"northeast": {"lat": 42.3720964302915, "lng": -71.03769726970847}, "southwest": {"lat": 42.3693984697085, "lng": -71.0403952302915}}}, "icon": "https://maps.gstatic.com/mapfiles/place_api/icons/generic_business-71.png", "id": "9c6b486cefc0d04e68d5458e4fe5c4f218222fd3", "name": "ADX", "opening_hours": {"open_now": true}, "place_id": "ChIJcev121xw44kRcVmL4YfQJfI", "plus_code": {"compound_code": "9XC6+79 Boston, Massachusetts, United States", "global_code": "87JC9XC6+79"}, "reference": "ChIJcev121xw44kRcVmL4YfQJfI", "scope": "GOOGLE", "types": ["point_of_interest", "establishment"], "vicinity": "18 Meridian Street, East Boston"}, "ChIJT7MZ3Fxw44kRU7xwfdls9k8": {"geometry": {"location": {"lat": 42.3707526, "lng": -71.03908630000001}, "viewport": {"northeast": {"lat": 42.3721026802915, "lng": -71.0376798697085}, "southwest": {"lat": 42.3694047197085, "lng": -71.0403778302915}}}, "icon": "https://maps.gstatic.com/mapfiles/place_api/icons/generic_business-71.png", "id": "6b803deea23bb1249e4692278cd957065f0b5fff", "name": "Aquabella Spa", "opening_hours": {"open_now": true}, "photos": [{"height": 3264, "html_attributions": ["<a href=\"https://maps.google.com/maps/contrib/115598831132378408525/photos\">Mayra Gracia</a>"], "photo_reference": "CmRaAAAAWG3qz7ovXeO3uRbqW2VU2-ZOnqPTs-DSUeyMOP8QF_Qw9UNnri4gwMbyr9bbIcwt32E3_S5vp06j-bR-arhTXGFnri7wuEdLTgm6BY3lvNf5KGyqYld6IcGw--RGXEwtEhDI084kG8gy3Ny62-_sDNlUGhREAvJZulZT1e_upPVH2SL2LZALAw", "width": 1836}], "place_id": "ChIJT7MZ3Fxw44kRU7xwfdls9k8", "plus_code": {"compound_code": "9XC6+89 Boston, Massachusetts, United States", "global_code": "87JC9XC6+89"}, "rating": 3.2, "reference": "ChIJT7MZ3Fxw44kRU7xwfdls9k8", "scope": "GOOGLE", "types": ["spa", "point_of_interest", "establishment"], "user_ratings_total": 5, "vicinity": "20 Meridian Street, Boston"}, "ChIJUbMZ3Fxw44kRBSPK6YxMrLo": {"geometry": {"location": {"lat": 42.3707526, "lng": -71.03908630000001}, "viewport": {"northeast": {"lat": 42.3721026802915, "lng": -71.0376798697085}, "southwest": {"lat": 42.3694047197085, "lng": -71.0403778302915}}}, "icon": "https://maps.gstatic.com/mapfiles/place_api/icons/generic_business-71.png", "id": "44c6537bea92aa7a20fc22d81e554860b88057ca", "name": "Carlos Leon style Studios", "opening_hours": {"open_now": true}, "photos": [{"height": 3023, "html_attributions": ["<a href=\"https://maps.google.com/maps/contrib/100884699781284589973/photos\">@carlosleonstyle Studio</a>"], "photo_reference": "CmRaAAAA28LC4Kxwk2thlN-niyTRQXbmAG80pXh_3fmpluaC_6zJglmyewG77bgS3v1gT_12HuKM83-NJLAlbMDDZ9pxDAxvpb1UiQXEEtMv8798C-a6GAOokzkVFesKuDd5D65rEhBTNysYNMvTF-g0NXrwNhTrGhQHwcOYM4Fj8EPF-BkjABm1cGBkeQ", "width": 3025}], "place_id": "ChIJUbMZ3Fxw44kRBSPK6YxMrLo", "plus_code": {"compound_code": "9XC6+89 Boston, Massachusetts, United States", "global_code": "87JC9XC6+89"}, "reference": "ChIJUbMZ3Fxw44kRBSPK6YxMrLo", "scope": "GOOGLE", "types": ["beauty_salon", "hair_care", "point_of_interest", "establishment"], "vicinity": "20 Meridian Street Floor 2, Boston"}, "ChIJtRju51xw44kRHSASzj7OER4": {"geometry": {"location": {"lat": 42.37102489999999, "lng": -71.0394245}, "viewport": {"northeast": {"lat": 42.3723243302915, "lng": -71.03796316970849}, "southwest": {"lat": 42.3696263697085, "lng": -71.0406611302915}}}, "icon": "https://maps.gstatic.com/mapfiles/place_api/icons/generic_business-71.png", "id": "da1863702da144159fdbca8b1b02e281e01e2152", "name": "They Fought We Ride", "place_id": "ChIJtRju51xw44kRHSASzj7OER4", "plus_code": {"compound_code": "9XC6+C6 Boston, Massachusetts, United States", "global_code": "87JC9XC6+C6"}, "rating": 5, "reference": "ChIJtRju51xw44kRHSASzj7OER4", "scope": "GOOGLE", "types": ["point_of_interest", "establishment"], "user_ratings_total": 1, "vicinity": "60 Paris Street, Boston"}, "ChIJXdDkIV1w44kRVh7fIkEQSzA": {"geometry": {"location": {"lat": 42.3701887, "lng": -71.03938819999999}, "viewport": {"northeast": {"lat": 42.3715959302915, "lng": -71.0379935197085}, "southwest": {"lat": 42.3688979697085, "lng": -71.04069148029151}}}, "icon": "https://maps.gstatic.com/mapfiles/place_api/icons/bar-71.png", "id": "88e3af4817984c94a364d9fe501d1d3fd6f543fc", "name": "N Farra", "photos": [{"height": 4032, "html_attributions": ["<a href=\"https://maps.google.com/maps/contrib/105705745177688800679/photos\">Danelly Garcia J</a>"], "photo_reference": "CmRaAAAA3pTb1UH33ois6epP2FttQw8CgKHXSvG5VsnjzfMIBSOvAR0IVulPT-KnLW8J_amuxm6SN5RrIso_Bfdc8GnfaJhEojZz_ZLXcYQ35bU5jIqSFgHMYUIcRJD6ylgQ8NjbEhDxyXqY0weJDlJ12_vLUomTGhSVCjlUWLED1rY-2WV723vplPkgLQ", "width": 3024}], "place_id": "ChIJXdDkIV1w44kRVh7fIkEQSzA", "plus_code": {"compound_code": "9XC6+36 Boston, Massachusetts, United States", "global_code": "87JC9XC6+36"}, "rating": 4.1, "reference": "ChIJXdDkIV1w44kRVh7fIkEQSzA", "scope": "GOOGLE", "types": ["bar", "point_of_interest", "establishment"], "user_ratings_total": 8, "vicinity": "127 Maverick Street, Boston"}, "ChIJhywUAF1w44kRGBZZlOS8pgc": {"geometry": {"location": {"lat": 42.3706383, "lng": -71.0407695}, "viewport": {"northeast": {"lat": 42.3720067302915, "lng": -71.0394327697085}, "southwest": {"lat": 42.3693087697085, "lng": -71.0421307302915}}}, "icon": "https://maps.gstatic.com/mapfiles/place_api/icons/generic_recreational-71.png", "id": "9180c08d01c9b38388fc332356822cb806ae0170", "name": "Lombardi Memorial Park", "place_id": "ChIJhywUAF1w44kRGBZZlOS8pgc", "reference": "ChIJhywUAF1w44kRGBZZlOS8pgc", "scope": "GOOGLE", "types": ["park", "premise", "point_of_interest", "establishment"], "vicinity": "Boston"}}