{"ChIJyYYuzWt544kRgsODSoehumg": {"geometry": {"location": {"lat": 42.3075277, "lng": -71.1160412}, "viewport": {"northeast": {"lat": 42.3088689802915, "lng": -71.11468981970849}, "southwest": {"lat": 42.3061710197085, "lng": -71.1173877802915}}}, "icon": "https://maps.gstatic.com/mapfiles/place_api/icons/geocode-71.png", "id": "07e9a9302ad43933778cd23d68f99fd5775bc4bb", "name": "16-2 Custer St", "place_id": "ChIJyYYuzWt544kRgsODSoehumg", "reference": "ChIJyYYuzWt544kRgsODSoehumg", "scope": "GOOGLE", "types": ["route"], "vicinity": "Boston"}, "ChIJEaq3Pmp544kRq5a0JqBh4xk": {"geometry": {"location": {"lat": 42.30677499999999, "lng": -71.1164533}, "viewport": {"northeast": {"lat": 42.30804208029149, "lng": -71.11507156970849}, "southwest": {"lat": 42.30534411970849, "lng": -71.1177695302915}}}, "icon": "https://maps.gstatic.com/mapfiles/place_api/icons/generic_business-71.png", "id": "ded64f71a64b8595e1dae0cfea78b143000e3511", "name": "Nazareth Family Center", "photos": [{"height": 1200, "html_attributions": ["<a href=\"https://maps.google.com/maps/contrib/107625037178818298185/photos\">Orqu\u00eddea Puello</a>"], "photo_reference": "CmRaAAAAFOpYCg6AsrQHJz6vEgUCQglAWMTjJfkXRR2dJMmTSw_8UMAHynlAp56JT5azhcL6Vl4xD3T_JYEJMOOixV7S1eTQAVOr5hDZcut5g36Qzr8DjvZ62k78vDnEDQev0BvdEhCEjS-m0g7VkP53x455gCz6GhS9qalWR8R5W4MtvPOsVfuZZN-K2g", "width": 1600}], "place_id": "ChIJEaq3Pmp544kRq5a0JqBh4xk", "plus_code": {"compound_code": "8V4M+PC Boston, Massachusetts, United States", "global_code": "87JC8V4M+PC"}, "rating": 4.8, "reference": "ChIJEaq3Pmp544kRq5a0JqBh4xk", "scope": "GOOGLE", "types": ["point_of_interest", "establishment"], "user_ratings_total": 5, "vicinity": "19 Saint Joseph Street, Jamaica Plain"}, "ChIJEaq3Pmp544kRf8YlrbwTV-M": {"geometry": {"location": {"lat": 42.30677979999999, "lng": -71.1163698}, "viewport": {"northeast": {"lat": 42.3080530802915, "lng": -71.1149905197085}, "southwest": {"lat": 42.3053551197085, "lng": -71.11768848029152}}}, "icon": "https://maps.gstatic.com/mapfiles/place_api/icons/generic_business-71.png", "id": "80ef61713431603349c602708a29b544119f3207", "name": "Catholic Charities", "photos": [{"height": 1440, "html_attributions": ["<a href=\"https://maps.google.com/maps/contrib/112249683781453484419/photos\">Grecys Perez</a>"], "photo_reference": "CmRaAAAAiwtdAEqZCQ0_UMWoYmfEiz0jpkQ9IlQV6_G7Qvw3Jrwsw4t9KTFrCEbqDGVRC8shmCZ3FtfrZX740PLrMVCOoMeB6Fl3rpqbB36vz24GuHmbplpgifrc_iVzscYWhMuYEhBFIk1zl-4-MT2wilVV2UImGhQ5CNfddh3dDIWh4lV55ioFOjYHPQ", "width": 2560}], "place_id": "ChIJEaq3Pmp544kRf8YlrbwTV-M", "plus_code": {"compound_code": "8V4M+PF Boston, Massachusetts, United States", "global_code": "87JC8V4M+PF"}, "rating": 4.7, "reference": "ChIJEaq3Pmp544kRf8YlrbwTV-M", "scope": "GOOGLE", "types": ["point_of_interest", "establishment"], "user_ratings_total": 6, "vicinity": "19 Saint Joseph Street, Jamaica Plain"}, "ChIJ6euxSWp544kRdhzVudxK_Ww": {"geometry": {"location": {"lat": 42.3072106, "lng": -71.1167633}, "viewport": {"northeast": {"lat": 42.3086311302915, "lng": -71.11544326970849}, "southwest": {"lat": 42.3059331697085, "lng": -71.1181412302915}}}, "icon": "https://maps.gstatic.com/mapfiles/place_api/icons/generic_business-71.png", "id": "e8f59e5ef475402d4207748eff4d56f6d6e3bbd7", "name": "Rick Bornstein,CPA", "place_id": "ChIJ6euxSWp544kRdhzVudxK_Ww", "plus_code": {"compound_code": "8V4M+V7 Boston, Massachusetts, United States", "global_code": "87JC8V4M+V7"}, "reference": "ChIJ6euxSWp544kRdhzVudxK_Ww", "scope": "GOOGLE", "types": ["accounting", "finance", "point_of_interest", "establishment"], "vicinity": "22 Custer Street #1, Jamaica Plain"}, "ChIJ0ajhOGp544kRZIB_cyVi6R4": {"geometry": {"location": {"lat": 42.30677499999999, "lng": -71.1164532}, "viewport": {"northeast": {"lat": 42.3080421302915, "lng": -71.1150714697085}, "southwest": {"lat": 42.3053441697085, "lng": -71.1177694302915}}}, "icon": "https://maps.gstatic.com/mapfiles/place_api/icons/school-71.png", "id": "b8536b17fd44177fdb22d2dd868c762ab5ede703", "name": "MassAEYC", "place_id": "ChIJ0ajhOGp544kRZIB_cyVi6R4", "plus_code": {"compound_code": "8V4M+PC Boston, Massachusetts, United States", "global_code": "87JC8V4M+PC"}, "reference": "ChIJ0ajhOGp544kRZIB_cyVi6R4", "scope": "GOOGLE", "types": ["point_of_interest", "establishment"], "vicinity": "19 Saint Joseph Street, Jamaica Plain"}, "ChIJLWkdTGp544kR-lkHqOaDIaw": {"geometry": {"location": {"lat": 42.307412, "lng": -71.1170506}, "viewport": {"northeast": {"lat": 42.3087108802915, "lng": -71.11568131970849}, "southwest": {"lat": 42.3060129197085, "lng": -71.1183792802915}}}, "icon": "https://maps.gstatic.com/mapfiles/place_api/icons/generic_business-71.png", "id": "9da81e4ce3bc64907d05a222a655c4a7dca42728", "name": "Custer Estate Condominiums", "place_id": "ChIJLWkdTGp544kR-lkHqOaDIaw", "plus_code": {"compound_code": "8V4M+X5 Boston, Massachusetts, United States", "global_code": "87JC8V4M+X5"}, "reference": "ChIJLWkdTGp544kR-lkHqOaDIaw", "scope": "GOOGLE", "types": ["point_of_interest", "establishment"], "vicinity": "25 Custer Street, Jamaica Plain"}, "ChIJ0YdoTGp544kRCSFZetg8XsY": {"geometry": {"location": {"lat": 42.3075002, "lng": -71.1170806}, "viewport": {"northeast": {"lat": 42.3087555802915, "lng": -71.1156937197085}, "southwest": {"lat": 42.3060576197085, "lng": -71.11839168029151}}}, "icon": "https://maps.gstatic.com/mapfiles/place_api/icons/generic_business-71.png", "id": "ffad02696db2b647647f9178eec6404a343ee62b", "name": "Marilyn Rosen Presents", "place_id": "ChIJ0YdoTGp544kRCSFZetg8XsY", "plus_code": {"compound_code": "8V5M+25 Boston, Massachusetts, United States", "global_code": "87JC8V5M+25"}, "rating": 3, "reference": "ChIJ0YdoTGp544kRCSFZetg8XsY", "scope": "GOOGLE", "types": ["point_of_interest", "establishment"], "user_ratings_total": 1, "vicinity": "25 Custer Street #204, Boston"}, "ChIJtziDLmp544kRdrGXiI2s1M8": {"geometry": {"location": {"lat": 42.3069937, "lng": -71.1164057}, "viewport": {"northeast": {"lat": 42.30838213029151, "lng": -71.11504556970849}, "southwest": {"lat": 42.30568416970851, "lng": -71.1177435302915}}}, "icon": "https://maps.gstatic.com/mapfiles/place_api/icons/generic_business-71.png", "id": "100c0b6cdf292aac4d21adda5970896200c6c374", "name": "Energies from Source Healing Center", "opening_hours": {"open_now": false}, "photos": [{"height": 1370, "html_attributions": ["<a href=\"https://maps.google.com/maps/contrib/117597527966641973639/photos\">Energies from Source Healing Center</a>"], "photo_reference": "CmRaAAAAVUlj2T1rrNyn3iFeHILyIGc3FdC_59V1SkL50X9YVga_jmSsDxmymKpq4BrzPVavFwg6-DKOl3MLTCN0gXsKJjxMTwGQE52nf2MgXhKnC8NzORSGN39Ew2AGrmo8NMJjEhBC636ZA_f0N9ne58mzIaeAGhRHoyKTvZ0RUNS2WfIqhXQ22PZ4fQ", "width": 2048}], "place_id": "ChIJtziDLmp544kRdrGXiI2s1M8", "plus_code": {"compound_code": "8V4M+QC Boston, Massachusetts, United States", "global_code": "87JC8V4M+QC"}, "rating": 5, "reference": "ChIJtziDLmp544kRdrGXiI2s1M8", "scope": "GOOGLE", "types": ["point_of_interest", "establishment"], "user_ratings_total": 3, "vicinity": "P.O.Box 300034, Jamaica Plain"}, "ChIJX8aBSWp544kRKn8eBsX93TE": {"geometry": {"location": {"lat": 42.3073425, "lng": -71.1168186}, "viewport": {"northeast": {"lat": 42.3086720802915, "lng": -71.1154617697085}, "southwest": {"lat": 42.3059741197085, "lng": -71.11815973029151}}}, "icon": "https://maps.gstatic.com/mapfiles/place_api/icons/generic_business-71.png", "id": "b25a624f0826d9174ed072b4c277e1cbc7be1635", "name": "Practical Accountant", "place_id": "ChIJX8aBSWp544kRKn8eBsX93TE", "plus_code": {"compound_code": "8V4M+W7 Boston, Massachusetts, United States", "global_code": "87JC8V4M+W7"}, "reference": "ChIJX8aBSWp544kRKn8eBsX93TE", "scope": "GOOGLE", "types": ["accounting", "finance", "point_of_interest", "establishment"], "vicinity": "22 Custer Street # 1, Jamaica Plain"}, "ChIJeTASOWp544kREMrFYfiIIDU": {"geometry": {"location": {"lat": 42.30677979999999, "lng": -71.1163698}, "viewport": {"northeast": {"lat": 42.3080530802915, "lng": -71.1149905197085}, "southwest": {"lat": 42.3053551197085, "lng": -71.11768848029152}}}, "icon": "https://maps.gstatic.com/mapfiles/place_api/icons/school-71.png", "id": "c0d02266e70eb28f3d399a42e979055b49efa207", "name": "Escuela de las princesas", "place_id": "ChIJeTASOWp544kREMrFYfiIIDU", "plus_code": {"compound_code": "8V4M+PF Boston, Massachusetts, United States", "global_code": "87JC8V4M+PF"}, "reference": "ChIJeTASOWp544kREMrFYfiIIDU", "scope": "GOOGLE", "types": ["school", "point_of_interest", "establishment"], "vicinity": "0213, 19-29 Saint Joseph Street, Jamaica Plain"}, "ChIJ96m9LWp544kRPE33etoifmk": {"geometry": {"location": {"lat": 42.30727199999999, "lng": -71.1157829}, "viewport": {"northeast": {"lat": 42.30863748029149, "lng": -71.11427371970849}, "southwest": {"lat": 42.3059395197085, "lng": -71.1169716802915}}}, "icon": "https://maps.gstatic.com/mapfiles/place_api/icons/generic_business-71.png", "id": "f1158d9db3a4df9ece572d371594997b0518a102", "name": "Peter Fenn & Associates", "place_id": "ChIJ96m9LWp544kRPE33etoifmk", "plus_code": {"compound_code": "8V4M+WM Boston, Massachusetts, United States", "global_code": "87JC8V4M+WM"}, "reference": "ChIJ96m9LWp544kRPE33etoifmk", "scope": "GOOGLE", "types": ["lawyer", "point_of_interest", "establishment"], "vicinity": "71 South Street, Jamaica Plain"}, "ChIJGzE9DS1l44kRoOhiASS_fHg": {"geometry": {"location": {"lat": 42.3600825, "lng": -71.0588801}, "viewport": {"northeast": {"lat": 42.40081989999999, "lng": -70.749455}, "southwest": {"lat": 42.22788, "lng": -71.191113}}}, "icon": "https://maps.gstatic.com/mapfiles/place_api/icons/geocode-71.png", "id": "06755c25d2b34d13942a4713971756a55b870ced", "name": "Boston", "photos": [{"height": 3024, "html_attributions": ["<a href=\"https://maps.google.com/maps/contrib/104670289779338733432/photos\">Natalia Zalucean</a>"], "photo_reference": "CmRaAAAAsQYiVTa7J38Wcge8wrWZ6ad7C7g6RA_12LjCyMQtwdGejidJCt_T-RDlcxWq846lrqMGwa0IySoN3HY5U_Zp_LDjRvd5boa2Cllp-ny5loNPqwnhJcKX79FTsJSSMcHVEhCLolHC14TvYn8ppMQ9YFlnGhTYVFwSVMMCDlRpyWNjM48ViTJ37Q", "width": 4032}], "place_id": "ChIJGzE9DS1l44kRoOhiASS_fHg", "reference": "ChIJGzE9DS1l44kRoOhiASS_fHg", "scope": "GOOGLE", "types": ["locality", "political"], "vicinity": "Boston"}}