{"ChIJGzE9DS1l44kRoOhiASS_fHg": {"geometry": {"location": {"lat": 42.3600825, "lng": -71.0588801}, "viewport": {"northeast": {"lat": 42.40081989999999, "lng": -70.749455}, "southwest": {"lat": 42.22788, "lng": -71.191113}}}, "icon": "https://maps.gstatic.com/mapfiles/place_api/icons/geocode-71.png", "id": "06755c25d2b34d13942a4713971756a55b870ced", "name": "Boston", "photos": [{"height": 3024, "html_attributions": ["<a href=\"https://maps.google.com/maps/contrib/104670289779338733432/photos\">Natalia Zalucean</a>"], "photo_reference": "CmRaAAAABwV2FkjhiFF5B-Sy9IlOUfw6Vl-JXIv3_lrxp2Z5-qQDpRcYsOeqHj1T6Rqonvkqr3xHwiRY1QVcVw9sfl9kFsCF-eups2jfFJn-BcG85A5IIdus6-c3pjbSuh7tSWt3EhDIewS6mdisgeSU1O8KByX6GhT9t0Mv23ek0LbvWifIyb3lWVo4Kw", "width": 4032}], "place_id": "ChIJGzE9DS1l44kRoOhiASS_fHg", "reference": "ChIJGzE9DS1l44kRoOhiASS_fHg", "scope": "GOOGLE", "types": ["locality", "political"], "vicinity": "Boston"}, "ChIJyQubR3B644kR7GAFYX91sfU": {"geometry": {"location": {"lat": 42.34530119999999, "lng": -71.0624946}, "viewport": {"northeast": {"lat": 42.3466145302915, "lng": -71.06115911970849}, "southwest": {"lat": 42.3439165697085, "lng": -71.0638570802915}}}, "icon": "https://maps.gstatic.com/mapfiles/place_api/icons/cafe-71.png", "id": "f563bfad2ed02dff33d180b3451ea61a3fae3191", "name": "Allegro Coffee Company", "opening_hours": {"open_now": true}, "photos": [{"height": 720, "html_attributions": ["<a href=\"https://maps.google.com/maps/contrib/117845736018632229096/photos\">Allegro Coffee Company</a>"], "photo_reference": "CmRaAAAAEzOnpnAry4hZMWyfjQUXKpSjkXX6QuSW8bE0O-MOsxnB60lHnE8fr1Q-oxjD7HVT2qxHZON5uY4B8gNPVWUCeVw-cO9QNR7lsiZ9nFrQXmAvgsvd54QZpqkPzCXyjos9EhDHGRlmFrdJ2OP_SJPPrz0nGhQV9n4nOfQgATQX3lOsCObWAey20Q", "width": 720}], "place_id": "ChIJyQubR3B644kR7GAFYX91sfU", "plus_code": {"compound_code": "8WWQ+42 Boston, Massachusetts, United States", "global_code": "87JC8WWQ+42"}, "reference": "ChIJyQubR3B644kR7GAFYX91sfU", "scope": "GOOGLE", "types": ["cafe", "store", "point_of_interest", "food", "establishment"], "vicinity": "348 Harrison Ave, Boston"}, "ChIJuyXzb3B644kRw-VRsr5GKvc": {"geometry": {"location": {"lat": 42.34540509999999, "lng": -71.06269449999999}, "viewport": {"northeast": {"lat": 42.3466894802915, "lng": -71.06137001970849}, "southwest": {"lat": 42.3439915197085, "lng": -71.0640679802915}}}, "icon": "https://maps.gstatic.com/mapfiles/place_api/icons/generic_business-71.png", "id": "c7b8be0dbd64b2cbb5479791761a0ebcbaa1b46f", "name": "Amazon Locker - Southend", "opening_hours": {"open_now": true}, "place_id": "ChIJuyXzb3B644kRw-VRsr5GKvc", "plus_code": {"compound_code": "8WWP+5W Boston, Massachusetts, United States", "global_code": "87JC8WWP+5W"}, "rating": 5, "reference": "ChIJuyXzb3B644kRw-VRsr5GKvc", "scope": "GOOGLE", "types": ["point_of_interest", "establishment"], "user_ratings_total": 1, "vicinity": "Whole Foods Market, 348 Harrison Avenue, Boston"}, "ChIJV5TgOnB644kR8PY0a-9JJxE": {"geometry": {"location": {"lat": 42.3444761, "lng": -71.0631752}, "viewport": {"northeast": {"lat": 42.34574088029149, "lng": -71.06186006970849}, "southwest": {"lat": 42.34304291970849, "lng": -71.06455803029151}}}, "icon": "https://maps.gstatic.com/mapfiles/place_api/icons/school-71.png", "id": "b74a5b82571ab3f0dba9d163c9bece583240fa7d", "name": "CorePower Yoga", "opening_hours": {"open_now": true}, "photos": [{"height": 1875, "html_attributions": ["<a href=\"https://maps.google.com/maps/contrib/102422768326673759024/photos\">CorePower Yoga</a>"], "photo_reference": "CmRaAAAA5Wz6y9vBdUoGnHX7PGTWlO3OxZAleIvWgQhY9p9_6RAJmLI4roX0PO1tuAh8fhu5UW4oSY1CiYctsweDhJ0IE9ipgAOiqPSrjm90zNq8QitOsYPdNbe2rKZH5SqJ8iX0EhDMXzZH5A6bLI4_CG2ia7rVGhQs0eTUTVR9DWVJedlTRayHh-cUrA", "width": 2500}], "place_id": "ChIJV5TgOnB644kR8PY0a-9JJxE", "plus_code": {"compound_code": "8WVP+QP Boston, Massachusetts, United States", "global_code": "87JC8WVP+QP"}, "rating": 4.8, "reference": "ChIJV5TgOnB644kR8PY0a-9JJxE", "scope": "GOOGLE", "types": ["gym", "health", "point_of_interest", "establishment"], "user_ratings_total": 40, "vicinity": "36 Traveler Street #1, Boston"}, "ChIJYaSaOHB644kR55_8-NVgXT4": {"geometry": {"location": {"lat": 42.345449, "lng": -71.0627816}, "viewport": {"northeast": {"lat": 42.34672138029149, "lng": -71.06146166970849}, "southwest": {"lat": 42.34402341970849, "lng": -71.0641596302915}}}, "icon": "https://maps.gstatic.com/mapfiles/place_api/icons/shopping-71.png", "id": "4404fd82a1b8d2d59e04ffbcb6cc0983797352ce", "name": "Whole Foods Market", "opening_hours": {"open_now": true}, "photos": [{"height": 2129, "html_attributions": ["<a href=\"https://maps.google.com/maps/contrib/111704714362262488449/photos\">Alfredo Pina</a>"], "photo_reference": "CmRaAAAAYnmLoBbNPfV_yXpECgt-ONkfvit4gRe_4SrrAVWu7SZzMPLkxM-mX8ok3zvQ26zT0Wqv0V-kZBWWqffZ6pRZO9ydAJd1rJ6E1r6w0OcGiS4r0vIxPmHuc4RA13apF56SEhBIXzk4kLgodiNjBv7IQzS5GhSp1_MjVXE7kTEZ1wtMT9eVTTAoBA", "width": 3522}], "place_id": "ChIJYaSaOHB644kR55_8-NVgXT4", "plus_code": {"compound_code": "8WWP+5V Boston, Massachusetts, United States", "global_code": "87JC8WWP+5V"}, "price_level": 3, "rating": 4.5, "reference": "ChIJYaSaOHB644kR55_8-NVgXT4", "scope": "GOOGLE", "types": ["grocery_or_supermarket", "supermarket", "store", "health", "point_of_interest", "food", "establishment"], "user_ratings_total": 603, "vicinity": "348 Harrison Avenue, Boston"}, "ChIJoVTbE3B644kRSzn9IZhuxF0": {"geometry": {"location": {"lat": 42.34450140000001, "lng": -71.06265909999999}, "viewport": {"northeast": {"lat": 42.3458922802915, "lng": -71.06129341970849}, "southwest": {"lat": 42.3431943197085, "lng": -71.06399138029151}}}, "icon": "https://maps.gstatic.com/mapfiles/place_api/icons/generic_business-71.png", "id": "504f91649e50231d8481579c58945f3db03ca4d6", "name": "30-98 Traveler St Parking", "place_id": "ChIJoVTbE3B644kRSzn9IZhuxF0", "plus_code": {"compound_code": "8WVP+RW Boston, Massachusetts, United States", "global_code": "87JC8WVP+RW"}, "reference": "ChIJoVTbE3B644kRSzn9IZhuxF0", "scope": "GOOGLE", "types": ["parking", "point_of_interest", "establishment"], "vicinity": "30-98 Traveler St, Boston"}, "ChIJwUl4d3B644kRk9ZgiXjUHUE": {"geometry": {"location": {"lat": 42.3447531, "lng": -71.0619944}, "viewport": {"northeast": {"lat": 42.34607828029149, "lng": -71.06053466970849}, "southwest": {"lat": 42.34338031970849, "lng": -71.0632326302915}}}, "icon": "https://maps.gstatic.com/mapfiles/place_api/icons/lodging-71.png", "id": "711608da5bb42c30bf6b4421b204908d4d2d274d", "name": "AC Hotel by Marriott Boston Downtown", "opening_hours": {"open_now": true}, "photos": [{"height": 1466, "html_attributions": ["<a href=\"https://maps.google.com/maps/contrib/117868937716518629840/photos\">AC Hotel by Marriott Boston Downtown</a>"], "photo_reference": "CmRaAAAAGXQQmuZ-GcIj8BE41GENIpTqyhmJ0Z1ugPe9o0K-SSAf600ZvG9rE5GhOj5lOTskYm-btPmfKJtYpz4a_Av6NQ_yrn_p8MuCGEcN5Z1UzoZ2ZwyL_GMvOW37MvJLHqyOEhBKZQoh123RJTSe-el8og9gGhRSpqNP4cnTA68UPLRtNcuk_Dcx-Q", "width": 2048}], "place_id": "ChIJwUl4d3B644kRk9ZgiXjUHUE", "plus_code": {"compound_code": "8WVQ+W6 Boston, Massachusetts, United States", "global_code": "87JC8WVQ+W6"}, "rating": 4.5, "reference": "ChIJwUl4d3B644kRk9ZgiXjUHUE", "scope": "GOOGLE", "types": ["lodging", "point_of_interest", "establishment"], "user_ratings_total": 204, "vicinity": "225 Albany Street, Boston"}, "ChIJ4VJiP3B644kR7gzj2Lf3jII": {"geometry": {"location": {"lat": 42.3448781, "lng": -71.063394}, "viewport": {"northeast": {"lat": 42.3461710302915, "lng": -71.0620679197085}, "southwest": {"lat": 42.3434730697085, "lng": -71.0647658802915}}}, "icon": "https://maps.gstatic.com/mapfiles/place_api/icons/generic_business-71.png", "id": "f826a7dd59127e512066e44be7b5e5dae378ca53", "name": "332-362 Harrison Ave Parking", "place_id": "ChIJ4VJiP3B644kR7gzj2Lf3jII", "plus_code": {"compound_code": "8WVP+XJ Boston, Massachusetts, United States", "global_code": "87JC8WVP+XJ"}, "reference": "ChIJ4VJiP3B644kR7gzj2Lf3jII", "scope": "GOOGLE", "types": ["parking", "point_of_interest", "establishment"], "vicinity": "332-362 Harrison Ave, Boston"}, "ChIJQ83iGf5744kR7mGXt40gA9o": {"geometry": {"location": {"lat": 42.3443177, "lng": -71.0624516}, "viewport": {"northeast": {"lat": 42.3455821802915, "lng": -71.06113671970849}, "southwest": {"lat": 42.3428842197085, "lng": -71.0638346802915}}}, "icon": "https://maps.gstatic.com/mapfiles/place_api/icons/generic_business-71.png", "id": "afb86d8e1d4fe29fceec7b6a604ac1a785e0e7c6", "name": "The Urban Hound @ INK", "opening_hours": {"open_now": true}, "photos": [{"height": 1276, "html_attributions": ["<a href=\"https://maps.google.com/maps/contrib/111172648535694548746/photos\">The Urban Hound @ INK</a>"], "photo_reference": "CmRaAAAAwiOgwZzUPz0R0lc070iYxprQqaNuIAgC7svvhEdwP97NLFpvIKxjJDoO3Q9M8NbVfUU6VpsQOTeSl3ilNCUO4tJyIecF8lNiHHZcJFLZZqZFZed-c1TXBGz3Qvd9_32OEhB-BOZBqv1ahRGQeXRRjXG7GhQv4xF8W2Rs07uwCYSF7AQCP1b8rw", "width": 1276}], "place_id": "ChIJQ83iGf5744kR7mGXt40gA9o", "plus_code": {"compound_code": "8WVQ+P2 Boston, Massachusetts, United States", "global_code": "87JC8WVQ+P2"}, "reference": "ChIJQ83iGf5744kR7mGXt40gA9o", "scope": "GOOGLE", "types": ["point_of_interest", "establishment"], "vicinity": "34 Traveler Street, Boston"}, "ChIJY3WYZXB644kRLntQAeRKxro": {"geometry": {"location": {"lat": 42.345449, "lng": -71.0627816}, "viewport": {"northeast": {"lat": 42.34672138029149, "lng": -71.06146166970849}, "southwest": {"lat": 42.34402341970849, "lng": -71.0641596302915}}}, "icon": "https://maps.gstatic.com/mapfiles/place_api/icons/restaurant-71.png", "id": "5bcadf3fd3107be8aed808cd4838a85016b43b4c", "name": "The Fish Shack", "opening_hours": {"open_now": true}, "photos": [{"height": 3123, "html_attributions": ["<a href=\"https://maps.google.com/maps/contrib/105626042354015503324/photos\">Ju Lim</a>"], "photo_reference": "CmRaAAAABQt-7TxRaVeJ14HzSjiKwoq7Uu-FelKnEmDLR8okThXGVRTpk6QrfOqy3mjuIGsxB9jqFHcnzMK0H3ZvoWt-a9hMSUUAyZPysI027LTrGkXgdfxoTch3cRSh67bB1P_1EhAQPu0KkFhbONQaL8nvFM7-GhRkRzOydvhRPx68bVuFoDbd_F82gw", "width": 2996}], "place_id": "ChIJY3WYZXB644kRLntQAeRKxro", "plus_code": {"compound_code": "8WWP+5V Boston, Massachusetts, United States", "global_code": "87JC8WWP+5V"}, "rating": 4.5, "reference": "ChIJY3WYZXB644kRLntQAeRKxro", "scope": "GOOGLE", "types": ["restaurant", "point_of_interest", "food", "establishment"], "user_ratings_total": 2, "vicinity": "348 Harrison Avenue, Boston"}, "ChIJY3WYZXB644kRBHDHhOC3sP4": {"geometry": {"location": {"lat": 42.345449, "lng": -71.0627816}, "viewport": {"northeast": {"lat": 42.34672138029149, "lng": -71.06146166970849}, "southwest": {"lat": 42.34402341970849, "lng": -71.0641596302915}}}, "icon": "https://maps.gstatic.com/mapfiles/place_api/icons/restaurant-71.png", "id": "817ab4da57c8fc689304bb6eeeb8f7a7b4785a9f", "name": "Kikka Sushi Noodle House", "opening_hours": {"open_now": true}, "place_id": "ChIJY3WYZXB644kRBHDHhOC3sP4", "plus_code": {"compound_code": "8WWP+5V Boston, Massachusetts, United States", "global_code": "87JC8WWP+5V"}, "reference": "ChIJY3WYZXB644kRBHDHhOC3sP4", "scope": "GOOGLE", "types": ["restaurant", "point_of_interest", "food", "establishment"], "vicinity": "348 Harrison Avenue, Boston"}, "ChIJ28p2uBR644kRGOnQAcK4Txc": {"geometry": {"location": {"lat": 42.3388111, "lng": -71.0765188}, "viewport": {"northeast": {"lat": 42.347756, "lng": -71.0607948}, "southwest": {"lat": 42.331455, "lng": -71.09079799999999}}}, "icon": "https://maps.gstatic.com/mapfiles/place_api/icons/geocode-71.png", "id": "bf793a5ca0b5e36b87cfa6836ddba9f86f2af360", "name": "South End", "photos": [{"height": 2736, "html_attributions": ["<a href=\"https://maps.google.com/maps/contrib/110185226650349094791/photos\">Alex Harm</a>"], "photo_reference": "CmRaAAAAgwBYoL9Da7uCpAxmAs6VETzzFQKL-LOOg8PUfcmamFKx3SwRxK4L4n8rMi6-2GedLRO5HqhbApS4oO_IirhR2QyrX9xhpnFpuNGO3nGzDRxyHLqIGuu1B8Vd1AHhaHjtEhCfc7XapJFLZtwbT7IwcTBhGhTrNAv9ud-p8r98pXNxuyyDXr7JsA", "width": 3648}], "place_id": "ChIJ28p2uBR644kRGOnQAcK4Txc", "reference": "ChIJ28p2uBR644kRGOnQAcK4Txc", "scope": "GOOGLE", "types": ["neighborhood", "political"], "vicinity": "Boston"}}