{"ChIJZdavToh644kR4aBKflNRqO8": {"geometry": {"location": {"lat": 42.3390097, "lng": -71.0478869}, "viewport": {"northeast": {"lat": 42.34035803029149, "lng": -71.04653691970849}, "southwest": {"lat": 42.33766006970849, "lng": -71.04923488029151}}}, "icon": "https://maps.gstatic.com/mapfiles/place_api/icons/geocode-71.png", "id": "3c496abcc6845333bd298fd93aaef00b7adc124e", "name": "363-379 E St", "place_id": "ChIJZdavToh644kR4aBKflNRqO8", "reference": "ChIJZdavToh644kR4aBKflNRqO8", "scope": "GOOGLE", "types": ["route"], "vicinity": "Boston"}, "ChIJnV29UYh644kR_T6GkP12tLI": {"geometry": {"location": {"lat": 42.339058, "lng": -71.047316}, "viewport": {"northeast": {"lat": 42.3403584802915, "lng": -71.04602526970848}, "southwest": {"lat": 42.3376605197085, "lng": -71.0487232302915}}}, "icon": "https://maps.gstatic.com/mapfiles/place_api/icons/generic_business-71.png", "id": "80e11dc68fa80296499ba1f65519bb967d073daa", "name": "Right Hat", "place_id": "ChIJnV29UYh644kR_T6GkP12tLI", "plus_code": {"compound_code": "8XQ3+J3 Boston, Massachusetts, United States", "global_code": "87JC8XQ3+J3"}, "reference": "ChIJnV29UYh644kR_T6GkP12tLI", "scope": "GOOGLE", "types": ["point_of_interest", "establishment"], "vicinity": "318 West 2nd Street, South Boston"}, "ChIJ2btEUIh644kR_mBH2MChHlo": {"geometry": {"location": {"lat": 42.3390897, "lng": -71.0474128}, "viewport": {"northeast": {"lat": 42.3403990302915, "lng": -71.0461114197085}, "southwest": {"lat": 42.3377010697085, "lng": -71.0488093802915}}}, "icon": "https://maps.gstatic.com/mapfiles/place_api/icons/generic_business-71.png", "id": "4190367422f6e7347904e82518d2869f0b751fd8", "name": "AGS NASOFT", "place_id": "ChIJ2btEUIh644kR_mBH2MChHlo", "plus_code": {"compound_code": "8XQ3+J2 Boston, Massachusetts, United States", "global_code": "87JC8XQ3+J2"}, "reference": "ChIJ2btEUIh644kR_mBH2MChHlo", "scope": "GOOGLE", "types": ["point_of_interest", "establishment"], "vicinity": "318 West 2nd Street, Boston"}, "ChIJo4OeUYh644kR_3pgw843Cp4": {"geometry": {"location": {"lat": 42.339058, "lng": -71.047316}, "viewport": {"northeast": {"lat": 42.3403584802915, "lng": -71.04602526970848}, "southwest": {"lat": 42.3376605197085, "lng": -71.0487232302915}}}, "icon": "https://maps.gstatic.com/mapfiles/place_api/icons/generic_business-71.png", "id": "d4f1bde3b3679633fab0f97de7ff08d06a60a11e", "name": "Interactiveconstruction", "place_id": "ChIJo4OeUYh644kR_3pgw843Cp4", "plus_code": {"compound_code": "8XQ3+J3 Boston, Massachusetts, United States", "global_code": "87JC8XQ3+J3"}, "reference": "ChIJo4OeUYh644kR_3pgw843Cp4", "scope": "GOOGLE", "types": ["general_contractor", "point_of_interest", "establishment"], "vicinity": "320 West 2nd Street #201, Boston"}, "ChIJh_33U4h644kRG8bd5FKXV1Y": {"geometry": {"location": {"lat": 42.339058, "lng": -71.047316}, "viewport": {"northeast": {"lat": 42.3403584802915, "lng": -71.04602526970848}, "southwest": {"lat": 42.3376605197085, "lng": -71.0487232302915}}}, "icon": "https://maps.gstatic.com/mapfiles/place_api/icons/generic_business-71.png", "id": "34198b883e38d8421c31f4bbc2338c2d75e88c12", "name": "Commonwealth Standard Realty", "opening_hours": {"open_now": true}, "photos": [{"height": 1074, "html_attributions": ["<a href=\"https://maps.google.com/maps/contrib/100222609998482749306/photos\">Commonwealth Standard Realty</a>"], "photo_reference": "CmRaAAAAkgoovpqlOSkqXWqooFDd8pCeI1CK8vYa1DeqcJCzVQq6SjCFsqQlxkUAeNlRhTYGQSVsyPx5C3XFKgpaO3dOAcJGvufPqWioFBkv_x7Qq-_xmGBsuO9s6MNMpcKaxbgCEhB-OB3R_jwanw7blG_0GFb4GhRO1g_x3yeZ-KmtcvoDMOy4nxMqpw", "width": 2544}], "place_id": "ChIJh_33U4h644kRG8bd5FKXV1Y", "plus_code": {"compound_code": "8XQ3+J3 Boston, Massachusetts, United States", "global_code": "87JC8XQ3+J3"}, "rating": 4.6, "reference": "ChIJh_33U4h644kRG8bd5FKXV1Y", "scope": "GOOGLE", "types": ["real_estate_agency", "point_of_interest", "establishment"], "user_ratings_total": 10, "vicinity": "318 West 2nd Street, South Boston"}, "ChIJx1YEUYh644kRgUP-9FlC_SY": {"geometry": {"location": {"lat": 42.3389968, "lng": -71.0473289}, "viewport": {"northeast": {"lat": 42.3403167302915, "lng": -71.04601476970849}, "southwest": {"lat": 42.33761876970851, "lng": -71.0487127302915}}}, "icon": "https://maps.gstatic.com/mapfiles/place_api/icons/generic_business-71.png", "id": "f5d5df23e0df4e97b09f9fb148029f6167d74ed4", "name": "The Foundry", "photos": [{"height": 1152, "html_attributions": ["<a href=\"https://maps.google.com/maps/contrib/118097116090428104158/photos\">Bobby Guliani</a>"], "photo_reference": "CmRaAAAAXMaz1oKGeM5je7NrANis1eRsk1m_gYKLxH3mdJzzTKPu_4sNZfi5nYQLrJp9vpfm4iyZLjzyIsV2tN0fFJI1r4PxiWxj0CoquW_KZyxH5HxgxM4mZj61Rtr5RiQWcc-qEhABPJ-9dn1g8LNjvYrHXzIcGhQ8GL3Q0XXfeOqxYSatMaqtH0kRSQ", "width": 2048}], "place_id": "ChIJx1YEUYh644kRgUP-9FlC_SY", "plus_code": {"compound_code": "8XQ3+H3 Boston, Massachusetts, United States", "global_code": "87JC8XQ3+H3"}, "rating": 5, "reference": "ChIJx1YEUYh644kRgUP-9FlC_SY", "scope": "GOOGLE", "types": ["point_of_interest", "establishment"], "user_ratings_total": 2, "vicinity": "320 West 2nd Street, Boston"}, "ChIJ0--IS4h644kRT5XccP11hYA": {"geometry": {"location": {"lat": 42.3388731, "lng": -71.0479343}, "viewport": {"northeast": {"lat": 42.3402002302915, "lng": -71.0466110197085}, "southwest": {"lat": 42.3375022697085, "lng": -71.0493089802915}}}, "icon": "https://maps.gstatic.com/mapfiles/place_api/icons/bank_dollar-71.png", "id": "a0123d8863289157873bd3f65d3993663fdc78c0", "name": "Stoneham Bank", "place_id": "ChIJ0--IS4h644kRT5XccP11hYA", "plus_code": {"compound_code": "8XQ2+GR Boston, Massachusetts, United States", "global_code": "87JC8XQ2+GR"}, "reference": "ChIJ0--IS4h644kRT5XccP11hYA", "scope": "GOOGLE", "types": ["bank", "finance", "point_of_interest", "establishment"], "vicinity": "Boston"}, "ChIJGzE9DS1l44kRoOhiASS_fHg": {"geometry": {"location": {"lat": 42.3600825, "lng": -71.0588801}, "viewport": {"northeast": {"lat": 42.40081989999999, "lng": -70.749455}, "southwest": {"lat": 42.22788, "lng": -71.191113}}}, "icon": "https://maps.gstatic.com/mapfiles/place_api/icons/geocode-71.png", "id": "06755c25d2b34d13942a4713971756a55b870ced", "name": "Boston", "photos": [{"height": 3024, "html_attributions": ["<a href=\"https://maps.google.com/maps/contrib/104670289779338733432/photos\">Natalia Zalucean</a>"], "photo_reference": "CmRaAAAA5tFijQtonPLmmpodU_MPn2MimA-GXRBnWsKB977ucvnWoc6eKHsPcrPlPLj1Aug_QvaxRvdZ69dbQj6q_1gFIpp6JNGl4TT3_gMLRfVGnBgBsuNUtVHNRkqUaHVbtr2aEhCtL9m4ACy0_v61vGWm_s7nGhTAlrdmH5iwQ_0-M_TaTPvLQsypnA", "width": 4032}], "place_id": "ChIJGzE9DS1l44kRoOhiASS_fHg", "reference": "ChIJGzE9DS1l44kRoOhiASS_fHg", "scope": "GOOGLE", "types": ["locality", "political"], "vicinity": "Boston"}}