{"ChIJAyvbYL9544kR5H7njfBnJLc": {"geometry": {"location": {"lat": 42.34451620000001, "lng": -71.1254045}, "viewport": {"northeast": {"lat": 42.3458651802915, "lng": -71.12405551970849}, "southwest": {"lat": 42.3431672197085, "lng": -71.1267534802915}}}, "icon": "https://maps.gstatic.com/mapfiles/place_api/icons/geocode-71.png", "id": "9129cc754c3f800bdefacebbb154beae51d69c42", "name": "367-375 Harvard St", "place_id": "ChIJAyvbYL9544kR5H7njfBnJLc", "reference": "ChIJAyvbYL9544kR5H7njfBnJLc", "scope": "GOOGLE", "types": ["route"], "vicinity": "Brookline"}, "ChIJOZrSh5R444kRNpHYlZ7C6X4": {"geometry": {"location": {"lat": 42.3444846, "lng": -71.1261062}, "viewport": {"northeast": {"lat": 42.3459620802915, "lng": -71.1246488197085}, "southwest": {"lat": 42.3432641197085, "lng": -71.1273467802915}}}, "icon": "https://maps.gstatic.com/mapfiles/place_api/icons/worship_jewish-71.png", "id": "9f33ab53768d08810d809aef126407a3bb489688", "name": "Congregation Mishkan Tefila", "opening_hours": {"open_now": false}, "photos": [{"height": 2260, "html_attributions": ["<a href=\"https://maps.google.com/maps/contrib/103961472733145962912/photos\">Congregation Mishkan Tefila</a>"], "photo_reference": "CmRaAAAAemJIRGK7CoBDmd3jcCrkMiRP_kziQYVpy4PxWwk8bC4oURXDUfS8wTYdlVTkgC_Gbwk2rv834zj751ntG4thc2geMstg7q2KuD_vN7qIDKx3xbQkJb9G648Jg0VMlTqgEhAQd4HV95fRU0dnSNA7a39-GhTu1gDXGTT9B75GUZd6Sl0f21-kpg", "width": 4000}], "place_id": "ChIJOZrSh5R444kRNpHYlZ7C6X4", "plus_code": {"compound_code": "8VVF+QH Brookline, Massachusetts, United States", "global_code": "87JC8VVF+QH"}, "rating": 4.5, "reference": "ChIJOZrSh5R444kRNpHYlZ7C6X4", "scope": "GOOGLE", "types": ["synagogue", "place_of_worship", "point_of_interest", "establishment"], "user_ratings_total": 4, "vicinity": "384 Harvard Street, Brookline"}, "ChIJH-bIXr9544kRoNdKT4OMFCM": {"geometry": {"location": {"lat": 42.3444143, "lng": -71.1260786}, "viewport": {"northeast": {"lat": 42.3458900802915, "lng": -71.1250097697085}, "southwest": {"lat": 42.3431921197085, "lng": -71.1277077302915}}}, "icon": "https://maps.gstatic.com/mapfiles/place_api/icons/worship_jewish-71.png", "id": "3cefaeba9452ce8e238fd854e46d0563c639b8b4", "name": "Congregation Kehillath Israel", "opening_hours": {"open_now": false}, "photos": [{"height": 974, "html_attributions": ["<a href=\"https://maps.google.com/maps/contrib/112229457633872614603/photos\">Pavol Michalec</a>"], "photo_reference": "CmRaAAAAIFeW96XR-bg0DhPvvhmViEme-JaHTfm-EWZR0KP76Ldkmi3rRK7aS9byBeV6v18tL2GKamp6cH73ZVXPg6HYlZExuuDUlZPTimtXb_-UY4FlyV0tPcROQaQsVdOcPraTEhCb4OD42d_MwNmIpq6k343EGhQxurZci872UIid5__twvuILI0NlA", "width": 1314}], "place_id": "ChIJH-bIXr9544kRoNdKT4OMFCM", "plus_code": {"compound_code": "8VVF+QH Brookline, Massachusetts, United States", "global_code": "87JC8VVF+QH"}, "rating": 5, "reference": "ChIJH-bIXr9544kRoNdKT4OMFCM", "scope": "GOOGLE", "types": ["synagogue", "place_of_worship", "point_of_interest", "establishment"], "user_ratings_total": 6, "vicinity": "384 Harvard Street, Brookline"}, "ChIJU88_Zr9544kRGOht-Ov5qS4": {"geometry": {"location": {"lat": 42.3441623, "lng": -71.12526869999999}, "viewport": {"northeast": {"lat": 42.3456092802915, "lng": -71.12382851970848}, "southwest": {"lat": 42.3429113197085, "lng": -71.1265264802915}}}, "icon": "https://maps.gstatic.com/mapfiles/place_api/icons/generic_business-71.png", "id": "975b3fb4c22cadfdc804f80e6f14747f2ab4105c", "name": "G A Electrolysis Center", "place_id": "ChIJU88_Zr9544kRGOht-Ov5qS4", "plus_code": {"compound_code": "8VVF+MV Brookline, Massachusetts, United States", "global_code": "87JC8VVF+MV"}, "rating": 5, "reference": "ChIJU88_Zr9544kRGOht-Ov5qS4", "scope": "GOOGLE", "types": ["beauty_salon", "hair_care", "point_of_interest", "establishment"], "user_ratings_total": 3, "vicinity": "364 Harvard Street, Brookline"}, "ChIJH-bIXr9544kRNGJMKVD28rE": {"geometry": {"location": {"lat": 42.3444143, "lng": -71.1260786}, "viewport": {"northeast": {"lat": 42.3458900802915, "lng": -71.1250097697085}, "southwest": {"lat": 42.3431921197085, "lng": -71.1277077302915}}}, "icon": "https://maps.gstatic.com/mapfiles/place_api/icons/generic_business-71.png", "id": "1f956d9885505c7c98c8a8e0bd8a7b89701fc6a7", "name": "Dancesport Academy New England", "opening_hours": {"open_now": true}, "photos": [{"height": 1529, "html_attributions": ["<a href=\"https://maps.google.com/maps/contrib/111746230349457661663/photos\">Dancesport Academy New England</a>"], "photo_reference": "CmRaAAAAoWKsPEK-8sYCTDmwnyzwThQDqgO6V7IMSyKF2YmSyLSSBaCIJkHPQpbbhHZIFbTzB_P--DL1a6DaycrptjkN2eTF700ufoIAzZ-2E79FN3RMNz35y-nhaGldvG5v2nhdEhAfcgKGdZRouf8hWLJyJxq4GhTj615FWYkP-SYIh04wUupxnuDFeg", "width": 2048}], "place_id": "ChIJH-bIXr9544kRNGJMKVD28rE", "plus_code": {"compound_code": "8VVF+QH Brookline, Massachusetts, United States", "global_code": "87JC8VVF+QH"}, "rating": 4.5, "reference": "ChIJH-bIXr9544kRNGJMKVD28rE", "scope": "GOOGLE", "types": ["point_of_interest", "school", "establishment"], "user_ratings_total": 2, "vicinity": "384 Harvard Street, Brookline"}, "ChIJH-bIXr9544kRo2FmAKsCeFw": {"geometry": {"location": {"lat": 42.34439419999999, "lng": -71.126052}, "viewport": {"northeast": {"lat": 42.34589583029149, "lng": -71.1245758697085}, "southwest": {"lat": 42.3431978697085, "lng": -71.1272738302915}}}, "icon": "https://maps.gstatic.com/mapfiles/place_api/icons/school-71.png", "id": "32669452f354eb9e341d6785e868f3fa5795b8ea", "name": "Kehillath Israel Nursery School", "opening_hours": {"open_now": false}, "place_id": "ChIJH-bIXr9544kRo2FmAKsCeFw", "plus_code": {"compound_code": "8VVF+QH Brookline, Massachusetts, United States", "global_code": "87JC8VVF+QH"}, "reference": "ChIJH-bIXr9544kRo2FmAKsCeFw", "scope": "GOOGLE", "types": ["point_of_interest", "school", "establishment"], "vicinity": "384 Harvard Street, Brookline"}, "ChIJ-_O-er9544kR4SFhhgNtFKw": {"geometry": {"location": {"lat": 42.3439863, "lng": -71.1249818}, "viewport": {"northeast": {"lat": 42.3454434302915, "lng": -71.12352866970849}, "southwest": {"lat": 42.3427454697085, "lng": -71.1262266302915}}}, "icon": "https://maps.gstatic.com/mapfiles/place_api/icons/generic_business-71.png", "id": "a7c5f09d27ba3a7ce4384eb40e8a10a8c0dc0962", "name": "Coolidge Corner Imaging", "opening_hours": {"open_now": false}, "photos": [{"height": 272, "html_attributions": ["<a href=\"https://maps.google.com/maps/contrib/116037608342753333062/photos\">Coolidge Corner Imaging</a>"], "photo_reference": "CmRaAAAA515iOUwzOElBewRKgV1XILnNKmle_yZYNdrcpUELcvAQ6DFaoufxm5ExoUwfdhSCN3PB5Ont4hMCz2DSrpsL6mFjxYBVLetDsxK6uyRomuC1Sd_iTMyePGU3gnEFAugFEhDzDvDDwmNXFB3dAeV19tzrGhSVKE6wOshbC1VmZOdxElxYfYbGpQ", "width": 314}], "place_id": "ChIJ-_O-er9544kR4SFhhgNtFKw", "plus_code": {"compound_code": "8VVG+H2 Brookline, Massachusetts, United States", "global_code": "87JC8VVG+H2"}, "reference": "ChIJ-_O-er9544kR4SFhhgNtFKw", "scope": "GOOGLE", "types": ["doctor", "health", "point_of_interest", "establishment"], "vicinity": "356 Harvard Street, Brookline"}, "ChIJR1fZXr9544kREbADtnMNwQs": {"geometry": {"location": {"lat": 42.3446169, "lng": -71.12589539999999}, "viewport": {"northeast": {"lat": 42.3460119302915, "lng": -71.12450801970849}, "southwest": {"lat": 42.3433139697085, "lng": -71.1272059802915}}}, "icon": "https://maps.gstatic.com/mapfiles/place_api/icons/school-71.png", "id": "e372396769afa39235258f369f47da0ce97d7738", "name": "Eastern Ballroom Alliance", "opening_hours": {"open_now": true}, "photos": [{"height": 720, "html_attributions": ["<a href=\"https://maps.google.com/maps/contrib/102698182694908843316/photos\">Eastern Ballroom Alliance</a>"], "photo_reference": "CmRaAAAA88sN5kZjndD51ZetILQdo84200LvMrFwmnJCdi0yyisBiR2G9uRggb9guclFqgENmDs5AjemywSfb6yal1RvNQHl8D-eQdEBTcUo9FZuCvXoEonvFGs6E3RPVFs9M3p0EhDWOHNEvvn1ehcZ1QXFMQZPGhRwhXvu0S7N3NzcHzYMadAmChnRgg", "width": 480}], "place_id": "ChIJR1fZXr9544kREbADtnMNwQs", "plus_code": {"compound_code": "8VVF+RJ Brookline, Massachusetts, United States", "global_code": "87JC8VVF+RJ"}, "rating": 5, "reference": "ChIJR1fZXr9544kREbADtnMNwQs", "scope": "GOOGLE", "types": ["point_of_interest", "school", "establishment"], "user_ratings_total": 1, "vicinity": "384 Harvard Street, Brookline"}, "ChIJU88_Zr9544kRWbh592uLZ08": {"geometry": {"location": {"lat": 42.3441631, "lng": -71.1252396}, "viewport": {"northeast": {"lat": 42.3456047802915, "lng": -71.1238043697085}, "southwest": {"lat": 42.3429068197085, "lng": -71.1265023302915}}}, "icon": "https://maps.gstatic.com/mapfiles/place_api/icons/generic_business-71.png", "id": "0621269e518f0d2754fcb178ffca02eed6d6672f", "name": "Golden Psychotherapy Associates", "place_id": "ChIJU88_Zr9544kRWbh592uLZ08", "plus_code": {"compound_code": "8VVF+MW Brookline, Massachusetts, United States", "global_code": "87JC8VVF+MW"}, "reference": "ChIJU88_Zr9544kRWbh592uLZ08", "scope": "GOOGLE", "types": ["doctor", "health", "point_of_interest", "establishment"], "vicinity": "364 Harvard Street, Brookline"}, "ChIJS5JpW79544kRdzBJK2fBk1Q": {"geometry": {"location": {"lat": 42.34435010000001, "lng": -71.1259788}, "viewport": {"northeast": {"lat": 42.3458556302915, "lng": -71.1244993697085}, "southwest": {"lat": 42.3431576697085, "lng": -71.12719733029151}}}, "icon": "https://maps.gstatic.com/mapfiles/place_api/icons/generic_business-71.png", "id": "304f85d045c99c4c552083e2553afeb0cf48239b", "name": "Hebrew Play", "place_id": "ChIJS5JpW79544kRdzBJK2fBk1Q", "plus_code": {"compound_code": "8VVF+PJ Brookline, Massachusetts, United States", "global_code": "87JC8VVF+PJ"}, "reference": "ChIJS5JpW79544kRdzBJK2fBk1Q", "scope": "GOOGLE", "types": ["point_of_interest", "establishment"], "vicinity": "384 Harvard Street, Brookline"}, "ChIJp_UgSid35IkR128iD2-2z3s": {"geometry": {"location": {"lat": 42.3441623, "lng": -71.12526869999999}, "viewport": {"northeast": {"lat": 42.3456092802915, "lng": -71.12382851970848}, "southwest": {"lat": 42.3429113197085, "lng": -71.1265264802915}}}, "icon": "https://maps.gstatic.com/mapfiles/place_api/icons/generic_business-71.png", "id": "bcebb18ceae3b20c27a6650ba57e0290bf30c5eb", "name": "Sahara Dental-The Best Dental Office In Boston", "opening_hours": {"open_now": false}, "photos": [{"height": 3456, "html_attributions": ["<a href=\"https://maps.google.com/maps/contrib/111877689538288327921/photos\">AL BENDER</a>"], "photo_reference": "CmRaAAAAyCyqRAMnRifpXfksUVpgdBcQOZ60H5vCmzHSuXpN9HJ7VZkP2GZUwGUsN1UdSb8HNA_8htdOt322FL4fNkSbcZJxWsmIZSaGYOvItOpN5hIi3MZEy2phY3L6aJWUlJRjEhCQhqpXKgKIB29nQPI1FF-FGhSw2J7u9PGqv5uBxXeuvTfw_zGCeQ", "width": 5184}], "place_id": "ChIJp_UgSid35IkR128iD2-2z3s", "plus_code": {"compound_code": "8VVF+MV Brookline, Massachusetts, United States", "global_code": "87JC8VVF+MV"}, "rating": 4.9, "reference": "ChIJp_UgSid35IkR128iD2-2z3s", "scope": "GOOGLE", "types": ["dentist", "doctor", "health", "point_of_interest", "establishment"], "user_ratings_total": 608, "vicinity": "364 Harvard Street #1c, Brookline"}, "ChIJU88_Zr9544kR7bdgNf1B1mM": {"geometry": {"location": {"lat": 42.3441623, "lng": -71.12526869999999}, "viewport": {"northeast": {"lat": 42.3456092802915, "lng": -71.12382851970848}, "southwest": {"lat": 42.3429113197085, "lng": -71.1265264802915}}}, "icon": "https://maps.gstatic.com/mapfiles/place_api/icons/generic_business-71.png", "id": "513c17d0747421841a889c087ef85aa4e11d727c", "name": "Clinton Diane", "place_id": "ChIJU88_Zr9544kR7bdgNf1B1mM", "plus_code": {"compound_code": "8VVF+MV Brookline, Massachusetts, United States", "global_code": "87JC8VVF+MV"}, "reference": "ChIJU88_Zr9544kR7bdgNf1B1mM", "scope": "GOOGLE", "types": ["health", "point_of_interest", "establishment"], "vicinity": "364 Harvard Street, Brookline"}, "ChIJb0i3nhOC44kR8c992vGOk8A": {"geometry": {"location": {"lat": 42.3443188, "lng": -71.1259858}, "viewport": {"northeast": {"lat": 42.3458368302915, "lng": -71.12449596970849}, "southwest": {"lat": 42.3431388697085, "lng": -71.12719393029151}}}, "icon": "https://maps.gstatic.com/mapfiles/place_api/icons/generic_business-71.png", "id": "a10d35532f2a9ccb66bf6dd3e7775d51e5641020", "name": "Center Makor", "place_id": "ChIJb0i3nhOC44kR8c992vGOk8A", "plus_code": {"compound_code": "8VVF+PJ Brookline, Massachusetts, United States", "global_code": "87JC8VVF+PJ"}, "reference": "ChIJb0i3nhOC44kR8c992vGOk8A", "scope": "GOOGLE", "types": ["point_of_interest", "establishment"], "vicinity": "384 Harvard Street, Brookline"}, "ChIJxXcgZr9544kRZBPbtAm5FbA": {"geometry": {"location": {"lat": 42.34415, "lng": -71.125271}, "viewport": {"northeast": {"lat": 42.3456015302915, "lng": -71.12382656970848}, "southwest": {"lat": 42.3429035697085, "lng": -71.12652453029149}}}, "icon": "https://maps.gstatic.com/mapfiles/place_api/icons/generic_business-71.png", "id": "92a87893bc40ad22975d7076bf51d83158e9fbbc", "name": "Kerzner Stephen MD", "place_id": "ChIJxXcgZr9544kRZBPbtAm5FbA", "plus_code": {"compound_code": "8VVF+MV Brookline, Massachusetts, United States", "global_code": "87JC8VVF+MV"}, "reference": "ChIJxXcgZr9544kRZBPbtAm5FbA", "scope": "GOOGLE", "types": ["doctor", "health", "point_of_interest", "establishment"], "vicinity": "364 Harvard Street #1a, Brookline"}, "ChIJqcAhZr9544kRN3Xg9u45450": {"geometry": {"location": {"lat": 42.3441623, "lng": -71.1252686}, "viewport": {"northeast": {"lat": 42.3456092302915, "lng": -71.12382841970849}, "southwest": {"lat": 42.3429112697085, "lng": -71.1265263802915}}}, "icon": "https://maps.gstatic.com/mapfiles/place_api/icons/generic_business-71.png", "id": "e0073c0b532f26a696d939be8b6e000ee35f0a41", "name": "Ayurveda Health & Beauty Center", "place_id": "ChIJqcAhZr9544kRN3Xg9u45450", "plus_code": {"compound_code": "8VVF+MV Brookline, Massachusetts, United States", "global_code": "87JC8VVF+MV"}, "reference": "ChIJqcAhZr9544kRN3Xg9u45450", "scope": "GOOGLE", "types": ["point_of_interest", "establishment"], "vicinity": "364 Harvard Street, Brookline"}, "ChIJhZirQQB544kRB9LbXEfedZQ": {"geometry": {"location": {"lat": 42.33176419999999, "lng": -71.1211635}, "viewport": {"northeast": {"lat": 42.3518109, "lng": -71.1056969}, "southwest": {"lat": 42.29459689999999, "lng": -71.1789959}}}, "icon": "https://maps.gstatic.com/mapfiles/place_api/icons/geocode-71.png", "id": "92986b2d1f69af2f2a7e29d34ced8adfa8573beb", "name": "Brookline", "photos": [{"height": 651, "html_attributions": ["<a href=\"https://maps.google.com/maps/contrib/114772942214832951419/photos\">Michael Ahn</a>"], "photo_reference": "CmRaAAAA0evDFXpZDZTiPZG-nafkoxVDPF2dtLuJeuCCXE61T-wcvm7uczHWUZrBkysxhgDcCG-OZm6xvH0Yt1Wwt0ZgCtXFjxGMRQEztjxwxy9RZK_fdVETv6NQ11TeWe8J6D9HEhDAlT4SP4UrlwXmotCBaza0GhQIezqk4d_IexwSmsqvUfysrST0aA", "width": 1608}], "place_id": "ChIJhZirQQB544kRB9LbXEfedZQ", "reference": "ChIJhZirQQB544kRB9LbXEfedZQ", "scope": "GOOGLE", "types": ["locality", "political"], "vicinity": "Brookline"}}