{"ChIJ_SprzJZ744kRUkMNN1kq7Hg": {"geometry": {"location": {"lat": 42.2920087, "lng": -71.0656645}, "viewport": {"northeast": {"lat": 42.2933576302915, "lng": -71.06431546970849}, "southwest": {"lat": 42.2906596697085, "lng": -71.06701343029151}}}, "icon": "https://maps.gstatic.com/mapfiles/place_api/icons/geocode-71.png", "id": "3baba9db5f029fbb99044c93d736a332b7e8e69c", "name": "159-161 Centre St", "place_id": "ChIJ_SprzJZ744kRUkMNN1kq7Hg", "reference": "ChIJ_SprzJZ744kRUkMNN1kq7Hg", "scope": "GOOGLE", "types": ["route"], "vicinity": "Boston"}, "ChIJh2QYK5F744kRvWAMXefQWNg": {"geometry": {"location": {"lat": 42.291564, "lng": -71.0648654}, "viewport": {"northeast": {"lat": 42.2929158302915, "lng": -71.0634926697085}, "southwest": {"lat": 42.2902178697085, "lng": -71.0661906302915}}}, "icon": "https://maps.gstatic.com/mapfiles/place_api/icons/generic_business-71.png", "id": "05c9e59bf3a60e428f07058920897eed825bfe18", "name": "Dennison House", "place_id": "ChIJh2QYK5F744kRvWAMXefQWNg", "plus_code": {"compound_code": "7WRP+J3 Boston, Massachusetts, United States", "global_code": "87JC7WRP+J3"}, "reference": "ChIJh2QYK5F744kRvWAMXefQWNg", "scope": "GOOGLE", "types": ["point_of_interest", "establishment"], "vicinity": "18 Samoset Street, Dorchester Center"}, "ChIJCdiIaZF744kRsR5AsOqzl5U": {"geometry": {"location": {"lat": 42.290621, "lng": -71.0666765}, "viewport": {"northeast": {"lat": 42.29198813029149, "lng": -71.06516181970849}, "southwest": {"lat": 42.28929016970849, "lng": -71.0678597802915}}}, "icon": "https://maps.gstatic.com/mapfiles/place_api/icons/generic_recreational-71.png", "id": "4b7bb9f052618273b1b48dbb574559dc74f75bb2", "name": "Cronin Playground", "place_id": "ChIJCdiIaZF744kRsR5AsOqzl5U", "reference": "ChIJCdiIaZF744kRsR5AsOqzl5U", "scope": "GOOGLE", "types": ["park", "premise", "point_of_interest", "establishment"], "vicinity": "Boston"}, "ChIJGzE9DS1l44kRoOhiASS_fHg": {"geometry": {"location": {"lat": 42.3600825, "lng": -71.0588801}, "viewport": {"northeast": {"lat": 42.40081989999999, "lng": -70.749455}, "southwest": {"lat": 42.22788, "lng": -71.191113}}}, "icon": "https://maps.gstatic.com/mapfiles/place_api/icons/geocode-71.png", "id": "06755c25d2b34d13942a4713971756a55b870ced", "name": "Boston", "photos": [{"height": 3024, "html_attributions": ["<a href=\"https://maps.google.com/maps/contrib/104670289779338733432/photos\">Natalia Zalucean</a>"], "photo_reference": "CmRaAAAACZy98sZzqZe0bqbiznURDNQd_gCA_0PjtQ5xJnAjPdRkv7t8tc00jr39eeAG6L4v3PtzJFbzaSV1rq12qldRm6e4-JIUYI3t_mwKxVLAIJTqNLTILQ66jkiILLQqL3kEEhAUS9VdhYAjmdlKEX0EwkTwGhQE2sJG3mZ8HnxE4_uSILEyGfigcg", "width": 4032}], "place_id": "ChIJGzE9DS1l44kRoOhiASS_fHg", "reference": "ChIJGzE9DS1l44kRoOhiASS_fHg", "scope": "GOOGLE", "types": ["locality", "political"], "vicinity": "Boston"}}