{"ChIJ_asaVI5w44kRtVfQntLS1Mc": {"geometry": {"location": {"lat": 42.3645674, "lng": -71.0590572}, "viewport": {"northeast": {"lat": 42.36686310000005, "lng": -71.05687630000001}, "southwest": {"lat": 42.36228949999995, "lng": -71.0612067}}}, "icon": "https://maps.gstatic.com/mapfiles/place_api/icons/geocode-71.png", "id": "22efc94df7a49913d55a9af57e25add33afb1cf1", "name": "John F Fitzgerald Expressway", "place_id": "ChIJ_asaVI5w44kRtVfQntLS1Mc", "reference": "ChIJ_asaVI5w44kRtVfQntLS1Mc", "scope": "GOOGLE", "types": ["route"], "vicinity": "Boston"}, "ChIJkdSXZI9w44kRTmNsEp2dp6M": {"geometry": {"location": {"lat": 42.3628491, "lng": -71.05827289999999}, "viewport": {"northeast": {"lat": 42.36386138029149, "lng": -71.05675216970849}, "southwest": {"lat": 42.3611634197085, "lng": -71.0594501302915}}}, "icon": "https://maps.gstatic.com/mapfiles/place_api/icons/generic_business-71.png", "id": "ac009d40140eb2d91f4e8908f18cd0f79e24133e", "name": "Haymarket", "photos": [{"height": 1536, "html_attributions": ["<a href=\"https://maps.google.com/maps/contrib/101579581707754038713/photos\">Miles in Transit</a>"], "photo_reference": "CmRaAAAAlqKH-vOqE9BuyaDUzzbDUdmoGUudF2EFSz6JohBdTqJlyQzfoKBeenozLR5axRpGQ9gurhHxg2ro2erYGSeSdrs31dE5wCPnihLtnO9ifSv66Dxud4NY14TaYmycvFBcEhDR5nLLCuUTw4rbeiwvHBr7GhTUaLkS3Vr-wM1--edQiDFakIH6Vg", "width": 2048}], "place_id": "ChIJkdSXZI9w44kRTmNsEp2dp6M", "plus_code": {"compound_code": "9W7R+4M Boston, Massachusetts, United States", "global_code": "87JC9W7R+4M"}, "rating": 3.9, "reference": "ChIJkdSXZI9w44kRTmNsEp2dp6M", "scope": "GOOGLE", "types": ["transit_station", "bus_station", "subway_station", "light_rail_station", "point_of_interest", "establishment"], "user_ratings_total": 79, "vicinity": "Congress Street & New Sudbury Street, Boston"}, "ChIJLamEdo9w44kRR0gz3b1gIjM": {"geometry": {"location": {"lat": 42.3627445, "lng": -71.05829940000001}, "viewport": {"northeast": {"lat": 42.3642478302915, "lng": -71.0568376197085}, "southwest": {"lat": 42.3615498697085, "lng": -71.05953558029151}}}, "icon": "https://maps.gstatic.com/mapfiles/place_api/icons/cafe-71.png", "id": "20e1de00b469b827eb182c8f60620c71873e95cf", "name": "Dunkin' Donuts", "opening_hours": {"open_now": true}, "photos": [{"height": 3036, "html_attributions": ["<a href=\"https://maps.google.com/maps/contrib/105117792274492423685/photos\">Kurt Kaiser</a>"], "photo_reference": "CmRaAAAAdePfpW-b85z7BM9-RU7cni2s78h8oCIEqPUurzB-o190-W3S8CkfD3kNR2OfQryR7Zhi6pN3tqwffTdr2KV8YWoKgWrRccAJN7LSfkntblcqWcqPeNbi9Vg8Da6cBlNlEhDYTW0ITHhym8Xmink-WsqsGhSQfoDTzyDQPiD_VENFmNufH6JbdQ", "width": 4048}], "place_id": "ChIJLamEdo9w44kRR0gz3b1gIjM", "plus_code": {"compound_code": "9W7R+3M Boston, Massachusetts, United States", "global_code": "87JC9W7R+3M"}, "price_level": 1, "rating": 3.3, "reference": "ChIJLamEdo9w44kRR0gz3b1gIjM", "scope": "GOOGLE", "types": ["cafe", "bakery", "store", "restaurant", "point_of_interest", "food", "establishment"], "user_ratings_total": 61, "vicinity": "1 Congress Street, Boston"}, "ChIJLamEdo9w44kRvjhzaWYMlwM": {"geometry": {"location": {"lat": 42.3627302, "lng": -71.0584097}, "viewport": {"northeast": {"lat": 42.36424068029149, "lng": -71.05689276970848}, "southwest": {"lat": 42.3615427197085, "lng": -71.0595907302915}}}, "icon": "https://maps.gstatic.com/mapfiles/place_api/icons/shopping-71.png", "id": "6af3063cfd3a1acab08928d482e4bea52cf1f627", "name": "Beyenes Food Basket", "photos": [{"height": 3968, "html_attributions": ["<a href=\"https://maps.google.com/maps/contrib/100112498606072305593/photos\">Hamza Malik</a>"], "photo_reference": "CmRaAAAAgkS9pv-Np-1fIEJyexjK0xsg0sy7ddJ9oc9NhMRoJmt-kXaGOuVWpzI_Sxu5r7-shR5s1ptWbJ3bEBienn_N9KaPmDL-7enOh7gCWzVJ5EDgrqPxu2jBdEB5amMlPxegEhArxPkSiHpiDlTtchCbLI_cGhSaYvzksgZCAZccFvL8p9J56VX8rw", "width": 2976}], "place_id": "ChIJLamEdo9w44kRvjhzaWYMlwM", "plus_code": {"compound_code": "9W7R+3J Boston, Massachusetts, United States", "global_code": "87JC9W7R+3J"}, "rating": 3, "reference": "ChIJLamEdo9w44kRvjhzaWYMlwM", "scope": "GOOGLE", "types": ["supermarket", "grocery_or_supermarket", "store", "point_of_interest", "food", "establishment"], "user_ratings_total": 3, "vicinity": "1 Congress Street, Boston"}, "ChIJCSM6oY9w44kRRtK5L2mOeq8": {"geometry": {"location": {"lat": 42.3633865, "lng": -71.05894409999999}, "viewport": {"northeast": {"lat": 42.3647902302915, "lng": -71.05753886970848}, "southwest": {"lat": 42.3620922697085, "lng": -71.0602368302915}}}, "icon": "https://maps.gstatic.com/mapfiles/place_api/icons/generic_business-71.png", "id": "7c1f4eed85f39fe41451688f3c822aa80e5ad75a", "name": "E-231", "place_id": "ChIJCSM6oY9w44kRRtK5L2mOeq8", "plus_code": {"compound_code": "9W7R+9C Boston, Massachusetts, United States", "global_code": "87JC9W7R+9C"}, "reference": "ChIJCSM6oY9w44kRRtK5L2mOeq8", "scope": "GOOGLE", "types": ["doctor", "health", "point_of_interest", "establishment"], "vicinity": "New Chardon Street, Boston"}, "ChIJ663tco9w44kRuXvUEo31AT8": {"geometry": {"location": {"lat": 42.3628773, "lng": -71.0580552}, "viewport": {"northeast": {"lat": 42.3643142302915, "lng": -71.0567658697085}, "southwest": {"lat": 42.3616162697085, "lng": -71.0594638302915}}}, "icon": "https://maps.gstatic.com/mapfiles/place_api/icons/generic_business-71.png", "id": "09777819c28941ec77f8ede3b2ef8847edcb2d24", "name": "1 Congress St Parking", "place_id": "ChIJ663tco9w44kRuXvUEo31AT8", "plus_code": {"compound_code": "9W7R+5Q Boston, Massachusetts, United States", "global_code": "87JC9W7R+5Q"}, "rating": 5, "reference": "ChIJ663tco9w44kRuXvUEo31AT8", "scope": "GOOGLE", "types": ["parking", "point_of_interest", "establishment"], "user_ratings_total": 1, "vicinity": "1 Congress St, Boston"}, "ChIJGzE9DS1l44kRoOhiASS_fHg": {"geometry": {"location": {"lat": 42.3600825, "lng": -71.0588801}, "viewport": {"northeast": {"lat": 42.40081989999999, "lng": -70.749455}, "southwest": {"lat": 42.22788, "lng": -71.191113}}}, "icon": "https://maps.gstatic.com/mapfiles/place_api/icons/geocode-71.png", "id": "06755c25d2b34d13942a4713971756a55b870ced", "name": "Boston", "photos": [{"height": 3024, "html_attributions": ["<a href=\"https://maps.google.com/maps/contrib/104670289779338733432/photos\">Natalia Zalucean</a>"], "photo_reference": "CmRaAAAA9pfXCqQjhv8MI1TYUZYPuPrwGGbbUz6sEWJnggFt50y0ZtYsgyhlF-wg7VqtOtHYD9URDE8DWKp12FSJLja_1kvnF2uuvD0cX3Oe6U_IGW5wntxXsdkxu0yTfDyRU1bZEhD8vqwsBZMxjjZT_Zqe9ZslGhSZ3eSP99RJ2ySVI62QJzJp8JIkHA", "width": 4032}], "place_id": "ChIJGzE9DS1l44kRoOhiASS_fHg", "reference": "ChIJGzE9DS1l44kRoOhiASS_fHg", "scope": "GOOGLE", "types": ["locality", "political"], "vicinity": "Boston"}}