{"ChIJ1cxxqqRw44kRAK2-xm-VKsU": {"geometry": {"location": {"lat": 42.36524799999999, "lng": -71.0794279}, "viewport": {"northeast": {"lat": 42.3665969802915, "lng": -71.07807891970849}, "southwest": {"lat": 42.36389901970851, "lng": -71.08077688029151}}}, "icon": "https://maps.gstatic.com/mapfiles/place_api/icons/geocode-71.png", "id": "1b56408e44b03a35bb29ba248dc05d24c79fe597", "name": "Binney Street", "place_id": "ChIJ1cxxqqRw44kRAK2-xm-VKsU", "reference": "ChIJ1cxxqqRw44kRAK2-xm-VKsU", "scope": "GOOGLE", "types": ["route"], "vicinity": "Cambridge"}, "ChIJH8BgVaNw44kRuC2NXI_kqz8": {"geometry": {"location": {"lat": 42.365623, "lng": -71.079504}, "viewport": {"northeast": {"lat": 42.3668437302915, "lng": -71.07818536970849}, "southwest": {"lat": 42.3641457697085, "lng": -71.0808833302915}}}, "icon": "https://maps.gstatic.com/mapfiles/place_api/icons/worship_general-71.png", "id": "34d0b381abaa56d6a7ccd08581f437b53e065498", "name": "The Church of Jesus Christ of Latter-day Saints", "photos": [{"height": 2048, "html_attributions": ["<a href=\"https://maps.google.com/maps/contrib/106215671447221834209/photos\">Jork Leonhardt</a>"], "photo_reference": "CmRaAAAAAiazcWeCRos2XksaKxftTJalxlOJ6ss8K71r3_8DT63zr44vGrI0v-ZoOhBfOmzCs_ZnENpSeEJw49GeKbH7-HqkGgHPdGgoGPfPIQCr2V5nrie9FEBer48QJowIOrysEhDUl988EBKXeThTgYKkb4ugGhQA_lLTe5v3RCT0UIYzQkcmO5ilVg", "width": 1536}], "place_id": "ChIJH8BgVaNw44kRuC2NXI_kqz8", "plus_code": {"compound_code": "9W8C+65 Cambridge, Massachusetts, United States", "global_code": "87JC9W8C+65"}, "rating": 4.9, "reference": "ChIJH8BgVaNw44kRuC2NXI_kqz8", "scope": "GOOGLE", "types": ["church", "place_of_worship", "point_of_interest", "establishment"], "user_ratings_total": 32, "vicinity": "65 Binney Street, Cambridge"}, "ChIJFcDQtFh344kRZEBUhws1XXU": {"geometry": {"location": {"lat": 42.3651692, "lng": -71.07943809999999}, "viewport": {"northeast": {"lat": 42.3665572802915, "lng": -71.07808171970849}, "southwest": {"lat": 42.3638593197085, "lng": -71.08077968029151}}}, "icon": "https://maps.gstatic.com/mapfiles/place_api/icons/generic_business-71.png", "id": "bdc6c40db594f70682f07f6b18e87e681d8ff29a", "name": "Bluebird Bio", "opening_hours": {"open_now": true}, "photos": [{"height": 4032, "html_attributions": ["<a href=\"https://maps.google.com/maps/contrib/106730069416967641418/photos\">sholem srugo</a>"], "photo_reference": "CmRaAAAAVHL0wxKtyhutEL4g2tNjpwwRkT7e-5AWTpPVjMe9OTW9kwW-qrPvUkN0pCfP5P_GfGCAikaFlsQ44R9fCw_Q1xCQ7SMH7sdG-AVz10ziuGIKiPMW-6NCklDuoque4ad1EhDQpD5jXljVCAE6i6jlxl1ZGhSQwitVT9uA8DISslTmuUrnofzd2w", "width": 3024}], "place_id": "ChIJFcDQtFh344kRZEBUhws1XXU", "plus_code": {"compound_code": "9W8C+36 Cambridge, Massachusetts, United States", "global_code": "87JC9W8C+36"}, "rating": 4.5, "reference": "ChIJFcDQtFh344kRZEBUhws1XXU", "scope": "GOOGLE", "types": ["point_of_interest", "establishment"], "user_ratings_total": 17, "vicinity": "60 Binney Street, Cambridge"}, "ChIJO3iEr6Rw44kRDKHV10k-rbc": {"geometry": {"location": {"lat": 42.3649785, "lng": -71.0800907}, "viewport": {"northeast": {"lat": 42.3663188302915, "lng": -71.0786742697085}, "southwest": {"lat": 42.36362086970851, "lng": -71.0813722302915}}}, "icon": "https://maps.gstatic.com/mapfiles/place_api/icons/generic_business-71.png", "id": "d36ba68fbd03a4944ca8c773a1d90100913a08e0", "name": "Turner Construction Company", "place_id": "ChIJO3iEr6Rw44kRDKHV10k-rbc", "plus_code": {"compound_code": "9W79+XX Cambridge, Massachusetts, United States", "global_code": "87JC9W79+XX"}, "reference": "ChIJO3iEr6Rw44kRDKHV10k-rbc", "scope": "GOOGLE", "types": ["general_contractor", "point_of_interest", "establishment"], "vicinity": "219 Second Street, Cambridge"}, "ChIJxY3pVaNw44kRn9xALwSFEg4": {"geometry": {"location": {"lat": 42.3651013, "lng": -71.07971359999999}, "viewport": {"northeast": {"lat": 42.3665397802915, "lng": -71.07834271970849}, "southwest": {"lat": 42.3638418197085, "lng": -71.0810406802915}}}, "icon": "https://maps.gstatic.com/mapfiles/place_api/icons/restaurant-71.png", "id": "cb141c82b932e196f30beee47a3e99ed77dda14a", "name": "Bon Me Test Kitchen", "opening_hours": {"open_now": true}, "photos": [{"height": 2912, "html_attributions": ["<a href=\"https://maps.google.com/maps/contrib/111541046169735430959/photos\">Bon Me Test Kitchen</a>"], "photo_reference": "CmRaAAAAmr-qI9selPL4bACd6mRlz26Em3ULPieymRpx5LFRfJGrnShdsDpucEGOP35Pz4fhWLnINPSAmHYHSaB4GV3SpkPuP9XKVtUgmmqD9oZpiP9Hau-B_9jfRINw1zzeeU1QEhDpSnrX5R6XftYq55beEMMOGhRAXqKK7hBHnJCq0aeII5bLZ3qWDg", "width": 2912}], "place_id": "ChIJxY3pVaNw44kRn9xALwSFEg4", "plus_code": {"compound_code": "9W8C+24 Cambridge, Massachusetts, United States", "global_code": "87JC9W8C+24"}, "price_level": 1, "rating": 4.4, "reference": "ChIJxY3pVaNw44kRn9xALwSFEg4", "scope": "GOOGLE", "types": ["restaurant", "point_of_interest", "food", "establishment"], "user_ratings_total": 89, "vicinity": "60 Binney Street, Cambridge"}, "ChIJrb-F0eZx44kRVwuX8K3REuQ": {"geometry": {"location": {"lat": 42.36502600000001, "lng": -71.079815}, "viewport": {"northeast": {"lat": 42.3665075302915, "lng": -71.0784335697085}, "southwest": {"lat": 42.3638095697085, "lng": -71.0811315302915}}}, "icon": "https://maps.gstatic.com/mapfiles/place_api/icons/generic_business-71.png", "id": "70688a6fe7d7592e5520ce08003dd3cde01a1346", "name": "1 Marina Parrk Drive Boston, MA 02210", "place_id": "ChIJrb-F0eZx44kRVwuX8K3REuQ", "plus_code": {"compound_code": "9W8C+23 Cambridge, Massachusetts, United States", "global_code": "87JC9W8C+23"}, "reference": "ChIJrb-F0eZx44kRVwuX8K3REuQ", "scope": "GOOGLE", "types": ["point_of_interest", "establishment"], "vicinity": "60 Binney Street, Cambridge"}, "ChIJL76UrKRw44kRMOI1FYo-gfA": {"geometry": {"location": {"lat": 42.3654424, "lng": -71.0799486}, "viewport": {"northeast": {"lat": 42.3667968302915, "lng": -71.07859831970849}, "southwest": {"lat": 42.3640988697085, "lng": -71.0812962802915}}}, "icon": "https://maps.gstatic.com/mapfiles/place_api/icons/bus-71.png", "id": "4c54ce000a38f98abafa7ee93c5021301c1d56c6", "name": "Binney St/Second", "place_id": "ChIJL76UrKRw44kRMOI1FYo-gfA", "plus_code": {"compound_code": "9W8C+52 Cambridge, Massachusetts, United States", "global_code": "87JC9W8C+52"}, "reference": "ChIJL76UrKRw44kRMOI1FYo-gfA", "scope": "GOOGLE", "types": ["bus_station", "transit_station", "point_of_interest", "establishment"], "vicinity": "United States"}, "ChIJWYrtNrtw44kR7nh0cDG-qMU": {"geometry": {"location": {"lat": 42.3656134, "lng": -71.0800818}, "viewport": {"northeast": {"lat": 42.3668748302915, "lng": -71.07875336970851}, "southwest": {"lat": 42.3641768697085, "lng": -71.08145133029151}}}, "icon": "https://maps.gstatic.com/mapfiles/place_api/icons/cafe-71.png", "id": "92611e6f6402cca05049c60b9e0c05b36be16977", "name": "Catalyst Cafe", "opening_hours": {"open_now": false}, "photos": [{"height": 3024, "html_attributions": ["<a href=\"https://maps.google.com/maps/contrib/105612344898698182949/photos\">Refael Ackermann</a>"], "photo_reference": "CmRaAAAAif7Ww9DAf3fECkUXwFQLqr4XsR8eMPNp1TTd17EEpkivjTX1Jzy9GorGax4Jcetz6dZR13SDiV6EI89yyjeDr5e-F7TONAUGKWGXIKAHxLqxlA4oSqSBV9CXPWPvYeyZEhAx8v-cFvV-q_w3tjXLKFDlGhRvWbZt2uX_XrxpF0ivsztN2W-pBA", "width": 4032}], "place_id": "ChIJWYrtNrtw44kR7nh0cDG-qMU", "plus_code": {"compound_code": "9W89+6X Cambridge, Massachusetts, United States", "global_code": "87JC9W89+6X"}, "price_level": 2, "rating": 3.9, "reference": "ChIJWYrtNrtw44kR7nh0cDG-qMU", "scope": "GOOGLE", "types": ["cafe", "point_of_interest", "food", "establishment"], "user_ratings_total": 84, "vicinity": "1123, 75 Binney Street, Cambridge"}, "ChIJK6-zrmp544kRT_7DKA3m2j4": {"geometry": {"location": {"lat": 42.3650277, "lng": -71.07982659999999}, "viewport": {"northeast": {"lat": 42.3665091302915, "lng": -71.07844521970848}, "southwest": {"lat": 42.3638111697085, "lng": -71.08114318029149}}}, "icon": "https://maps.gstatic.com/mapfiles/place_api/icons/school-71.png", "id": "64618681e940e47332bbf374d9426a654f9887ef", "name": "Dazllind Dancers 102", "place_id": "ChIJK6-zrmp544kRT_7DKA3m2j4", "plus_code": {"compound_code": "9W8C+23 Boston, Massachusetts, United States", "global_code": "87JC9W8C+23"}, "reference": "ChIJK6-zrmp544kRT_7DKA3m2j4", "scope": "GOOGLE", "types": ["point_of_interest", "establishment"], "vicinity": "62 Binney Street, Cambridge"}, "ChIJX8wwy6Vw44kRh2xoiWSOOsU": {"geometry": {"location": {"lat": 42.3736158, "lng": -71.10973349999999}, "viewport": {"northeast": {"lat": 42.4043839, "lng": -71.06548719999999}, "southwest": {"lat": 42.3523968, "lng": -71.16033209999999}}}, "icon": "https://maps.gstatic.com/mapfiles/place_api/icons/geocode-71.png", "id": "6d2faadca7159347cc68b047055a94b00fec6032", "name": "Cambridge", "photos": [{"height": 2000, "html_attributions": ["<a href=\"https://maps.google.com/maps/contrib/115519834423791060860/photos\">Luca Raggi</a>"], "photo_reference": "CmRaAAAAfqOzLQBq5jw_6-A8SwclxQKBDitWU3-i-C5R-pfhVDej0JYQVd_-W5lOA8ZGVz3Sz76_OKUG_Hf3_BLVrA6b25MkMvgn5gri6fW_bC1ZbGedY4dP2x8XkKoW24cRALvjEhD512IRMo4ZLOacU8enBhUMGhTPxxslYpehrmG5QVJ1mTGdug_CAg", "width": 3008}], "place_id": "ChIJX8wwy6Vw44kRh2xoiWSOOsU", "reference": "ChIJX8wwy6Vw44kRh2xoiWSOOsU", "scope": "GOOGLE", "types": ["locality", "political"], "vicinity": "Cambridge"}}