{"ChIJl9JURKN544kRNTaOb4YozMI": {"geometry": {"location": {"lat": 42.334621, "lng": -71.1260756}, "viewport": {"northeast": {"lat": 42.33598183029149, "lng": -71.12473986970849}, "southwest": {"lat": 42.3332838697085, "lng": -71.1274378302915}}}, "icon": "https://maps.gstatic.com/mapfiles/place_api/icons/geocode-71.png", "id": "f566c767cada41fed853e98f515352f6898039d3", "name": "17-45 Greenough St", "place_id": "ChIJl9JURKN544kRNTaOb4YozMI", "reference": "ChIJl9JURKN544kRNTaOb4YozMI", "scope": "GOOGLE", "types": ["route"], "vicinity": "Brookline"}, "ChIJkUeIQaN544kRaj_H9I4DYE8": {"geometry": {"location": {"lat": 42.3342642, "lng": -71.1259147}, "viewport": {"northeast": {"lat": 42.3356029802915, "lng": -71.1245729197085}, "southwest": {"lat": 42.3329050197085, "lng": -71.1272708802915}}}, "icon": "https://maps.gstatic.com/mapfiles/place_api/icons/generic_business-71.png", "id": "d699933c8fb4e65fd0137883bf1e94c9fd1d9705", "name": "Peterson K M", "place_id": "ChIJkUeIQaN544kRaj_H9I4DYE8", "plus_code": {"compound_code": "8VMF+PJ Brookline, Massachusetts, United States", "global_code": "87JC8VMF+PJ"}, "reference": "ChIJkUeIQaN544kRaj_H9I4DYE8", "scope": "GOOGLE", "types": ["point_of_interest", "establishment"], "vicinity": "40 Stanton Road, Brookline"}, "ChIJpd2GQaN544kRjyMKblcWwVU": {"geometry": {"location": {"lat": 42.33426839999999, "lng": -71.1259077}, "viewport": {"northeast": {"lat": 42.3356017302915, "lng": -71.12456971970849}, "southwest": {"lat": 42.3329037697085, "lng": -71.1272676802915}}}, "icon": "https://maps.gstatic.com/mapfiles/place_api/icons/generic_business-71.png", "id": "181a52893a377f27f331d250306cda92a9eabce7", "name": "Aceti Associates", "place_id": "ChIJpd2GQaN544kRjyMKblcWwVU", "plus_code": {"compound_code": "8VMF+PJ Brookline, Massachusetts, United States", "global_code": "87JC8VMF+PJ"}, "reference": "ChIJpd2GQaN544kRjyMKblcWwVU", "scope": "GOOGLE", "types": ["point_of_interest", "establishment"], "vicinity": "40 Stanton Road, Brookline"}, "ChIJBSGFQaN544kRGnQBELsOyT0": {"geometry": {"location": {"lat": 42.33435799999999, "lng": -71.1258138}, "viewport": {"northeast": {"lat": 42.33566368029149, "lng": -71.12449536970851}, "southwest": {"lat": 42.33296571970849, "lng": -71.12719333029152}}}, "icon": "https://maps.gstatic.com/mapfiles/place_api/icons/generic_business-71.png", "id": "e922f1eac23523ffd0bbef2017081e8ab9688efa", "name": "Pollock Elizabeth", "place_id": "ChIJBSGFQaN544kRGnQBELsOyT0", "plus_code": {"compound_code": "8VMF+PM Brookline, Massachusetts, United States", "global_code": "87JC8VMF+PM"}, "reference": "ChIJBSGFQaN544kRGnQBELsOyT0", "scope": "GOOGLE", "types": ["doctor", "health", "point_of_interest", "establishment"], "vicinity": "41 Stanton Road, Brookline"}, "ChIJBSGFQaN544kRcX6EgDe8gkM": {"geometry": {"location": {"lat": 42.33435799999999, "lng": -71.1258138}, "viewport": {"northeast": {"lat": 42.33566368029149, "lng": -71.12449536970851}, "southwest": {"lat": 42.33296571970849, "lng": -71.12719333029152}}}, "icon": "https://maps.gstatic.com/mapfiles/place_api/icons/generic_business-71.png", "id": "bcb8558fdc8d638144f1a5aeea84101e22c0b25b", "name": "Pollock & Pollock", "place_id": "ChIJBSGFQaN544kRcX6EgDe8gkM", "plus_code": {"compound_code": "8VMF+PM Brookline, Massachusetts, United States", "global_code": "87JC8VMF+PM"}, "reference": "ChIJBSGFQaN544kRcX6EgDe8gkM", "scope": "GOOGLE", "types": ["doctor", "health", "point_of_interest", "establishment"], "vicinity": "41 Stanton Road, Brookline"}, "ChIJc2y4QaN544kR2vzyp5ghWWc": {"geometry": {"location": {"lat": 42.3342124, "lng": -71.1257803}, "viewport": {"northeast": {"lat": 42.3355511802915, "lng": -71.12443851970848}, "southwest": {"lat": 42.3328532197085, "lng": -71.1271364802915}}}, "icon": "https://maps.gstatic.com/mapfiles/place_api/icons/generic_business-71.png", "id": "c1f3d9b10cdee73bdcc009050d794884ad117582", "name": "Fawn Heart Cronin, Certified Personal Trainer", "place_id": "ChIJc2y4QaN544kR2vzyp5ghWWc", "plus_code": {"compound_code": "8VMF+MM Brookline, Massachusetts, United States", "global_code": "87JC8VMF+MM"}, "reference": "ChIJc2y4QaN544kR2vzyp5ghWWc", "scope": "GOOGLE", "types": ["health", "point_of_interest", "establishment"], "vicinity": "36 Stanton Road, Brookline"}, "ChIJhZirQQB544kRB9LbXEfedZQ": {"geometry": {"location": {"lat": 42.33176419999999, "lng": -71.1211635}, "viewport": {"northeast": {"lat": 42.3518109, "lng": -71.1056969}, "southwest": {"lat": 42.29459689999999, "lng": -71.1789959}}}, "icon": "https://maps.gstatic.com/mapfiles/place_api/icons/geocode-71.png", "id": "92986b2d1f69af2f2a7e29d34ced8adfa8573beb", "name": "Brookline", "photos": [{"height": 651, "html_attributions": ["<a href=\"https://maps.google.com/maps/contrib/114772942214832951419/photos\">Michael Ahn</a>"], "photo_reference": "CmRaAAAAFiA6slcsj5kMpPyqSYiQJbvkp7H3TYw0ODnZG7WM6bMuTgAUYRwOUV0vvAgfmjWU21I2ITcu6f7Y4lssAaJTxagroB0YihQ1D8-kPge3RG5VE2oPVvKdy6SRqAC3zddjEhBXH1QNMLAliomPHT3ZuYxQGhT0xKZJnpWTbaWleCE1XMWhGW4ocA", "width": 1608}], "place_id": "ChIJhZirQQB544kRB9LbXEfedZQ", "reference": "ChIJhZirQQB544kRB9LbXEfedZQ", "scope": "GOOGLE", "types": ["locality", "political"], "vicinity": "Brookline"}}