{"ChIJGxpZElBw44kRmc7SsTuHaD8": {"geometry": {"location": {"lat": 42.3782491, "lng": -71.03919549999999}, "viewport": {"northeast": {"lat": 42.3795980802915, "lng": -71.03784656970849}, "southwest": {"lat": 42.3769001197085, "lng": -71.0405445302915}}}, "icon": "https://maps.gstatic.com/mapfiles/place_api/icons/geocode-71.png", "id": "5183dd43be9a3903f70cde3f86c9d5b13752f7ff", "name": "352-330 Meridian St", "place_id": "ChIJGxpZElBw44kRmc7SsTuHaD8", "reference": "ChIJGxpZElBw44kRmc7SsTuHaD8", "scope": "GOOGLE", "types": ["route"], "vicinity": "Boston"}, "ChIJc1krHFBw44kRGOAnAjaYYw8": {"geometry": {"location": {"lat": 42.3782502, "lng": -71.0380802}, "viewport": {"northeast": {"lat": 42.3795894302915, "lng": -71.0367246197085}, "southwest": {"lat": 42.3768914697085, "lng": -71.0394225802915}}}, "icon": "https://maps.gstatic.com/mapfiles/place_api/icons/school-71.png", "id": "701819d0e4e46aedf095ad62f7da1f6715ac32fb", "name": "Hugh R O'Donnell Elementary", "photos": [{"height": 1440, "html_attributions": ["<a href=\"https://maps.google.com/maps/contrib/107821287599682235150/photos\">Jonathan Lopez</a>"], "photo_reference": "CmRaAAAAOjM2wAfU_i_cF6hkMRZ0453YiDIe9EGEPZOfj7x_v2ID2QMspTvS44rIOjsU7wlhLq9Bo4Naio97sH2Njm3Bh2m7SiL__oYZ0YxPiAa_dqlxKfDbuBsqY9VA04vbixNmEhBfrc163uJYnk-3z1yfXLQ_GhQnC9U6W47dzGfp8AC6EIk_Hmdh0Q", "width": 2560}], "place_id": "ChIJc1krHFBw44kRGOAnAjaYYw8", "plus_code": {"compound_code": "9XH6+8Q Boston, Massachusetts, United States", "global_code": "87JC9XH6+8Q"}, "rating": 3.2, "reference": "ChIJc1krHFBw44kRGOAnAjaYYw8", "scope": "GOOGLE", "types": ["point_of_interest", "school", "establishment"], "user_ratings_total": 12, "vicinity": "33 Trenton Street, Boston"}, "ChIJ44LPE1Bw44kRTNaT3fshQwU": {"geometry": {"location": {"lat": 42.3783023, "lng": -71.0389936}, "viewport": {"northeast": {"lat": 42.3796498302915, "lng": -71.03774626970849}, "southwest": {"lat": 42.3769518697085, "lng": -71.0404442302915}}}, "icon": "https://maps.gstatic.com/mapfiles/place_api/icons/restaurant-71.png", "id": "da85afca53bf63fe4a6d422332903087fcb884f8", "name": "Canton Eatery", "opening_hours": {"open_now": true}, "photos": [{"height": 4032, "html_attributions": ["<a href=\"https://maps.google.com/maps/contrib/112092322844471280016/photos\">Siyuan Guo</a>"], "photo_reference": "CmRaAAAAZA8KjNOkBXD3qaNAOchYdzT7NlX3A-8h53pmDRrr6pDlOyoCfycUhIZlRHGVYAqWTfpRZ3VwaauVQ9Qjm8YM0NgPZZZloMdUYMhLTK_e0upm9GMHzrBOI8C-y3CtPiMsEhAe-OsS8ruw6DQzTxtPzkKXGhS0QV17-krAmO8yYrYb28BMFHSahA", "width": 3024}], "place_id": "ChIJ44LPE1Bw44kRTNaT3fshQwU", "plus_code": {"compound_code": "9XH6+8C Boston, Massachusetts, United States", "global_code": "87JC9XH6+8C"}, "price_level": 1, "rating": 3.4, "reference": "ChIJ44LPE1Bw44kRTNaT3fshQwU", "scope": "GOOGLE", "types": ["restaurant", "point_of_interest", "food", "establishment"], "user_ratings_total": 93, "vicinity": "339 Meridian Street, Boston"}, "ChIJb3HPHlBw44kRUAPXueymKQc": {"geometry": {"location": {"lat": 42.378391, "lng": -71.03822}, "viewport": {"northeast": {"lat": 42.3796722802915, "lng": -71.03682496970849}, "southwest": {"lat": 42.3769743197085, "lng": -71.0395229302915}}}, "icon": "https://maps.gstatic.com/mapfiles/place_api/icons/generic_business-71.png", "id": "6003b793758ec765d2ddb16fc6d868838fca340b", "name": "Cleverzettabyte", "opening_hours": {"open_now": true}, "photos": [{"height": 3744, "html_attributions": ["<a href=\"https://maps.google.com/maps/contrib/106852244525314553259/photos\">Cleverzettabyte</a>"], "photo_reference": "CmRaAAAAMzJ4uQgsJF98fC6V2aYqeVhBcMNtLrIiWE8J_8JN5akOjZ9xel-cVbKMLK86krqWtqgyjWgMzRDASvJoa37G_OSd7n-k7TeIUDHybe28GJLzqYW_VNv6xKcjjgepN-xPEhC1P2aJkk9SSy33xALyKNqlGhSUvJ1IRrBhZQDxG8TcCg3L2pSUPA", "width": 5616}], "place_id": "ChIJb3HPHlBw44kRUAPXueymKQc", "plus_code": {"compound_code": "9XH6+9P Boston, Massachusetts, United States", "global_code": "87JC9XH6+9P"}, "rating": 5, "reference": "ChIJb3HPHlBw44kRUAPXueymKQc", "scope": "GOOGLE", "types": ["point_of_interest", "establishment"], "user_ratings_total": 9, "vicinity": "28 Trenton Street, East Boston"}, "ChIJbZHyoFpw44kR0RNQD8cULsw": {"geometry": {"location": {"lat": 42.3774767, "lng": -71.0390307}, "viewport": {"northeast": {"lat": 42.3788291302915, "lng": -71.0377508697085}, "southwest": {"lat": 42.3761311697085, "lng": -71.04044883029151}}}, "icon": "https://maps.gstatic.com/mapfiles/place_api/icons/restaurant-71.png", "id": "bfcaf7bc456836ce09cfdb1270a8968987b421ca", "name": "Rinconcito Salvadore\u00f1o", "opening_hours": {"open_now": true}, "photos": [{"height": 3120, "html_attributions": ["<a href=\"https://maps.google.com/maps/contrib/103233117775392799277/photos\">Rosa Velasquez</a>"], "photo_reference": "CmRaAAAAYmzmjp2wC90T6yH9EmqxJkKhTDplz1B3377XWXkK3rP3rz7TYa0bsBR1bUU2yFOX30yLis4uRX_lw8oIHXGbrYHKf18efLUiAKuhewHP8IET1Lgzj5klLXGjnIlWgg3lEhADUvQThRkMlrzNzug615n9GhSUN_hR8qWOaw-0cMVGU9NXxyGm2w", "width": 4160}], "place_id": "ChIJbZHyoFpw44kR0RNQD8cULsw", "plus_code": {"compound_code": "9XG6+X9 Boston, Massachusetts, United States", "global_code": "87JC9XG6+X9"}, "rating": 4.1, "reference": "ChIJbZHyoFpw44kR0RNQD8cULsw", "scope": "GOOGLE", "types": ["restaurant", "point_of_interest", "food", "establishment"], "user_ratings_total": 52, "vicinity": "313 Meridian Street, Boston"}, "ChIJc2wkDFBw44kROs9GikMg_DQ": {"geometry": {"location": {"lat": 42.3779292, "lng": -71.03904229999999}, "viewport": {"northeast": {"lat": 42.3792959302915, "lng": -71.03770536970849}, "southwest": {"lat": 42.3765979697085, "lng": -71.04040333029151}}}, "icon": "https://maps.gstatic.com/mapfiles/place_api/icons/generic_business-71.png", "id": "5703a8fa3544fd9d5ac6657ba6e70559e00ccd99", "name": "Sierra Illustration & Design", "place_id": "ChIJc2wkDFBw44kROs9GikMg_DQ", "plus_code": {"compound_code": "9XH6+59 Boston, Massachusetts, United States", "global_code": "87JC9XH6+59"}, "reference": "ChIJc2wkDFBw44kROs9GikMg_DQ", "scope": "GOOGLE", "types": ["point_of_interest", "establishment"], "vicinity": "4 Trenton Street # 4, Boston"}, "ChIJuU6aCVBw44kR5aGUfzXuN5I": {"geometry": {"location": {"lat": 42.37764300000001, "lng": -71.038943}, "viewport": {"northeast": {"lat": 42.3789892302915, "lng": -71.0377103697085}, "southwest": {"lat": 42.3762912697085, "lng": -71.04040833029151}}}, "icon": "https://maps.gstatic.com/mapfiles/place_api/icons/shopping-71.png", "id": "21ccc991a37e3a172aadb574bd0c30439e1c43f8", "name": "GM mattress", "opening_hours": {"open_now": true}, "photos": [{"height": 374, "html_attributions": ["<a href=\"https://maps.google.com/maps/contrib/100435449607502245877/photos\">GM mattress</a>"], "photo_reference": "CmRaAAAA34Sh9TlEyO0aN7HH9SIxlebRlEg4jx1bRcpk8wFM-lvYOq_HrzKkhJziz_np0X-Qrmz-MZmCfmwq-7ov2XizRcz-t_YYJ3PhGuPpb8-kLavUIRKlKh1_jA-8C6up4vfgEhBM4ndQRsFtQPkJqrkaHOvkGhSOTvOE5FXeWNsvHvQLbhbJOCPahQ", "width": 374}], "place_id": "ChIJuU6aCVBw44kR5aGUfzXuN5I", "plus_code": {"compound_code": "9XH6+3C Boston, Massachusetts, United States", "global_code": "87JC9XH6+3C"}, "rating": 5, "reference": "ChIJuU6aCVBw44kR5aGUfzXuN5I", "scope": "GOOGLE", "types": ["furniture_store", "home_goods_store", "store", "point_of_interest", "establishment"], "user_ratings_total": 2, "vicinity": "319 Meridian Street, East Boston"}, "ChIJwSYJElBw44kRgLaTL6BacXI": {"geometry": {"location": {"lat": 42.3781497, "lng": -71.0390073}, "viewport": {"northeast": {"lat": 42.3794973302915, "lng": -71.03775111970849}, "southwest": {"lat": 42.3767993697085, "lng": -71.04044908029151}}}, "icon": "https://maps.gstatic.com/mapfiles/place_api/icons/generic_business-71.png", "id": "ef6d9e661d1f5ea1d4beea972fbebefc9af8666b", "name": "Happy Barber Shop", "opening_hours": {"open_now": true}, "photos": [{"height": 1920, "html_attributions": ["<a href=\"https://maps.google.com/maps/contrib/113854819323430308286/photos\">ADIEL MJ</a>"], "photo_reference": "CmRaAAAAMnwee1ekgllt5uFKNvMQy12pzYsGuYStHBoWI-9NdWAUJY45rRJaLsHthiZSek4xdusxQ5sg0xldQ1hva8KGCOWImXKoCFu_HHU10WY-AA27hXIdqD7Apgy7Nd2Ygq6gEhCYhA-kJATHGcMv3J1c2BFuGhRawDlbhvUHvOes9asf4zpSAv2avw", "width": 1080}], "place_id": "ChIJwSYJElBw44kRgLaTL6BacXI", "plus_code": {"compound_code": "9XH6+79 Boston, Massachusetts, United States", "global_code": "87JC9XH6+79"}, "rating": 4.9, "reference": "ChIJwSYJElBw44kRgLaTL6BacXI", "scope": "GOOGLE", "types": ["beauty_salon", "hair_care", "point_of_interest", "establishment"], "user_ratings_total": 31, "vicinity": "333 Meridian Street, East Boston"}, "ChIJqwQRClBw44kRUiXA-24UZFM": {"geometry": {"location": {"lat": 42.37761629999999, "lng": -71.0390311}, "viewport": {"northeast": {"lat": 42.37896358029149, "lng": -71.0377538697085}, "southwest": {"lat": 42.37626561970849, "lng": -71.0404518302915}}}, "icon": "https://maps.gstatic.com/mapfiles/place_api/icons/generic_business-71.png", "id": "2cee033ec4d74914f1c52f6e48de99dd73b65058", "name": "Yanet Market", "photos": [{"height": 1836, "html_attributions": ["<a href=\"https://maps.google.com/maps/contrib/110700790617669989442/photos\">Benjamin</a>"], "photo_reference": "CmRaAAAAEM19jdYqigtRIcfWORAKoDjFW2YhvjLm4EuYTQkGUwW_zzBWzGxoiJNTkzYA14iQHuR2ALsatnZa-Jkuo5Uzj5Ip78UgQNY3osHSsLm0op9yBYoiXU8xVm_GHbTOv-DFEhAqdZ3DcfpUmHAM1yxnuT_fGhTfdow7ozvcAzRPJs-qupWQ0bG2pw", "width": 3264}], "place_id": "ChIJqwQRClBw44kRUiXA-24UZFM", "plus_code": {"compound_code": "9XH6+29 Boston, Massachusetts, United States", "global_code": "87JC9XH6+29"}, "rating": 5, "reference": "ChIJqwQRClBw44kRUiXA-24UZFM", "scope": "GOOGLE", "types": ["point_of_interest", "establishment"], "user_ratings_total": 1, "vicinity": "Boston"}, "ChIJa_cQClBw44kRQIux-Z1HYnQ": {"geometry": {"location": {"lat": 42.3775954, "lng": -71.0390317}, "viewport": {"northeast": {"lat": 42.3789427302915, "lng": -71.03775371970849}, "southwest": {"lat": 42.3762447697085, "lng": -71.0404516802915}}}, "icon": "https://maps.gstatic.com/mapfiles/place_api/icons/shopping-71.png", "id": "b43510c8785bb5eea72706accc70e26c758da313", "name": "Dany's Market", "place_id": "ChIJa_cQClBw44kRQIux-Z1HYnQ", "plus_code": {"compound_code": "9XH6+29 Boston, Massachusetts, United States", "global_code": "87JC9XH6+29"}, "reference": "ChIJa_cQClBw44kRQIux-Z1HYnQ", "scope": "GOOGLE", "types": ["grocery_or_supermarket", "store", "point_of_interest", "food", "establishment"], "vicinity": "317 Meridian Street, Boston"}, "ChIJ44LPE1Bw44kRtgetnhNH1H0": {"geometry": {"location": {"lat": 42.3783085, "lng": -71.0390097}, "viewport": {"northeast": {"lat": 42.37965613029149, "lng": -71.0377543697085}, "southwest": {"lat": 42.3769581697085, "lng": -71.04045233029152}}}, "icon": "https://maps.gstatic.com/mapfiles/place_api/icons/restaurant-71.png", "id": "68c9e4539d7d8ab64c2cbbebee8051563423b8e2", "name": "Lucky Seven Restaurant Inc", "place_id": "ChIJ44LPE1Bw44kRtgetnhNH1H0", "plus_code": {"compound_code": "9XH6+89 Boston, Massachusetts, United States", "global_code": "87JC9XH6+89"}, "reference": "ChIJ44LPE1Bw44kRtgetnhNH1H0", "scope": "GOOGLE", "types": ["restaurant", "point_of_interest", "food", "establishment"], "vicinity": "339 Meridian Street, Boston"}, "ChIJU93soFpw44kRv_n6jAj8_6w": {"geometry": {"location": {"lat": 42.3774861, "lng": -71.0389936}, "viewport": {"northeast": {"lat": 42.3788330302915, "lng": -71.03773231970848}, "southwest": {"lat": 42.3761350697085, "lng": -71.0404302802915}}}, "icon": "https://maps.gstatic.com/mapfiles/place_api/icons/restaurant-71.png", "id": "fa6b21f478cf8edca9cfdcb4d8e80a3047e1553d", "name": "Lenny's Spa", "place_id": "ChIJU93soFpw44kRv_n6jAj8_6w", "plus_code": {"compound_code": "9XG6+XC Boston, Massachusetts, United States", "global_code": "87JC9XG6+XC"}, "reference": "ChIJU93soFpw44kRv_n6jAj8_6w", "scope": "GOOGLE", "types": ["restaurant", "point_of_interest", "food", "establishment"], "vicinity": "313 Meridian Street, East Boston"}, "ChIJNzt_dVBw44kRI8KqXOt8E-Q": {"geometry": {"location": {"lat": 42.3776563, "lng": -71.03928379999999}, "viewport": {"northeast": {"lat": 42.3789926802915, "lng": -71.0382048697085}, "southwest": {"lat": 42.3762947197085, "lng": -71.04090283029151}}}, "icon": "https://maps.gstatic.com/mapfiles/place_api/icons/generic_recreational-71.png", "id": "57e634979cc4c4c961c2980ed4cc4183ce3724a9", "name": "Our Garden", "photos": [{"height": 1836, "html_attributions": ["<a href=\"https://maps.google.com/maps/contrib/103027310098184735223/photos\">A. P. Blake</a>"], "photo_reference": "CmRaAAAAU5UI9gmf0C1Fd5U6Ti-byLMZeNlgHjlu4ctd8R33c1HChEoLKW722i9_KJg9scEch0WG-W1fcgf1X7Y_YwrJWeFrCX2xc2RkV1MUxPWuhMZrO3bdjYgpQy89ZR30CuVOEhCxbiX4Id8VfQrRgW-uxVmLGhQ3J-FViZw34aJaIyJrDXMDKgpKYA", "width": 3264}], "place_id": "ChIJNzt_dVBw44kRI8KqXOt8E-Q", "reference": "ChIJNzt_dVBw44kRI8KqXOt8E-Q", "scope": "GOOGLE", "types": ["park", "premise", "point_of_interest", "establishment"], "vicinity": "Boston"}, "ChIJGzE9DS1l44kRoOhiASS_fHg": {"geometry": {"location": {"lat": 42.3600825, "lng": -71.0588801}, "viewport": {"northeast": {"lat": 42.40081989999999, "lng": -70.749455}, "southwest": {"lat": 42.22788, "lng": -71.191113}}}, "icon": "https://maps.gstatic.com/mapfiles/place_api/icons/geocode-71.png", "id": "06755c25d2b34d13942a4713971756a55b870ced", "name": "Boston", "photos": [{"height": 3024, "html_attributions": ["<a href=\"https://maps.google.com/maps/contrib/104670289779338733432/photos\">Natalia Zalucean</a>"], "photo_reference": "CmRaAAAA3yleeIgc4vfBnTj7qb3QC6eQUEEnhggyVf1tWA7IQW39bFyVSQzGklcOZtK-aanm-Nv_q3oJew6GnyPj0Tz43i_WHJm0kULjRjUvmguutUmP7VWGEtJbiv23tQohDkndEhAQdXb1tiBcbM8AoZtZL-nUGhSHsoPwarz65WFQUuQIwJ_6R3lJiQ", "width": 4032}], "place_id": "ChIJGzE9DS1l44kRoOhiASS_fHg", "reference": "ChIJGzE9DS1l44kRoOhiASS_fHg", "scope": "GOOGLE", "types": ["locality", "political"], "vicinity": "Boston"}}