{"ChIJ73u7vxB644kRfdj5x3LIL18": {"geometry": {"location": {"lat": 42.3436321, "lng": -71.0839324}, "viewport": {"northeast": {"lat": 42.3449904302915, "lng": -71.0826039697085}, "southwest": {"lat": 42.3422924697085, "lng": -71.08530193029151}}}, "icon": "https://maps.gstatic.com/mapfiles/place_api/icons/geocode-71.png", "id": "3e059e25389181ad2e1ae54124b9ad14f9c2619d", "name": "Huntington Avenue", "place_id": "ChIJ73u7vxB644kRfdj5x3LIL18", "reference": "ChIJ73u7vxB644kRfdj5x3LIL18", "scope": "GOOGLE", "types": ["route"], "vicinity": "Boston"}, "ChIJQzfwvxB644kRrpqxKgIAVpU": {"geometry": {"location": {"lat": 42.3436641, "lng": -71.0840529}, "viewport": {"northeast": {"lat": 42.3450196802915, "lng": -71.08271381970847}, "southwest": {"lat": 42.3423217197085, "lng": -71.0854117802915}}}, "icon": "https://maps.gstatic.com/mapfiles/place_api/icons/generic_business-71.png", "id": "d7068a9c96c2a9d4e4a89cc2ab4e91dec06780b4", "name": "Interpage Network Services", "place_id": "ChIJQzfwvxB644kRrpqxKgIAVpU", "plus_code": {"compound_code": "8WV8+F9 Boston, Massachusetts, United States", "global_code": "87JC8WV8+F9"}, "reference": "ChIJQzfwvxB644kRrpqxKgIAVpU", "scope": "GOOGLE", "types": ["point_of_interest", "establishment"], "vicinity": "209 Huntington Avenue, Boston"}, "ChIJHddCpBB644kRjeVh-J6A3Po": {"geometry": {"location": {"lat": 42.3434883, "lng": -71.08484469999999}, "viewport": {"northeast": {"lat": 42.34469388029149, "lng": -71.08376156970849}, "southwest": {"lat": 42.34199591970849, "lng": -71.0864595302915}}}, "icon": "https://maps.gstatic.com/mapfiles/place_api/icons/generic_business-71.png", "id": "b5bad96056b3ec081407febb5c63f0fd7b091015", "name": "Christian Science Plaza Garage", "opening_hours": {"open_now": true}, "photos": [{"height": 3024, "html_attributions": ["<a href=\"https://maps.google.com/maps/contrib/109115487138011959626/photos\">Joshua Rosen</a>"], "photo_reference": "CmRaAAAAezsLQ5em5Y7VS2oTvtf8KMTbp14d9fpvrEfty3_h-IEfwZb_XYrpS1uf2ichf9OA4BCglbyK2RHkFGU5_Ml4UBT9dLUon3aN9qKAoyu0v6ayLRJg3JnHnHXoJ_z63Q1yEhAdoySPo0g1X3vMDkumL-iAGhQnF7lZxE5WwzIk_qXVlmXMnVEEgw", "width": 4032}], "place_id": "ChIJHddCpBB644kRjeVh-J6A3Po", "plus_code": {"compound_code": "8WV8+93 Boston, Massachusetts, United States", "global_code": "87JC8WV8+93"}, "rating": 4.3, "reference": "ChIJHddCpBB644kRjeVh-J6A3Po", "scope": "GOOGLE", "types": ["parking", "point_of_interest", "establishment"], "user_ratings_total": 27, "vicinity": "235 Huntington Avenue, Boston"}, "ChIJKe_y6Rl644kRecti-5cdRVw": {"geometry": {"location": {"lat": 42.3432608, "lng": -71.0839585}, "viewport": {"northeast": {"lat": 42.34464508029149, "lng": -71.0826630697085}, "southwest": {"lat": 42.3419471197085, "lng": -71.08536103029151}}}, "icon": "https://maps.gstatic.com/mapfiles/place_api/icons/atm-71.png", "id": "37deadc1a985f667df3b74dc827f8e41e430a238", "name": "Cardtronics ATM", "opening_hours": {"open_now": true}, "place_id": "ChIJKe_y6Rl644kRecti-5cdRVw", "plus_code": {"compound_code": "8WV8+8C Boston, Massachusetts, United States", "global_code": "87JC8WV8+8C"}, "reference": "ChIJKe_y6Rl644kRecti-5cdRVw", "scope": "GOOGLE", "types": ["atm", "finance", "point_of_interest", "establishment"], "vicinity": "220 Huntington Avenue, Boston"}, "ChIJP6IxoxB644kRoSbZYq5fwgo": {"geometry": {"location": {"lat": 42.34358150000001, "lng": -71.0847191}, "viewport": {"northeast": {"lat": 42.3448572302915, "lng": -71.08348521970849}, "southwest": {"lat": 42.3421592697085, "lng": -71.0861831802915}}}, "icon": "https://maps.gstatic.com/mapfiles/place_api/icons/generic_business-71.png", "id": "e6d650bce1070b5e58fb873703259238d5be510a", "name": "194 Massachusetts Ave Parking", "place_id": "ChIJP6IxoxB644kRoSbZYq5fwgo", "plus_code": {"compound_code": "8WV8+C4 Boston, Massachusetts, United States", "global_code": "87JC8WV8+C4"}, "reference": "ChIJP6IxoxB644kRoSbZYq5fwgo", "scope": "GOOGLE", "types": ["parking", "point_of_interest", "establishment"], "vicinity": "194 Massachusetts Ave, Boston"}, "ChIJjS3xuBB644kRHLNCglXapF8": {"geometry": {"location": {"lat": 42.3432608, "lng": -71.0839585}, "viewport": {"northeast": {"lat": 42.34464508029149, "lng": -71.0826630697085}, "southwest": {"lat": 42.3419471197085, "lng": -71.08536103029151}}}, "icon": "https://maps.gstatic.com/mapfiles/place_api/icons/shopping-71.png", "id": "5eb256372a88cd77f2e68ac184fd1f85c94783be", "name": "Midtown Beauty Shop", "place_id": "ChIJjS3xuBB644kRHLNCglXapF8", "plus_code": {"compound_code": "8WV8+8C Boston, Massachusetts, United States", "global_code": "87JC8WV8+8C"}, "rating": 1, "reference": "ChIJjS3xuBB644kRHLNCglXapF8", "scope": "GOOGLE", "types": ["store", "point_of_interest", "establishment"], "user_ratings_total": 1, "vicinity": "220 Huntington Avenue, Boston"}, "ChIJc3WfoxB644kRrHGntDG0yq4": {"geometry": {"location": {"lat": 42.3436089, "lng": -71.0848829}, "viewport": {"northeast": {"lat": 42.34487093029149, "lng": -71.08356711970849}, "southwest": {"lat": 42.3421729697085, "lng": -71.0862650802915}}}, "icon": "https://maps.gstatic.com/mapfiles/place_api/icons/generic_business-71.png", "id": "5f3aa585d9344d3bd86589156c8af57121bca1b4", "name": "Belvidere Parking Garage", "place_id": "ChIJc3WfoxB644kRrHGntDG0yq4", "reference": "ChIJc3WfoxB644kRrHGntDG0yq4", "scope": "GOOGLE", "types": ["parking", "premise", "point_of_interest", "establishment"], "vicinity": "Boston"}, "ChIJGzE9DS1l44kRoOhiASS_fHg": {"geometry": {"location": {"lat": 42.3600825, "lng": -71.0588801}, "viewport": {"northeast": {"lat": 42.40081989999999, "lng": -70.749455}, "southwest": {"lat": 42.22788, "lng": -71.191113}}}, "icon": "https://maps.gstatic.com/mapfiles/place_api/icons/geocode-71.png", "id": "06755c25d2b34d13942a4713971756a55b870ced", "name": "Boston", "photos": [{"height": 3024, "html_attributions": ["<a href=\"https://maps.google.com/maps/contrib/104670289779338733432/photos\">Natalia Zalucean</a>"], "photo_reference": "CmRaAAAAtSHUrZi8MQibMrxWM5VGp59THajevqZNocR7xCiV1x6EYRvNCcok9NzYfkcj9Z6BS_adm5jGdBnxbUEEuBcds5iWLhRzQuLs6cTxq75voX3d8dkAm6whiHfJPkal7P8_EhDBhWw3SPB5014TGmurVPyVGhRma6WV2xHr5Yw_obrZQMjEY3A03w", "width": 4032}], "place_id": "ChIJGzE9DS1l44kRoOhiASS_fHg", "reference": "ChIJGzE9DS1l44kRoOhiASS_fHg", "scope": "GOOGLE", "types": ["locality", "political"], "vicinity": "Boston"}}