{"ChIJNXKkX6B544kRL-TToP__Uvc": {"geometry": {"location": {"lat": 42.3268175, "lng": -71.1239276}, "viewport": {"northeast": {"lat": 42.32816493029149, "lng": -71.1225822197085}, "southwest": {"lat": 42.32546696970849, "lng": -71.12528018029151}}}, "icon": "https://maps.gstatic.com/mapfiles/place_api/icons/geocode-71.png", "id": "b1c1cdd96185dfc4a12d102b4588c0e9bf02bee7", "name": "235-237 Cypress St", "place_id": "ChIJNXKkX6B544kRL-TToP__Uvc", "reference": "ChIJNXKkX6B544kRL-TToP__Uvc", "scope": "GOOGLE", "types": ["route"], "vicinity": "Brookline"}, "ChIJvaFsYKB544kRQHy51PYqK3I": {"geometry": {"location": {"lat": 42.326519, "lng": -71.12402080000001}, "viewport": {"northeast": {"lat": 42.3279215802915, "lng": -71.1225495197085}, "southwest": {"lat": 42.3252236197085, "lng": -71.1252474802915}}}, "icon": "https://maps.gstatic.com/mapfiles/place_api/icons/generic_business-71.png", "id": "b5d2bc7da257768a1dc42842f29c2084e128706f", "name": "Brookline Dermatology Associates, PC", "photos": [{"height": 1262, "html_attributions": ["<a href=\"https://maps.google.com/maps/contrib/109406998981699572087/photos\">Brookline Dermatology Associates, PC</a>"], "photo_reference": "CmRaAAAAkkniUBkOf9MhAOfpxP2IlSP6hHWczPxFRvDMt-6-UsO4nTd7GfBx1ktorAONKj0OSXwm8MAOMIU7Nc-P3WoW6d6fywUIZv2k-7-zfQheeyMQWEMT23KBSqZ7oR1vZ6OOEhCDaaHpyJyoY698X9pvLP7UGhSojlC4o-3VIWp5cS2JIgh4mYsKaw", "width": 900}], "place_id": "ChIJvaFsYKB544kRQHy51PYqK3I", "plus_code": {"compound_code": "8VGG+J9 Brookline, Massachusetts, United States", "global_code": "87JC8VGG+J9"}, "rating": 3, "reference": "ChIJvaFsYKB544kRQHy51PYqK3I", "scope": "GOOGLE", "types": ["doctor", "health", "point_of_interest", "establishment"], "user_ratings_total": 6, "vicinity": "235 Cypress Street # 200, Brookline"}, "ChIJvaFsYKB544kRl5eFSTPnv4w": {"geometry": {"location": {"lat": 42.3265214, "lng": -71.1240056}, "viewport": {"northeast": {"lat": 42.3279211802915, "lng": -71.1225406697085}, "southwest": {"lat": 42.3252232197085, "lng": -71.1252386302915}}}, "icon": "https://maps.gstatic.com/mapfiles/place_api/icons/generic_business-71.png", "id": "5495d503bbbb56ed358d1fcd00b447567b70bd55", "name": "Dr. Brian W. Lester, MD", "photos": [{"height": 1262, "html_attributions": ["<a href=\"https://maps.google.com/maps/contrib/116082901441882954795/photos\">Dr. Brian W. Lester, MD</a>"], "photo_reference": "CmRZAAAA6gQMx0lcd_KY2yNG4j5h01j00mzSHnA4gwtmXPA7dqEbWqNZ6wJ4STVUSdxnZ7uj8F6hBwyT3mSV7U9yonZpGoOufIIJwGAaHEfo3lzyv5CIuIKT7kFZAbzyvij7Q2PvEhB-c_zNGUdreyrp6FJXUmGVGhRAOD_a5GiWQLPvtbz_wZABM8pu_w", "width": 900}], "place_id": "ChIJvaFsYKB544kRl5eFSTPnv4w", "plus_code": {"compound_code": "8VGG+J9 Brookline, Massachusetts, United States", "global_code": "87JC8VGG+J9"}, "rating": 5, "reference": "ChIJvaFsYKB544kRl5eFSTPnv4w", "scope": "GOOGLE", "types": ["doctor", "health", "point_of_interest", "establishment"], "user_ratings_total": 1, "vicinity": "235 Cypress Street, Brookline"}, "ChIJvaFsYKB544kRdiNKuKyCkQE": {"geometry": {"location": {"lat": 42.326516, "lng": -71.12401}, "viewport": {"northeast": {"lat": 42.3279171802915, "lng": -71.12254181970849}, "southwest": {"lat": 42.3252192197085, "lng": -71.12523978029151}}}, "icon": "https://maps.gstatic.com/mapfiles/place_api/icons/generic_business-71.png", "id": "1cf5b69ecb2f7a299542f29a7bdd6fe14c37dad9", "name": "Dr. Terri Silver, MD", "opening_hours": {"open_now": true}, "photos": [{"height": 1152, "html_attributions": ["<a href=\"https://maps.google.com/maps/contrib/112979922921085251175/photos\">Dr. Terri Silver, MD</a>"], "photo_reference": "CmRaAAAAPhHU4l6QF2DoUZ9xUcGOujawZItoIPsb-PIDlTdRuuT_yYrfXTFTBbevGxL3lht1ejX_VqjopAeRtaZe7CgxZy_SCsLvt07Cp7fRmrsx1J61FctxhJYpUCg6Kfd9hUVHEhBcegg9OOLWDbFYimkromztGhQhs5G5sOoivD5o_RZ-cZsjg0pV0w", "width": 2048}], "place_id": "ChIJvaFsYKB544kRdiNKuKyCkQE", "plus_code": {"compound_code": "8VGG+J9 Brookline, Massachusetts, United States", "global_code": "87JC8VGG+J9"}, "rating": 5, "reference": "ChIJvaFsYKB544kRdiNKuKyCkQE", "scope": "GOOGLE", "types": ["doctor", "health", "point_of_interest", "establishment"], "user_ratings_total": 4, "vicinity": "235 Cypress Street #210, Brookline"}, "ChIJvaFsYKB544kRewKKIcjHio0": {"geometry": {"location": {"lat": 42.326519, "lng": -71.12402080000001}, "viewport": {"northeast": {"lat": 42.3279215802915, "lng": -71.1225495197085}, "southwest": {"lat": 42.3252236197085, "lng": -71.1252474802915}}}, "icon": "https://maps.gstatic.com/mapfiles/place_api/icons/generic_business-71.png", "id": "45f111668c69253e3e34b7efbada9b66f3c69527", "name": "Longwood Plastic Surgery", "opening_hours": {"open_now": true}, "place_id": "ChIJvaFsYKB544kRewKKIcjHio0", "plus_code": {"compound_code": "8VGG+J9 Brookline, Massachusetts, United States", "global_code": "87JC8VGG+J9"}, "rating": 3, "reference": "ChIJvaFsYKB544kRewKKIcjHio0", "scope": "GOOGLE", "types": ["spa", "doctor", "health", "point_of_interest", "establishment"], "user_ratings_total": 2, "vicinity": "235 Cypress Street #210, Brookline"}, "ChIJvaFsYKB544kRkF-ZDyWZpi4": {"geometry": {"location": {"lat": 42.3266267, "lng": -71.12391099999999}, "viewport": {"northeast": {"lat": 42.32799718029149, "lng": -71.12251196970848}, "southwest": {"lat": 42.32529921970849, "lng": -71.12520993029149}}}, "icon": "https://maps.gstatic.com/mapfiles/place_api/icons/generic_business-71.png", "id": "f5e9180180b954524f3ac2deab6fc2245a1f2f15", "name": "Pro Sports Orthopedics: Minos Lampros", "place_id": "ChIJvaFsYKB544kRkF-ZDyWZpi4", "plus_code": {"compound_code": "8VGG+MC Brookline, Massachusetts, United States", "global_code": "87JC8VGG+MC"}, "reference": "ChIJvaFsYKB544kRkF-ZDyWZpi4", "scope": "GOOGLE", "types": ["health", "point_of_interest", "establishment"], "vicinity": "235 Cypress Street # 300, Brookline"}, "ChIJvaFsYKB544kRwCKkROfnmyI": {"geometry": {"location": {"lat": 42.3265158, "lng": -71.1240095}, "viewport": {"northeast": {"lat": 42.3279169302915, "lng": -71.1225414697085}, "southwest": {"lat": 42.3252189697085, "lng": -71.1252394302915}}}, "icon": "https://maps.gstatic.com/mapfiles/place_api/icons/generic_business-71.png", "id": "aab834bbfbd1dd5d219f14e9c357799bc3fd4cee", "name": "Pro Sports Orthopedics: Karlson James A MD", "opening_hours": {"open_now": true}, "place_id": "ChIJvaFsYKB544kRwCKkROfnmyI", "plus_code": {"compound_code": "8VGG+J9 Brookline, Massachusetts, United States", "global_code": "87JC8VGG+J9"}, "reference": "ChIJvaFsYKB544kRwCKkROfnmyI", "scope": "GOOGLE", "types": ["dentist", "health", "point_of_interest", "establishment"], "vicinity": "235 Cypress Street, Brookline"}, "ChIJvaFsYKB544kRQMQeRFZ6-0w": {"geometry": {"location": {"lat": 42.3266267, "lng": -71.12391099999999}, "viewport": {"northeast": {"lat": 42.32799718029149, "lng": -71.12251196970848}, "southwest": {"lat": 42.32529921970849, "lng": -71.12520993029149}}}, "icon": "https://maps.gstatic.com/mapfiles/place_api/icons/generic_business-71.png", "id": "2424ccba985b41c9501f82edc9a580a7717b80f4", "name": "Pro Sports Orthopedics: Miegel Robert E MD", "place_id": "ChIJvaFsYKB544kRQMQeRFZ6-0w", "plus_code": {"compound_code": "8VGG+MC Brookline, Massachusetts, United States", "global_code": "87JC8VGG+MC"}, "reference": "ChIJvaFsYKB544kRQMQeRFZ6-0w", "scope": "GOOGLE", "types": ["doctor", "health", "point_of_interest", "establishment"], "vicinity": "235 Cypress Street # 300, Brookline"}, "ChIJvaFsYKB544kRPzUgI0oLQqg": {"geometry": {"location": {"lat": 42.3265158, "lng": -71.1240095}, "viewport": {"northeast": {"lat": 42.3279169302915, "lng": -71.1225414697085}, "southwest": {"lat": 42.3252189697085, "lng": -71.1252394302915}}}, "icon": "https://maps.gstatic.com/mapfiles/place_api/icons/generic_business-71.png", "id": "8cc2cf75f0f9f9ef23fd7525161cbaca040d68e7", "name": "Dr. Richard M. Ozuna, MD", "place_id": "ChIJvaFsYKB544kRPzUgI0oLQqg", "plus_code": {"compound_code": "8VGG+J9 Brookline, Massachusetts, United States", "global_code": "87JC8VGG+J9"}, "reference": "ChIJvaFsYKB544kRPzUgI0oLQqg", "scope": "GOOGLE", "types": ["doctor", "health", "point_of_interest", "establishment"], "vicinity": "235 Cypress Street, Brookline"}, "ChIJvaFsYKB544kRXtHcjOPvilk": {"geometry": {"location": {"lat": 42.3265209, "lng": -71.1240064}, "viewport": {"northeast": {"lat": 42.32792088029149, "lng": -71.12254101970849}, "southwest": {"lat": 42.3252229197085, "lng": -71.12523898029151}}}, "icon": "https://maps.gstatic.com/mapfiles/place_api/icons/generic_business-71.png", "id": "9cd075e76e35f8b3881ea18f7ed1e8ed19222944", "name": "Longwood Plastic Surgery: Morris Donald MD", "opening_hours": {"open_now": true}, "place_id": "ChIJvaFsYKB544kRXtHcjOPvilk", "plus_code": {"compound_code": "8VGG+J9 Brookline, Massachusetts, United States", "global_code": "87JC8VGG+J9"}, "reference": "ChIJvaFsYKB544kRXtHcjOPvilk", "scope": "GOOGLE", "types": ["doctor", "health", "point_of_interest", "establishment"], "vicinity": "235 Cypress Street # 210, Brookline"}, "ChIJvaFsYKB544kRufVvGutU97w": {"geometry": {"location": {"lat": 42.3265214, "lng": -71.1240056}, "viewport": {"northeast": {"lat": 42.3279211802915, "lng": -71.1225406697085}, "southwest": {"lat": 42.3252232197085, "lng": -71.1252386302915}}}, "icon": "https://maps.gstatic.com/mapfiles/place_api/icons/generic_business-71.png", "id": "24c4cd73c8c1114b4c6e1e6c3292787f698e0e7c", "name": "Hester John DPM", "place_id": "ChIJvaFsYKB544kRufVvGutU97w", "plus_code": {"compound_code": "8VGG+J9 Brookline, Massachusetts, United States", "global_code": "87JC8VGG+J9"}, "reference": "ChIJvaFsYKB544kRufVvGutU97w", "scope": "GOOGLE", "types": ["doctor", "health", "point_of_interest", "establishment"], "vicinity": "235 Cypress Street # 300, Brookline"}, "ChIJvaFsYKB544kRULxQKXG-XfA": {"geometry": {"location": {"lat": 42.326519, "lng": -71.12402080000001}, "viewport": {"northeast": {"lat": 42.3279215802915, "lng": -71.1225495197085}, "southwest": {"lat": 42.3252236197085, "lng": -71.1252474802915}}}, "icon": "https://maps.gstatic.com/mapfiles/place_api/icons/generic_business-71.png", "id": "e1d9418728e3663b27459747b20ea8a970ee96a1", "name": "Mason Michael D DO", "place_id": "ChIJvaFsYKB544kRULxQKXG-XfA", "plus_code": {"compound_code": "8VGG+J9 Brookline, Massachusetts, United States", "global_code": "87JC8VGG+J9"}, "reference": "ChIJvaFsYKB544kRULxQKXG-XfA", "scope": "GOOGLE", "types": ["doctor", "health", "point_of_interest", "establishment"], "vicinity": "235 Cypress Street #300, Brookline"}, "ChIJ-RCKfL1544kRhfcVlTsVM7M": {"geometry": {"location": {"lat": 42.326519, "lng": -71.124021}, "viewport": {"northeast": {"lat": 42.3279215802915, "lng": -71.12254966970849}, "southwest": {"lat": 42.3252236197085, "lng": -71.1252476302915}}}, "icon": "https://maps.gstatic.com/mapfiles/place_api/icons/generic_business-71.png", "id": "a989d13099615c0782e929c5f28673fe4358d025", "name": "The Mediation Group", "opening_hours": {"open_now": true}, "place_id": "ChIJ-RCKfL1544kRhfcVlTsVM7M", "plus_code": {"compound_code": "8VGG+J9 Brookline, Massachusetts, United States", "global_code": "87JC8VGG+J9"}, "rating": 4, "reference": "ChIJ-RCKfL1544kRhfcVlTsVM7M", "scope": "GOOGLE", "types": ["point_of_interest", "establishment"], "user_ratings_total": 1, "vicinity": "235 Cypress Street Suite 300, Brookline"}, "ChIJhSRHYaB544kRs9_No9xhcUY": {"geometry": {"location": {"lat": 42.3263272, "lng": -71.123778}, "viewport": {"northeast": {"lat": 42.3277151802915, "lng": -71.1223411197085}, "southwest": {"lat": 42.3250172197085, "lng": -71.1250390802915}}}, "icon": "https://maps.gstatic.com/mapfiles/place_api/icons/generic_business-71.png", "id": "db27206526039a027440e7efc3937d1ed49bb49d", "name": "ADVANCED MASSAGE THERAPY", "opening_hours": {"open_now": true}, "photos": [{"height": 897, "html_attributions": ["<a href=\"https://maps.google.com/maps/contrib/114856922534789643238/photos\">ADVANCED MASSAGE THERAPY</a>"], "photo_reference": "CmRaAAAAr9MzgPihtJwuKs97vPkwxTpDcEa0vwL0WwgD1Ggjf_IinKU6zjQKqpKo-v2NGPjUov6dX2NI9MBpe5i9n93svdn6NFsqOQi9JjYo8Z_hdf5S3wwYRkdnCPIWG_k4DO9HEhASb5qncMcmn5eWcWsZGXKDGhSBM-CIKcs_1B0w-a3BrIcoc_rajQ", "width": 904}], "place_id": "ChIJhSRHYaB544kRs9_No9xhcUY", "plus_code": {"compound_code": "8VGG+GF Brookline, Massachusetts, United States", "global_code": "87JC8VGG+GF"}, "rating": 5, "reference": "ChIJhSRHYaB544kRs9_No9xhcUY", "scope": "GOOGLE", "types": ["point_of_interest", "establishment"], "user_ratings_total": 4, "vicinity": "241 Cypress Street, Brookline"}, "ChIJvaFsYKB544kRA1cK4yFX34w": {"geometry": {"location": {"lat": 42.32661969999999, "lng": -71.12393279999999}, "viewport": {"northeast": {"lat": 42.3279945302915, "lng": -71.12252356970849}, "southwest": {"lat": 42.3252965697085, "lng": -71.1252215302915}}}, "icon": "https://maps.gstatic.com/mapfiles/place_api/icons/generic_business-71.png", "id": "3a4602f97bb7ce1ebed240567c3f0dad2bcbacb6", "name": "Pro Sports Orthopedics: Scheller Arnold D MD", "place_id": "ChIJvaFsYKB544kRA1cK4yFX34w", "plus_code": {"compound_code": "8VGG+JC Brookline, Massachusetts, United States", "global_code": "87JC8VGG+JC"}, "reference": "ChIJvaFsYKB544kRA1cK4yFX34w", "scope": "GOOGLE", "types": ["doctor", "health", "point_of_interest", "establishment"], "vicinity": "235 Cypress Street # 300, Brookline"}, "ChIJvaFsYKB544kRUNBlSetsdC8": {"geometry": {"location": {"lat": 42.32661969999999, "lng": -71.12393279999999}, "viewport": {"northeast": {"lat": 42.3279945302915, "lng": -71.12252356970849}, "southwest": {"lat": 42.3252965697085, "lng": -71.1252215302915}}}, "icon": "https://maps.gstatic.com/mapfiles/place_api/icons/generic_business-71.png", "id": "fb81b1748defdb048427b1254118bf664216f20d", "name": "Pro Sports Orthopedics: Schena Anthony MD", "place_id": "ChIJvaFsYKB544kRUNBlSetsdC8", "plus_code": {"compound_code": "8VGG+JC Brookline, Massachusetts, United States", "global_code": "87JC8VGG+JC"}, "reference": "ChIJvaFsYKB544kRUNBlSetsdC8", "scope": "GOOGLE", "types": ["doctor", "health", "point_of_interest", "establishment"], "vicinity": "235 Cypress Street # 300, Brookline"}, "ChIJi1zNX6B544kR8OhpTNjjhSo": {"geometry": {"location": {"lat": 42.3265158, "lng": -71.1240095}, "viewport": {"northeast": {"lat": 42.3279169302915, "lng": -71.1225414697085}, "southwest": {"lat": 42.3252189697085, "lng": -71.1252394302915}}}, "icon": "https://maps.gstatic.com/mapfiles/place_api/icons/generic_business-71.png", "id": "615e7e555a2f373538e83ae29ea45ed6415e2f73", "name": "Dr. Papri Sarkar", "place_id": "ChIJi1zNX6B544kR8OhpTNjjhSo", "plus_code": {"compound_code": "8VGG+J9 Brookline, Massachusetts, United States", "global_code": "87JC8VGG+J9"}, "rating": 5, "reference": "ChIJi1zNX6B544kR8OhpTNjjhSo", "scope": "GOOGLE", "types": ["doctor", "health", "point_of_interest", "establishment"], "user_ratings_total": 1, "vicinity": "235 Cypress Street, Brookline"}, "ChIJT8TPYaB544kRc4p0eWKTDWU": {"geometry": {"location": {"lat": 42.326531, "lng": -71.12409199999999}, "viewport": {"northeast": {"lat": 42.3279435302915, "lng": -71.12259791970848}, "southwest": {"lat": 42.3252455697085, "lng": -71.12529588029149}}}, "icon": "https://maps.gstatic.com/mapfiles/place_api/icons/generic_business-71.png", "id": "57cfd2869d082f752d17ca920f8cae675bff8f5b", "name": "POST Physical Therapy", "opening_hours": {"open_now": true}, "photos": [{"height": 410, "html_attributions": ["<a href=\"https://maps.google.com/maps/contrib/110463543053031462411/photos\">POST Physical Therapy</a>"], "photo_reference": "CmRaAAAAFxoTaW85_KiPB74TC5TBdHvl2IXZq45y0EFs_32qAvja3Y1Ej21bn5e9ZhKPn943I-wdrOGkeHuY6Kl4DfMq_oJSOcrvA4PiddGDZWk1u_2aOwdgfiyBkWSZnyKQMR81EhAvyXb3Pf1dnu8t26gc-VmWGhQtJI54UKsz0zUDMu0mddWpC0DXsw", "width": 940}], "place_id": "ChIJT8TPYaB544kRc4p0eWKTDWU", "plus_code": {"compound_code": "8VGG+J9 Brookline, Massachusetts, United States", "global_code": "87JC8VGG+J9"}, "rating": 5, "reference": "ChIJT8TPYaB544kRc4p0eWKTDWU", "scope": "GOOGLE", "types": ["health", "point_of_interest", "establishment"], "user_ratings_total": 9, "vicinity": "235 Cypress Street #110, Brookline"}, "ChIJ6X3QYaB544kRRiOX1Jf4bXg": {"geometry": {"location": {"lat": 42.326519, "lng": -71.12402080000001}, "viewport": {"northeast": {"lat": 42.3279215802915, "lng": -71.1225495197085}, "southwest": {"lat": 42.3252236197085, "lng": -71.1252474802915}}}, "icon": "https://maps.gstatic.com/mapfiles/place_api/icons/generic_business-71.png", "id": "6b881cafc2f2b8326535d8dd2565c49e02f43bcc", "name": "postptbrookline", "place_id": "ChIJ6X3QYaB544kRRiOX1Jf4bXg", "plus_code": {"compound_code": "8VGG+J9 Brookline, Massachusetts, United States", "global_code": "87JC8VGG+J9"}, "reference": "ChIJ6X3QYaB544kRRiOX1Jf4bXg", "scope": "GOOGLE", "types": ["health", "point_of_interest", "establishment"], "vicinity": "235 Cypress Street #110, Brookline"}, "ChIJhZirQQB544kRB9LbXEfedZQ": {"geometry": {"location": {"lat": 42.33176419999999, "lng": -71.1211635}, "viewport": {"northeast": {"lat": 42.3518109, "lng": -71.1056969}, "southwest": {"lat": 42.29459689999999, "lng": -71.1789959}}}, "icon": "https://maps.gstatic.com/mapfiles/place_api/icons/geocode-71.png", "id": "92986b2d1f69af2f2a7e29d34ced8adfa8573beb", "name": "Brookline", "photos": [{"height": 651, "html_attributions": ["<a href=\"https://maps.google.com/maps/contrib/114772942214832951419/photos\">Michael Ahn</a>"], "photo_reference": "CmRaAAAA6TJBXvUcSUDttiKSlYPzbn7A9Fk5w01xqmjBSsrrMYmkY_tqB0jdjp6_AjUdByqbZPm_zKgP5F8nDyR6IroC7GrvAU1jrBalh5l4g6NJz4uRegvZU-LvbZonhs8zsnzVEhDF41Aec3_g--M_I7bV2gwqGhQ5sq4LoeRT7ugM267x0mPGFVgwkg", "width": 1608}], "place_id": "ChIJhZirQQB544kRB9LbXEfedZQ", "reference": "ChIJhZirQQB544kRB9LbXEfedZQ", "scope": "GOOGLE", "types": ["locality", "political"], "vicinity": "Brookline"}, "ChIJT8TPYaB544kRHt924i48724": {"geometry": {"location": {"lat": 42.3265214, "lng": -71.1240056}, "viewport": {"northeast": {"lat": 42.3279211802915, "lng": -71.1225406697085}, "southwest": {"lat": 42.3252232197085, "lng": -71.1252386302915}}}, "icon": "https://maps.gstatic.com/mapfiles/place_api/icons/generic_business-71.png", "id": "ffc3d6d91ba12fca2fdae204adb15a20922aea8a", "name": "Keith Colby Coaching", "place_id": "ChIJT8TPYaB544kRHt924i48724", "plus_code": {"compound_code": "8VGG+J9 Brookline, Massachusetts, United States", "global_code": "87JC8VGG+J9"}, "reference": "ChIJT8TPYaB544kRHt924i48724", "scope": "GOOGLE", "types": ["health", "point_of_interest", "establishment"], "vicinity": "235 Cypress Street #110, Brookline"}, "ChIJj8ERYKB544kRc-q-hJCnLDY": {"geometry": {"location": {"lat": 42.32653699999999, "lng": -71.124016}, "viewport": {"northeast": {"lat": 42.3279364302915, "lng": -71.12255186970849}, "southwest": {"lat": 42.3252384697085, "lng": -71.12524983029151}}}, "icon": "https://maps.gstatic.com/mapfiles/place_api/icons/shopping-71.png", "id": "1cff9b9117ec93f2ba8cb3be07d57bd75c29213d", "name": "AccuQuest Hearing Centers - Brookline, MA", "opening_hours": {"open_now": true}, "place_id": "ChIJj8ERYKB544kRc-q-hJCnLDY", "plus_code": {"compound_code": "8VGG+J9 Brookline, Massachusetts, United States", "global_code": "87JC8VGG+J9"}, "reference": "ChIJj8ERYKB544kRc-q-hJCnLDY", "scope": "GOOGLE", "types": ["store", "health", "point_of_interest", "establishment"], "vicinity": "235 Cypress Street #100, Brookline"}, "ChIJub5pYKB544kRpHw_LEBuh6E": {"geometry": {"location": {"lat": 42.3266267, "lng": -71.12391099999999}, "viewport": {"northeast": {"lat": 42.32799718029149, "lng": -71.12251196970848}, "southwest": {"lat": 42.32529921970849, "lng": -71.12520993029149}}}, "icon": "https://maps.gstatic.com/mapfiles/place_api/icons/generic_business-71.png", "id": "122fd6f5643347c8deae3f478fc2672b95820f95", "name": "Boston Sports Medicine For Wom", "place_id": "ChIJub5pYKB544kRpHw_LEBuh6E", "plus_code": {"compound_code": "8VGG+MC Brookline, Massachusetts, United States", "global_code": "87JC8VGG+MC"}, "reference": "ChIJub5pYKB544kRpHw_LEBuh6E", "scope": "GOOGLE", "types": ["doctor", "health", "point_of_interest", "establishment"], "vicinity": "235 Cypress Street # 300, Brookline"}, "ChIJ4wPlXaB544kRZFNHaK9hCvQ": {"geometry": {"location": {"lat": 42.3267012, "lng": -71.1236993}, "viewport": {"northeast": {"lat": 42.32802798029149, "lng": -71.1224010197085}, "southwest": {"lat": 42.3253300197085, "lng": -71.12509898029151}}}, "icon": "https://maps.gstatic.com/mapfiles/place_api/icons/generic_business-71.png", "id": "8ffe240ab8f81ee2798cee6240b39a8e915a5413", "name": "I Too", "opening_hours": {"open_now": true}, "place_id": "ChIJ4wPlXaB544kRZFNHaK9hCvQ", "plus_code": {"compound_code": "8VGG+MG Brookline, Massachusetts, United States", "global_code": "87JC8VGG+MG"}, "rating": 5, "reference": "ChIJ4wPlXaB544kRZFNHaK9hCvQ", "scope": "GOOGLE", "types": ["beauty_salon", "point_of_interest", "establishment"], "user_ratings_total": 6, "vicinity": "248 Cypress Street, Brookline"}, "ChIJub5pYKB544kRBVRXYQRJ49k": {"geometry": {"location": {"lat": 42.3265214, "lng": -71.1240056}, "viewport": {"northeast": {"lat": 42.3279211802915, "lng": -71.1225406697085}, "southwest": {"lat": 42.3252232197085, "lng": -71.1252386302915}}}, "icon": "https://maps.gstatic.com/mapfiles/place_api/icons/generic_business-71.png", "id": "b85d84b1ba65d71f04d4c50330d3cff1a6826bc9", "name": "Cypress Street X Ray", "place_id": "ChIJub5pYKB544kRBVRXYQRJ49k", "plus_code": {"compound_code": "8VGG+J9 Brookline, Massachusetts, United States", "global_code": "87JC8VGG+J9"}, "reference": "ChIJub5pYKB544kRBVRXYQRJ49k", "scope": "GOOGLE", "types": ["health", "point_of_interest", "establishment"], "vicinity": "235 Cypress Street, Brookline"}, "ChIJvaFsYKB544kRNdZq5-Wl4Nk": {"geometry": {"location": {"lat": 42.3265214, "lng": -71.1240056}, "viewport": {"northeast": {"lat": 42.3279211802915, "lng": -71.1225406697085}, "southwest": {"lat": 42.3252232197085, "lng": -71.1252386302915}}}, "icon": "https://maps.gstatic.com/mapfiles/place_api/icons/generic_business-71.png", "id": "3c465a24c198f01cd4ed820422050d8557e0bf4d", "name": "Dr. Donald T. Reilly, MD", "place_id": "ChIJvaFsYKB544kRNdZq5-Wl4Nk", "plus_code": {"compound_code": "8VGG+J9 Brookline, Massachusetts, United States", "global_code": "87JC8VGG+J9"}, "rating": 5, "reference": "ChIJvaFsYKB544kRNdZq5-Wl4Nk", "scope": "GOOGLE", "types": ["doctor", "health", "point_of_interest", "establishment"], "user_ratings_total": 1, "vicinity": "235 Cypress Street, Brookline"}, "ChIJpdWKXaB544kRwMNMN5MFE2g": {"geometry": {"location": {"lat": 42.3266391, "lng": -71.1235908}, "viewport": {"northeast": {"lat": 42.32795743029151, "lng": -71.1223158697085}, "southwest": {"lat": 42.32525946970851, "lng": -71.12501383029151}}}, "icon": "https://maps.gstatic.com/mapfiles/place_api/icons/generic_business-71.png", "id": "65cadc8f186b70696b3908887f9b64bbc2b67411", "name": "CORE", "opening_hours": {"open_now": true}, "photos": [{"height": 1080, "html_attributions": ["<a href=\"https://maps.google.com/maps/contrib/102574252592101944922/photos\">CORE</a>"], "photo_reference": "CmRaAAAAxiEloVVHQsps4jgoErECzzt7LVzf_UOWC74KFQ_LyXcw-mhEOKtqKK3Ucctv5OcHQiHIYrdOZ874JWjSFfmNnaNmiBCbN6oUkQ60dukm8aEhTeJ_RDtrKgbja7NJTjLkEhBGgMQlQk39NlCmyctBDWOxGhQY3GeOb0LypLjgexGXnGTAQTUgOg", "width": 1080}], "place_id": "ChIJpdWKXaB544kRwMNMN5MFE2g", "plus_code": {"compound_code": "8VGG+MH Brookline, Massachusetts, United States", "global_code": "87JC8VGG+MH"}, "rating": 5, "reference": "ChIJpdWKXaB544kRwMNMN5MFE2g", "scope": "GOOGLE", "types": ["health", "point_of_interest", "establishment"], "user_ratings_total": 3, "vicinity": "250 Cypress Street, Brookline"}, "ChIJ4wPlXaB544kRlLYPXmvni-w": {"geometry": {"location": {"lat": 42.3266832, "lng": -71.12361179999999}, "viewport": {"northeast": {"lat": 42.3279981302915, "lng": -71.12234056970848}, "southwest": {"lat": 42.3253001697085, "lng": -71.12503853029149}}}, "icon": "https://maps.gstatic.com/mapfiles/place_api/icons/generic_business-71.png", "id": "da21ea570dec4656c7fe0da3d26600d2662178bc", "name": "Hairdressing by Ron Hodges", "opening_hours": {"open_now": false}, "photos": [{"height": 477, "html_attributions": ["<a href=\"https://maps.google.com/maps/contrib/101026162614933650805/photos\">Hairdressing by Ron Hodges</a>"], "photo_reference": "CmRaAAAAN7VwGhZ6N8kU8N574pSmWrf1uIA5sVlKjXI-wCK8eu16Jf1ZmrmJbe_uV6ZBsqnOipZ0f4_ZwT8wB8T7Lf-RfiF9VPvoMr1CvquG32U57xw-W8fCAx6QSjb0O9ts-AxOEhBMhUQih6n2irvgQY03D-BNGhSt8UoZksPsQgsMhk_ZCHOnvX7bhQ", "width": 593}], "place_id": "ChIJ4wPlXaB544kRlLYPXmvni-w", "plus_code": {"compound_code": "8VGG+MH Brookline, Massachusetts, United States", "global_code": "87JC8VGG+MH"}, "reference": "ChIJ4wPlXaB544kRlLYPXmvni-w", "scope": "GOOGLE", "types": ["hair_care", "point_of_interest", "establishment"], "vicinity": "248 Cypress Street, Brookline"}, "ChIJ6X3QYaB544kRSwIl_HmqS4s": {"geometry": {"location": {"lat": 42.326519, "lng": -71.12402080000001}, "viewport": {"northeast": {"lat": 42.3279215802915, "lng": -71.1225495197085}, "southwest": {"lat": 42.3252236197085, "lng": -71.1252474802915}}}, "icon": "https://maps.gstatic.com/mapfiles/place_api/icons/generic_business-71.png", "id": "aba91dfbaec35dcee1ef3640d063447ae1870c9e", "name": "235 Cypress St Parking", "place_id": "ChIJ6X3QYaB544kRSwIl_HmqS4s", "plus_code": {"compound_code": "8VGG+J9 Brookline, Massachusetts, United States", "global_code": "87JC8VGG+J9"}, "reference": "ChIJ6X3QYaB544kRSwIl_HmqS4s", "scope": "GOOGLE", "types": ["parking", "point_of_interest", "establishment"], "vicinity": "235 Cypress Street, Brookline"}, "ChIJ6X3QYaB544kR6Px-QqGqXT4": {"geometry": {"location": {"lat": 42.326519, "lng": -71.12402080000001}, "viewport": {"northeast": {"lat": 42.3279215802915, "lng": -71.1225495197085}, "southwest": {"lat": 42.3252236197085, "lng": -71.1252474802915}}}, "icon": "https://maps.gstatic.com/mapfiles/place_api/icons/generic_business-71.png", "id": "f77829267f967ac061cf643c2993b35b491ab017", "name": "Boston Post Adoption Resources", "place_id": "ChIJ6X3QYaB544kR6Px-QqGqXT4", "plus_code": {"compound_code": "8VGG+J9 Brookline, Massachusetts, United States", "global_code": "87JC8VGG+J9"}, "reference": "ChIJ6X3QYaB544kR6Px-QqGqXT4", "scope": "GOOGLE", "types": ["health", "point_of_interest", "establishment"], "vicinity": "235 Cypress Street, Brookline"}, "ChIJ_____6t544kRKStdGyfEZPQ": {"geometry": {"location": {"lat": 42.326519, "lng": -71.12402080000001}, "viewport": {"northeast": {"lat": 42.3278132802915, "lng": -71.12278376970849}, "southwest": {"lat": 42.3251153197085, "lng": -71.12548173029151}}}, "icon": "https://maps.gstatic.com/mapfiles/place_api/icons/shopping-71.png", "id": "2fe5b0f889041dbcb38d44a539d8c39242d97939", "name": "Alliance Imaging", "place_id": "ChIJ_____6t544kRKStdGyfEZPQ", "plus_code": {"compound_code": "8VGG+J9 Brookline, Massachusetts, United States", "global_code": "87JC8VGG+J9"}, "reference": "ChIJ_____6t544kRKStdGyfEZPQ", "scope": "GOOGLE", "types": ["store", "health", "point_of_interest", "establishment"], "vicinity": "235 Cyprema St 110, Brookline"}, "ChIJ6X3QYaB544kR27AS5f4_6k0": {"geometry": {"location": {"lat": 42.326519, "lng": -71.12402080000001}, "viewport": {"northeast": {"lat": 42.3279215802915, "lng": -71.1225495197085}, "southwest": {"lat": 42.3252236197085, "lng": -71.1252474802915}}}, "icon": "https://maps.gstatic.com/mapfiles/place_api/icons/school-71.png", "id": "9754a5d233b45a38fafcfab01a535ab2286ce5ad", "name": "Sirena Bernal Pilates and Strength", "opening_hours": {"open_now": true}, "photos": [{"height": 1057, "html_attributions": ["<a href=\"https://maps.google.com/maps/contrib/102579303568641219612/photos\">Sirena Bernal Pilates and Strength</a>"], "photo_reference": "CmRaAAAAegA2ffRyq8QnBNG1v_R05qQdQ_2C2dx1JeEG_vaokZCnQ0dZ5IcQve8Qf5TSxcWV95iUXGnq3k-yjjbpwHxNAYymvP-k8D_ednyEcn0o_ZrZ5BwIGq6BXGuJrnf1y6eXEhBMxIsGsLHyaHErCNdVqYFZGhSH4IIdbVEZ19TzAFASiqPZgZdtIg", "width": 1920}], "place_id": "ChIJ6X3QYaB544kR27AS5f4_6k0", "plus_code": {"compound_code": "8VGG+J9 Brookline, Massachusetts, United States", "global_code": "87JC8VGG+J9"}, "reference": "ChIJ6X3QYaB544kR27AS5f4_6k0", "scope": "GOOGLE", "types": ["gym", "health", "point_of_interest", "establishment"], "vicinity": "235 Cypress Street #110, Brookline"}, "ChIJV3buZlJ544kRzXyaGXVpG0A": {"geometry": {"location": {"lat": 42.3265158, "lng": -71.1240095}, "viewport": {"northeast": {"lat": 42.3279169302915, "lng": -71.1225414697085}, "southwest": {"lat": 42.3252189697085, "lng": -71.1252394302915}}}, "icon": "https://maps.gstatic.com/mapfiles/place_api/icons/generic_business-71.png", "id": "e6c6d3f9fd7afd3f333520b8d67b13fc565bc256", "name": "Northeast Dermatology Associates", "place_id": "ChIJV3buZlJ544kRzXyaGXVpG0A", "plus_code": {"compound_code": "8VGG+J9 Brookline, Massachusetts, United States", "global_code": "87JC8VGG+J9"}, "reference": "ChIJV3buZlJ544kRzXyaGXVpG0A", "scope": "GOOGLE", "types": ["doctor", "health", "point_of_interest", "establishment"], "vicinity": "235 Cypress Street #200, Brookline"}, "ChIJvaFsYKB544kR1Z1IkUpifb0": {"geometry": {"location": {"lat": 42.32661969999999, "lng": -71.12393279999999}, "viewport": {"northeast": {"lat": 42.3279945302915, "lng": -71.12252356970849}, "southwest": {"lat": 42.3252965697085, "lng": -71.1252215302915}}}, "icon": "https://maps.gstatic.com/mapfiles/place_api/icons/generic_business-71.png", "id": "37dad74553de1da5fe6ba1ee202a5ad99458a19b", "name": "Dr. Thomas F. Burke Jr, MD", "place_id": "ChIJvaFsYKB544kR1Z1IkUpifb0", "plus_code": {"compound_code": "8VGG+JC Brookline, Massachusetts, United States", "global_code": "87JC8VGG+JC"}, "reference": "ChIJvaFsYKB544kR1Z1IkUpifb0", "scope": "GOOGLE", "types": ["doctor", "health", "point_of_interest", "establishment"], "vicinity": "235 Cypress Street #300, Brookline"}, "ChIJvaFsYKB544kRm-uNYXhwsF0": {"geometry": {"location": {"lat": 42.32661969999999, "lng": -71.12393279999999}, "viewport": {"northeast": {"lat": 42.3279945302915, "lng": -71.12252356970849}, "southwest": {"lat": 42.3252965697085, "lng": -71.1252215302915}}}, "icon": "https://maps.gstatic.com/mapfiles/place_api/icons/generic_business-71.png", "id": "e076f03338c1387af64f9168e717b034f57cc831", "name": "Dr. Leo J. Troy Jr, MD", "place_id": "ChIJvaFsYKB544kRm-uNYXhwsF0", "plus_code": {"compound_code": "8VGG+JC Brookline, Massachusetts, United States", "global_code": "87JC8VGG+JC"}, "reference": "ChIJvaFsYKB544kRm-uNYXhwsF0", "scope": "GOOGLE", "types": ["doctor", "health", "point_of_interest", "establishment"], "vicinity": "235 Cypress Street #300, Brookline"}, "ChIJ_____6t544kRWlIx5dlmDeU": {"geometry": {"location": {"lat": 42.3266131, "lng": -71.1239001}, "viewport": {"northeast": {"lat": 42.3279838802915, "lng": -71.1225014197085}, "southwest": {"lat": 42.3252859197085, "lng": -71.1251993802915}}}, "icon": "https://maps.gstatic.com/mapfiles/place_api/icons/generic_business-71.png", "id": "c04d50d951f8679ebbab956cd0d3972adc299baa", "name": "Leavitt Kenneth MD", "place_id": "ChIJ_____6t544kRWlIx5dlmDeU", "plus_code": {"compound_code": "8VGG+JC Brookline, Massachusetts, United States", "global_code": "87JC8VGG+JC"}, "reference": "ChIJ_____6t544kRWlIx5dlmDeU", "scope": "GOOGLE", "types": ["doctor", "health", "point_of_interest", "establishment"], "vicinity": "237 Cypress Street, Brookline"}, "ChIJjUwx96B544kRqDZBI3V9xZ0": {"geometry": {"location": {"lat": 42.3266596, "lng": -71.1239015}, "viewport": {"northeast": {"lat": 42.3280243802915, "lng": -71.12251566970849}, "southwest": {"lat": 42.3253264197085, "lng": -71.12521363029151}}}, "icon": "https://maps.gstatic.com/mapfiles/place_api/icons/bus-71.png", "id": "b9e7efd5a45e33fc319e249d73ac035e6961637d", "name": "Cypress St @ Kendall St", "place_id": "ChIJjUwx96B544kRqDZBI3V9xZ0", "plus_code": {"compound_code": "8VGG+MC Brookline, Massachusetts, United States", "global_code": "87JC8VGG+MC"}, "reference": "ChIJjUwx96B544kRqDZBI3V9xZ0", "scope": "GOOGLE", "types": ["bus_station", "transit_station", "point_of_interest", "establishment"], "vicinity": "United States"}, "ChIJ3enbZKB544kR8VnGksymdEc": {"geometry": {"location": {"lat": 42.326385, "lng": -71.12371900000001}, "viewport": {"northeast": {"lat": 42.32775568029149, "lng": -71.12232106970849}, "southwest": {"lat": 42.32505771970849, "lng": -71.1250190302915}}}, "icon": "https://maps.gstatic.com/mapfiles/place_api/icons/shopping-71.png", "id": "a0f6aa2032e293aabb7ada3656634ba3362dd446", "name": "finecreationsjewelry", "opening_hours": {"open_now": false}, "photos": [{"height": 1252, "html_attributions": ["<a href=\"https://maps.google.com/maps/contrib/111314814286083194061/photos\">finecreationsjewelry</a>"], "photo_reference": "CmRaAAAAADU-jmgGR-jqJTjypgLtvAMKQx69wqSNhRUX-ZY03P3iZNvdIEHIgTsRiMUE3MSCffSbGPT-0B6lm8wwG02FZi5CprQcvfQpvY5VZVQH0YGQyey14CqZewy8XVvpfUj-EhDREPbhEyUGAUsVnoRfUk7nGhTvSOST6TAcXHH1PIZ7105rIkzSUg", "width": 1669}], "place_id": "ChIJ3enbZKB544kR8VnGksymdEc", "plus_code": {"compound_code": "8VGG+HG Brookline, Massachusetts, United States", "global_code": "87JC8VGG+HG"}, "rating": 5, "reference": "ChIJ3enbZKB544kR8VnGksymdEc", "scope": "GOOGLE", "types": ["jewelry_store", "store", "point_of_interest", "establishment"], "user_ratings_total": 1, "vicinity": "241 Cypress Street, Brookline"}, "ChIJy4WdjKB544kRSpSWHy52oQA": {"geometry": {"location": {"lat": 42.3266992, "lng": -71.1245452}, "viewport": {"northeast": {"lat": 42.3280348302915, "lng": -71.12313811970849}, "southwest": {"lat": 42.3253368697085, "lng": -71.1258360802915}}}, "icon": "https://maps.gstatic.com/mapfiles/place_api/icons/generic_business-71.png", "id": "9088600085e5e44732babaa0a514fe411a1a670a", "name": "IPG", "place_id": "ChIJy4WdjKB544kRSpSWHy52oQA", "plus_code": {"compound_code": "8VGG+M5 Brookline, Massachusetts, United States", "global_code": "87JC8VGG+M5"}, "reference": "ChIJy4WdjKB544kRSpSWHy52oQA", "scope": "GOOGLE", "types": ["point_of_interest", "establishment"], "vicinity": "317 Kendall Street, Brighton"}, "ChIJF24JXqB544kR1_N550p94D8": {"geometry": {"location": {"lat": 42.3267012, "lng": -71.1236993}, "viewport": {"northeast": {"lat": 42.32802798029149, "lng": -71.1224010197085}, "southwest": {"lat": 42.3253300197085, "lng": -71.12509898029151}}}, "icon": "https://maps.gstatic.com/mapfiles/place_api/icons/restaurant-71.png", "id": "35f2b2128327c4ca4ce9a1fa8d4cec06646912e2", "name": "Drive-By Pies", "opening_hours": {"open_now": true}, "photos": [{"height": 636, "html_attributions": ["<a href=\"https://maps.google.com/maps/contrib/105351889284579624409/photos\">Maeve K</a>"], "photo_reference": "CmRZAAAAQY7WdCj45EMb6Y4AClfHzoQthtDrYUveq4lBdzEQ3qgfUjWdvmokPYG5ZiLqOWSKm-6PgnegVASge1WtQvRFBQzW071SnRWQR9D86JwIU9ha4oqfJgMN3iv1b9GC-gkxEhARIuePuGqyYQ1iiMYOgXTlGhTSJHw6SLUT-y2m-SimDzoPsFPnVQ", "width": 960}], "place_id": "ChIJF24JXqB544kR1_N550p94D8", "plus_code": {"compound_code": "8VGG+MG Brookline, Massachusetts, United States", "global_code": "87JC8VGG+MG"}, "rating": 4.8, "reference": "ChIJF24JXqB544kR1_N550p94D8", "scope": "GOOGLE", "types": ["bakery", "store", "point_of_interest", "food", "establishment"], "user_ratings_total": 17, "vicinity": "248A Cypress Street, Brookline"}, "ChIJcXtXZ6B544kRGyOSffu0i4s": {"geometry": {"location": {"lat": 42.3266363, "lng": -71.1236378}, "viewport": {"northeast": {"lat": 42.3279623802915, "lng": -71.1223441697085}, "southwest": {"lat": 42.3252644197085, "lng": -71.1250421302915}}}, "icon": "https://maps.gstatic.com/mapfiles/place_api/icons/generic_business-71.png", "id": "f8110e2484f062f15261bc129e1515998e18012d", "name": "Ultra Cleaners", "place_id": "ChIJcXtXZ6B544kRGyOSffu0i4s", "plus_code": {"compound_code": "8VGG+MG Brookline, Massachusetts, United States", "global_code": "87JC8VGG+MG"}, "reference": "ChIJcXtXZ6B544kRGyOSffu0i4s", "scope": "GOOGLE", "types": ["laundry", "point_of_interest", "establishment"], "vicinity": "250 Cypress Street, Brookline"}, "ChIJCypfZ6B544kRz0iTuhTeY5Y": {"geometry": {"location": {"lat": 42.3266249, "lng": -71.1236138}, "viewport": {"northeast": {"lat": 42.32794858029149, "lng": -71.12232601970848}, "southwest": {"lat": 42.32525061970849, "lng": -71.1250239802915}}}, "icon": "https://maps.gstatic.com/mapfiles/place_api/icons/generic_business-71.png", "id": "38df0b606a876808f18a92c05c4782f8199e3a68", "name": "First XV Performance", "place_id": "ChIJCypfZ6B544kRz0iTuhTeY5Y", "plus_code": {"compound_code": "8VGG+JH Brookline, Massachusetts, United States", "global_code": "87JC8VGG+JH"}, "rating": 5, "reference": "ChIJCypfZ6B544kRz0iTuhTeY5Y", "scope": "GOOGLE", "types": ["health", "point_of_interest", "establishment"], "user_ratings_total": 1, "vicinity": "250 Cypress Street, Brookline"}, "ChIJudWKXaB544kREGMxCCDR7jI": {"geometry": {"location": {"lat": 42.3266391, "lng": -71.1235907}, "viewport": {"northeast": {"lat": 42.32795743029151, "lng": -71.12231581970849}, "southwest": {"lat": 42.32525946970851, "lng": -71.1250137802915}}}, "icon": "https://maps.gstatic.com/mapfiles/place_api/icons/generic_business-71.png", "id": "609d389b996e6b68d5e585482085dc982c1e5d3a", "name": "Brookline Massage", "place_id": "ChIJudWKXaB544kREGMxCCDR7jI", "plus_code": {"compound_code": "8VGG+MH Brookline, Massachusetts, United States", "global_code": "87JC8VGG+MH"}, "reference": "ChIJudWKXaB544kREGMxCCDR7jI", "scope": "GOOGLE", "types": ["point_of_interest", "establishment"], "vicinity": "250 Cypress Street, Brookline"}, "ChIJJzvsXaB544kRlV0AJJm-oE8": {"geometry": {"location": {"lat": 42.3266832, "lng": -71.12361179999999}, "viewport": {"northeast": {"lat": 42.3279981302915, "lng": -71.12234056970848}, "southwest": {"lat": 42.3253001697085, "lng": -71.12503853029149}}}, "icon": "https://maps.gstatic.com/mapfiles/place_api/icons/generic_business-71.png", "id": "85338073f08fa275b4ec7d99f7d73863b70ec0b2", "name": "B'Glam Boston", "opening_hours": {"open_now": true}, "photos": [{"height": 960, "html_attributions": ["<a href=\"https://maps.google.com/maps/contrib/117372881088871547051/photos\">B&#39;Glam Boston</a>"], "photo_reference": "CmRaAAAAod6IOQ0tR0SP0tAbBPFt-_WvgX9JPPXkMZh2t5MwKmsfbhY2hxfZQjtdStsPS1VWrZ8nTX4HGgKmuSptNvio_55HmkkKF70f_muecI62kYY8QCAXsBSOTr71E952M6EyEhCn1WjM33Qv58mqw7Nh8PEMGhQKUiHIDMDxmaMojrO98c2aisAOeg", "width": 843}], "place_id": "ChIJJzvsXaB544kRlV0AJJm-oE8", "plus_code": {"compound_code": "8VGG+MH Brookline, Massachusetts, United States", "global_code": "87JC8VGG+MH"}, "rating": 5, "reference": "ChIJJzvsXaB544kRlV0AJJm-oE8", "scope": "GOOGLE", "types": ["hair_care", "point_of_interest", "establishment"], "user_ratings_total": 3, "vicinity": "248 Cypress Street, Brookline"}}