{"ChIJ7cp8fxJ644kRsRPwi9WequY": {"geometry": {"location": {"lat": 42.34597219999999, "lng": -71.0767101}, "viewport": {"northeast": {"lat": 42.3473211802915, "lng": -71.07536116970849}, "southwest": {"lat": 42.3446232197085, "lng": -71.0780591302915}}}, "icon": "https://maps.gstatic.com/mapfiles/place_api/icons/geocode-71.png", "id": "51f7aeedf8ff53cf9e881734368ed200b2f4edab", "name": "28-12 Yarmouth St", "place_id": "ChIJ7cp8fxJ644kRsRPwi9WequY", "reference": "ChIJ7cp8fxJ644kRsRPwi9WequY", "scope": "GOOGLE", "types": ["route"], "vicinity": "Boston"}, "ChIJ-3vNbw1644kRHvvtbYGffFQ": {"geometry": {"location": {"lat": 42.3464906, "lng": -71.075829}, "viewport": {"northeast": {"lat": 42.3478732302915, "lng": -71.07435706970851}, "southwest": {"lat": 42.3451752697085, "lng": -71.07705503029152}}}, "icon": "https://maps.gstatic.com/mapfiles/place_api/icons/generic_business-71.png", "id": "d0182e35df9258666a3016589844040e9dd1dd76", "name": "French Cleaners", "opening_hours": {"open_now": true}, "place_id": "ChIJ-3vNbw1644kRHvvtbYGffFQ", "plus_code": {"compound_code": "8WWF+HM Boston, Massachusetts, United States", "global_code": "87JC8WWF+HM"}, "rating": 4.8, "reference": "ChIJ-3vNbw1644kRHvvtbYGffFQ", "scope": "GOOGLE", "types": ["laundry", "point_of_interest", "establishment"], "user_ratings_total": 5, "vicinity": "130 Dartmouth Street # 3, Boston"}, "ChIJEQB6iw5644kRhYiRAMqZjlo": {"geometry": {"location": {"lat": 42.34622699999999, "lng": -71.076864}, "viewport": {"northeast": {"lat": 42.3475641302915, "lng": -71.07549781970849}, "southwest": {"lat": 42.3448661697085, "lng": -71.07819578029151}}}, "icon": "https://maps.gstatic.com/mapfiles/place_api/icons/generic_business-71.png", "id": "7e0a25aa7f539bcd960788469a2041f0901b7549", "name": "Robb Cohen Team - Engel & V\u00f6lkers Boston", "photos": [{"height": 265, "html_attributions": ["<a href=\"https://maps.google.com/maps/contrib/116379578578730669989/photos\">Robb Cohen Team - Engel &amp; V\u00f6lkers Boston</a>"], "photo_reference": "CmRaAAAAvleHLysNBDy1MUbBkxj_qtCFVestjjVJbkZibVQ3Do2jAasd-HtNXcFHpZt8uH5-BLuEVdgprqxIoFTj_dDw-MCPcLKtaHzckAgtFGEyL9zN1SZ58DYXRmsNtMZxRNvcEhAT8UGJsavp8UqwwpQUYgr6GhTB0X01OH4ijNWgnODNGOZGXjnwiw", "width": 400}], "place_id": "ChIJEQB6iw5644kRhYiRAMqZjlo", "plus_code": {"compound_code": "8WWF+F7 Boston, Massachusetts, United States", "global_code": "87JC8WWF+F7"}, "reference": "ChIJEQB6iw5644kRhYiRAMqZjlo", "scope": "GOOGLE", "types": ["real_estate_agency", "point_of_interest", "establishment"], "vicinity": "46 Gloucester Street, Boston"}, "ChIJ-3vNbw1644kR75gYMuFafTI": {"geometry": {"location": {"lat": 42.3464523, "lng": -71.07582239999999}, "viewport": {"northeast": {"lat": 42.34783643029149, "lng": -71.07434491970848}, "southwest": {"lat": 42.3451384697085, "lng": -71.0770428802915}}}, "icon": "https://maps.gstatic.com/mapfiles/place_api/icons/generic_business-71.png", "id": "8288e8d4b016f80ffcc4e22423d67816f16fe107", "name": "Pellegrino Christopher DDS", "place_id": "ChIJ-3vNbw1644kR75gYMuFafTI", "plus_code": {"compound_code": "8WWF+HM Boston, Massachusetts, United States", "global_code": "87JC8WWF+HM"}, "reference": "ChIJ-3vNbw1644kR75gYMuFafTI", "scope": "GOOGLE", "types": ["dentist", "health", "point_of_interest", "establishment"], "vicinity": "130 Dartmouth Street # 208, Boston"}, "ChIJ-3vNbw1644kRK57ioFg0Pkc": {"geometry": {"location": {"lat": 42.3464523, "lng": -71.07582239999999}, "viewport": {"northeast": {"lat": 42.34783643029149, "lng": -71.07434491970848}, "southwest": {"lat": 42.3451384697085, "lng": -71.0770428802915}}}, "icon": "https://maps.gstatic.com/mapfiles/place_api/icons/generic_business-71.png", "id": "03a0080b480d0764e737b07460a09def882b477f", "name": "Dr. Bader A. Al-Awadhi, DDS", "place_id": "ChIJ-3vNbw1644kRK57ioFg0Pkc", "plus_code": {"compound_code": "8WWF+HM Boston, Massachusetts, United States", "global_code": "87JC8WWF+HM"}, "reference": "ChIJ-3vNbw1644kRK57ioFg0Pkc", "scope": "GOOGLE", "types": ["doctor", "health", "point_of_interest", "establishment"], "vicinity": "130 Dartmouth Street, Boston"}, "ChIJ-3vNbw1644kRtHt-CQzq1UU": {"geometry": {"location": {"lat": 42.3464523, "lng": -71.07582239999999}, "viewport": {"northeast": {"lat": 42.34783643029149, "lng": -71.07434491970848}, "southwest": {"lat": 42.3451384697085, "lng": -71.0770428802915}}}, "icon": "https://maps.gstatic.com/mapfiles/place_api/icons/generic_business-71.png", "id": "38bec576d1bbdf009dda9ae3ab8cbf58ffca1e62", "name": "Dr. Sandeep K. Kaushal, MD", "place_id": "ChIJ-3vNbw1644kRtHt-CQzq1UU", "plus_code": {"compound_code": "8WWF+HM Boston, Massachusetts, United States", "global_code": "87JC8WWF+HM"}, "reference": "ChIJ-3vNbw1644kRtHt-CQzq1UU", "scope": "GOOGLE", "types": ["doctor", "health", "point_of_interest", "establishment"], "vicinity": "130 Dartmouth Street, Boston"}, "ChIJ-3vNbw1644kRu1OgdPsYg2Y": {"geometry": {"location": {"lat": 42.3464523, "lng": -71.07582239999999}, "viewport": {"northeast": {"lat": 42.34783643029149, "lng": -71.07434491970848}, "southwest": {"lat": 42.3451384697085, "lng": -71.0770428802915}}}, "icon": "https://maps.gstatic.com/mapfiles/place_api/icons/generic_business-71.png", "id": "a5dc1b63ec6d7ac459dd8bd5ab5837e0781289ca", "name": "Dr. William A. Rohde, MD", "place_id": "ChIJ-3vNbw1644kRu1OgdPsYg2Y", "plus_code": {"compound_code": "8WWF+HM Boston, Massachusetts, United States", "global_code": "87JC8WWF+HM"}, "reference": "ChIJ-3vNbw1644kRu1OgdPsYg2Y", "scope": "GOOGLE", "types": ["doctor", "health", "point_of_interest", "establishment"], "vicinity": "130 Dartmouth Street, Boston"}, "ChIJt6xSmxJ644kRNqyCk9c4k54": {"geometry": {"location": {"lat": 42.3462579, "lng": -71.0762311}, "viewport": {"northeast": {"lat": 42.3476343802915, "lng": -71.07484976970849}, "southwest": {"lat": 42.3449364197085, "lng": -71.0775477302915}}}, "icon": "https://maps.gstatic.com/mapfiles/place_api/icons/generic_business-71.png", "id": "09c837b24cffc0359dc6d79211c63845fb967289", "name": "Tech Tent", "place_id": "ChIJt6xSmxJ644kRNqyCk9c4k54", "plus_code": {"compound_code": "8WWF+GG Boston, Massachusetts, United States", "global_code": "87JC8WWF+GG"}, "reference": "ChIJt6xSmxJ644kRNqyCk9c4k54", "scope": "GOOGLE", "types": ["point_of_interest", "establishment"], "vicinity": "359 Columbus Avenue, Boston"}, "ChIJtzdAeQ1644kRdpof7Hxk2aY": {"geometry": {"location": {"lat": 42.3462579, "lng": -71.07623099999999}, "viewport": {"northeast": {"lat": 42.3476343802915, "lng": -71.07484971970848}, "southwest": {"lat": 42.3449364197085, "lng": -71.07754768029149}}}, "icon": "https://maps.gstatic.com/mapfiles/place_api/icons/school-71.png", "id": "055dc2d9ed1c27dddb6b21736d8dcd697826c561", "name": "Learn 2 Teach, Teach 2 Learn", "place_id": "ChIJtzdAeQ1644kRdpof7Hxk2aY", "plus_code": {"compound_code": "8WWF+GG Boston, Massachusetts, United States", "global_code": "87JC8WWF+GG"}, "reference": "ChIJtzdAeQ1644kRdpof7Hxk2aY", "scope": "GOOGLE", "types": ["point_of_interest", "establishment"], "vicinity": "359 Columbus Avenue, Boston"}, "ChIJmaxSmxJ644kRviHd8FlxCzQ": {"geometry": {"location": {"lat": 42.3455908, "lng": -71.07594759999999}, "viewport": {"northeast": {"lat": 42.3468786802915, "lng": -71.0745090697085}, "southwest": {"lat": 42.3441807197085, "lng": -71.0772070302915}}}, "icon": "https://maps.gstatic.com/mapfiles/place_api/icons/generic_business-71.png", "id": "734c5a82f5ac9a2d378d769a4a8bcfb4bd47a743", "name": "South End Technology Center", "opening_hours": {"open_now": true}, "photos": [{"height": 3480, "html_attributions": ["<a href=\"https://maps.google.com/maps/contrib/101983054792435658374/photos\">Clark Johnson</a>"], "photo_reference": "CmRaAAAAxhm2JiROzOd3EIXzLCgVZcZ3r3x3yHesDOMaTa-4gckFhWFYhvnbjFV2aiHsbSrb4qaAB51gnWQ2D2vjh6JrmckFWbgbbHi7_qalJAXXQR2eei9CL9pMPAoG5UaxY7P4EhBhvRfR73FTztk8-m4NemSSGhTpw8qNDZSTdP2EFjYbTI_Ot_9Eug", "width": 4640}], "place_id": "ChIJmaxSmxJ644kRviHd8FlxCzQ", "plus_code": {"compound_code": "8WWF+6J Boston, Massachusetts, United States", "global_code": "87JC8WWF+6J"}, "rating": 4.6, "reference": "ChIJmaxSmxJ644kRviHd8FlxCzQ", "scope": "GOOGLE", "types": ["point_of_interest", "establishment"], "user_ratings_total": 15, "vicinity": "359 Columbus Avenue, Boston"}, "ChIJ-3vNbw1644kRtgd9seqcfvc": {"geometry": {"location": {"lat": 42.3464906, "lng": -71.075829}, "viewport": {"northeast": {"lat": 42.3478732302915, "lng": -71.07435706970851}, "southwest": {"lat": 42.3451752697085, "lng": -71.07705503029152}}}, "icon": "https://maps.gstatic.com/mapfiles/place_api/icons/school-71.png", "id": "c39c53afc0c8e90f630f3587b965eb3d49bb7ea5", "name": "Tent City Enrichment Program", "place_id": "ChIJ-3vNbw1644kRtgd9seqcfvc", "plus_code": {"compound_code": "8WWF+HM Boston, Massachusetts, United States", "global_code": "87JC8WWF+HM"}, "reference": "ChIJ-3vNbw1644kRtgd9seqcfvc", "scope": "GOOGLE", "types": ["point_of_interest", "establishment"], "vicinity": "130 Dartmouth Street # 104, Boston"}, "ChIJ1WE9cA1644kRAl274Dk0vUI": {"geometry": {"location": {"lat": 42.3464906, "lng": -71.075829}, "viewport": {"northeast": {"lat": 42.3478732302915, "lng": -71.07435706970851}, "southwest": {"lat": 42.3451752697085, "lng": -71.07705503029152}}}, "icon": "https://maps.gstatic.com/mapfiles/place_api/icons/shopping-71.png", "id": "c654d5b81931f43d57de60a6b26d58f91c03bba0", "name": "RICHDALE FOOD SHOPS", "opening_hours": {"open_now": true}, "photos": [{"height": 976, "html_attributions": ["<a href=\"https://maps.google.com/maps/contrib/105429180296883999048/photos\">RICHDALE FOOD SHOPS</a>"], "photo_reference": "CmRaAAAABPDhks14xJ6soU4pDrwZlvzfo42jZnLwRis9ZM2hhqx_damkZO6RAcDVxPiBhyw3srZZXKLRWYu8AjytZ8QGRioIo1yI1uZ30oma19K4qHaTh7f1zwBFpggL_EIsyDiWEhBRJkqd9KavSlNbJXC3qFGXGhTtsXmoFFogoWpXIrg7dbSMzUPv-g", "width": 3220}], "place_id": "ChIJ1WE9cA1644kRAl274Dk0vUI", "plus_code": {"compound_code": "8WWF+HM Boston, Massachusetts, United States", "global_code": "87JC8WWF+HM"}, "rating": 2.6, "reference": "ChIJ1WE9cA1644kRAl274Dk0vUI", "scope": "GOOGLE", "types": ["convenience_store", "store", "point_of_interest", "food", "establishment"], "user_ratings_total": 5, "vicinity": "130 Dartmouth Street, Boston"}, "ChIJVx0xeRJ644kR3uP1wh-3hvQ": {"geometry": {"location": {"lat": 42.345812, "lng": -71.07692500000002}, "viewport": {"northeast": {"lat": 42.3472419302915, "lng": -71.0754697697085}, "southwest": {"lat": 42.3445439697085, "lng": -71.07816773029151}}}, "icon": "https://maps.gstatic.com/mapfiles/place_api/icons/generic_business-71.png", "id": "b8528e9e5678abb9752a0db01505433e7f7dcc6c", "name": "DG Healthcare Associates", "place_id": "ChIJVx0xeRJ644kR3uP1wh-3hvQ", "plus_code": {"compound_code": "8WWF+86 Boston, Massachusetts, United States", "global_code": "87JC8WWF+86"}, "reference": "ChIJVx0xeRJ644kR3uP1wh-3hvQ", "scope": "GOOGLE", "types": ["health", "point_of_interest", "establishment"], "vicinity": "20 Yarmouth Street one, Boston"}, "ChIJt6xSmxJ644kRDrLd3cPr_Bo": {"geometry": {"location": {"lat": 42.3462579, "lng": -71.0762311}, "viewport": {"northeast": {"lat": 42.3476343802915, "lng": -71.07484976970849}, "southwest": {"lat": 42.3449364197085, "lng": -71.0775477302915}}}, "icon": "https://maps.gstatic.com/mapfiles/place_api/icons/generic_business-71.png", "id": "3a824acbf4dec6b7f08ecd7f9eafd6351140900c", "name": "Green-Rainbow Party of Massachusetts", "place_id": "ChIJt6xSmxJ644kRDrLd3cPr_Bo", "plus_code": {"compound_code": "8WWF+GG Boston, Massachusetts, United States", "global_code": "87JC8WWF+GG"}, "reference": "ChIJt6xSmxJ644kRDrLd3cPr_Bo", "scope": "GOOGLE", "types": ["point_of_interest", "establishment"], "vicinity": "359 Columbus Avenue, Boston"}, "ChIJP2GZfxJ644kRs_xe-nMLvx0": {"geometry": {"location": {"lat": 42.34581319999999, "lng": -71.076809}, "viewport": {"northeast": {"lat": 42.3472213802915, "lng": -71.0753823197085}, "southwest": {"lat": 42.3445234197085, "lng": -71.0780802802915}}}, "icon": "https://maps.gstatic.com/mapfiles/place_api/icons/generic_business-71.png", "id": "8489941acce499b206daff4b8c00117d9400833c", "name": "Dr. Charles S. Carignan, MD", "place_id": "ChIJP2GZfxJ644kRs_xe-nMLvx0", "plus_code": {"compound_code": "8WWF+87 Boston, Massachusetts, United States", "global_code": "87JC8WWF+87"}, "reference": "ChIJP2GZfxJ644kRs_xe-nMLvx0", "scope": "GOOGLE", "types": ["doctor", "health", "point_of_interest", "establishment"], "vicinity": "18 Yarmouth Street, Boston"}, "ChIJEc_1nBJ644kRm3lJwZvrEPE": {"geometry": {"location": {"lat": 42.3456599, "lng": -71.0758048}, "viewport": {"northeast": {"lat": 42.34695878029149, "lng": -71.0743810197085}, "southwest": {"lat": 42.3442608197085, "lng": -71.0770789802915}}}, "icon": "https://maps.gstatic.com/mapfiles/place_api/icons/generic_business-71.png", "id": "45acad15fcb5a934c70fb4beee6274801f73a476", "name": "Boston Hud Tenant Alliance", "place_id": "ChIJEc_1nBJ644kRm3lJwZvrEPE", "plus_code": {"compound_code": "8WWF+7M Boston, Massachusetts, United States", "global_code": "87JC8WWF+7M"}, "reference": "ChIJEc_1nBJ644kRm3lJwZvrEPE", "scope": "GOOGLE", "types": ["point_of_interest", "establishment"], "vicinity": "353 Columbus Avenue, Boston"}, "ChIJH-R2hxJ644kRUKrQnzHHWoI": {"geometry": {"location": {"lat": 42.3455377, "lng": -71.0763912}, "viewport": {"northeast": {"lat": 42.34685373029151, "lng": -71.07499251970849}, "southwest": {"lat": 42.34415576970851, "lng": -71.0776904802915}}}, "icon": "https://maps.gstatic.com/mapfiles/place_api/icons/generic_business-71.png", "id": "5e66d9a7b680a574edb7e88fedd80cfd1547e059", "name": "Melvin H. King Jr, Med", "place_id": "ChIJH-R2hxJ644kRUKrQnzHHWoI", "plus_code": {"compound_code": "8WWF+6C Boston, Massachusetts, United States", "global_code": "87JC8WWF+6C"}, "reference": "ChIJH-R2hxJ644kRUKrQnzHHWoI", "scope": "GOOGLE", "types": ["doctor", "health", "point_of_interest", "establishment"], "vicinity": "4 Yarmouth Street, Boston, MA 02116, Boston"}, "ChIJ-3vNbw1644kRudKxf_1ajVw": {"geometry": {"location": {"lat": 42.3464523, "lng": -71.07582239999999}, "viewport": {"northeast": {"lat": 42.34783643029149, "lng": -71.07434491970848}, "southwest": {"lat": 42.3451384697085, "lng": -71.0770428802915}}}, "icon": "https://maps.gstatic.com/mapfiles/place_api/icons/generic_business-71.png", "id": "1d122e523cc519b95cc6397a55f452b4e2506add", "name": "Everett B. Sabree, OD", "place_id": "ChIJ-3vNbw1644kRudKxf_1ajVw", "plus_code": {"compound_code": "8WWF+HM Boston, Massachusetts, United States", "global_code": "87JC8WWF+HM"}, "rating": 4.9, "reference": "ChIJ-3vNbw1644kRudKxf_1ajVw", "scope": "GOOGLE", "types": ["doctor", "health", "point_of_interest", "establishment"], "user_ratings_total": 8, "vicinity": "130 Dartmouth Street, Boston"}, "ChIJMUXKYfB744kRpCcveqoeF8Q": {"geometry": {"location": {"lat": 42.3457377, "lng": -71.0766929}, "viewport": {"northeast": {"lat": 42.3470866802915, "lng": -71.07534391970849}, "southwest": {"lat": 42.3443887197085, "lng": -71.07804188029151}}}, "icon": "https://maps.gstatic.com/mapfiles/place_api/icons/generic_business-71.png", "id": "efde7b301f9a2a28b8c6dc89f8dcb2480394a46e", "name": "Digital Purpose Co: Boston Wedding Films", "place_id": "ChIJMUXKYfB744kRpCcveqoeF8Q", "plus_code": {"compound_code": "8WWF+78 Boston, Massachusetts, United States", "global_code": "87JC8WWF+78"}, "reference": "ChIJMUXKYfB744kRpCcveqoeF8Q", "scope": "GOOGLE", "types": ["point_of_interest", "establishment"], "vicinity": "APT #4, 14 Yarmouth Street, Boston"}, "ChIJGzE9DS1l44kRoOhiASS_fHg": {"geometry": {"location": {"lat": 42.3600825, "lng": -71.0588801}, "viewport": {"northeast": {"lat": 42.40081989999999, "lng": -70.749455}, "southwest": {"lat": 42.22788, "lng": -71.191113}}}, "icon": "https://maps.gstatic.com/mapfiles/place_api/icons/geocode-71.png", "id": "06755c25d2b34d13942a4713971756a55b870ced", "name": "Boston", "photos": [{"height": 3024, "html_attributions": ["<a href=\"https://maps.google.com/maps/contrib/104670289779338733432/photos\">Natalia Zalucean</a>"], "photo_reference": "CmRaAAAAxQI_ocoADZhn9el7Y-_vUns4DT42XxXF3m0qkFwEAiEb3WjWlzmGR4MJ6EXffnmOTCbIJHZI3MMtpypfHNKUjOelWzmQDmD-AVMK0jb17Y_h9MhbcGaYKbFK8NFftNwIEhA4rgjPamShQYKR-oYaLAmKGhSEabdfKELxvd6kUPcEoNJh9RhF4A", "width": 4032}], "place_id": "ChIJGzE9DS1l44kRoOhiASS_fHg", "reference": "ChIJGzE9DS1l44kRoOhiASS_fHg", "scope": "GOOGLE", "types": ["locality", "political"], "vicinity": "Boston"}}