{"ChIJoTyLb01644kRiBYuF6RxSQ8": {"geometry": {"location": {"lat": 42.3167259, "lng": -71.0624222}, "viewport": {"northeast": {"lat": 42.31807483029149, "lng": -71.0610731697085}, "southwest": {"lat": 42.31537686970849, "lng": -71.0637711302915}}}, "icon": "https://maps.gstatic.com/mapfiles/place_api/icons/geocode-71.png", "id": "494ef490e01b5a9a16d54baea035d1e077d9ce9e", "name": "84 Sumner St", "place_id": "ChIJoTyLb01644kRiBYuF6RxSQ8", "reference": "ChIJoTyLb01644kRiBYuF6RxSQ8", "scope": "GOOGLE", "types": ["route"], "vicinity": "Boston"}, "ChIJSaAeFk1644kRMSut3JdZNrQ": {"geometry": {"location": {"lat": 42.3164136, "lng": -71.0630065}, "viewport": {"northeast": {"lat": 42.3176605302915, "lng": -71.0617433197085}, "southwest": {"lat": 42.31496256970851, "lng": -71.0644412802915}}}, "icon": "https://maps.gstatic.com/mapfiles/place_api/icons/worship_general-71.png", "id": "95021c3b8463e7a32315430fd433e8847777eb50", "name": "Boston Spanish SDA Church", "photos": [{"height": 1357, "html_attributions": ["<a href=\"https://maps.google.com/maps/contrib/102358654380444404436/photos\">Brian Spurr</a>"], "photo_reference": "CmRaAAAAB4u5d0N1NaVj5Cu6nOZ8tKjLanHSKqqeQpHWxOim4GCHFkQd-NLhrrmIkwi_KmwoQXO-iVNLIX5F7z9MeMYFAZv3__JAFZKPwW8xUG8eLC28LSC1eBOa5iTCmVwXriKpEhCRkD2r1y_SZeYnDHv6v6QLGhTYn7jx4xNaIhrVdVTqsSkhq2mVsg", "width": 2048}], "place_id": "ChIJSaAeFk1644kRMSut3JdZNrQ", "plus_code": {"compound_code": "8W8P+HQ Boston, Massachusetts, United States", "global_code": "87JC8W8P+HQ"}, "rating": 5, "reference": "ChIJSaAeFk1644kRMSut3JdZNrQ", "scope": "GOOGLE", "types": ["church", "place_of_worship", "point_of_interest", "establishment"], "user_ratings_total": 3, "vicinity": "50 Stoughton Street, Dorchester"}, "ChIJGzE9DS1l44kRoOhiASS_fHg": {"geometry": {"location": {"lat": 42.3600825, "lng": -71.0588801}, "viewport": {"northeast": {"lat": 42.40081989999999, "lng": -70.749455}, "southwest": {"lat": 42.22788, "lng": -71.191113}}}, "icon": "https://maps.gstatic.com/mapfiles/place_api/icons/geocode-71.png", "id": "06755c25d2b34d13942a4713971756a55b870ced", "name": "Boston", "photos": [{"height": 3024, "html_attributions": ["<a href=\"https://maps.google.com/maps/contrib/104670289779338733432/photos\">Natalia Zalucean</a>"], "photo_reference": "CmRaAAAAosHQE0HCn0FJnl1VYGG8LdarLdZ2GWy74Ll1id_Rizl26seiZBnmfwqWRGvB39K1fO2gt1wCKoTrSj8yeu8wb21AIiQT5hy1q9blXth5PRfAlOXDxf3Te7VersXtRMiFEhC4WbsDQhgwNNBkw77zPZg8GhR_3C3p75KANEkG9Kvt5W8FsF98oQ", "width": 4032}], "place_id": "ChIJGzE9DS1l44kRoOhiASS_fHg", "reference": "ChIJGzE9DS1l44kRoOhiASS_fHg", "scope": "GOOGLE", "types": ["locality", "political"], "vicinity": "Boston"}}