{"ChIJ7Xo7xqN744kRTs0h2-jCvsI": {"geometry": {"location": {"lat": 42.2980729, "lng": -71.05695240000001}, "viewport": {"northeast": {"lat": 42.2994218302915, "lng": -71.05560346970849}, "southwest": {"lat": 42.2967238697085, "lng": -71.0583014302915}}}, "icon": "https://maps.gstatic.com/mapfiles/place_api/icons/geocode-71.png", "id": "79d1083e76aa5bfc92b75aea9d415615328f8209", "name": "336-330 Adams St", "place_id": "ChIJ7Xo7xqN744kRTs0h2-jCvsI", "reference": "ChIJ7Xo7xqN744kRTs0h2-jCvsI", "scope": "GOOGLE", "types": ["route"], "vicinity": "Boston"}, "ChIJbzhQwqN744kRvoI8sHJ89qM": {"geometry": {"location": {"lat": 42.2984665, "lng": -71.0567696}, "viewport": {"northeast": {"lat": 42.2997452302915, "lng": -71.0556009197085}, "southwest": {"lat": 42.2970472697085, "lng": -71.0582988802915}}}, "icon": "https://maps.gstatic.com/mapfiles/place_api/icons/shopping-71.png", "id": "56719a5a9731e2e736c4f6f102ce356e56facd5d", "name": "Adams Street Motors", "opening_hours": {"open_now": true}, "photos": [{"height": 1080, "html_attributions": ["<a href=\"https://maps.google.com/maps/contrib/108192382154546333689/photos\">Freddy Soto</a>"], "photo_reference": "CmRaAAAAnf85oni82gXNczFuQgNR-sbRf1NHv1vxuK7WILrx2xR_5O13G3EkWehb5MHVP8Cuht7vVc1yXuAo7jpXG6yWfUi4kPMMbILD5Y2KW1b_P8fRf9oyVtyB9m1dQ28mHRBFEhA3nJDw8sZdhNlmkV1tErDWGhTRjFdnxyZZtcbR8wGse4-vDxIuoQ", "width": 1920}], "place_id": "ChIJbzhQwqN744kRvoI8sHJ89qM", "plus_code": {"compound_code": "7WXV+97 Boston, Massachusetts, United States", "global_code": "87JC7WXV+97"}, "rating": 3.7, "reference": "ChIJbzhQwqN744kRvoI8sHJ89qM", "scope": "GOOGLE", "types": ["car_dealer", "store", "point_of_interest", "establishment"], "user_ratings_total": 30, "vicinity": "326 Adams Street, Dorchester"}, "ChIJpdwXxqN744kRs32mIqmCiM8": {"geometry": {"location": {"lat": 42.29811189999999, "lng": -71.05674549999999}, "viewport": {"northeast": {"lat": 42.29942568029149, "lng": -71.05548911970848}, "southwest": {"lat": 42.29672771970849, "lng": -71.05818708029149}}}, "icon": "https://maps.gstatic.com/mapfiles/place_api/icons/generic_business-71.png", "id": "88c4c6104e338a3e246986ecd23b192415a30fe0", "name": "Monaham Air Duct Incorporated", "place_id": "ChIJpdwXxqN744kRs32mIqmCiM8", "plus_code": {"compound_code": "7WXV+68 Boston, Massachusetts, United States", "global_code": "87JC7WXV+68"}, "reference": "ChIJpdwXxqN744kRs32mIqmCiM8", "scope": "GOOGLE", "types": ["laundry", "general_contractor", "point_of_interest", "establishment"], "vicinity": "336 Adams Street, Boston"}, "ChIJKd0XxqN744kR8lPeucStMr8": {"geometry": {"location": {"lat": 42.2980658, "lng": -71.0569241}, "viewport": {"northeast": {"lat": 42.29942208029151, "lng": -71.05555581970849}, "southwest": {"lat": 42.29672411970851, "lng": -71.05825378029151}}}, "icon": "https://maps.gstatic.com/mapfiles/place_api/icons/generic_business-71.png", "id": "dc1fb548d27a1d2854a2aafa83dad91570f8b2ec", "name": "Boston Water Damage and Cleaning Services", "opening_hours": {"open_now": true}, "photos": [{"height": 415, "html_attributions": ["<a href=\"https://maps.google.com/maps/contrib/117205737309638740963/photos\">Boston Water Damage and Cleaning Services</a>"], "photo_reference": "CmRaAAAAFBTkX7T_8bh8opL07Na4PQqEj9zmoYkdbNxdZzYSw1ixpVlc2Z5ZnxGyerAoelrF78iYDgirHEDIRRuVnKwS_REWC8N9tD7zZuE9zUL6eg3fPljdgrPMVnxoYlISulF5EhC7PBXQvbWR2ywzBVb4X_R5GhRlAyRxtMwNcEkZaLRQPP3RHGPHZg", "width": 940}], "place_id": "ChIJKd0XxqN744kR8lPeucStMr8", "plus_code": {"compound_code": "7WXV+66 Boston, Massachusetts, United States", "global_code": "87JC7WXV+66"}, "reference": "ChIJKd0XxqN744kR8lPeucStMr8", "scope": "GOOGLE", "types": ["furniture_store", "laundry", "home_goods_store", "store", "general_contractor", "point_of_interest", "establishment"], "vicinity": "336 Adams Street, Dorchester"}, "ChIJpdwXxqN744kRmwsWs4IZI4Q": {"geometry": {"location": {"lat": 42.29811189999999, "lng": -71.05674549999999}, "viewport": {"northeast": {"lat": 42.29942568029149, "lng": -71.05548911970848}, "southwest": {"lat": 42.29672771970849, "lng": -71.05818708029149}}}, "icon": "https://maps.gstatic.com/mapfiles/place_api/icons/generic_business-71.png", "id": "854f826ebc92ec58fac81242b4140c6b6fcee828", "name": "Stan's Water Damage Clean Up", "place_id": "ChIJpdwXxqN744kRmwsWs4IZI4Q", "plus_code": {"compound_code": "7WXV+68 Boston, Massachusetts, United States", "global_code": "87JC7WXV+68"}, "reference": "ChIJpdwXxqN744kRmwsWs4IZI4Q", "scope": "GOOGLE", "types": ["general_contractor", "point_of_interest", "establishment"], "vicinity": "336 Adams Street, Boston"}, "ChIJpdwXxqN744kReUKgxXia5ww": {"geometry": {"location": {"lat": 42.29811189999999, "lng": -71.05674549999999}, "viewport": {"northeast": {"lat": 42.29942568029149, "lng": -71.05548911970848}, "southwest": {"lat": 42.29672771970849, "lng": -71.05818708029149}}}, "icon": "https://maps.gstatic.com/mapfiles/place_api/icons/generic_business-71.png", "id": "afa94f55d68dd8bd6877a628a7eb20d49d931fb1", "name": "Gem\u2019s Water & Fire Damage Restoration", "opening_hours": {"open_now": true}, "photos": [{"height": 3744, "html_attributions": ["<a href=\"https://maps.google.com/maps/contrib/115629347545257980047/photos\">Gem\u2019s Water &amp; Fire Damage Restoration</a>"], "photo_reference": "CmRaAAAAedZNZTLVpvGDcwjRYa08cmbWwJt7rVR0EvZ5o9F5SFuw8-JIiba3ewYeQ54sLxvuiqvwfRRz_D-pQgUobjVwSoqskeJS2oU4-FczmC4dl0yJ3PrDOxFMUpP353dCCQ0CEhAOLJiKKjIYLXrTuBUcIBofGhS16msF0dHeklk3OwzISLY1t37fNw", "width": 5616}], "place_id": "ChIJpdwXxqN744kReUKgxXia5ww", "plus_code": {"compound_code": "7WXV+68 Boston, Massachusetts, United States", "global_code": "87JC7WXV+68"}, "reference": "ChIJpdwXxqN744kReUKgxXia5ww", "scope": "GOOGLE", "types": ["laundry", "general_contractor", "point_of_interest", "establishment"], "vicinity": "336 Adams Street, Dorchester"}, "ChIJZTrIwaN744kRCWrsrYzS00k": {"geometry": {"location": {"lat": 42.29852470000001, "lng": -71.05699539999999}, "viewport": {"northeast": {"lat": 42.29982968029151, "lng": -71.0557536697085}, "southwest": {"lat": 42.29713171970851, "lng": -71.0584516302915}}}, "icon": "https://maps.gstatic.com/mapfiles/place_api/icons/generic_business-71.png", "id": "116aace2857701cbcf11def5c0c389677f87fe1e", "name": "Tri construction co", "place_id": "ChIJZTrIwaN744kRCWrsrYzS00k", "plus_code": {"compound_code": "7WXV+C6 Boston, Massachusetts, United States", "global_code": "87JC7WXV+C6"}, "rating": 5, "reference": "ChIJZTrIwaN744kRCWrsrYzS00k", "scope": "GOOGLE", "types": ["general_contractor", "point_of_interest", "establishment"], "user_ratings_total": 1, "vicinity": "320 Adams Street, Dorchester"}, "ChIJZ6-Hx6N744kRPQL-T5aCXog": {"geometry": {"location": {"lat": 42.29818849999999, "lng": -71.0571965}, "viewport": {"northeast": {"lat": 42.29952678029149, "lng": -71.0558424197085}, "southwest": {"lat": 42.29682881970849, "lng": -71.0585403802915}}}, "icon": "https://maps.gstatic.com/mapfiles/place_api/icons/generic_business-71.png", "id": "c1907e00cd0b150e78118322a59d3096a7eda83a", "name": "Gibson St @ Adams St", "place_id": "ChIJZ6-Hx6N744kRPQL-T5aCXog", "plus_code": {"compound_code": "7WXV+74 Boston, Massachusetts, United States", "global_code": "87JC7WXV+74"}, "reference": "ChIJZ6-Hx6N744kRPQL-T5aCXog", "scope": "GOOGLE", "types": ["transit_station", "point_of_interest", "establishment"], "vicinity": "United States"}, "ChIJpdwXxqN744kRLG8GjAzvqEA": {"geometry": {"location": {"lat": 42.298037, "lng": -71.0566204}, "viewport": {"northeast": {"lat": 42.2994278302915, "lng": -71.0551277197085}, "southwest": {"lat": 42.2967298697085, "lng": -71.0578256802915}}}, "icon": "https://maps.gstatic.com/mapfiles/place_api/icons/generic_business-71.png", "id": "1a85606d1e11730acab06ccd09c84ac6a2ab4c3e", "name": "Evolution Taxi Package Delivery", "opening_hours": {"open_now": true}, "photos": [{"height": 410, "html_attributions": ["<a href=\"https://maps.google.com/maps/contrib/115572910446010705017/photos\">Evolution Taxi Package Delivery</a>"], "photo_reference": "CmRaAAAAMm6UdS6iK1r-SV9e054O67N_NQNvyS_8ZrpE5Qc_jydH1hImBdG0ZeC_-Hr44uHLXfKr7Pbc0NMyC_FnpyhKzl1xA9CWo4s4N7SqE06qzz9jyT7JD3GGdRFO_wuxNSoMEhDljJJ_V5GIx7O5KIcwszymGhT2T2gij7080CPeJmoE7COwWpmEbw", "width": 615}], "place_id": "ChIJpdwXxqN744kRLG8GjAzvqEA", "plus_code": {"compound_code": "7WXV+69 Boston, Massachusetts, United States", "global_code": "87JC7WXV+69"}, "rating": 5, "reference": "ChIJpdwXxqN744kRLG8GjAzvqEA", "scope": "GOOGLE", "types": ["point_of_interest", "food", "establishment"], "user_ratings_total": 1, "vicinity": "336 Adams Street, Boston"}, "ChIJR1k9xqN744kRyvRXv-3wa78": {"geometry": {"location": {"lat": 42.2980048, "lng": -71.0566017}, "viewport": {"northeast": {"lat": 42.2993954302915, "lng": -71.05510971970848}, "southwest": {"lat": 42.29669746970851, "lng": -71.0578076802915}}}, "icon": "https://maps.gstatic.com/mapfiles/place_api/icons/generic_business-71.png", "id": "a35bcb0bf4d9bb8e73bd308c569aa2f838fec2ed", "name": "Patrice Lamour, LICSW", "place_id": "ChIJR1k9xqN744kRyvRXv-3wa78", "plus_code": {"compound_code": "7WXV+69 Boston, Massachusetts, United States", "global_code": "87JC7WXV+69"}, "reference": "ChIJR1k9xqN744kRyvRXv-3wa78", "scope": "GOOGLE", "types": ["doctor", "health", "point_of_interest", "establishment"], "vicinity": "Dorchester"}, "ChIJo1KRx6N744kRd7_icUp64jI": {"geometry": {"location": {"lat": 42.298154, "lng": -71.057136}, "viewport": {"northeast": {"lat": 42.2995348302915, "lng": -71.0558022197085}, "southwest": {"lat": 42.2968368697085, "lng": -71.0585001802915}}}, "icon": "https://maps.gstatic.com/mapfiles/place_api/icons/bus-71.png", "id": "35fff9b3de769ff781c28f1b4f52385d56ddb612", "name": "Gibson St @ Adams St", "place_id": "ChIJo1KRx6N744kRd7_icUp64jI", "plus_code": {"compound_code": "7WXV+74 Boston, Massachusetts, United States", "global_code": "87JC7WXV+74"}, "reference": "ChIJo1KRx6N744kRd7_icUp64jI", "scope": "GOOGLE", "types": ["bus_station", "transit_station", "point_of_interest", "establishment"], "vicinity": "United States"}, "ChIJLe9iuKN744kRFGS5hTSSZVc": {"geometry": {"location": {"lat": 42.298223, "lng": -71.05725699999999}, "viewport": {"northeast": {"lat": 42.29957598029149, "lng": -71.0559099197085}, "southwest": {"lat": 42.29687801970849, "lng": -71.0586078802915}}}, "icon": "https://maps.gstatic.com/mapfiles/place_api/icons/bus-71.png", "id": "6f0837236e317b9c3fb1f687bb0e6d2f73c6f965", "name": "Gibson St @ Adams St", "place_id": "ChIJLe9iuKN744kRFGS5hTSSZVc", "plus_code": {"compound_code": "7WXV+73 Boston, Massachusetts, United States", "global_code": "87JC7WXV+73"}, "reference": "ChIJLe9iuKN744kRFGS5hTSSZVc", "scope": "GOOGLE", "types": ["bus_station", "transit_station", "point_of_interest", "establishment"], "vicinity": "United States"}, "ChIJDT4xwqN744kRewgVOqrE8Dg": {"geometry": {"location": {"lat": 42.2984665, "lng": -71.0567697}, "viewport": {"northeast": {"lat": 42.2997452302915, "lng": -71.0556009697085}, "southwest": {"lat": 42.2970472697085, "lng": -71.0582989302915}}}, "icon": "https://maps.gstatic.com/mapfiles/place_api/icons/generic_business-71.png", "id": "26c6c8174b8a0565430c220eec665a1e6ddfc0e1", "name": "Hannibal Auto Repair", "opening_hours": {"open_now": true}, "place_id": "ChIJDT4xwqN744kRewgVOqrE8Dg", "plus_code": {"compound_code": "7WXV+97 Boston, Massachusetts, United States", "global_code": "87JC7WXV+97"}, "rating": 5, "reference": "ChIJDT4xwqN744kRewgVOqrE8Dg", "scope": "GOOGLE", "types": ["car_repair", "point_of_interest", "establishment"], "user_ratings_total": 1, "vicinity": "326 Adams Street, Dorchester"}, "ChIJweRjtqN744kRzkfVrOfb2k4": {"geometry": {"location": {"lat": 42.29799939999999, "lng": -71.0574371}, "viewport": {"northeast": {"lat": 42.2994140302915, "lng": -71.05611946970849}, "southwest": {"lat": 42.2967160697085, "lng": -71.0588174302915}}}, "icon": "https://maps.gstatic.com/mapfiles/place_api/icons/generic_business-71.png", "id": "3a0883e999788e1cd1d76d134e4ef34d0fe65827", "name": "General Construction", "place_id": "ChIJweRjtqN744kRzkfVrOfb2k4", "plus_code": {"compound_code": "7WXV+52 Boston, Massachusetts, United States", "global_code": "87JC7WXV+52"}, "reference": "ChIJweRjtqN744kRzkfVrOfb2k4", "scope": "GOOGLE", "types": ["general_contractor", "point_of_interest", "establishment"], "vicinity": "75 Gibson Street # 2, Dorchester"}, "ChIJZTrIwaN744kR2n4M7UIMclg": {"geometry": {"location": {"lat": 42.29852470000001, "lng": -71.05699539999999}, "viewport": {"northeast": {"lat": 42.29982968029151, "lng": -71.0557536697085}, "southwest": {"lat": 42.29713171970851, "lng": -71.0584516302915}}}, "icon": "https://maps.gstatic.com/mapfiles/place_api/icons/generic_business-71.png", "id": "0b8a7d006f0a01f5d00f614bf3167d4ccc29b832", "name": "Luther & Luther Enterprises", "place_id": "ChIJZTrIwaN744kR2n4M7UIMclg", "plus_code": {"compound_code": "7WXV+C6 Boston, Massachusetts, United States", "global_code": "87JC7WXV+C6"}, "reference": "ChIJZTrIwaN744kR2n4M7UIMclg", "scope": "GOOGLE", "types": ["finance", "point_of_interest", "establishment"], "vicinity": "320 Adams Street, Dorchester"}, "ChIJZTrIwaN744kRCSowySV90Cg": {"geometry": {"location": {"lat": 42.29852470000001, "lng": -71.05699539999999}, "viewport": {"northeast": {"lat": 42.29982968029151, "lng": -71.0557536697085}, "southwest": {"lat": 42.29713171970851, "lng": -71.0584516302915}}}, "icon": "https://maps.gstatic.com/mapfiles/place_api/icons/generic_business-71.png", "id": "c13f3fc6c4477e486ec760d4847bcf41e5e494cb", "name": "Auto Appraiser Institute", "place_id": "ChIJZTrIwaN744kRCSowySV90Cg", "plus_code": {"compound_code": "7WXV+C6 Boston, Massachusetts, United States", "global_code": "87JC7WXV+C6"}, "reference": "ChIJZTrIwaN744kRCSowySV90Cg", "scope": "GOOGLE", "types": ["finance", "point_of_interest", "establishment"], "vicinity": "320 Adams Street, Dorchester"}, "ChIJ799dwKN744kRWqP8GoKWN5M": {"geometry": {"location": {"lat": 42.29852470000001, "lng": -71.05699539999999}, "viewport": {"northeast": {"lat": 42.29982968029151, "lng": -71.0557536697085}, "southwest": {"lat": 42.29713171970851, "lng": -71.0584516302915}}}, "icon": "https://maps.gstatic.com/mapfiles/place_api/icons/generic_business-71.png", "id": "b5e3d952358eadb5c32d547e1963ff767cccaf2b", "name": "Healynhawke Inc", "place_id": "ChIJ799dwKN744kRWqP8GoKWN5M", "plus_code": {"compound_code": "7WXV+C6 Boston, Massachusetts, United States", "global_code": "87JC7WXV+C6"}, "reference": "ChIJ799dwKN744kRWqP8GoKWN5M", "scope": "GOOGLE", "types": ["point_of_interest", "establishment"], "vicinity": "320 Adams Street, Dorchester"}, "ChIJVdnW6qN744kRW_dn4Rqdvus": {"geometry": {"location": {"lat": 42.29834499999999, "lng": -71.0573746}, "viewport": {"northeast": {"lat": 42.2997305802915, "lng": -71.05593636970849}, "southwest": {"lat": 42.2970326197085, "lng": -71.05863433029151}}}, "icon": "https://maps.gstatic.com/mapfiles/place_api/icons/gas_station-71.png", "id": "a554e39c87b6e5863c97c6cbe92bd8f914fcd382", "name": "Getty", "place_id": "ChIJVdnW6qN744kRW_dn4Rqdvus", "plus_code": {"compound_code": "7WXV+83 Boston, Massachusetts, United States", "global_code": "87JC7WXV+83"}, "rating": 5, "reference": "ChIJVdnW6qN744kRW_dn4Rqdvus", "scope": "GOOGLE", "types": ["gas_station", "point_of_interest", "establishment"], "user_ratings_total": 2, "vicinity": "316 Adams Street, Dorchester"}, "ChIJGzE9DS1l44kRoOhiASS_fHg": {"geometry": {"location": {"lat": 42.3600825, "lng": -71.0588801}, "viewport": {"northeast": {"lat": 42.40081989999999, "lng": -70.749455}, "southwest": {"lat": 42.22788, "lng": -71.191113}}}, "icon": "https://maps.gstatic.com/mapfiles/place_api/icons/geocode-71.png", "id": "06755c25d2b34d13942a4713971756a55b870ced", "name": "Boston", "photos": [{"height": 3024, "html_attributions": ["<a href=\"https://maps.google.com/maps/contrib/104670289779338733432/photos\">Natalia Zalucean</a>"], "photo_reference": "CmRaAAAAFtRT7uQr4wEOTK9KjEpVVxjZGnUgePU1_HUUmmvBJLxV3SldLUvDSfBRIFGgxFYI9WBb5EQIWveFL5YpNXAHKvV-xm-i9YFOv7pO3KUU8sQU7A8dJOzFmtkaq0U0TSNVEhC68gBIb0KQkaJd8kgfZm3hGhQ95YsIgZeKlE3HmI8BE2tZHeaerQ", "width": 4032}], "place_id": "ChIJGzE9DS1l44kRoOhiASS_fHg", "reference": "ChIJGzE9DS1l44kRoOhiASS_fHg", "scope": "GOOGLE", "types": ["locality", "political"], "vicinity": "Boston"}}