{"ChIJIcGm-G1844kRqT3yxtgc-PM": {"geometry": {"location": {"lat": 42.26838139999999, "lng": -71.06804840000001}, "viewport": {"northeast": {"lat": 42.2697334302915, "lng": -71.0667037197085}, "southwest": {"lat": 42.2670354697085, "lng": -71.0694016802915}}}, "icon": "https://maps.gstatic.com/mapfiles/place_api/icons/geocode-71.png", "id": "621cbf535ecf27a29ee1f4c538aa2ebdb1986331", "name": "28-2 Canton Ave", "place_id": "ChIJIcGm-G1844kRqT3yxtgc-PM", "reference": "ChIJIcGm-G1844kRqT3yxtgc-PM", "scope": "GOOGLE", "types": ["route"], "vicinity": "Milton"}, "ChIJu50tBHJ844kRpfGE5SXbIx0": {"geometry": {"location": {"lat": 42.26860840000001, "lng": -71.0681362}, "viewport": {"northeast": {"lat": 42.2698883302915, "lng": -71.0666872197085}, "southwest": {"lat": 42.2671903697085, "lng": -71.0693851802915}}}, "icon": "https://maps.gstatic.com/mapfiles/place_api/icons/generic_business-71.png", "id": "15a209cfcfe22bc918de2963a871928dafa5ae6a", "name": "Eagle Excavators", "place_id": "ChIJu50tBHJ844kRpfGE5SXbIx0", "plus_code": {"compound_code": "7W9J+CP Milton, Massachusetts, United States", "global_code": "87JC7W9J+CP"}, "reference": "ChIJu50tBHJ844kRpfGE5SXbIx0", "scope": "GOOGLE", "types": ["moving_company", "point_of_interest", "establishment"], "vicinity": "17 Canton Avenue, Milton"}, "ChIJSwYBXcx944kRtfz9EwDxS2s": {"geometry": {"location": {"lat": 42.24953209999999, "lng": -71.0661653}, "viewport": {"northeast": {"lat": 42.277699, "lng": -71.0314899}, "southwest": {"lat": 42.2007769, "lng": -71.1308081}}}, "icon": "https://maps.gstatic.com/mapfiles/place_api/icons/geocode-71.png", "id": "6e461294a62d87cdb4630ef38ecfd5ec87d90876", "name": "Milton", "photos": [{"height": 2268, "html_attributions": ["<a href=\"https://maps.google.com/maps/contrib/117412595138128548837/photos\">george howard</a>"], "photo_reference": "CmRaAAAAHktSe3sXLQ-eC_z5bhqrDqgQrH6QOobX3o57V2DKmq0lj26sqAn3yyjK40AsSEq8nSbbVBenpt7l49-7I2lwINJD39jbOlAxj7f65O43F_pG6IyGQAab6mq70dF6BRRLEhAa93btgoEAQO9LMZrEsziiGhSj32qOOB7nG4Fh6Dq8-ai86DCLyw", "width": 4032}], "place_id": "ChIJSwYBXcx944kRtfz9EwDxS2s", "reference": "ChIJSwYBXcx944kRtfz9EwDxS2s", "scope": "GOOGLE", "types": ["locality", "political"], "vicinity": "Milton"}}