{"ChIJl8K0tLh544kRZz4UrHXOirE": {"geometry": {"location": {"lat": 42.34408759999999, "lng": -71.1270361}, "viewport": {"northeast": {"lat": 42.3454361302915, "lng": -71.12511044999998}, "southwest": {"lat": 42.3427381697085, "lng": -71.12896264999999}}}, "icon": "https://maps.gstatic.com/mapfiles/place_api/icons/geocode-71.png", "id": "7dbbab2396f2f92be3950eb82a9d2800f0f87610", "name": "83-199 Centre St", "place_id": "ChIJl8K0tLh544kRZz4UrHXOirE", "reference": "ChIJl8K0tLh544kRZz4UrHXOirE", "scope": "GOOGLE", "types": ["route"], "vicinity": "Brookline"}, "ChIJZ8VTSr9544kR-BaTAnPQaYs": {"geometry": {"location": {"lat": 42.3443356, "lng": -71.1275234}, "viewport": {"northeast": {"lat": 42.3456657802915, "lng": -71.12619261970849}, "southwest": {"lat": 42.34296781970851, "lng": -71.12889058029151}}}, "icon": "https://maps.gstatic.com/mapfiles/place_api/icons/civic_building-71.png", "id": "3092da5d79dc97f1c168ddfe027e08a41524532a", "name": "Communities Centre", "place_id": "ChIJZ8VTSr9544kR-BaTAnPQaYs", "plus_code": {"compound_code": "8VVC+PX Brookline, Massachusetts, United States", "global_code": "87JC8VVC+PX"}, "reference": "ChIJZ8VTSr9544kR-BaTAnPQaYs", "scope": "GOOGLE", "types": ["local_government_office", "point_of_interest", "establishment"], "vicinity": "126 Centre Street, Brookline"}, "ChIJPcHctrh544kRJhIDMvuFRW4": {"geometry": {"location": {"lat": 42.34417819999999, "lng": -71.1275421}, "viewport": {"northeast": {"lat": 42.34558593029149, "lng": -71.1261362697085}, "southwest": {"lat": 42.34288796970849, "lng": -71.1288342302915}}}, "icon": "https://maps.gstatic.com/mapfiles/place_api/icons/generic_business-71.png", "id": "7b1ba651fd7a0e51dbd5553c081cb4abf30956f0", "name": "Baron-Charms International", "place_id": "ChIJPcHctrh544kRJhIDMvuFRW4", "plus_code": {"compound_code": "8VVC+MX Brookline, Massachusetts, United States", "global_code": "87JC8VVC+MX"}, "reference": "ChIJPcHctrh544kRJhIDMvuFRW4", "scope": "GOOGLE", "types": ["point_of_interest", "establishment"], "vicinity": "112 Centre Street #10j, Brookline"}, "ChIJhxUrqrh544kRWC828UAMqqo": {"geometry": {"location": {"lat": 42.34495939999999, "lng": -71.12738159999999}, "viewport": {"northeast": {"lat": 42.3463313302915, "lng": -71.1260111197085}, "southwest": {"lat": 42.3436333697085, "lng": -71.1287090802915}}}, "icon": "https://maps.gstatic.com/mapfiles/place_api/icons/generic_business-71.png", "id": "76e1fd661c2e8817e3741a9980d9b50fe53dd717", "name": "ChargePoint Charging Station", "photos": [{"height": 1008, "html_attributions": ["<a href=\"https://maps.google.com/maps/contrib/111701178928844627695/photos\">Elad Tsur</a>"], "photo_reference": "CmRaAAAAudN-FICE70xxyXyeA-t3ImFaiyrNqpG7SSIBlgPvxKO3_s4x7xwnSTFdPUMefyouQrpH0cvtC2UAEQ15IgqM70eK_uJNzqPBpkRUs_SAY6QIEh_cXg737eeGImYP2rc3EhC7xcv4quJeSdcRiuAwBDLQGhQ93osTaXgkTVQncfmpdFotVDxCRA", "width": 1776}], "place_id": "ChIJhxUrqrh544kRWC828UAMqqo", "plus_code": {"compound_code": "8VVF+X2 Brookline, Massachusetts, United States", "global_code": "87JC8VVF+X2"}, "reference": "ChIJhxUrqrh544kRWC828UAMqqo", "scope": "GOOGLE", "types": ["point_of_interest", "establishment"], "vicinity": "41 Fuller Street, Brookline"}, "ChIJsR81q7h544kRnXSf6hDz1K8": {"geometry": {"location": {"lat": 42.3448809, "lng": -71.127166}, "viewport": {"northeast": {"lat": 42.34620608029149, "lng": -71.12571306970848}, "southwest": {"lat": 42.3435081197085, "lng": -71.12841103029149}}}, "icon": "https://maps.gstatic.com/mapfiles/place_api/icons/generic_business-71.png", "id": "bc9e2232fe8768649be7f56a4a07e1af9b2abbd3", "name": "Fuller Street Parking", "place_id": "ChIJsR81q7h544kRnXSf6hDz1K8", "reference": "ChIJsR81q7h544kRnXSf6hDz1K8", "scope": "GOOGLE", "types": ["parking", "premise", "point_of_interest", "establishment"], "vicinity": "Brookline"}, "ChIJhZirQQB544kRB9LbXEfedZQ": {"geometry": {"location": {"lat": 42.33176419999999, "lng": -71.1211635}, "viewport": {"northeast": {"lat": 42.3518109, "lng": -71.1056969}, "southwest": {"lat": 42.29459689999999, "lng": -71.1789959}}}, "icon": "https://maps.gstatic.com/mapfiles/place_api/icons/geocode-71.png", "id": "92986b2d1f69af2f2a7e29d34ced8adfa8573beb", "name": "Brookline", "photos": [{"height": 651, "html_attributions": ["<a href=\"https://maps.google.com/maps/contrib/114772942214832951419/photos\">Michael Ahn</a>"], "photo_reference": "CmRaAAAAHZobW_vYJWRQKfCKHlNvJ_Hm3ryPwzyg5qsRGOsnom0WtX6ZL4HkTKeeHYdIqlZBsXZrzd4fqDU1C5rflpeIiRgMLKDBiRasv5rgY69-JnfZ6fYaiH_0aNrMrqTBBSlSEhAgqEsWNauU66Z6QI4Fg0JYGhSCHRKqjN4VYV6nvGLE1kxs5j0cZw", "width": 1608}], "place_id": "ChIJhZirQQB544kRB9LbXEfedZQ", "reference": "ChIJhZirQQB544kRB9LbXEfedZQ", "scope": "GOOGLE", "types": ["locality", "political"], "vicinity": "Brookline"}}