{"ChIJR-pA73F544kRnqZZ0zMzHYo": {"geometry": {"location": {"lat": 42.3149709, "lng": -71.1140997}, "viewport": {"northeast": {"lat": 42.3163197802915, "lng": -71.11274651970848}, "southwest": {"lat": 42.3136218197085, "lng": -71.1154444802915}}}, "icon": "https://maps.gstatic.com/mapfiles/place_api/icons/geocode-71.png", "id": "13260187c7d3b3809dd6f411d8eac94e57f402ae", "name": "585-607 Centre St", "place_id": "ChIJR-pA73F544kRnqZZ0zMzHYo", "reference": "ChIJR-pA73F544kRnqZZ0zMzHYo", "scope": "GOOGLE", "types": ["route"], "vicinity": "Boston"}, "ChIJ6fl75XF544kRxEICYWXZn7g": {"geometry": {"location": {"lat": 42.3149051, "lng": -71.1142198}, "viewport": {"northeast": {"lat": 42.3162531802915, "lng": -71.11281171970849}, "southwest": {"lat": 42.3135552197085, "lng": -71.11550968029151}}}, "icon": "https://maps.gstatic.com/mapfiles/place_api/icons/restaurant-71.png", "id": "0c9aa80a4256e9899eeb6c1bf0c16c475c9e4e8b", "name": "Ten Tables", "opening_hours": {"open_now": false}, "photos": [{"height": 1365, "html_attributions": ["<a href=\"https://maps.google.com/maps/contrib/104111246635874032234/photos\">ZAGAT</a>"], "photo_reference": "CmRaAAAAJh8_aeBgeAwKMvRy77Gwi_10m7EIWWU9Avtw-ef7M2jgBAQviTxm0hsXj6bx6QDmOxFYg9yw75ilqYq1Hoc2Rk8xIyRzeFMaDw9lPS9rtEiy8QiigssHBK-j0j1zBY2eEhAl6TPpVtYWKgAs_OhhmCUOGhTIdf7Pseut1lldzHlPtT992fM7dA", "width": 2048}], "place_id": "ChIJ6fl75XF544kRxEICYWXZn7g", "plus_code": {"compound_code": "8V7P+X8 Boston, Massachusetts, United States", "global_code": "87JC8V7P+X8"}, "price_level": 3, "rating": 4.5, "reference": "ChIJ6fl75XF544kRxEICYWXZn7g", "scope": "GOOGLE", "types": ["bar", "restaurant", "point_of_interest", "food", "establishment"], "user_ratings_total": 194, "vicinity": "597 Centre Street, Jamaica Plain"}, "ChIJAZQG5XF544kRcJ_buxRNSmw": {"geometry": {"location": {"lat": 42.31479909999999, "lng": -71.1142352}, "viewport": {"northeast": {"lat": 42.31614708029149, "lng": -71.11282091970848}, "southwest": {"lat": 42.31344911970849, "lng": -71.1155188802915}}}, "icon": "https://maps.gstatic.com/mapfiles/place_api/icons/shopping-71.png", "id": "497e231b95020d8b9576fef0fa674da079833be8", "name": "J P Comics & Games", "opening_hours": {"open_now": true}, "photos": [{"height": 1080, "html_attributions": ["<a href=\"https://maps.google.com/maps/contrib/117120864240808116587/photos\">Dave Runkle</a>"], "photo_reference": "CmRaAAAA9TwSpR2iv25G3EIcxRWQfhLl2VxglHeOFP7ugktl1i0hLuFEwxBjXTH0lwSGGazrfAUEWnf66-fjoysmA9LTjuBs2plXi2W_Bj8D7H9JCxsh_e5-IDGO6GSRQamQokRpEhBb1I9KE4ANvIzOwjmWphWXGhQTXpfMvVkXEhCNBtG3ZvpAHVxGIg", "width": 1920}], "place_id": "ChIJAZQG5XF544kRcJ_buxRNSmw", "plus_code": {"compound_code": "8V7P+W8 Boston, Massachusetts, United States", "global_code": "87JC8V7P+W8"}, "rating": 4.7, "reference": "ChIJAZQG5XF544kRcJ_buxRNSmw", "scope": "GOOGLE", "types": ["book_store", "store", "point_of_interest", "establishment"], "user_ratings_total": 61, "vicinity": "603 Centre Street, Jamaica Plain"}, "ChIJJamL6HF544kRpmDQyuAbeFQ": {"geometry": {"location": {"lat": 42.31494199999999, "lng": -71.11377}, "viewport": {"northeast": {"lat": 42.31629358029149, "lng": -71.11258621970849}, "southwest": {"lat": 42.31359561970849, "lng": -71.11528418029151}}}, "icon": "https://maps.gstatic.com/mapfiles/place_api/icons/generic_business-71.png", "id": "e5c87d2ab39d466491e1cd720cdda0b2979ebedb", "name": "Body Centre Massage", "opening_hours": {"open_now": true}, "photos": [{"height": 1536, "html_attributions": ["<a href=\"https://maps.google.com/maps/contrib/101059758039867640750/photos\">Body Centre Massage</a>"], "photo_reference": "CmRaAAAAgtXAMOWRUeeWcPICHXFrK3e9wGZHU-g-omtlplDocT0LMlSGgNgqGxaGo1MMLunEFf3pqajJYz_FVMl8O0k8Da2cq48Y2pQZPeIPRsLJBgRQTDVR5BGit-N9aMfLlOKaEhCUFMw50MJHDtE7EKlWfylcGhTsnd4E0-OL7BYJx1IAaLmGhOc29g", "width": 2048}], "place_id": "ChIJJamL6HF544kRpmDQyuAbeFQ", "plus_code": {"compound_code": "8V7P+XF Boston, Massachusetts, United States", "global_code": "87JC8V7P+XF"}, "rating": 5, "reference": "ChIJJamL6HF544kRpmDQyuAbeFQ", "scope": "GOOGLE", "types": ["point_of_interest", "establishment"], "user_ratings_total": 5, "vicinity": "590 Centre Street, Jamaica Plain"}, "ChIJn5yS5XF544kR8PzhrtpU8rg": {"geometry": {"location": {"lat": 42.31486400000001, "lng": -71.114255}, "viewport": {"northeast": {"lat": 42.3162117802915, "lng": -71.1128299197085}, "southwest": {"lat": 42.3135138197085, "lng": -71.11552788029151}}}, "icon": "https://maps.gstatic.com/mapfiles/place_api/icons/shopping-71.png", "id": "b0cf7aad2fe26b2c807d19127165bf4b709e493e", "name": "New Leaf Flores", "opening_hours": {"open_now": false}, "photos": [{"height": 720, "html_attributions": ["<a href=\"https://maps.google.com/maps/contrib/101837285996084818707/photos\">Terri Ritterhouse</a>"], "photo_reference": "CmRaAAAAg7U2idISDwJtgb_w533v6CGCoqTM2ogVosbzjDneNrNbN_zqzZZJKR3MVE-daAtHZ-7KyQB-X7GWk2Yyqj2x5fjdCZnd6G8mwuDCt2yRxhUMCPFkuLlDr4MzN4eNtumMEhCMKegz1OLiJcGignrxuStpGhQ9UKVBAt0gJYiOSS1TCnZ4zrcHxw", "width": 960}], "place_id": "ChIJn5yS5XF544kR8PzhrtpU8rg", "plus_code": {"compound_code": "8V7P+W7 Boston, Massachusetts, United States", "global_code": "87JC8V7P+W7"}, "rating": 4.7, "reference": "ChIJn5yS5XF544kR8PzhrtpU8rg", "scope": "GOOGLE", "types": ["florist", "store", "point_of_interest", "establishment"], "user_ratings_total": 21, "vicinity": "2025, 601 Centre Street, Jamaica Plain"}, "ChIJDdSu6XF544kRsc8HzCPStg8": {"geometry": {"location": {"lat": 42.3150369, "lng": -71.11381899999999}, "viewport": {"northeast": {"lat": 42.31638978029149, "lng": -71.11260846970849}, "southwest": {"lat": 42.3136918197085, "lng": -71.1153064302915}}}, "icon": "https://maps.gstatic.com/mapfiles/place_api/icons/generic_business-71.png", "id": "2fde63e33f683ef250e53fc98aeb00994476d4f2", "name": "Move Free Massage", "opening_hours": {"open_now": true}, "place_id": "ChIJDdSu6XF544kRsc8HzCPStg8", "plus_code": {"compound_code": "8V8P+2F Boston, Massachusetts, United States", "global_code": "87JC8V8P+2F"}, "reference": "ChIJDdSu6XF544kRsc8HzCPStg8", "scope": "GOOGLE", "types": ["point_of_interest", "establishment"], "vicinity": "590 Centre Street, Jamaica Plain"}, "ChIJEfBy5nF544kRe3K5PSiLzyY": {"geometry": {"location": {"lat": 42.31485, "lng": -71.11381399999999}, "viewport": {"northeast": {"lat": 42.3162012302915, "lng": -71.1126095197085}, "southwest": {"lat": 42.3135032697085, "lng": -71.11530748029152}}}, "icon": "https://maps.gstatic.com/mapfiles/place_api/icons/generic_business-71.png", "id": "f5377091993c686ba0a360d7c3d1e59be275001e", "name": "Dental Office", "place_id": "ChIJEfBy5nF544kRe3K5PSiLzyY", "plus_code": {"compound_code": "8V7P+WF Boston, Massachusetts, United States", "global_code": "87JC8V7P+WF"}, "rating": 1, "reference": "ChIJEfBy5nF544kRe3K5PSiLzyY", "scope": "GOOGLE", "types": ["dentist", "health", "point_of_interest", "establishment"], "user_ratings_total": 1, "vicinity": "594 Centre Street, Jamaica Plain"}, "ChIJEfBy5nF544kR2ub4R025UOo": {"geometry": {"location": {"lat": 42.31485, "lng": -71.11381399999999}, "viewport": {"northeast": {"lat": 42.3162012302915, "lng": -71.1126095197085}, "southwest": {"lat": 42.3135032697085, "lng": -71.11530748029152}}}, "icon": "https://maps.gstatic.com/mapfiles/place_api/icons/generic_business-71.png", "id": "3eeca03450a52d73c894e73817d7967afc430bbd", "name": "Dr. Elsa Gusman, DMD", "opening_hours": {"open_now": true}, "place_id": "ChIJEfBy5nF544kR2ub4R025UOo", "plus_code": {"compound_code": "8V7P+WF Boston, Massachusetts, United States", "global_code": "87JC8V7P+WF"}, "rating": 4.1, "reference": "ChIJEfBy5nF544kR2ub4R025UOo", "scope": "GOOGLE", "types": ["dentist", "health", "point_of_interest", "establishment"], "user_ratings_total": 7, "vicinity": "594 Centre Street, Jamaica Plain"}, "ChIJ16wO-XF544kR9ZgcHzb2irc": {"geometry": {"location": {"lat": 42.3149476, "lng": -71.1146943}, "viewport": {"northeast": {"lat": 42.31623173029149, "lng": -71.1133865697085}, "southwest": {"lat": 42.3135337697085, "lng": -71.1160845302915}}}, "icon": "https://maps.gstatic.com/mapfiles/place_api/icons/generic_business-71.png", "id": "3c3361b9d1e98a168f024c1b00913f8165e7adf5", "name": "Oh Snap Photography", "opening_hours": {"open_now": true}, "photos": [{"height": 1025, "html_attributions": ["<a href=\"https://maps.google.com/maps/contrib/107246834981165006745/photos\">Oh Snap Photography</a>"], "photo_reference": "CmRaAAAA-Y40AR38KTz7Dtom6FAB6aqBuzeHwNt_sAEjuA9K8oMqs_r8BPMN8AVwq-tx9onZupLF5b3YYehXEmgTLrCeVlc6-H4byDMG7jIp8lCXX4CPRcgjbWBYfDrzJtDqLXAQEhBow1_3OYL1spE5LVtdzKTDGhRKOuS65lvrHZyVvoGl-hnWReC4OQ", "width": 1025}], "place_id": "ChIJ16wO-XF544kR9ZgcHzb2irc", "plus_code": {"compound_code": "8V7P+X4 Boston, Massachusetts, United States", "global_code": "87JC8V7P+X4"}, "reference": "ChIJ16wO-XF544kR9ZgcHzb2irc", "scope": "GOOGLE", "types": ["point_of_interest", "establishment"], "vicinity": "17 Pond Street, Jamaica Plain"}, "ChIJoVHuk3F544kRwqv_LHHgvYk": {"geometry": {"location": {"lat": 42.3153376, "lng": -71.1143517}, "viewport": {"northeast": {"lat": 42.31676858029149, "lng": -71.1128673697085}, "southwest": {"lat": 42.3140706197085, "lng": -71.1155653302915}}}, "icon": "https://maps.gstatic.com/mapfiles/place_api/icons/gas_station-71.png", "id": "f01f62643fe8196560d6c64adc9ad7c60df46791", "name": "Centre Gibbs Inc", "opening_hours": {"open_now": true}, "photos": [{"height": 1944, "html_attributions": ["<a href=\"https://maps.google.com/maps/contrib/117769598072132475707/photos\">Askisa Adams</a>"], "photo_reference": "CmRaAAAAJwCSNHCE4yD1RSkOHu9HfpPg75fESiEnLxmYh09Gvj47F3JXU4JMwmBADfatQCl2T3aqfA3UfZv9XKhgViptbF4-nd5iebQqabFkPnw3dqsNwvIHMgwsmHno60DKJqIoEhBzFO5vgw1NHc6LVuFGWFN8GhR8EXaZi4iCib6r4PsTZZ_3wPPqwg", "width": 2592}], "place_id": "ChIJoVHuk3F544kRwqv_LHHgvYk", "plus_code": {"compound_code": "8V8P+47 Boston, Massachusetts, United States", "global_code": "87JC8V8P+47"}, "rating": 4, "reference": "ChIJoVHuk3F544kRwqv_LHHgvYk", "scope": "GOOGLE", "types": ["gas_station", "point_of_interest", "establishment"], "user_ratings_total": 23, "vicinity": "581 Centre Street, Jamaica Plain"}, "ChIJoSJa73F544kR6Nip141SxWI": {"geometry": {"location": {"lat": 42.3150013, "lng": -71.11394550000001}, "viewport": {"northeast": {"lat": 42.3163524302915, "lng": -71.1126727197085}, "southwest": {"lat": 42.3136544697085, "lng": -71.1153706802915}}}, "icon": "https://maps.gstatic.com/mapfiles/place_api/icons/generic_business-71.png", "id": "c54f59e0b30d17cd696677ee6b42d4bcde962cca", "name": "Katherine M. Walbam, LICSW", "place_id": "ChIJoSJa73F544kR6Nip141SxWI", "plus_code": {"compound_code": "8V8P+2C Boston, Massachusetts, United States", "global_code": "87JC8V8P+2C"}, "reference": "ChIJoSJa73F544kR6Nip141SxWI", "scope": "GOOGLE", "types": ["doctor", "health", "point_of_interest", "establishment"], "vicinity": "592 Centre Street, Jamaica Plain, MA 02130, Jamaica Plain"}, "ChIJJ-yo6HF544kRklCDqp9ZVwU": {"geometry": {"location": {"lat": 42.31490539999999, "lng": -71.1139688}, "viewport": {"northeast": {"lat": 42.31625543029149, "lng": -71.11268616970848}, "southwest": {"lat": 42.3135574697085, "lng": -71.11538413029149}}}, "icon": "https://maps.gstatic.com/mapfiles/place_api/icons/generic_business-71.png", "id": "d32b4d6712067c3f38f7ae59c330b8d133f54457", "name": "Aschenaki Mekdelawit MD", "place_id": "ChIJJ-yo6HF544kRklCDqp9ZVwU", "plus_code": {"compound_code": "8V7P+XC Boston, Massachusetts, United States", "global_code": "87JC8V7P+XC"}, "reference": "ChIJJ-yo6HF544kRklCDqp9ZVwU", "scope": "GOOGLE", "types": ["doctor", "health", "point_of_interest", "establishment"], "vicinity": "594 Centre Street # 1, Jamaica Plain"}, "ChIJEwHWnnF544kR6rwCn4dhq7E": {"geometry": {"location": {"lat": 42.3157157, "lng": -71.1141708}, "viewport": {"northeast": {"lat": 42.31706088029149, "lng": -71.1127633697085}, "southwest": {"lat": 42.31436291970849, "lng": -71.11546133029151}}}, "icon": "https://maps.gstatic.com/mapfiles/place_api/icons/generic_business-71.png", "id": "d902f9111003e10bdf4af69aee88514e6566d00f", "name": "Gomez Real Estate Corporation", "place_id": "ChIJEwHWnnF544kR6rwCn4dhq7E", "plus_code": {"compound_code": "8V8P+78 Boston, Massachusetts, United States", "global_code": "87JC8V8P+78"}, "reference": "ChIJEwHWnnF544kR6rwCn4dhq7E", "scope": "GOOGLE", "types": ["real_estate_agency", "car_repair", "point_of_interest", "establishment"], "vicinity": "561 Centre Street, Jamaica Plain"}, "ChIJT99B83F544kRbZ1uCg_pDSA": {"geometry": {"location": {"lat": 42.3155134, "lng": -71.1147021}, "viewport": {"northeast": {"lat": 42.31692968029149, "lng": -71.11330796970849}, "southwest": {"lat": 42.31423171970849, "lng": -71.11600593029151}}}, "icon": "https://maps.gstatic.com/mapfiles/place_api/icons/generic_business-71.png", "id": "9dd07a73efdb1e06896252f7c9f049e212b7242f", "name": "Dr. Michal F. Tomczak, MD", "place_id": "ChIJT99B83F544kRbZ1uCg_pDSA", "plus_code": {"compound_code": "8V8P+64 Boston, Massachusetts, United States", "global_code": "87JC8V8P+64"}, "rating": 5, "reference": "ChIJT99B83F544kRbZ1uCg_pDSA", "scope": "GOOGLE", "types": ["doctor", "health", "point_of_interest", "establishment"], "user_ratings_total": 2, "vicinity": "10 Goodrich Road, Jamaica Plain"}, "ChIJfYVp-3F544kRJ9ZChXvdSGo": {"geometry": {"location": {"lat": 42.31475890000001, "lng": -71.1143503}, "viewport": {"northeast": {"lat": 42.3160712802915, "lng": -71.11302461970848}, "southwest": {"lat": 42.3133733197085, "lng": -71.1157225802915}}}, "icon": "https://maps.gstatic.com/mapfiles/place_api/icons/cafe-71.png", "id": "23f0a18e711946dc9def5eca65a7658becf87d54", "name": "7 Pond Coffee Bar", "opening_hours": {"open_now": true}, "photos": [{"height": 4032, "html_attributions": ["<a href=\"https://maps.google.com/maps/contrib/107646752483012872494/photos\">Cog nomen</a>"], "photo_reference": "CmRaAAAAhbIC73qpLKFS1auvGrHCIX0NAkORVc0EmUqzoUGx6mwIdRFOfz2NYPTiajUQM5k-23G2GaEYuOvdPl_cCBnBw7nzKdbi0IZOYcQDrzI9ujdCs_Ut3wzDP8jkEcB6UjOvEhBUw4hdjnUyDFHj6o98ObJcGhRq5jJN35Tt9Tn0Zpvl8WXBZDkY8g", "width": 3024}], "place_id": "ChIJfYVp-3F544kRJ9ZChXvdSGo", "plus_code": {"compound_code": "8V7P+W7 Boston, Massachusetts, United States", "global_code": "87JC8V7P+W7"}, "rating": 4.4, "reference": "ChIJfYVp-3F544kRJ9ZChXvdSGo", "scope": "GOOGLE", "types": ["cafe", "store", "point_of_interest", "food", "establishment"], "user_ratings_total": 97, "vicinity": "Pond Street, Boston"}, "ChIJPzY4-nF544kRj83xx1kfvU0": {"geometry": {"location": {"lat": 42.3149025, "lng": -71.1146886}, "viewport": {"northeast": {"lat": 42.3162042802915, "lng": -71.11336966970849}, "southwest": {"lat": 42.3135063197085, "lng": -71.1160676302915}}}, "icon": "https://maps.gstatic.com/mapfiles/place_api/icons/generic_business-71.png", "id": "89c960433576890ecde04182f6d4c1b3b9d72201", "name": "Winthrop", "place_id": "ChIJPzY4-nF544kRj83xx1kfvU0", "plus_code": {"compound_code": "8V7P+X4 Boston, Massachusetts, United States", "global_code": "87JC8V7P+X4"}, "reference": "ChIJPzY4-nF544kRj83xx1kfvU0", "scope": "GOOGLE", "types": ["point_of_interest", "establishment"], "vicinity": "15 Pond Street, Boston"}, "ChIJm-ZGxnF544kRQKKMy45pT_4": {"geometry": {"location": {"lat": 42.3150948, "lng": -71.1130077}, "viewport": {"northeast": {"lat": 42.3164704302915, "lng": -71.11167236970849}, "southwest": {"lat": 42.3137724697085, "lng": -71.11437033029151}}}, "icon": "https://maps.gstatic.com/mapfiles/place_api/icons/generic_recreational-71.png", "id": "87278a77cb7aa712321509e0b51d161b236f9bb7", "name": "Parley Vale Preserve", "place_id": "ChIJm-ZGxnF544kRQKKMy45pT_4", "reference": "ChIJm-ZGxnF544kRQKKMy45pT_4", "scope": "GOOGLE", "types": ["park", "premise", "point_of_interest", "establishment"], "vicinity": "Boston"}, "ChIJGzE9DS1l44kRoOhiASS_fHg": {"geometry": {"location": {"lat": 42.3600825, "lng": -71.0588801}, "viewport": {"northeast": {"lat": 42.40081989999999, "lng": -70.749455}, "southwest": {"lat": 42.22788, "lng": -71.191113}}}, "icon": "https://maps.gstatic.com/mapfiles/place_api/icons/geocode-71.png", "id": "06755c25d2b34d13942a4713971756a55b870ced", "name": "Boston", "photos": [{"height": 3024, "html_attributions": ["<a href=\"https://maps.google.com/maps/contrib/104670289779338733432/photos\">Natalia Zalucean</a>"], "photo_reference": "CmRaAAAASJ0d6fJv2hGxroFaJoGUFSghDEjo0IPhUjqHkIgxCFXE9kowgFi3yaGuFknIfv2Y1mN-AhrA0DveWTEB8Jhu0FAWEoPzazSCNlp06TQbCSiBzk5RIyu3_2rRI--qtObdEhAvvNT8t1posGbT5oeFUKEwGhRukh8Wy0P4EODBVhvi-ItK053qCQ", "width": 4032}], "place_id": "ChIJGzE9DS1l44kRoOhiASS_fHg", "reference": "ChIJGzE9DS1l44kRoOhiASS_fHg", "scope": "GOOGLE", "types": ["locality", "political"], "vicinity": "Boston"}}