{"ChIJHa9GiTt644kRYLZTc1bUWzc": {"geometry": {"location": {"lat": 42.3322672, "lng": -71.08142099999999}, "viewport": {"northeast": {"lat": 42.3336169802915, "lng": -71.08007406970849}, "southwest": {"lat": 42.3309190197085, "lng": -71.0827720302915}}}, "icon": "https://maps.gstatic.com/mapfiles/place_api/icons/geocode-71.png", "id": "3050bdc9c7bfab9c574b75074e3f4cc163d85c71", "name": "2094-2088 Washington St", "place_id": "ChIJHa9GiTt644kRYLZTc1bUWzc", "reference": "ChIJHa9GiTt644kRYLZTc1bUWzc", "scope": "GOOGLE", "types": ["route"], "vicinity": "Boston"}, "ChIJTU6Ymzt644kRjA1wygaaThU": {"geometry": {"location": {"lat": 42.332025, "lng": -71.082208}, "viewport": {"northeast": {"lat": 42.3332703302915, "lng": -71.0806944197085}, "southwest": {"lat": 42.3305723697085, "lng": -71.0833923802915}}}, "icon": "https://maps.gstatic.com/mapfiles/place_api/icons/shopping-71.png", "id": "4930f4ff17ade55eff9ec4b1f66e74578fe4b6a5", "name": "Boston Gardener", "opening_hours": {"open_now": true}, "photos": [{"height": 3264, "html_attributions": ["<a href=\"https://maps.google.com/maps/contrib/111183517180058156479/photos\">Wade Wisler</a>"], "photo_reference": "CmRaAAAAL6Xh52KtJJ6ySxuD3rXoqMKCLLcDaUXA4HIXjaGbJe466LRkR9zW57AXmh0V_kM4zXPHSWrtXiXssH9odOahKWLBAQgWYaRHh9f8O05hxqhcyVE5R8XVeJCEdGmH08KGEhAEiOeyjpiwqwJ8O4JRShUeGhQKKao4LdOkaTcRUEwcngI3sngiig", "width": 2448}], "place_id": "ChIJTU6Ymzt644kRjA1wygaaThU", "plus_code": {"compound_code": "8WJ9+R4 Boston, Massachusetts, United States", "global_code": "87JC8WJ9+R4"}, "rating": 4.3, "reference": "ChIJTU6Ymzt644kRjA1wygaaThU", "scope": "GOOGLE", "types": ["store", "point_of_interest", "establishment"], "user_ratings_total": 43, "vicinity": "2131 Washington Street, Boston"}, "ChIJ89wbkDt644kRM_BVpso7qy0": {"geometry": {"location": {"lat": 42.3319404, "lng": -71.0811919}, "viewport": {"northeast": {"lat": 42.3332281302915, "lng": -71.08003316970849}, "southwest": {"lat": 42.3305301697085, "lng": -71.0827311302915}}}, "icon": "https://maps.gstatic.com/mapfiles/place_api/icons/cemetery_grave-71.png", "id": "491b384246487654492b3a520ac659765de2ea3a", "name": "Eliot Burying Ground", "photos": [{"height": 2448, "html_attributions": ["<a href=\"https://maps.google.com/maps/contrib/116668474505544696534/photos\">Nichole Saari</a>"], "photo_reference": "CmRaAAAAJ-hkApuOXC2OJhNCjweua3gD7bu9_Ss7Gk8zkthpp2SveL0LGgZ3vqjU2Fu1pPSznbkLlTQsoUAuZC-lJ-YamSKYQJxsQRUdX2K227zsWXJUVE9pCmrI46Up0a5-NrCqEhDo4HuaTCCSFceUvWXkbuG0GhT4r_kWcCmW60OZDc_GY_LgUjEp3w", "width": 3264}], "place_id": "ChIJ89wbkDt644kRM_BVpso7qy0", "plus_code": {"compound_code": "8WJ9+QG Boston, Massachusetts, United States", "global_code": "87JC8WJ9+QG"}, "rating": 4.5, "reference": "ChIJ89wbkDt644kRM_BVpso7qy0", "scope": "GOOGLE", "types": ["cemetery", "point_of_interest", "establishment"], "user_ratings_total": 2, "vicinity": "20 Eustis Street, Roxbury"}, "ChIJTQcFkDt644kRF6CQvBi_D3Y": {"geometry": {"location": {"lat": 42.3319477, "lng": -71.0818982}, "viewport": {"northeast": {"lat": 42.3332623302915, "lng": -71.08050281970849}, "southwest": {"lat": 42.3305643697085, "lng": -71.08320078029149}}}, "icon": "https://maps.gstatic.com/mapfiles/place_api/icons/shopping-71.png", "id": "5babbbd35948ca1a8ac5068a7392b202c78d0f3d", "name": "Kornfield Drug", "opening_hours": {"open_now": true}, "photos": [{"height": 842, "html_attributions": ["<a href=\"https://maps.google.com/maps/contrib/105899454615652413823/photos\">Sarah Pettengill</a>"], "photo_reference": "CmRaAAAA9QexUVCYizS_5XKCDqJyooHvi7jxnu_vX4-88FYgsBH9ZHUB0aiGUpiOogsZFWZKHslRQTb9jTJlzsuxfliMJEx-CZuycDLsgONUwF-cgt4nXZFEvfx_s7CY2kFVsUdpEhAIkhqnwR3wCdc4RiQKEGLwGhSb_zR36A29jBpv9ShXYSfgklwRRQ", "width": 1280}], "place_id": "ChIJTQcFkDt644kRF6CQvBi_D3Y", "plus_code": {"compound_code": "8WJ9+Q6 Boston, Massachusetts, United States", "global_code": "87JC8WJ9+Q6"}, "rating": 4, "reference": "ChIJTQcFkDt644kRF6CQvBi_D3Y", "scope": "GOOGLE", "types": ["pharmacy", "store", "health", "point_of_interest", "establishment"], "user_ratings_total": 1, "vicinity": "2121 Washington Street, Roxbury"}, "ChIJw4hAiTt644kRLK0aioIU-WU": {"geometry": {"location": {"lat": 42.33228740000001, "lng": -71.0814365}, "viewport": {"northeast": {"lat": 42.3336421802915, "lng": -71.08010046970848}, "southwest": {"lat": 42.3309442197085, "lng": -71.08279843029149}}}, "icon": "https://maps.gstatic.com/mapfiles/place_api/icons/generic_business-71.png", "id": "9b0f547b68e110fa038833b26970ee367f812434", "name": "JJJ Holding Enterprises", "place_id": "ChIJw4hAiTt644kRLK0aioIU-WU", "plus_code": {"compound_code": "8WJ9+WC Boston, Massachusetts, United States", "global_code": "87JC8WJ9+WC"}, "reference": "ChIJw4hAiTt644kRLK0aioIU-WU", "scope": "GOOGLE", "types": ["point_of_interest", "establishment"], "vicinity": "2097 Washington Street #1e, Boston"}, "ChIJkdG0nDt644kRKvW3-6vXt9g": {"geometry": {"location": {"lat": 42.33204979999999, "lng": -71.0821687}, "viewport": {"northeast": {"lat": 42.3334573802915, "lng": -71.08075381970849}, "southwest": {"lat": 42.3307594197085, "lng": -71.0834517802915}}}, "icon": "https://maps.gstatic.com/mapfiles/place_api/icons/generic_business-71.png", "id": "790d8cbf3dff1a941b64547e18466812e4e4c1e2", "name": "Luxe Hospitality Solutions", "opening_hours": {"open_now": true}, "photos": [{"height": 1000, "html_attributions": ["<a href=\"https://maps.google.com/maps/contrib/112391818325464574640/photos\">Luxe Hospitality Solutions</a>"], "photo_reference": "CmRaAAAASiVx0_VjJwKVzOlXjg3D8yNH4yujS-m_scjtNpnGrZZidAf9GFbHsD1jKzAsQyy98-_W_uLeZdeI3CKkkSTlJNASyu1gxmQVQjvRtr8Dt-yTw6GxLkIWwRSv9_Hkg58SEhBqCJvUQ_cdnKCRMuUB5BiJGhQIe97794l1ESQwXGrznmUZb-4dCA", "width": 1000}], "place_id": "ChIJkdG0nDt644kRKvW3-6vXt9g", "plus_code": {"compound_code": "8WJ9+R4 Boston, Massachusetts, United States", "global_code": "87JC8WJ9+R4"}, "reference": "ChIJkdG0nDt644kRKvW3-6vXt9g", "scope": "GOOGLE", "types": ["point_of_interest", "establishment"], "vicinity": "10 Williams Street #21, Boston"}, "ChIJVVVlnQ5444kRUGq7jTRuq70": {"geometry": {"location": {"lat": 42.3320827, "lng": -71.0821363}, "viewport": {"northeast": {"lat": 42.3334746302915, "lng": -71.0807389697085}, "southwest": {"lat": 42.3307766697085, "lng": -71.08343693029151}}}, "icon": "https://maps.gstatic.com/mapfiles/place_api/icons/generic_business-71.png", "id": "b53b1bbf2604b5209f3860ae42fe39edbbc34f65", "name": "Raymond Jones Photography", "place_id": "ChIJVVVlnQ5444kRUGq7jTRuq70", "plus_code": {"compound_code": "8WJ9+R4 Boston, Massachusetts, United States", "global_code": "87JC8WJ9+R4"}, "reference": "ChIJVVVlnQ5444kRUGq7jTRuq70", "scope": "GOOGLE", "types": ["point_of_interest", "establishment"], "vicinity": "10 Williams Street, Boston"}, "ChIJr4ffjjt644kR3dvKQ8k62ag": {"geometry": {"location": {"lat": 42.332213, "lng": -71.0818113}, "viewport": {"northeast": {"lat": 42.3335033302915, "lng": -71.0803391697085}, "southwest": {"lat": 42.3308053697085, "lng": -71.0830371302915}}}, "icon": "https://maps.gstatic.com/mapfiles/place_api/icons/shopping-71.png", "id": "a0d4868c87808c5caeeb7dc3186fe17362502adf", "name": "Ache Botanica", "place_id": "ChIJr4ffjjt644kR3dvKQ8k62ag", "plus_code": {"compound_code": "8WJ9+V7 Boston, Massachusetts, United States", "global_code": "87JC8WJ9+V7"}, "rating": 5, "reference": "ChIJr4ffjjt644kR3dvKQ8k62ag", "scope": "GOOGLE", "types": ["store", "point_of_interest", "establishment"], "user_ratings_total": 2, "vicinity": "2101 Washington Street # 2, Roxbury"}, "ChIJs3VehTt644kRmAcAKMSxN60": {"geometry": {"location": {"lat": 42.332045, "lng": -71.081738}, "viewport": {"northeast": {"lat": 42.3333764802915, "lng": -71.0804080697085}, "southwest": {"lat": 42.3306785197085, "lng": -71.08310603029152}}}, "icon": "https://maps.gstatic.com/mapfiles/place_api/icons/bus-71.png", "id": "7f903c8931fca9fff532575c415f915ca961bc71", "name": "Washington St @ Williams St", "place_id": "ChIJs3VehTt644kRmAcAKMSxN60", "plus_code": {"compound_code": "8WJ9+R8 Boston, Massachusetts, United States", "global_code": "87JC8WJ9+R8"}, "reference": "ChIJs3VehTt644kRmAcAKMSxN60", "scope": "GOOGLE", "types": ["bus_station", "transit_station", "point_of_interest", "establishment"], "vicinity": "United States"}, "ChIJUdOv0QV744kRbLJmw7YlBTk": {"geometry": {"location": {"lat": 42.3320769, "lng": -71.0817805}, "viewport": {"northeast": {"lat": 42.3333923802915, "lng": -71.0803611697085}, "southwest": {"lat": 42.3306944197085, "lng": -71.0830591302915}}}, "icon": "https://maps.gstatic.com/mapfiles/place_api/icons/generic_business-71.png", "id": "f58ab6e09cd52cf8068b294654e872a2e83a3a46", "name": "The Flagship Clubhouse", "opening_hours": {"open_now": false}, "photos": [{"height": 631, "html_attributions": ["<a href=\"https://maps.google.com/maps/contrib/117019400942118437631/photos\">The Flagship Clubhouse</a>"], "photo_reference": "CmRaAAAAGJFP2kp_UPl3QiTP_2smwZtKgK_bjrgTuG1Hz9HXFcdLWllKZasn9G9jwAn76dodVj05KS3dAZWcejMB6vKbxBqrsZwTs4MzjkCBI2jUZCg-H6xEs7vTyrNjE5c2zoX_EhAU7ir6B3FMKg6aDpK42qEoGhQFK9AmvAAVjq31QIFtQzx8uG5Vbw", "width": 738}], "place_id": "ChIJUdOv0QV744kRbLJmw7YlBTk", "plus_code": {"compound_code": "8WJ9+R7 Boston, Massachusetts, United States", "global_code": "87JC8WJ9+R7"}, "reference": "ChIJUdOv0QV744kRbLJmw7YlBTk", "scope": "GOOGLE", "types": ["point_of_interest", "establishment"], "vicinity": "2107 Washington Street, Boston"}, "ChIJcRgUA5V744kRNQuiHzZIMw8": {"geometry": {"location": {"lat": 42.3323076, "lng": -71.081828}, "viewport": {"northeast": {"lat": 42.33358443029149, "lng": -71.0803181697085}, "southwest": {"lat": 42.3308864697085, "lng": -71.08301613029151}}}, "icon": "https://maps.gstatic.com/mapfiles/place_api/icons/generic_business-71.png", "id": "4e8f239229931c261f8bfc7f7823da3854b5d8e6", "name": "The Clubhouse Network", "opening_hours": {"open_now": true}, "photos": [{"height": 2304, "html_attributions": ["<a href=\"https://maps.google.com/maps/contrib/100321859962771783035/photos\">The Clubhouse Network</a>"], "photo_reference": "CmRaAAAAMAL-ppd-YhcPGjtsvu9kuUFsj-Yz-gAcL-7CLWISzlhzm-9wQLkdPq6-RvBXdiOEjrh6pziWfydQ4h4mn4FPj1bY4aBi76aSmUhXyIBO5pgd97dBYX3hh6llkpufJuXiEhDLaXC7Z82FAIAYvtNWsKk5GhTMfMXZr_zQ5Lgmrh7TUt8zgCw7fg", "width": 3456}], "place_id": "ChIJcRgUA5V744kRNQuiHzZIMw8", "plus_code": {"compound_code": "8WJ9+W7 Boston, Massachusetts, United States", "global_code": "87JC8WJ9+W7"}, "rating": 5, "reference": "ChIJcRgUA5V744kRNQuiHzZIMw8", "scope": "GOOGLE", "types": ["point_of_interest", "establishment"], "user_ratings_total": 1, "vicinity": "2101 Washington Street, Boston"}, "ChIJ_63GTgt744kRVtzh0HQaG5Q": {"geometry": {"location": {"lat": 42.3323597, "lng": -71.08181019999999}, "viewport": {"northeast": {"lat": 42.3337992802915, "lng": -71.08036346970849}, "southwest": {"lat": 42.3311013197085, "lng": -71.08306143029151}}}, "icon": "https://maps.gstatic.com/mapfiles/place_api/icons/shopping-71.png", "id": "8cf64f429ff0843e65f57665e92284e3c082aceb", "name": "Tienda latina", "place_id": "ChIJ_63GTgt744kRVtzh0HQaG5Q", "plus_code": {"compound_code": "8WJ9+W7 Boston, Massachusetts, United States", "global_code": "87JC8WJ9+W7"}, "reference": "ChIJ_63GTgt744kRVtzh0HQaG5Q", "scope": "GOOGLE", "types": ["grocery_or_supermarket", "store", "point_of_interest", "food", "establishment"], "vicinity": "BOST-0902127000, Boston"}, "ChIJ2_a1izt644kRWsXBh-uNLJs": {"geometry": {"location": {"lat": 42.332324, "lng": -71.08125199999999}, "viewport": {"northeast": {"lat": 42.33369038029151, "lng": -71.07995121970849}, "southwest": {"lat": 42.33099241970851, "lng": -71.0826491802915}}}, "icon": "https://maps.gstatic.com/mapfiles/place_api/icons/bus-71.png", "id": "ef6e32f2a87e75bb71ffc654ff6e8d67fdfe1c86", "name": "Washington St @ Melnea Cass Blvd", "place_id": "ChIJ2_a1izt644kRWsXBh-uNLJs", "plus_code": {"compound_code": "8WJ9+WF Boston, Massachusetts, United States", "global_code": "87JC8WJ9+WF"}, "reference": "ChIJ2_a1izt644kRWsXBh-uNLJs", "scope": "GOOGLE", "types": ["bus_station", "transit_station", "point_of_interest", "establishment"], "vicinity": "United States"}, "ChIJhZdahDt644kRAjREZ3KRFis": {"geometry": {"location": {"lat": 42.332195, "lng": -71.08195359999999}, "viewport": {"northeast": {"lat": 42.3335213802915, "lng": -71.0806300697085}, "southwest": {"lat": 42.3308234197085, "lng": -71.08332803029151}}}, "icon": "https://maps.gstatic.com/mapfiles/place_api/icons/shopping-71.png", "id": "53e55d0d017f380530b556f9aca1fb0c490ececc", "name": "Nine Williams", "place_id": "ChIJhZdahDt644kRAjREZ3KRFis", "plus_code": {"compound_code": "8WJ9+V6 Boston, Massachusetts, United States", "global_code": "87JC8WJ9+V6"}, "reference": "ChIJhZdahDt644kRAjREZ3KRFis", "scope": "GOOGLE", "types": ["shoe_store", "store", "point_of_interest", "establishment"], "vicinity": "9 Williams Street, Boston"}, "ChIJ6QmsVilF5IkRdPOw9w8TYQI": {"geometry": {"location": {"lat": 42.3324846, "lng": -71.0815454}, "viewport": {"northeast": {"lat": 42.3338183802915, "lng": -71.08021276970848}, "southwest": {"lat": 42.3311204197085, "lng": -71.0829107302915}}}, "icon": "https://maps.gstatic.com/mapfiles/place_api/icons/shopping-71.png", "id": "77f93d386afce578c50f71540d37151d08fb9617", "name": "General Plumber of Roxbury MA", "opening_hours": {"open_now": true}, "photos": [{"height": 1672, "html_attributions": ["<a href=\"https://maps.google.com/maps/contrib/100302154105075686849/photos\">General Plumber of Roxbury MA</a>"], "photo_reference": "CmRaAAAA19l4VqGA1bMwPHrqCoxUwpPXrTGLorxKLIOPQW2a0HjHp7k22RlQVQATRiSbkAOk5xqDvUD85T9ctbhXhJ6juiVWcPx6zHfH_0DKcgS9Q2exdw_dl_GmmW7nUT7CbVkkEhAfwUELRDqZafVDURCH1yO0GhSZetKefnhzI6eM9Fujlr28pdu45w", "width": 1675}], "place_id": "ChIJ6QmsVilF5IkRdPOw9w8TYQI", "plus_code": {"compound_code": "8WJ9+X9 Boston, Massachusetts, United States", "global_code": "87JC8WJ9+X9"}, "rating": 5, "reference": "ChIJ6QmsVilF5IkRdPOw9w8TYQI", "scope": "GOOGLE", "types": ["plumber", "home_goods_store", "store", "point_of_interest", "establishment"], "user_ratings_total": 1, "vicinity": "2083-2089 Washington Street, Roxbury"}, "ChIJgZxPmjt644kRUyfvoFYFo7s": {"geometry": {"location": {"lat": 42.3318959, "lng": -71.0819642}, "viewport": {"northeast": {"lat": 42.3332128802915, "lng": -71.0805643697085}, "southwest": {"lat": 42.3305149197085, "lng": -71.0832623302915}}}, "icon": "https://maps.gstatic.com/mapfiles/place_api/icons/generic_business-71.png", "id": "672a9dacbdc23e6a01f66c6c1fd946b5bec30078", "name": "Trincity Group", "opening_hours": {"open_now": true}, "place_id": "ChIJgZxPmjt644kRUyfvoFYFo7s", "plus_code": {"compound_code": "8WJ9+Q6 Boston, Massachusetts, United States", "global_code": "87JC8WJ9+Q6"}, "reference": "ChIJgZxPmjt644kRUyfvoFYFo7s", "scope": "GOOGLE", "types": ["general_contractor", "point_of_interest", "establishment"], "vicinity": "2129 Washington Street, Roxbury"}, "ChIJVwGNz7p744kRj8MUFzmYBg8": {"geometry": {"location": {"lat": 42.3318959, "lng": -71.0819642}, "viewport": {"northeast": {"lat": 42.3332128802915, "lng": -71.0805643697085}, "southwest": {"lat": 42.3305149197085, "lng": -71.0832623302915}}}, "icon": "https://maps.gstatic.com/mapfiles/place_api/icons/shopping-71.png", "id": "f0dae0b9d9a125d1cff267fbfd3b321b746b2daa", "name": "Boston Home Shoppe", "place_id": "ChIJVwGNz7p744kRj8MUFzmYBg8", "plus_code": {"compound_code": "8WJ9+Q6 Boston, Massachusetts, United States", "global_code": "87JC8WJ9+Q6"}, "reference": "ChIJVwGNz7p744kRj8MUFzmYBg8", "scope": "GOOGLE", "types": ["home_goods_store", "store", "point_of_interest", "establishment"], "vicinity": "2129 Washington Street, Roxbury"}, "ChIJGUCTlzt644kRafmoLSh2-MA": {"geometry": {"location": {"lat": 42.3317346, "lng": -71.0816861}, "viewport": {"northeast": {"lat": 42.3331362302915, "lng": -71.0804207197085}, "southwest": {"lat": 42.3304382697085, "lng": -71.0831186802915}}}, "icon": "https://maps.gstatic.com/mapfiles/place_api/icons/generic_business-71.png", "id": "dcec5bb6ea082266a4ae5bc128dbd948ebf2e09b", "name": "Aga's Highland Tap Room", "opening_hours": {"open_now": true}, "photos": [{"height": 960, "html_attributions": ["<a href=\"https://maps.google.com/maps/contrib/112984425276730804237/photos\">Aga&#39;s Highland Tap Room</a>"], "photo_reference": "CmRaAAAAoKv0-6uJZPh_4x3KoqAV1zWF3usqV6XGVIXQj7fB4cBc3OJdpJ_sVUsr8mzkWP4p16fHntvP24oczb8G2av9oSCF2DZOaIqNK5eVRM-bl-mvBffMzlLT9IaiUAmtx4IlEhAsya4hCPNIE8gJg8DfzNEOGhSLv_VTnx4zSkwSNqUNRwqq3Q6BFQ", "width": 960}], "place_id": "ChIJGUCTlzt644kRafmoLSh2-MA", "plus_code": {"compound_code": "8WJ9+M8 Boston, Massachusetts, United States", "global_code": "87JC8WJ9+M8"}, "rating": 4.1, "reference": "ChIJGUCTlzt644kRafmoLSh2-MA", "scope": "GOOGLE", "types": ["night_club", "bar", "point_of_interest", "establishment"], "user_ratings_total": 14, "vicinity": "2128 Washington Street, Boston"}, "ChIJE7pedDx644kRYdMqeQ_h_Ew": {"geometry": {"location": {"lat": 42.3326835, "lng": -71.0811805}, "viewport": {"northeast": {"lat": 42.3340221302915, "lng": -71.07979161970849}, "southwest": {"lat": 42.3313241697085, "lng": -71.08248958029151}}}, "icon": "https://maps.gstatic.com/mapfiles/place_api/icons/generic_business-71.png", "id": "9149a7e7501f56f33dadb24fdd8f7631942ee63d", "name": "Washington St @ Melnea Cass Blvd", "place_id": "ChIJE7pedDx644kRYdMqeQ_h_Ew", "plus_code": {"compound_code": "8WM9+3G Boston, Massachusetts, United States", "global_code": "87JC8WM9+3G"}, "reference": "ChIJE7pedDx644kRYdMqeQ_h_Ew", "scope": "GOOGLE", "types": ["transit_station", "point_of_interest", "establishment"], "vicinity": "United States"}, "ChIJGzE9DS1l44kRoOhiASS_fHg": {"geometry": {"location": {"lat": 42.3600825, "lng": -71.0588801}, "viewport": {"northeast": {"lat": 42.40081989999999, "lng": -70.749455}, "southwest": {"lat": 42.22788, "lng": -71.191113}}}, "icon": "https://maps.gstatic.com/mapfiles/place_api/icons/geocode-71.png", "id": "06755c25d2b34d13942a4713971756a55b870ced", "name": "Boston", "photos": [{"height": 3024, "html_attributions": ["<a href=\"https://maps.google.com/maps/contrib/104670289779338733432/photos\">Natalia Zalucean</a>"], "photo_reference": "CmRaAAAAMV80rL_RFfhWD2dbpUIAX02ofOaVqBbx1AR1Ygvx3oCmRSLX-XAcvioolVgPn7ZNgwLKtfHRtKokE5Aha2Za2ZjMVgbvLmPfA1P9PcbtxGr9njkXVvGbkDec99aQFNw1EhBth1Ett77WN1ki-LLbE4HNGhSVz0PUez3VcDuA5nI6nl7v5rEyKw", "width": 4032}], "place_id": "ChIJGzE9DS1l44kRoOhiASS_fHg", "reference": "ChIJGzE9DS1l44kRoOhiASS_fHg", "scope": "GOOGLE", "types": ["locality", "political"], "vicinity": "Boston"}}