{"ChIJi3xHkQx644kRN9saLE7iAwI": {"geometry": {"location": {"lat": 42.3496757, "lng": -71.07545999999999}, "viewport": {"northeast": {"lat": 42.3510246302915, "lng": -71.0741109697085}, "southwest": {"lat": 42.3483266697085, "lng": -71.0768089302915}}}, "icon": "https://maps.gstatic.com/mapfiles/place_api/icons/geocode-71.png", "id": "c4f54eb3dd3dcffe0aae9800a331be8589f817cc", "name": "120 St James Ave", "place_id": "ChIJi3xHkQx644kRN9saLE7iAwI", "reference": "ChIJi3xHkQx644kRN9saLE7iAwI", "scope": "GOOGLE", "types": ["route"], "vicinity": "Boston"}, "ChIJ0Twumgx644kROxUKDsjLiho": {"geometry": {"location": {"lat": 42.3499981, "lng": -71.0754975}, "viewport": {"northeast": {"lat": 42.3514207302915, "lng": -71.07387196970849}, "southwest": {"lat": 42.3487227697085, "lng": -71.07656993029151}}}, "icon": "https://maps.gstatic.com/mapfiles/place_api/icons/generic_business-71.png", "id": "e82107a5f4164600a6219c348a5eff44882ad51a", "name": "Fridays at Trinity Recital Series", "place_id": "ChIJ0Twumgx644kROxUKDsjLiho", "plus_code": {"compound_code": "8WXF+XR Boston, Massachusetts, United States", "global_code": "87JC8WXF+XR"}, "reference": "ChIJ0Twumgx644kROxUKDsjLiho", "scope": "GOOGLE", "types": ["point_of_interest", "establishment"], "vicinity": "206 Clarendon Street, Boston"}, "ChIJ0Twumgx644kRICpGiuzUPrQ": {"geometry": {"location": {"lat": 42.349919, "lng": -71.07572789999999}, "viewport": {"northeast": {"lat": 42.3513733302915, "lng": -71.07398331970849}, "southwest": {"lat": 42.3486753697085, "lng": -71.0766812802915}}}, "icon": "https://maps.gstatic.com/mapfiles/place_api/icons/generic_business-71.png", "id": "61a95d6ed97f9f7b28f8a548ef36b89580db0e78", "name": "Go Boston Card at Copley Square", "place_id": "ChIJ0Twumgx644kRICpGiuzUPrQ", "plus_code": {"compound_code": "8WXF+XP Boston, Massachusetts, United States", "global_code": "87JC8WXF+XP"}, "rating": 3.8, "reference": "ChIJ0Twumgx644kRICpGiuzUPrQ", "scope": "GOOGLE", "types": ["travel_agency", "point_of_interest", "establishment"], "user_ratings_total": 6, "vicinity": "206 Clarendon Street, Boston"}, "ChIJ0Twumgx644kR5iSqZ4C7ils": {"geometry": {"location": {"lat": 42.3499449, "lng": -71.07564359999999}, "viewport": {"northeast": {"lat": 42.3512938802915, "lng": -71.07429461970848}, "southwest": {"lat": 42.3485959197085, "lng": -71.0769925802915}}}, "icon": "https://maps.gstatic.com/mapfiles/place_api/icons/generic_business-71.png", "id": "edf97b7347a3b83084d4a618d130e8634f0d6049", "name": "Elizabeth Case, LICSW", "place_id": "ChIJ0Twumgx644kR5iSqZ4C7ils", "plus_code": {"compound_code": "8WXF+XP Boston, Massachusetts, United States", "global_code": "87JC8WXF+XP"}, "reference": "ChIJ0Twumgx644kR5iSqZ4C7ils", "scope": "GOOGLE", "types": ["doctor", "health", "point_of_interest", "establishment"], "vicinity": "206 Clarendon Street, Boston, MA 02116, Boston"}, "ChIJ0Twumgx644kRg-ZE8F_Y6lo": {"geometry": {"location": {"lat": 42.3498942, "lng": -71.07570900000002}, "viewport": {"northeast": {"lat": 42.3512431802915, "lng": -71.07436001970851}, "southwest": {"lat": 42.34854521970851, "lng": -71.07705798029151}}}, "icon": "https://maps.gstatic.com/mapfiles/place_api/icons/generic_business-71.png", "id": "9984452a91ed423432b2142dea4a948eae40953e", "name": "Glynn K. Forkey, LCSW", "place_id": "ChIJ0Twumgx644kRg-ZE8F_Y6lo", "plus_code": {"compound_code": "8WXF+XP Boston, Massachusetts, United States", "global_code": "87JC8WXF+XP"}, "reference": "ChIJ0Twumgx644kRg-ZE8F_Y6lo", "scope": "GOOGLE", "types": ["doctor", "health", "point_of_interest", "establishment"], "vicinity": "206 Clarendon Street, Boston, MA 02116, Boston"}, "ChIJmfnXbAt644kR_ws78axZoEc": {"geometry": {"location": {"lat": 42.3499981, "lng": -71.0754975}, "viewport": {"northeast": {"lat": 42.3514207302915, "lng": -71.07387196970849}, "southwest": {"lat": 42.3487227697085, "lng": -71.07656993029151}}}, "icon": "https://maps.gstatic.com/mapfiles/place_api/icons/generic_business-71.png", "id": "e2e166d4b240bdaad0e529558ec9056220bb7672", "name": "Trinity Boston Foundation", "place_id": "ChIJmfnXbAt644kR_ws78axZoEc", "plus_code": {"compound_code": "8WXF+XR Boston, Massachusetts, United States", "global_code": "87JC8WXF+XR"}, "rating": 5, "reference": "ChIJmfnXbAt644kR_ws78axZoEc", "scope": "GOOGLE", "types": ["point_of_interest", "establishment"], "user_ratings_total": 1, "vicinity": "206 Clarendon Street, Boston"}, "ChIJj4ThiAx644kRbCvrkTyWGgY": {"geometry": {"location": {"lat": 42.3499893, "lng": -71.0754961}, "viewport": {"northeast": {"lat": 42.35141228029151, "lng": -71.0738692697085}, "southwest": {"lat": 42.34871431970851, "lng": -71.0765672302915}}}, "icon": "https://maps.gstatic.com/mapfiles/place_api/icons/worship_general-71.png", "id": "bb672a93ec809bd949fab4abd635e694458e4b5c", "name": "Trinity Church in the City of Boston", "opening_hours": {"open_now": false}, "photos": [{"height": 3120, "html_attributions": ["<a href=\"https://maps.google.com/maps/contrib/107593944871768622490/photos\">Thomas Rajan</a>"], "photo_reference": "CmRaAAAAESpsVFizeJnn4L2eunfIfOk7Rx7YPosNiXfUVvJVdsI8bskudQhEYY7HHnptf4nmD3fVFiXbMkGZ6gz9eLDmVK8LvLJq8KCSxN7g-Wt8pbIMFFnyXlsT7OILVCJf9fCbEhD6VCYCPUJPeNPLnpYkiJVYGhQOQs8EeMbo1XOLwJMeK19maXCorQ", "width": 4160}], "place_id": "ChIJj4ThiAx644kRbCvrkTyWGgY", "plus_code": {"compound_code": "8WXF+XR Boston, Massachusetts, United States", "global_code": "87JC8WXF+XR"}, "rating": 4.5, "reference": "ChIJj4ThiAx644kRbCvrkTyWGgY", "scope": "GOOGLE", "types": ["church", "place_of_worship", "point_of_interest", "establishment"], "user_ratings_total": 263, "vicinity": "206 Clarendon Street, Boston"}, "ChIJ0Twumgx644kRJ8PvIBZCSWY": {"geometry": {"location": {"lat": 42.3499097, "lng": -71.07561749999999}, "viewport": {"northeast": {"lat": 42.3512586802915, "lng": -71.07426851970848}, "southwest": {"lat": 42.3485607197085, "lng": -71.0769664802915}}}, "icon": "https://maps.gstatic.com/mapfiles/place_api/icons/generic_business-71.png", "id": "a600e7aaf4e562f99be287fe2847f33c8527fcc5", "name": "Jessica Leffler, LMHC", "place_id": "ChIJ0Twumgx644kRJ8PvIBZCSWY", "plus_code": {"compound_code": "8WXF+XQ Boston, Massachusetts, United States", "global_code": "87JC8WXF+XQ"}, "reference": "ChIJ0Twumgx644kRJ8PvIBZCSWY", "scope": "GOOGLE", "types": ["health", "point_of_interest", "establishment"], "vicinity": "206 Clarendon Street, Boston, MA 02116, Boston"}, "ChIJ__8_mgx644kROo_aQcKX0CU": {"geometry": {"location": {"lat": 42.3499981, "lng": -71.0754974}, "viewport": {"northeast": {"lat": 42.3514206802915, "lng": -71.0738719197085}, "southwest": {"lat": 42.3487227197085, "lng": -71.07656988029152}}}, "icon": "https://maps.gstatic.com/mapfiles/place_api/icons/worship_general-71.png", "id": "84bb60cba7aceabf63aa5fba99f8088576ba224b", "name": "TRINITY CHURCH BOSTON", "photos": [{"height": 3982, "html_attributions": ["<a href=\"https://maps.google.com/maps/contrib/108202128970687429797/photos\">david baker</a>"], "photo_reference": "CmRaAAAARA0ubwqm2X2b13SG5X3kte27eUE50bN2mSiFKARyNZZTd6osqv3R0SQy385Tswn3kjGh_pUtoZrY_c9tAM6bmzffMCHCu6rmppLlST2iDBLMOxXtdCCG1N4oOLb-GyyeEhCsBMAwPu2tYAiHdLfq0wkAGhR4miFQcdZ-sYfGzjbpwrBC0QsT1g", "width": 7080}], "place_id": "ChIJ__8_mgx644kROo_aQcKX0CU", "plus_code": {"compound_code": "8WXF+XR Boston, Massachusetts, United States", "global_code": "87JC8WXF+XR"}, "reference": "ChIJ__8_mgx644kROo_aQcKX0CU", "scope": "GOOGLE", "types": ["church", "place_of_worship", "point_of_interest", "establishment"], "vicinity": "206 Clarendon Street, Boston"}, "ChIJGzE9DS1l44kRoOhiASS_fHg": {"geometry": {"location": {"lat": 42.3600825, "lng": -71.0588801}, "viewport": {"northeast": {"lat": 42.40081989999999, "lng": -70.749455}, "southwest": {"lat": 42.22788, "lng": -71.191113}}}, "icon": "https://maps.gstatic.com/mapfiles/place_api/icons/geocode-71.png", "id": "06755c25d2b34d13942a4713971756a55b870ced", "name": "Boston", "photos": [{"height": 3024, "html_attributions": ["<a href=\"https://maps.google.com/maps/contrib/104670289779338733432/photos\">Natalia Zalucean</a>"], "photo_reference": "CmRaAAAABe8HN5pJkcmxylQ9KCHkDTm4awWz1IMznYlCF8tgkRU2ASlD0rVavSGb8eyTH7pI_OjF952-CjfgSZEjCx-jzsfUwadHUbV3Nlc1JKggRokCyPmU4-RM3dyR-6pT2e-5EhAso2YxRASvfoskwablv17lGhSUooDoCvNv7PhcWGapt-Ru8Mbrtw", "width": 4032}], "place_id": "ChIJGzE9DS1l44kRoOhiASS_fHg", "reference": "ChIJGzE9DS1l44kRoOhiASS_fHg", "scope": "GOOGLE", "types": ["locality", "political"], "vicinity": "Boston"}}