{"ChIJGzE9DS1l44kRoOhiASS_fHg": {"geometry": {"location": {"lat": 42.3600825, "lng": -71.0588801}, "viewport": {"northeast": {"lat": 42.40081989999999, "lng": -70.749455}, "southwest": {"lat": 42.22788, "lng": -71.191113}}}, "icon": "https://maps.gstatic.com/mapfiles/place_api/icons/geocode-71.png", "id": "06755c25d2b34d13942a4713971756a55b870ced", "name": "Boston", "photos": [{"height": 3024, "html_attributions": ["<a href=\"https://maps.google.com/maps/contrib/104670289779338733432/photos\">Natalia Zalucean</a>"], "photo_reference": "CmRaAAAAak3MHwov0nrz2nl1WvsRkodgyzuJP6tyRssCh31-7kmxHyyg6MFdJzq4gLFZW7GUYAXnHrCNMvAtsKVP8ZhG2ouvHij_q_EYkvT-JaGd-g-UAeId6YXMAVaa52__OBqaEhCwKMqjtYmiOuKMCWOPNNOcGhRFkNTF6r2smk7G96nEMX7-d-UaFQ", "width": 4032}], "place_id": "ChIJGzE9DS1l44kRoOhiASS_fHg", "reference": "ChIJGzE9DS1l44kRoOhiASS_fHg", "scope": "GOOGLE", "types": ["locality", "political"], "vicinity": "Boston"}, "ChIJcy1A3nZ644kR2X5QQDdh-B4": {"geometry": {"location": {"lat": 42.3497924, "lng": -71.06472649999999}, "viewport": {"northeast": {"lat": 42.3511017802915, "lng": -71.0636152197085}, "southwest": {"lat": 42.3484038197085, "lng": -71.0663131802915}}}, "icon": "https://maps.gstatic.com/mapfiles/place_api/icons/generic_business-71.png", "id": "47efba8c1fb06a25127f86889710b61c7ae3ba1b", "name": "Tremont Street Garage", "place_id": "ChIJcy1A3nZ644kR2X5QQDdh-B4", "reference": "ChIJcy1A3nZ644kR2X5QQDdh-B4", "scope": "GOOGLE", "types": ["parking", "premise", "point_of_interest", "establishment"], "vicinity": "Boston"}, "ChIJv2lgRnd644kRhhHF-83wGPc": {"geometry": {"location": {"lat": 42.3500641, "lng": -71.0624052}, "viewport": {"northeast": {"lat": 42.3525502, "lng": -71.058036}, "southwest": {"lat": 42.3469363, "lng": -71.06781}}}, "icon": "https://maps.gstatic.com/mapfiles/place_api/icons/geocode-71.png", "id": "7756c8dc8a59b16de3fa6abc228b6140592c5494", "name": "Chinatown", "photos": [{"height": 3036, "html_attributions": ["<a href=\"https://maps.google.com/maps/contrib/114028827606383148991/photos\">Swe Nar</a>"], "photo_reference": "CmRaAAAAGjiVFNlph9GJZvr0xhunvGUagZ3n45WhYKhVP45CXaEAjPAzE3YbWSD7kWYvXxAwlUAYhSjCLic1AEjU-_-4uyjdZNRVSqOJR-zRlIqxhY3ybNf9sRj184mGeNqVZ5YvEhDKzWOEtVO5AKe8-eGLA7fvGhS00DqYEPugF7LxcCDn5NmB57fyRw", "width": 4048}], "place_id": "ChIJv2lgRnd644kRhhHF-83wGPc", "reference": "ChIJv2lgRnd644kRhhHF-83wGPc", "scope": "GOOGLE", "types": ["neighborhood", "political"], "vicinity": "Boston"}}