{"ChIJGzE9DS1l44kRoOhiASS_fHg": {"geometry": {"location": {"lat": 42.3600825, "lng": -71.0588801}, "viewport": {"northeast": {"lat": 42.40081989999999, "lng": -70.749455}, "southwest": {"lat": 42.22788, "lng": -71.191113}}}, "icon": "https://maps.gstatic.com/mapfiles/place_api/icons/geocode-71.png", "id": "06755c25d2b34d13942a4713971756a55b870ced", "name": "Boston", "photos": [{"height": 3024, "html_attributions": ["<a href=\"https://maps.google.com/maps/contrib/104670289779338733432/photos\">Natalia Zalucean</a>"], "photo_reference": "CmRaAAAAEhfQl_O90WCNmMcnBBD2aaLew7sD1FKO21RpwodkAX5KlKi_O0WiL_LcNa5O9_DfpXFVWffFmGQarc67ssOAayURZeBNtqbDVh4N8q5h81hQ5Yem3OEMiruO2Mxu72EkEhBTwn0BawmkUIPrDgSJJax0GhQqWKpipPdhwGsBA4u7NTCNGLcREA", "width": 4032}], "place_id": "ChIJGzE9DS1l44kRoOhiASS_fHg", "reference": "ChIJGzE9DS1l44kRoOhiASS_fHg", "scope": "GOOGLE", "types": ["locality", "political"], "vicinity": "Boston"}, "ChIJ2TruSRx844kRugjd45P2hA0": {"geometry": {"location": {"lat": 42.26927730000001, "lng": -71.09408300000001}, "viewport": {"northeast": {"lat": 42.2706223802915, "lng": -71.09258796970849}, "southwest": {"lat": 42.26792441970851, "lng": -71.09528593029151}}}, "icon": "https://maps.gstatic.com/mapfiles/place_api/icons/shopping-71.png", "id": "c3f9bbe209e9f1e337481c3d362bcf8b0b341382", "name": "Frugal Furniture Outlet", "opening_hours": {"open_now": true}, "photos": [{"height": 2400, "html_attributions": ["<a href=\"https://maps.google.com/maps/contrib/104987135350106911735/photos\">Frugal Furniture Outlet</a>"], "photo_reference": "CmRaAAAAVILRtFMObAmCGLDOmj_MTa-fdK8rBadg4UbH6ZXbuNu2wCwBxmKK5T6Kfm0mBnsEnRYr-exC1qpkKKW0ejSc-ZAVpQLgTeTC4U3tHta4RrZ7o4dDOdTqp42tc4LIBb7lEhCUDvSkpNaiYiaAf9Y_ExasGhSQgAZpB3KLFOLzvLuYXaAD7YZ6NA", "width": 3614}], "place_id": "ChIJ2TruSRx844kRugjd45P2hA0", "plus_code": {"compound_code": "7W94+P9 Boston, Massachusetts, United States", "global_code": "87JC7W94+P9"}, "rating": 4.6, "reference": "ChIJ2TruSRx844kRugjd45P2hA0", "scope": "GOOGLE", "types": ["furniture_store", "home_goods_store", "store", "point_of_interest", "establishment"], "user_ratings_total": 8, "vicinity": "1599 Blue Hill Avenue, Mattapan"}, "ChIJfcJaFgN844kRwJUS9lIFN7Y": {"geometry": {"location": {"lat": 42.26922010000001, "lng": -71.09404719999999}, "viewport": {"northeast": {"lat": 42.2705656802915, "lng": -71.09257146970849}, "southwest": {"lat": 42.2678677197085, "lng": -71.0952694302915}}}, "icon": "https://maps.gstatic.com/mapfiles/place_api/icons/generic_business-71.png", "id": "f97b06bcb70ddfe9eb97fa9b01092090860cba92", "name": "Haitian-American Public Health Initiatives", "place_id": "ChIJfcJaFgN844kRwJUS9lIFN7Y", "plus_code": {"compound_code": "7W94+M9 Boston, Massachusetts, United States", "global_code": "87JC7W94+M9"}, "rating": 3, "reference": "ChIJfcJaFgN844kRwJUS9lIFN7Y", "scope": "GOOGLE", "types": ["point_of_interest", "establishment"], "user_ratings_total": 2, "vicinity": "1603 Blue Hill Avenue, Mattapan"}, "ChIJ1aKJnQd844kRhKw4NxUCnrc": {"geometry": {"location": {"lat": 42.2771417, "lng": -71.0913748}, "viewport": {"northeast": {"lat": 42.298298, "lng": -71.0675939}, "southwest": {"lat": 42.2628979, "lng": -71.1091958}}}, "icon": "https://maps.gstatic.com/mapfiles/place_api/icons/geocode-71.png", "id": "7c0a81020a91ce611773eac0f6b1e8dc62406dab", "name": "Mattapan", "photos": [{"height": 1932, "html_attributions": ["<a href=\"https://maps.google.com/maps/contrib/105123441827892866459/photos\">Alonzo Mcneal</a>"], "photo_reference": "CmRaAAAArYq8RtU_7l6en4h_X3YXO4FCRl60jrxHUEz3dhPGWapbomHzrVTAp-h6uomGN-5kE7ZHbLIC9kgCYukbo_rapnc7Ocygxv4luT_ee1LCgFvO00N3oFWeBsGeXDJ82XCiEhDmGMOItuR1XGdUJBjOldnsGhRmVmdi9YShkBdfH0kGiBmxwesGHg", "width": 2576}], "place_id": "ChIJ1aKJnQd844kRhKw4NxUCnrc", "reference": "ChIJ1aKJnQd844kRhKw4NxUCnrc", "scope": "GOOGLE", "types": ["neighborhood", "political"], "vicinity": "Dorchester Center"}}