{"ChIJGzE9DS1l44kRoOhiASS_fHg": {"geometry": {"location": {"lat": 42.3600825, "lng": -71.0588801}, "viewport": {"northeast": {"lat": 42.40081989999999, "lng": -70.749455}, "southwest": {"lat": 42.22788, "lng": -71.191113}}}, "icon": "https://maps.gstatic.com/mapfiles/place_api/icons/geocode-71.png", "id": "06755c25d2b34d13942a4713971756a55b870ced", "name": "Boston", "photos": [{"height": 3024, "html_attributions": ["<a href=\"https://maps.google.com/maps/contrib/104670289779338733432/photos\">Natalia Zalucean</a>"], "photo_reference": "CmRaAAAAWdWkdea8uOTsiVWUbJBLffqiqfyUdOWDzS9p8_NXScMyT_ZSnH7otA47xrQ9hMy3nZxXOnFQO5N6f7_rku1_Q8NgMYSpWbtxM4XYMZNC_UaSjjj4G0qV5O-8V8cJvEWgEhA603HFvbPot20RGOtF8eAxGhQ1EItI6T9Ai_GBc0adVxWsiD3ITw", "width": 4032}], "place_id": "ChIJGzE9DS1l44kRoOhiASS_fHg", "reference": "ChIJGzE9DS1l44kRoOhiASS_fHg", "scope": "GOOGLE", "types": ["locality", "political"], "vicinity": "Boston"}, "ChIJG_L2R3Z644kRAqyDqnT7MKY": {"geometry": {"location": {"lat": 42.3522691, "lng": -71.06540020000001}, "viewport": {"northeast": {"lat": 42.3536970802915, "lng": -71.0640423197085}, "southwest": {"lat": 42.3509991197085, "lng": -71.06674028029151}}}, "icon": "https://maps.gstatic.com/mapfiles/place_api/icons/generic_business-71.png", "id": "14539f987350f381063112cd24ab118bae6e3093", "name": "Emerson Colonial Theatre", "photos": [{"height": 3932, "html_attributions": ["<a href=\"https://maps.google.com/maps/contrib/105466604668705706779/photos\">Ian Suarez</a>"], "photo_reference": "CmRaAAAAYljAaUmti-wGvt3-x1BzAvydiJ6qzvNXyLbc4g_J6UwXAb5lWGweA3USA0itTQ6-gGcbhLwv09e0cznhfD3pizK7BNSYHrIICk31ZFaZmSuHmsga-zSqV5XTMDsXGwZ6EhASFU_-k9AEG6kKyNjW3byBGhTB4tWeMN9Jy9G-WWOz03L652Ffuw", "width": 6044}], "place_id": "ChIJG_L2R3Z644kRAqyDqnT7MKY", "plus_code": {"compound_code": "9W2M+WR Boston, Massachusetts, United States", "global_code": "87JC9W2M+WR"}, "rating": 4.5, "reference": "ChIJG_L2R3Z644kRAqyDqnT7MKY", "scope": "GOOGLE", "types": ["point_of_interest", "establishment"], "user_ratings_total": 359, "vicinity": "106 Boylston Street, Boston"}, "ChIJOTcnSHZ644kRuZY0fhCOV-8": {"geometry": {"location": {"lat": 42.3520436, "lng": -71.0653243}, "viewport": {"northeast": {"lat": 42.3535812302915, "lng": -71.06395401970849}, "southwest": {"lat": 42.3508832697085, "lng": -71.0666519802915}}}, "icon": "https://maps.gstatic.com/mapfiles/place_api/icons/generic_business-71.png", "id": "1a1d554bb0b3bda480bffadb936557b4a205ecda", "name": "Huang Jen Hsian DDS", "place_id": "ChIJOTcnSHZ644kRuZY0fhCOV-8", "plus_code": {"compound_code": "9W2M+RV Boston, Massachusetts, United States", "global_code": "87JC9W2M+RV"}, "reference": "ChIJOTcnSHZ644kRuZY0fhCOV-8", "scope": "GOOGLE", "types": ["dentist", "health", "point_of_interest", "establishment"], "vicinity": "100 Boylston Street # 1080, Boston"}, "ChIJOTcnSHZ644kRACU8WvLr4SE": {"geometry": {"location": {"lat": 42.3523036, "lng": -71.0653043}, "viewport": {"northeast": {"lat": 42.35371148029149, "lng": -71.0639486697085}, "southwest": {"lat": 42.35101351970849, "lng": -71.0666466302915}}}, "icon": "https://maps.gstatic.com/mapfiles/place_api/icons/generic_business-71.png", "id": "d4d6955ae1b5b5211e4f6fade6e78d2f37866023", "name": "Nguyen S Xuan DDS", "place_id": "ChIJOTcnSHZ644kRACU8WvLr4SE", "plus_code": {"compound_code": "9W2M+WV Boston, Massachusetts, United States", "global_code": "87JC9W2M+WV"}, "reference": "ChIJOTcnSHZ644kRACU8WvLr4SE", "scope": "GOOGLE", "types": ["dentist", "health", "point_of_interest", "establishment"], "vicinity": "100 Boylston Street, Boston"}, "ChIJOTcnSHZ644kRJ8amSJKJHqU": {"geometry": {"location": {"lat": 42.352328, "lng": -71.0652641}, "viewport": {"northeast": {"lat": 42.3537225302915, "lng": -71.06390996970849}, "southwest": {"lat": 42.3510245697085, "lng": -71.06660793029151}}}, "icon": "https://maps.gstatic.com/mapfiles/place_api/icons/generic_business-71.png", "id": "99b50f2537c34731dc0842b7bf31cb4bf336148d", "name": "Dr. Doreen A. Chong, DDS", "photos": [{"height": 2268, "html_attributions": ["<a href=\"https://maps.google.com/maps/contrib/118097116090428104158/photos\">Bobby Guliani</a>"], "photo_reference": "CmRaAAAAFP7q33HTAMt1TcFqGvlNrEnxA07vu7NqFHUNxZovao-ftpfOZTl0H0goWmDE6ooAHazpXTQ5wipNMpF2BX7sdPv4Qq4lbM6vFkUgMmPmQYRLWvXOCH9D7osse8mKU39oEhC4F3I5OVFISaY950cjf0V_GhSUHTX94AT7P8bbUgLhL02qntYwxg", "width": 4032}], "place_id": "ChIJOTcnSHZ644kRJ8amSJKJHqU", "plus_code": {"compound_code": "9W2M+WV Boston, Massachusetts, United States", "global_code": "87JC9W2M+WV"}, "reference": "ChIJOTcnSHZ644kRJ8amSJKJHqU", "scope": "GOOGLE", "types": ["doctor", "health", "point_of_interest", "establishment"], "vicinity": "100 Boylston Street #1060, Boston"}, "ChIJOTcnSHZ644kR849m1-Uari8": {"geometry": {"location": {"lat": 42.352328, "lng": -71.0652641}, "viewport": {"northeast": {"lat": 42.3537225302915, "lng": -71.06390996970849}, "southwest": {"lat": 42.3510245697085, "lng": -71.06660793029151}}}, "icon": "https://maps.gstatic.com/mapfiles/place_api/icons/generic_business-71.png", "id": "cd357988a6f4d3be7285fcde870cd6b81280a211", "name": "Dr. Richard Mooradkanian, DMD", "place_id": "ChIJOTcnSHZ644kR849m1-Uari8", "plus_code": {"compound_code": "9W2M+WV Boston, Massachusetts, United States", "global_code": "87JC9W2M+WV"}, "reference": "ChIJOTcnSHZ644kR849m1-Uari8", "scope": "GOOGLE", "types": ["dentist", "health", "point_of_interest", "establishment"], "vicinity": "100 Boylston Street #1040, Boston"}, "ChIJ7b7WSnZ644kR914LZDjpMdw": {"geometry": {"location": {"lat": 42.352207, "lng": -71.06517199999999}, "viewport": {"northeast": {"lat": 42.35365883029149, "lng": -71.0638115197085}, "southwest": {"lat": 42.35096086970849, "lng": -71.0665094802915}}}, "icon": "https://maps.gstatic.com/mapfiles/place_api/icons/shopping-71.png", "id": "9321a865a20711ada9071830bc9cdb9163e6f1b9", "name": "Emerson College Print-Copy Center", "opening_hours": {"open_now": true}, "photos": [{"height": 683, "html_attributions": ["<a href=\"https://maps.google.com/maps/contrib/104950542351414955877/photos\">Emerson College Print-Copy Center</a>"], "photo_reference": "CmRaAAAA6EGwwRF1sIDLXxPnevICHixfTKbXhq1BzS4PQbbTCS1NaJnUIIJvQJF9svA1hQkj8SbSSDDfvEKdGgVEGsF5tdOa6wIHahy_nk2rZUhV3YK9QeTAlawH1DoAwzjJXnYPEhAQvgagj335HO21APdnh2MxGhRsDiD00WWWia79yqGJueeoXPiJMA", "width": 1024}], "place_id": "ChIJ7b7WSnZ644kR914LZDjpMdw", "plus_code": {"compound_code": "9W2M+VW Boston, Massachusetts, United States", "global_code": "87JC9W2M+VW"}, "rating": 3.3, "reference": "ChIJ7b7WSnZ644kR914LZDjpMdw", "scope": "GOOGLE", "types": ["store", "point_of_interest", "establishment"], "user_ratings_total": 3, "vicinity": "98A Boylston Street, Boston"}, "ChIJATJpSHZ644kRXqWYqJTHcXc": {"geometry": {"location": {"lat": 42.3522416, "lng": -71.0653055}, "viewport": {"northeast": {"lat": 42.3536803302915, "lng": -71.06394641970849}, "southwest": {"lat": 42.3509823697085, "lng": -71.0666443802915}}}, "icon": "https://maps.gstatic.com/mapfiles/place_api/icons/school-71.png", "id": "fa2b87389e9104997df1a4455e4b2ce0f67b2b87", "name": "Emerson College - Colonial Building", "opening_hours": {"open_now": true}, "photos": [{"height": 2268, "html_attributions": ["<a href=\"https://maps.google.com/maps/contrib/118097116090428104158/photos\">Bobby Guliani</a>"], "photo_reference": "CmRaAAAAEUs_6QG6vXAHRjHz81MuoQCmIIOzYUm7ykgM_cJDqBAus5Z47hzM3DTqcwLL3empXkRYaqGFwoZqN3mlzL-gzKjleIbmKznmxUWIg1UaLjKXVe5PXELV5pw104CNOuCYEhDGhIQcN_lLVl8kHz-LePbGGhS_-xKTtc6jLPClPYLzr4_--V1y-Q", "width": 4032}], "place_id": "ChIJATJpSHZ644kRXqWYqJTHcXc", "plus_code": {"compound_code": "9W2M+VV Boston, Massachusetts, United States", "global_code": "87JC9W2M+VV"}, "reference": "ChIJATJpSHZ644kRXqWYqJTHcXc", "scope": "GOOGLE", "types": ["school", "point_of_interest", "establishment"], "vicinity": "100 Boylston Street, Boston"}, "ChIJBz7eXHZ644kRyvBRvw8TfyU": {"geometry": {"location": {"lat": 42.3520853, "lng": -71.0653209}, "viewport": {"northeast": {"lat": 42.3534470802915, "lng": -71.0643043197085}, "southwest": {"lat": 42.3507491197085, "lng": -71.0670022802915}}}, "icon": "https://maps.gstatic.com/mapfiles/place_api/icons/generic_business-71.png", "id": "743e92eadd6c5f69cb364035dfcf897fc61b8c87", "name": "Semel Theater", "photos": [{"height": 3024, "html_attributions": ["<a href=\"https://maps.google.com/maps/contrib/117613761928810100334/photos\">Jeffrey Doherty</a>"], "photo_reference": "CmRaAAAA1Hdmb3ip8yFi_AbhuESgsEdo7_lKWV_IstiLrbZzSTO0LAYbW5GWaqtVsoUCxlbsdFcXQrWt46cYYBl3QJJIptuSGYsw_GVkcA1kBrjMujRWTHUtCy8qOsBddZbSHPFVEhC8qic6RpzxrzPreYwZ7BmEGhS6SId6ZFI7MU2OrqfbIo5sshwbIg", "width": 4032}], "place_id": "ChIJBz7eXHZ644kRyvBRvw8TfyU", "plus_code": {"compound_code": "9W2M+RV Boston, Massachusetts, United States", "global_code": "87JC9W2M+RV"}, "rating": 4.4, "reference": "ChIJBz7eXHZ644kRyvBRvw8TfyU", "scope": "GOOGLE", "types": ["point_of_interest", "establishment"], "user_ratings_total": 5, "vicinity": "10 Boylston Place, Boston"}, "ChIJOTcnSHZ644kRj8xgL-Qr9Ds": {"geometry": {"location": {"lat": 42.3523036, "lng": -71.0653043}, "viewport": {"northeast": {"lat": 42.35371148029149, "lng": -71.0639486697085}, "southwest": {"lat": 42.35101351970849, "lng": -71.0666466302915}}}, "icon": "https://maps.gstatic.com/mapfiles/place_api/icons/generic_business-71.png", "id": "61b313d24cbaea4d2acc64338010412b63cdef55", "name": "Community Health Center Capital", "place_id": "ChIJOTcnSHZ644kRj8xgL-Qr9Ds", "plus_code": {"compound_code": "9W2M+WV Boston, Massachusetts, United States", "global_code": "87JC9W2M+WV"}, "reference": "ChIJOTcnSHZ644kRj8xgL-Qr9Ds", "scope": "GOOGLE", "types": ["health", "point_of_interest", "establishment"], "vicinity": "10th, 40 Court Street, Boston"}, "ChIJOTcnSHZ644kRB95MoX5Wzwg": {"geometry": {"location": {"lat": 42.3523036, "lng": -71.0653043}, "viewport": {"northeast": {"lat": 42.35371148029149, "lng": -71.0639486697085}, "southwest": {"lat": 42.35101351970849, "lng": -71.0666466302915}}}, "icon": "https://maps.gstatic.com/mapfiles/place_api/icons/generic_business-71.png", "id": "8975f5d6c8c1e1e244c7e6fc6e35b8a53e824a44", "name": "Mesnick Jack", "place_id": "ChIJOTcnSHZ644kRB95MoX5Wzwg", "plus_code": {"compound_code": "9W2M+WV Boston, Massachusetts, United States", "global_code": "87JC9W2M+WV"}, "reference": "ChIJOTcnSHZ644kRB95MoX5Wzwg", "scope": "GOOGLE", "types": ["insurance_agency", "point_of_interest", "establishment"], "vicinity": "100 Boylston Street, Boston"}, "ChIJo30qZQx644kRE3gzw6j9Td0": {"geometry": {"location": {"lat": 42.35233789999999, "lng": -71.06536059999999}, "viewport": {"northeast": {"lat": 42.3537304802915, "lng": -71.06400671970847}, "southwest": {"lat": 42.3510325197085, "lng": -71.0667046802915}}}, "icon": "https://maps.gstatic.com/mapfiles/place_api/icons/generic_business-71.png", "id": "114eb8ad954d0f7226b7ab7c472755b567ad03f0", "name": "Agents of Marketing", "photos": [{"height": 403, "html_attributions": ["<a href=\"https://maps.google.com/maps/contrib/112685757020263136332/photos\">Agents of Marketing</a>"], "photo_reference": "CmRaAAAA5DVvgrnFtbW6mGxf0SMY4pezQe1k-rLFjPKOVtmye5Tjvfwy15ZB7Sy8bejWG4htEL5aWHxTx8TOU2Kx6NfPIzHZG5ANGzRz-K92QBdwOTdKCPKOY_7smXyUuQqCXJX8EhAEi_qvLKPyxXX8NCbEwAUgGhRvcQmTyRoj99q80C9cD4JC2PV1Pg", "width": 740}], "place_id": "ChIJo30qZQx644kRE3gzw6j9Td0", "plus_code": {"compound_code": "9W2M+WV Boston, Massachusetts, United States", "global_code": "87JC9W2M+WV"}, "reference": "ChIJo30qZQx644kRE3gzw6j9Td0", "scope": "GOOGLE", "types": ["point_of_interest", "establishment"], "vicinity": "104 Boylston Street, Boston"}, "ChIJlx_cR3Z644kRBV97oK3TNVY": {"geometry": {"location": {"lat": 42.3522691, "lng": -71.06540020000001}, "viewport": {"northeast": {"lat": 42.3536970802915, "lng": -71.0640423197085}, "southwest": {"lat": 42.3509991197085, "lng": -71.06674028029151}}}, "icon": "https://maps.gstatic.com/mapfiles/place_api/icons/generic_business-71.png", "id": "d73cf7f80d4c3e9926c6811fc643ccadc7f95b7d", "name": "Haunted Boston Ghost Tour", "photos": [{"height": 2048, "html_attributions": ["<a href=\"https://maps.google.com/maps/contrib/112120900009568566885/photos\">Haley Herfurth</a>"], "photo_reference": "CmRaAAAAu5fDEHGSCN19NQqLRkDv_dQ3S2EXi8C6wO7DwtsaEky9rbyShVBLs_jmmkw69jj2Uqb8IJ9GGSknsO69456ABdc_4S2PPMIs92Jc2bvSjrYrOEHqVCJOFO3ASG_mxvlfEhDgDQ0inr_7fbzHWm0-bDFuGhR1asksUz12oGbjxDA9g65zUpgvFQ", "width": 1536}], "place_id": "ChIJlx_cR3Z644kRBV97oK3TNVY", "plus_code": {"compound_code": "9W2M+WR Boston, Massachusetts, United States", "global_code": "87JC9W2M+WR"}, "rating": 4.7, "reference": "ChIJlx_cR3Z644kRBV97oK3TNVY", "scope": "GOOGLE", "types": ["point_of_interest", "establishment"], "user_ratings_total": 28, "vicinity": "106 Boylston Street, Boston"}, "ChIJU8QgSHZ644kR8tmuVUfAVCI": {"geometry": {"location": {"lat": 42.3523036, "lng": -71.0653043}, "viewport": {"northeast": {"lat": 42.35371148029149, "lng": -71.0639486697085}, "southwest": {"lat": 42.35101351970849, "lng": -71.0666466302915}}}, "icon": "https://maps.gstatic.com/mapfiles/place_api/icons/generic_business-71.png", "id": "45d8d72c9debcf7c3668b944517d7e403c815742", "name": "Trigen Boston Energy Corporation", "place_id": "ChIJU8QgSHZ644kR8tmuVUfAVCI", "plus_code": {"compound_code": "9W2M+WV Boston, Massachusetts, United States", "global_code": "87JC9W2M+WV"}, "reference": "ChIJU8QgSHZ644kR8tmuVUfAVCI", "scope": "GOOGLE", "types": ["point_of_interest", "establishment"], "vicinity": "100 Boylston Street, Boston"}, "ChIJ5SnsN3Z644kRctvL31IaVZY": {"geometry": {"location": {"lat": 42.3523036, "lng": -71.0653043}, "viewport": {"northeast": {"lat": 42.35371148029149, "lng": -71.0639486697085}, "southwest": {"lat": 42.35101351970849, "lng": -71.0666466302915}}}, "icon": "https://maps.gstatic.com/mapfiles/place_api/icons/generic_business-71.png", "id": "4a9b2bb4fe6a5b9bf681652d0708b6a9aa5436cd", "name": "Kaleidoscope Art & Entertainment", "opening_hours": {"open_now": true}, "photos": [{"height": 2268, "html_attributions": ["<a href=\"https://maps.google.com/maps/contrib/118097116090428104158/photos\">Bobby Guliani</a>"], "photo_reference": "CmRaAAAAw_UnVV884rBlAjlP08bhEa-1wVT5ofOhvVBOP4NoqY9BPMznflCw6L5MygCkouYPxhS_Ivdq-g6xu_TbzQ9AZeF5RmzCYWsjNM-rJw6EOpm8dxooPM9jztAktPkPwexPEhCpHZidZqNQs4ZfbYoPI43HGhQ3IVv4LAagVkJReAojvijfx7e5kw", "width": 4032}], "place_id": "ChIJ5SnsN3Z644kRctvL31IaVZY", "plus_code": {"compound_code": "9W2M+WV Boston, Massachusetts, United States", "global_code": "87JC9W2M+WV"}, "rating": 5, "reference": "ChIJ5SnsN3Z644kRctvL31IaVZY", "scope": "GOOGLE", "types": ["point_of_interest", "food", "establishment"], "user_ratings_total": 13, "vicinity": "100 Boylston Street, Boston"}, "ChIJOTcnSHZ644kRnUTwDGyg2qU": {"geometry": {"location": {"lat": 42.3523036, "lng": -71.0653043}, "viewport": {"northeast": {"lat": 42.35371148029149, "lng": -71.0639486697085}, "southwest": {"lat": 42.35101351970849, "lng": -71.0666466302915}}}, "icon": "https://maps.gstatic.com/mapfiles/place_api/icons/generic_business-71.png", "id": "d17bb0b967ce418bfc3907cddc05cde0993bc173", "name": "Donadio Georgianna", "place_id": "ChIJOTcnSHZ644kRnUTwDGyg2qU", "plus_code": {"compound_code": "9W2M+WV Boston, Massachusetts, United States", "global_code": "87JC9W2M+WV"}, "reference": "ChIJOTcnSHZ644kRnUTwDGyg2qU", "scope": "GOOGLE", "types": ["health", "point_of_interest", "establishment"], "vicinity": "100 Boylston Street, Boston"}, "ChIJW60DJYNw44kRmL2Ehm4t0Bg": {"geometry": {"location": {"lat": 42.3557089, "lng": -71.05720529999999}, "viewport": {"northeast": {"lat": 42.36839699999999, "lng": -71.04779599999999}, "southwest": {"lat": 42.342797, "lng": -71.072996}}}, "icon": "https://maps.gstatic.com/mapfiles/place_api/icons/geocode-71.png", "id": "bc27dcccb31ae90e36c262f557a1c09193ec777d", "name": "Downtown", "photos": [{"height": 629, "html_attributions": ["<a href=\"https://maps.google.com/maps/contrib/111777007894721839306/photos\">verona mantova</a>"], "photo_reference": "CmRaAAAAXawBeCmG_8-BE3yQMREE78H3CtIpm81HiY2O2qxcmTy1nMNYEoQM5hILlpSItXQYJaJNz8K_SQ9acMTITykWPlRXDgsqVX65IDIWfg_t8W_diYQS9fUJOzs73kqXf3SvEhClDTi8fw99hCoNmsasOjIrGhRHCzScD1qs6GcVYmnrnnqcLwHkqg", "width": 1000}], "place_id": "ChIJW60DJYNw44kRmL2Ehm4t0Bg", "reference": "ChIJW60DJYNw44kRmL2Ehm4t0Bg", "scope": "GOOGLE", "types": ["neighborhood", "political"], "vicinity": "Boston"}}