{"ChIJGzE9DS1l44kRoOhiASS_fHg": {"geometry": {"location": {"lat": 42.3600825, "lng": -71.0588801}, "viewport": {"northeast": {"lat": 42.40081989999999, "lng": -70.749455}, "southwest": {"lat": 42.22788, "lng": -71.191113}}}, "icon": "https://maps.gstatic.com/mapfiles/place_api/icons/geocode-71.png", "id": "06755c25d2b34d13942a4713971756a55b870ced", "name": "Boston", "photos": [{"height": 3024, "html_attributions": ["<a href=\"https://maps.google.com/maps/contrib/104670289779338733432/photos\">Natalia Zalucean</a>"], "photo_reference": "CmRaAAAAJxUKYwvvq2XCp5fkrVd1kavNtGhVORxkO0Wvr-XpJP1LegWO4Xdu4UbtOnEcRsjv2-rdl8GZs8ugs0--G9Mz7rrW3H0bKZY4dOnKjcKfVyy2VqRKd0KsKpxf_g094mdgEhA8DMt1lPAyfiUSgjAkENoNGhTPoUgAn53DV7BwmvuuRUqKQjL25Q", "width": 4032}], "place_id": "ChIJGzE9DS1l44kRoOhiASS_fHg", "reference": "ChIJGzE9DS1l44kRoOhiASS_fHg", "scope": "GOOGLE", "types": ["locality", "political"], "vicinity": "Boston"}, "ChIJW4a91RF644kRjQVe9gqzNLs": {"geometry": {"location": {"lat": 42.3465259, "lng": -71.0822474}, "viewport": {"northeast": {"lat": 42.3478748802915, "lng": -71.08089841970849}, "southwest": {"lat": 42.3451769197085, "lng": -71.08359638029151}}}, "icon": "https://maps.gstatic.com/mapfiles/place_api/icons/generic_recreational-71.png", "id": "b7db956a0b9e136c2daed5419612ea4c111071f6", "name": "Park", "photos": [{"height": 3120, "html_attributions": ["<a href=\"https://maps.google.com/maps/contrib/109684182341949109183/photos\">Brooks Payne</a>"], "photo_reference": "CmRaAAAA_rl-OBh30lgY-kC7gtUCQTWbBFmZOL4ouJM29EjcR69LRz9jemTyXLuNi18NGdPi4_4PtXB76GICmr0H5d1_SJ12k9BsieBVj0Aix6gyWIhsPNL4CP2Nywm09j-JV1MrEhD4aKDijdYM5SA-ieg8M5kMGhT-4jk1Lgz-nxI8naBeXW-9h4pR9w", "width": 4160}], "place_id": "ChIJW4a91RF644kRjQVe9gqzNLs", "plus_code": {"compound_code": "8WW9+J4 Boston, Massachusetts, United States", "global_code": "87JC8WW9+J4"}, "rating": 4.8, "reference": "ChIJW4a91RF644kRjQVe9gqzNLs", "scope": "GOOGLE", "types": ["park", "point_of_interest", "establishment"], "user_ratings_total": 4, "vicinity": "Boston"}, "ChIJu4xP1TB744kRXnv0Ea0ArV4": {"geometry": {"location": {"lat": 42.3465239, "lng": -71.082244}, "viewport": {"northeast": {"lat": 42.3478728802915, "lng": -71.08089501970849}, "southwest": {"lat": 42.34517491970851, "lng": -71.0835929802915}}}, "icon": "https://maps.gstatic.com/mapfiles/place_api/icons/generic_recreational-71.png", "id": "812e6e8120d286020bbe21250345568ae9438ac8", "name": "South Garden", "photos": [{"height": 3024, "html_attributions": ["<a href=\"https://maps.google.com/maps/contrib/105560878336169353711/photos\">Wissam Jawhary</a>"], "photo_reference": "CmRaAAAAkGh-Q0Td8VkB-TwnbHhp9zWxbXsLwkV491CK3kCO-P88ipHfEHAjBp7Y0VssUbM5zaBSQrTNeWx1H6wuIhIZwKMbXFDVtd_5GmK716gqGglPyWY0gwczxYwJmh2adsYEEhDB3kazrOnVXQbQX3Om3j0JGhQpMnIlxCjxdcr0upA7HlW-JCx4yQ", "width": 4032}], "place_id": "ChIJu4xP1TB744kRXnv0Ea0ArV4", "plus_code": {"compound_code": "8WW9+J4 Boston, Massachusetts, United States", "global_code": "87JC8WW9+J4"}, "rating": 5, "reference": "ChIJu4xP1TB744kRXnv0Ea0ArV4", "scope": "GOOGLE", "types": ["park", "point_of_interest", "establishment"], "user_ratings_total": 1, "vicinity": "BOST-0401037100, Boston"}, "ChIJsfUV-A5644kRxFubWZLMo7w": {"geometry": {"location": {"lat": 42.35026480000001, "lng": -71.0809757}, "viewport": {"northeast": {"lat": 42.356983, "lng": -71.07028989999999}, "southwest": {"lat": 42.341597, "lng": -71.0932962}}}, "icon": "https://maps.gstatic.com/mapfiles/place_api/icons/geocode-71.png", "id": "33919fd9e49b0cde06af64b330ab949ba88171ff", "name": "Back Bay", "photos": [{"height": 3936, "html_attributions": ["<a href=\"https://maps.google.com/maps/contrib/102900160723668849003/photos\">Jim Stanford</a>"], "photo_reference": "CmRaAAAAOEvqhNdHQDpnZf2VMvm8DQkgPnHAoZLjLXrYmtRUOQkTCixRtzFEPPyMAS4dNwjvh1LZqoFHfNL_lI6CPCptcmPK0G-YICbdPmH3ERj4kcA4IhjGXn9yXaWch_ZKslZSEhBX04as6TOqOmmtgoASxGdBGhRFm4FHgY6lieMK6si3FOTmrx-6Ng", "width": 5248}], "place_id": "ChIJsfUV-A5644kRxFubWZLMo7w", "reference": "ChIJsfUV-A5644kRxFubWZLMo7w", "scope": "GOOGLE", "types": ["neighborhood", "political"], "vicinity": "Boston"}}