{"ChIJu2vykXd644kRlwJrqtmrq3g": {"geometry": {"location": {"lat": 42.3515246, "lng": -71.0624855}, "viewport": {"northeast": {"lat": 42.3528735302915, "lng": -71.0611365697085}, "southwest": {"lat": 42.3501755697085, "lng": -71.0638345302915}}}, "icon": "https://maps.gstatic.com/mapfiles/place_api/icons/geocode-71.png", "id": "bfc2694d7ef50d803d5ce201baf13a0aaf910e63", "name": "1-15 Beach St", "place_id": "ChIJu2vykXd644kRlwJrqtmrq3g", "reference": "ChIJu2vykXd644kRlwJrqtmrq3g", "scope": "GOOGLE", "types": ["route"], "vicinity": "Boston"}, "ChIJK3PKkXd644kRwFTu4Yijfn8": {"geometry": {"location": {"lat": 42.35137340000001, "lng": -71.0622696}, "viewport": {"northeast": {"lat": 42.3527732302915, "lng": -71.0609023697085}, "southwest": {"lat": 42.3500752697085, "lng": -71.06360033029151}}}, "icon": "https://maps.gstatic.com/mapfiles/place_api/icons/restaurant-71.png", "id": "43cc03e3a689b0ce1ffa1209f68c6584fb028803", "name": "Sweet Kingdom Dessert", "opening_hours": {"open_now": true}, "photos": [{"height": 2988, "html_attributions": ["<a href=\"https://maps.google.com/maps/contrib/102614984371516596922/photos\">Noam Mohr</a>"], "photo_reference": "CmRaAAAARxbdQaGYG8PgsoB_5WIwyZc_6Hm4oKncIsiXHdhGgI2BaD_HtX6a9bCKtmN_lAeo4yBsbf7KhpSj6eTb6NFOa89DVo014a3OFJMiLLKvbL6QccLDIvCV7miWwV1KQ-CPEhALtc8jtdNpLTkxriylAupUGhQhIQfJYYOkpUJEXxdeRpmWSZD-NQ", "width": 5312}], "place_id": "ChIJK3PKkXd644kRwFTu4Yijfn8", "plus_code": {"compound_code": "9W2Q+G3 Boston, Massachusetts, United States", "global_code": "87JC9W2Q+G3"}, "rating": 4.1, "reference": "ChIJK3PKkXd644kRwFTu4Yijfn8", "scope": "GOOGLE", "types": ["restaurant", "point_of_interest", "food", "establishment"], "user_ratings_total": 92, "vicinity": "7-15 Beach Street, Boston"}, "ChIJzfTtj3d644kRRdMriAWKRPo": {"geometry": {"location": {"lat": 42.351277, "lng": -71.0623298}, "viewport": {"northeast": {"lat": 42.3527273802915, "lng": -71.06094446970849}, "southwest": {"lat": 42.3500294197085, "lng": -71.0636424302915}}}, "icon": "https://maps.gstatic.com/mapfiles/place_api/icons/restaurant-71.png", "id": "4a6af92fab2fde6773b747d573f55e175cf611ed", "name": "Spicy World", "opening_hours": {"open_now": true}, "photos": [{"height": 3024, "html_attributions": ["<a href=\"https://maps.google.com/maps/contrib/115675261933466520201/photos\">James Rooney</a>"], "photo_reference": "CmRaAAAAq6U-LRBwgHHifX-a2hoZmeQINSD6HeEl8BHTGkDUTccpL_5xBBUk8An9oQhIegJ_qcz7j9kIzzcPRje5pSiE9Zuud2w61Dgv3lVultBSGiLgo-yIRBuSdx9B-xQh15a5EhBj7dFySPr7qEEXZDK8e6HGGhQe1nADJkdJxLVudXgDeLGV8NcksA", "width": 4032}], "place_id": "ChIJzfTtj3d644kRRdMriAWKRPo", "plus_code": {"compound_code": "9W2Q+G3 Boston, Massachusetts, United States", "global_code": "87JC9W2Q+G3"}, "rating": 4.1, "reference": "ChIJzfTtj3d644kRRdMriAWKRPo", "scope": "GOOGLE", "types": ["restaurant", "point_of_interest", "food", "establishment"], "user_ratings_total": 100, "vicinity": "7 Beach Street, Boston"}, "ChIJu3EUiXd644kRCzmt-X5M3Bo": {"geometry": {"location": {"lat": 42.3514488, "lng": -71.06192539999999}, "viewport": {"northeast": {"lat": 42.35277998029149, "lng": -71.0605765197085}, "southwest": {"lat": 42.35008201970849, "lng": -71.06327448029151}}}, "icon": "https://maps.gstatic.com/mapfiles/place_api/icons/generic_business-71.png", "id": "96a41f8015ffea1c9f60cf6bc60b6fd2104b76d4", "name": "Gung-Ho Club", "place_id": "ChIJu3EUiXd644kRCzmt-X5M3Bo", "plus_code": {"compound_code": "9W2Q+H6 Boston, Massachusetts, United States", "global_code": "87JC9W2Q+H6"}, "rating": 5, "reference": "ChIJu3EUiXd644kRCzmt-X5M3Bo", "scope": "GOOGLE", "types": ["point_of_interest", "establishment"], "user_ratings_total": 1, "vicinity": "23 Beach Street, Boston"}, "ChIJgWQUiXd644kRif3SNeCwRZo": {"geometry": {"location": {"lat": 42.3513145, "lng": -71.061989}, "viewport": {"northeast": {"lat": 42.3527375802915, "lng": -71.0606395197085}, "southwest": {"lat": 42.3500396197085, "lng": -71.06333748029151}}}, "icon": "https://maps.gstatic.com/mapfiles/place_api/icons/generic_business-71.png", "id": "291c250cecdf253f232a9c088d006340b446c4fc", "name": "Oriental Massage", "place_id": "ChIJgWQUiXd644kRif3SNeCwRZo", "plus_code": {"compound_code": "9W2Q+G6 Boston, Massachusetts, United States", "global_code": "87JC9W2Q+G6"}, "rating": 5, "reference": "ChIJgWQUiXd644kRif3SNeCwRZo", "scope": "GOOGLE", "types": ["beauty_salon", "point_of_interest", "establishment"], "user_ratings_total": 1, "vicinity": "17 Beach Street, Boston"}, "ChIJBW5biXd644kRi4Scw5eCR0w": {"geometry": {"location": {"lat": 42.3513145, "lng": -71.061989}, "viewport": {"northeast": {"lat": 42.3527375802915, "lng": -71.0606395197085}, "southwest": {"lat": 42.3500396197085, "lng": -71.06333748029151}}}, "icon": "https://maps.gstatic.com/mapfiles/place_api/icons/civic_building-71.png", "id": "0384d35bc4715dd7d837fdc0f6970d6daa2b4343", "name": "Li Caixiu", "place_id": "ChIJBW5biXd644kRi4Scw5eCR0w", "plus_code": {"compound_code": "9W2Q+G6 Boston, Massachusetts, United States", "global_code": "87JC9W2Q+G6"}, "rating": 3, "reference": "ChIJBW5biXd644kRi4Scw5eCR0w", "scope": "GOOGLE", "types": ["point_of_interest", "establishment"], "user_ratings_total": 2, "vicinity": "17 Beach Street #2, Boston"}, "ChIJBW5biXd644kRVzria-juQ6U": {"geometry": {"location": {"lat": 42.3513132, "lng": -71.0620264}, "viewport": {"northeast": {"lat": 42.3527369802915, "lng": -71.06067691970848}, "southwest": {"lat": 42.3500390197085, "lng": -71.06337488029149}}}, "icon": "https://maps.gstatic.com/mapfiles/place_api/icons/generic_business-71.png", "id": "4f683a87ac8e15d4ef6571dd7412de0cc2aa4a85", "name": "Asian Thoi Bao", "place_id": "ChIJBW5biXd644kRVzria-juQ6U", "plus_code": {"compound_code": "9W2Q+G5 Boston, Massachusetts, United States", "global_code": "87JC9W2Q+G5"}, "reference": "ChIJBW5biXd644kRVzria-juQ6U", "scope": "GOOGLE", "types": ["point_of_interest", "establishment"], "vicinity": "17 Beach Street, Boston"}, "ChIJGzE9DS1l44kRoOhiASS_fHg": {"geometry": {"location": {"lat": 42.3600825, "lng": -71.0588801}, "viewport": {"northeast": {"lat": 42.40081989999999, "lng": -70.749455}, "southwest": {"lat": 42.22788, "lng": -71.191113}}}, "icon": "https://maps.gstatic.com/mapfiles/place_api/icons/geocode-71.png", "id": "06755c25d2b34d13942a4713971756a55b870ced", "name": "Boston", "photos": [{"height": 3024, "html_attributions": ["<a href=\"https://maps.google.com/maps/contrib/104670289779338733432/photos\">Natalia Zalucean</a>"], "photo_reference": "CmRaAAAASmeMkTUyp10OOZVIh2lJmTXM3wUxz2P3s0kMSZ5RYuEvlvcwvpVQaB5sU4vP66EtWbwjX1Uc-gD4MX373B7Ck3GBgUyDkANudJGInteEuVKkVHcV3FZiE7cGd1p2WAYJEhBTNMH-wGVVobfs_q4TI790GhTMrvCPNjhDqfO1rYcJK2Mw61LhHA", "width": 4032}], "place_id": "ChIJGzE9DS1l44kRoOhiASS_fHg", "reference": "ChIJGzE9DS1l44kRoOhiASS_fHg", "scope": "GOOGLE", "types": ["locality", "political"], "vicinity": "Boston"}}