{"ChIJHV0ZP5x644kR4JTK2wlrpzI": {"geometry": {"location": {"lat": 42.3446975, "lng": -71.0332777}, "viewport": {"northeast": {"lat": 42.34604643029149, "lng": -71.03192871970849}, "southwest": {"lat": 42.34334846970849, "lng": -71.03462668029151}}}, "icon": "https://maps.gstatic.com/mapfiles/place_api/icons/geocode-71.png", "id": "3cd0e2910175157108e02050274086e77b89a5d8", "name": "18 Drydock Ave", "place_id": "ChIJHV0ZP5x644kR4JTK2wlrpzI", "reference": "ChIJHV0ZP5x644kR4JTK2wlrpzI", "scope": "GOOGLE", "types": ["route"], "vicinity": "Boston"}, "ChIJhdRYepx644kRxOwfD_mEDJ8": {"geometry": {"location": {"lat": 42.344396, "lng": -71.033143}, "viewport": {"northeast": {"lat": 42.3458181302915, "lng": -71.03179376970849}, "southwest": {"lat": 42.34312016970851, "lng": -71.03449173029149}}}, "icon": "https://maps.gstatic.com/mapfiles/place_api/icons/generic_business-71.png", "id": "9398fc8f718e043abec973e749281afb73e95c9b", "name": "Deutsch Williams", "opening_hours": {"open_now": true}, "photos": [{"height": 310, "html_attributions": ["<a href=\"https://maps.google.com/maps/contrib/115153629034526892727/photos\">Deutsch Williams</a>"], "photo_reference": "CmRaAAAA_JtLCz306nY2MyUxWeF8DGc7Pm0JPsiaU5Ss_gqW5Qw0J2SgEzxwzYdzfZte1GYQ7BK20EteW86NVa3atv2WhgPuk_qte38siD5V2fpDD_mSsI264Im4kxjOzhewmFWOEhAiSbX_Gz-twOeAEIu9c1nYGhRFzKVGA5VpMy9HUqpn4eBmdTwxvA", "width": 311}], "place_id": "ChIJhdRYepx644kRxOwfD_mEDJ8", "plus_code": {"compound_code": "8XV8+QP Boston, Massachusetts, United States", "global_code": "87JC8XV8+QP"}, "reference": "ChIJhdRYepx644kRxOwfD_mEDJ8", "scope": "GOOGLE", "types": ["point_of_interest", "establishment"], "vicinity": "1, Design Center Place #600, Boston"}, "ChIJGzE9DS1l44kRoOhiASS_fHg": {"geometry": {"location": {"lat": 42.3600825, "lng": -71.0588801}, "viewport": {"northeast": {"lat": 42.40081989999999, "lng": -70.749455}, "southwest": {"lat": 42.22788, "lng": -71.191113}}}, "icon": "https://maps.gstatic.com/mapfiles/place_api/icons/geocode-71.png", "id": "06755c25d2b34d13942a4713971756a55b870ced", "name": "Boston", "photos": [{"height": 3024, "html_attributions": ["<a href=\"https://maps.google.com/maps/contrib/104670289779338733432/photos\">Natalia Zalucean</a>"], "photo_reference": "CmRaAAAAyRbIUKN8ijppnAin1e1prWveLxS-gXTZS-1tP8eBB0z6wtMP6U465PQ0Hj6UpS0x9vyY9MGewCiR0rnlHy6_4aBuws3dBAc8f6vRak_ncL78_Pgh0i8guO54wTMNtbCiEhBZAAKyscF5YNd2GikqPFF3GhRL2tG7byzC4Xd-j8MPKXZVrsyu3A", "width": 4032}], "place_id": "ChIJGzE9DS1l44kRoOhiASS_fHg", "reference": "ChIJGzE9DS1l44kRoOhiASS_fHg", "scope": "GOOGLE", "types": ["locality", "political"], "vicinity": "Boston"}}