{"ChIJ43d7MoB644kRdcANlXl1pdI": {"geometry": {"location": {"lat": 42.3497897, "lng": -71.0470239}, "viewport": {"northeast": {"lat": 42.3511386802915, "lng": -71.04567491970847}, "southwest": {"lat": 42.3484407197085, "lng": -71.0483728802915}}}, "icon": "https://maps.gstatic.com/mapfiles/place_api/icons/geocode-71.png", "id": "e6eda1611971a6d73dae9c9b83f6892f942a68b0", "name": "Boston Wharf Road", "place_id": "ChIJ43d7MoB644kRdcANlXl1pdI", "reference": "ChIJ43d7MoB644kRdcANlXl1pdI", "scope": "GOOGLE", "types": ["route"], "vicinity": "Boston"}, "ChIJBRIqfn9w44kRFqGRWTfDnjg": {"geometry": {"location": {"lat": 42.349958, "lng": -71.04718}, "viewport": {"northeast": {"lat": 42.3512640302915, "lng": -71.04572296970849}, "southwest": {"lat": 42.3485660697085, "lng": -71.0484209302915}}}, "icon": "https://maps.gstatic.com/mapfiles/place_api/icons/bar-71.png", "id": "237db5aad940c0776911a43d5e92b0a746922b72", "name": "City Tap House", "opening_hours": {"open_now": true}, "photos": [{"height": 3456, "html_attributions": ["<a href=\"https://maps.google.com/maps/contrib/110991314913245304505/photos\">Thomas Pearson</a>"], "photo_reference": "CmRaAAAAu5QCua5jrLp0Gzv18yII4xtCv9Vg0iLpBR602p-DAlYksiQThChFRqfi8UFNn6sAxEndSnYcmlU7akTB_6I2foxQmGD0hcHoaHUZGda9hf2_vw751wO5F4em65XiiOn4EhBI2pBUgqESfnsLP15TVD66GhRw_w1BQv2m9GaRbVZy9PjKunwv8w", "width": 4608}], "place_id": "ChIJBRIqfn9w44kRFqGRWTfDnjg", "plus_code": {"compound_code": "8XX3+X4 Boston, Massachusetts, United States", "global_code": "87JC8XX3+X4"}, "price_level": 2, "rating": 4.3, "reference": "ChIJBRIqfn9w44kRFqGRWTfDnjg", "scope": "GOOGLE", "types": ["bar", "restaurant", "point_of_interest", "food", "establishment"], "user_ratings_total": 601, "vicinity": "10 Boston Wharf Road, Boston"}, "ChIJGzE9DS1l44kRoOhiASS_fHg": {"geometry": {"location": {"lat": 42.3600825, "lng": -71.0588801}, "viewport": {"northeast": {"lat": 42.40081989999999, "lng": -70.749455}, "southwest": {"lat": 42.22788, "lng": -71.191113}}}, "icon": "https://maps.gstatic.com/mapfiles/place_api/icons/geocode-71.png", "id": "06755c25d2b34d13942a4713971756a55b870ced", "name": "Boston", "photos": [{"height": 3024, "html_attributions": ["<a href=\"https://maps.google.com/maps/contrib/104670289779338733432/photos\">Natalia Zalucean</a>"], "photo_reference": "CmRaAAAAswGcAH8O1WAMsjYRgvHZ8QIhXX8rwTruS1rC0LGIIxSRf_YV4w9w6xnuLGsGoEVERX2KULKUdgh4ayhahfhtxgmhXavve804wGlMgkcLb725i8_E-Bq8QrdSbpui7PFuEhB0_qOLisVQ6UOwETDFFO8BGhRRTBSDovkBdLL6DC-xKGiUZFQ7Tg", "width": 4032}], "place_id": "ChIJGzE9DS1l44kRoOhiASS_fHg", "reference": "ChIJGzE9DS1l44kRoOhiASS_fHg", "scope": "GOOGLE", "types": ["locality", "political"], "vicinity": "Boston"}}