{"ChIJGzE9DS1l44kRoOhiASS_fHg": {"geometry": {"location": {"lat": 42.3600825, "lng": -71.0588801}, "viewport": {"northeast": {"lat": 42.40081989999999, "lng": -70.749455}, "southwest": {"lat": 42.22788, "lng": -71.191113}}}, "icon": "https://maps.gstatic.com/mapfiles/place_api/icons/geocode-71.png", "id": "06755c25d2b34d13942a4713971756a55b870ced", "name": "Boston", "photos": [{"height": 3024, "html_attributions": ["<a href=\"https://maps.google.com/maps/contrib/104670289779338733432/photos\">Natalia Zalucean</a>"], "photo_reference": "CmRaAAAAvagWJLmhD9ujxPvG1peG7SgoQ9rFnU_pJzJnsquR7oUvFxzRoA_eaDTKF52aI1Rfdri9v2wehOpupIuDXGSe1QcTTH6HQDhY5XpiSKZzFeMnP1cv6fPf2qqsrED8K8UMEhD1QaT7dstgjz5YggOUwbE-GhTXx9HduJOi0Fowal3r_cEoa_aPEg", "width": 4032}], "place_id": "ChIJGzE9DS1l44kRoOhiASS_fHg", "reference": "ChIJGzE9DS1l44kRoOhiASS_fHg", "scope": "GOOGLE", "types": ["locality", "political"], "vicinity": "Boston"}, "ChIJ06FN2Hl644kRJxV0JIcstH8": {"geometry": {"location": {"lat": 42.3501304, "lng": -71.0615108}, "viewport": {"northeast": {"lat": 42.35150023029149, "lng": -71.06025411970849}, "southwest": {"lat": 42.34880226970849, "lng": -71.0629520802915}}}, "icon": "https://maps.gstatic.com/mapfiles/place_api/icons/generic_business-71.png", "id": "53e186bec56250260056486923b492c0dce369a2", "name": "Payne Douglas D MD", "place_id": "ChIJ06FN2Hl644kRJxV0JIcstH8", "plus_code": {"compound_code": "9W2Q+39 Boston, Massachusetts, United States", "global_code": "87JC9W2Q+39"}, "reference": "ChIJ06FN2Hl644kRJxV0JIcstH8", "scope": "GOOGLE", "types": ["doctor", "health", "point_of_interest", "establishment"], "vicinity": "136 Harrison Avenue, Boston"}, "ChIJ06FN2Hl644kRLmQ2w2Liokc": {"geometry": {"location": {"lat": 42.3501304, "lng": -71.0615108}, "viewport": {"northeast": {"lat": 42.35150023029149, "lng": -71.06025411970849}, "southwest": {"lat": 42.34880226970849, "lng": -71.0629520802915}}}, "icon": "https://maps.gstatic.com/mapfiles/place_api/icons/generic_business-71.png", "id": "392a2e4b9fdc78c7ee783f080980cd8d114f37fb", "name": "Tufts University-Boston Campus: Sarno Robert MD", "place_id": "ChIJ06FN2Hl644kRLmQ2w2Liokc", "plus_code": {"compound_code": "9W2Q+39 Boston, Massachusetts, United States", "global_code": "87JC9W2Q+39"}, "reference": "ChIJ06FN2Hl644kRLmQ2w2Liokc", "scope": "GOOGLE", "types": ["doctor", "health", "point_of_interest", "establishment"], "vicinity": "136 Harrison Avenue, Boston"}, "ChIJ_xxf1Hl644kRq0JShChNG00": {"geometry": {"location": {"lat": 42.3503864, "lng": -71.06142969999999}, "viewport": {"northeast": {"lat": 42.35175368029149, "lng": -71.06016166970849}, "southwest": {"lat": 42.3490557197085, "lng": -71.0628596302915}}}, "icon": "https://maps.gstatic.com/mapfiles/place_api/icons/shopping-71.png", "id": "f7dd68c0fa1575c8131b4bd99b1283a3aaa6aa3c", "name": "Tufts University Health Sciences Bookstore", "opening_hours": {"open_now": true}, "place_id": "ChIJ_xxf1Hl644kRq0JShChNG00", "plus_code": {"compound_code": "9W2Q+5C Boston, Massachusetts, United States", "global_code": "87JC9W2Q+5C"}, "rating": 5, "reference": "ChIJ_xxf1Hl644kRq0JShChNG00", "scope": "GOOGLE", "types": ["book_store", "store", "point_of_interest", "establishment"], "user_ratings_total": 6, "vicinity": "116 Harrison Avenue, Boston"}, "ChIJ06FN2Hl644kRPrfXQ_OGo_o": {"geometry": {"location": {"lat": 42.3501304, "lng": -71.0615108}, "viewport": {"northeast": {"lat": 42.35150023029149, "lng": -71.06025411970849}, "southwest": {"lat": 42.34880226970849, "lng": -71.0629520802915}}}, "icon": "https://maps.gstatic.com/mapfiles/place_api/icons/generic_business-71.png", "id": "bb9aad0d34018b3632da71d7c8797d37279bc60e", "name": "Dr. Mary Yu-Mee Y. Lee, MD", "place_id": "ChIJ06FN2Hl644kRPrfXQ_OGo_o", "plus_code": {"compound_code": "9W2Q+39 Boston, Massachusetts, United States", "global_code": "87JC9W2Q+39"}, "reference": "ChIJ06FN2Hl644kRPrfXQ_OGo_o", "scope": "GOOGLE", "types": ["doctor", "health", "point_of_interest", "establishment"], "vicinity": "136 Harrison Avenue, Boston"}, "ChIJ06FN2Hl644kRfz7FmsXOoa4": {"geometry": {"location": {"lat": 42.3501304, "lng": -71.0615108}, "viewport": {"northeast": {"lat": 42.35150023029149, "lng": -71.06025411970849}, "southwest": {"lat": 42.34880226970849, "lng": -71.0629520802915}}}, "icon": "https://maps.gstatic.com/mapfiles/place_api/icons/generic_business-71.png", "id": "4e509847156bba233edda7f0107e3e698ff6a5eb", "name": "Vonmoltke Lisa L MD", "place_id": "ChIJ06FN2Hl644kRfz7FmsXOoa4", "plus_code": {"compound_code": "9W2Q+39 Boston, Massachusetts, United States", "global_code": "87JC9W2Q+39"}, "reference": "ChIJ06FN2Hl644kRfz7FmsXOoa4", "scope": "GOOGLE", "types": ["doctor", "health", "point_of_interest", "establishment"], "vicinity": "136 Harrison Avenue, Boston"}, "ChIJ06FN2Hl644kRgbDSAAbRAiU": {"geometry": {"location": {"lat": 42.3501304, "lng": -71.0615108}, "viewport": {"northeast": {"lat": 42.35150023029149, "lng": -71.06025411970849}, "southwest": {"lat": 42.34880226970849, "lng": -71.0629520802915}}}, "icon": "https://maps.gstatic.com/mapfiles/place_api/icons/generic_business-71.png", "id": "3e297f3b0f0b980e14c4a258d88c72c7476e402a", "name": "Greenfield Sheldon MD", "place_id": "ChIJ06FN2Hl644kRgbDSAAbRAiU", "plus_code": {"compound_code": "9W2Q+39 Boston, Massachusetts, United States", "global_code": "87JC9W2Q+39"}, "reference": "ChIJ06FN2Hl644kRgbDSAAbRAiU", "scope": "GOOGLE", "types": ["doctor", "health", "point_of_interest", "establishment"], "vicinity": "136 Harrison Avenue, Boston"}, "ChIJ06FN2Hl644kRtCpEQqq6CdE": {"geometry": {"location": {"lat": 42.3501304, "lng": -71.0615108}, "viewport": {"northeast": {"lat": 42.35150023029149, "lng": -71.06025411970849}, "southwest": {"lat": 42.34880226970849, "lng": -71.0629520802915}}}, "icon": "https://maps.gstatic.com/mapfiles/place_api/icons/generic_business-71.png", "id": "a8489ed56082237a78557ba592c1899dc51b32af", "name": "Ludden John MD", "place_id": "ChIJ06FN2Hl644kRtCpEQqq6CdE", "plus_code": {"compound_code": "9W2Q+39 Boston, Massachusetts, United States", "global_code": "87JC9W2Q+39"}, "reference": "ChIJ06FN2Hl644kRtCpEQqq6CdE", "scope": "GOOGLE", "types": ["doctor", "health", "point_of_interest", "establishment"], "vicinity": "136 Harrison Avenue, Boston"}, "ChIJ06FN2Hl644kREJWYQ-C7wZQ": {"geometry": {"location": {"lat": 42.3501304, "lng": -71.0615108}, "viewport": {"northeast": {"lat": 42.35150023029149, "lng": -71.06025411970849}, "southwest": {"lat": 42.34880226970849, "lng": -71.0629520802915}}}, "icon": "https://maps.gstatic.com/mapfiles/place_api/icons/generic_business-71.png", "id": "49e4788c328ef5f5e5d2a1b5acef48d95c89265e", "name": "Dr. Marc M. Edelstein, MD", "place_id": "ChIJ06FN2Hl644kREJWYQ-C7wZQ", "plus_code": {"compound_code": "9W2Q+39 Boston, Massachusetts, United States", "global_code": "87JC9W2Q+39"}, "reference": "ChIJ06FN2Hl644kREJWYQ-C7wZQ", "scope": "GOOGLE", "types": ["doctor", "health", "point_of_interest", "establishment"], "vicinity": "136 Harrison Avenue, Boston"}, "ChIJY55d1nl644kR0AFT4TlKRoE": {"geometry": {"location": {"lat": 42.3501304, "lng": -71.0615108}, "viewport": {"northeast": {"lat": 42.35150023029149, "lng": -71.06025411970849}, "southwest": {"lat": 42.34880226970849, "lng": -71.0629520802915}}}, "icon": "https://maps.gstatic.com/mapfiles/place_api/icons/school-71.png", "id": "dcf117af7ac87d80133baa10cd0e8fae73ee234f", "name": "Tufts University Core Facility", "place_id": "ChIJY55d1nl644kR0AFT4TlKRoE", "plus_code": {"compound_code": "9W2Q+39 Boston, Massachusetts, United States", "global_code": "87JC9W2Q+39"}, "reference": "ChIJY55d1nl644kR0AFT4TlKRoE", "scope": "GOOGLE", "types": ["point_of_interest", "establishment"], "vicinity": "136 Harrison Avenue, Boston"}, "ChIJv2lgRnd644kRhhHF-83wGPc": {"geometry": {"location": {"lat": 42.3500641, "lng": -71.0624052}, "viewport": {"northeast": {"lat": 42.3525502, "lng": -71.058036}, "southwest": {"lat": 42.3469363, "lng": -71.06781}}}, "icon": "https://maps.gstatic.com/mapfiles/place_api/icons/geocode-71.png", "id": "7756c8dc8a59b16de3fa6abc228b6140592c5494", "name": "Chinatown", "photos": [{"height": 3036, "html_attributions": ["<a href=\"https://maps.google.com/maps/contrib/114028827606383148991/photos\">Swe Nar</a>"], "photo_reference": "CmRaAAAAovCWmL36ezjtynIlJ7BdmEclCA0L4Q3xhn1xSQDheWNTHO6U_-qGf-e5WN6pqt42jFMfQSmGmik27QVkhhVfk6VL0ZTg2KubOHWGLB9UJoWZFcYUQsyPVxM5xm9Da3gIEhA7Wvo4eQqszlMrPi-VZY3iGhRlqkaUKyy9SDTZILn5BCi-tu9rwQ", "width": 4048}], "place_id": "ChIJv2lgRnd644kRhhHF-83wGPc", "reference": "ChIJv2lgRnd644kRhhHF-83wGPc", "scope": "GOOGLE", "types": ["neighborhood", "political"], "vicinity": "Boston"}}