{"ChIJGzE9DS1l44kRoOhiASS_fHg": {"geometry": {"location": {"lat": 42.3600825, "lng": -71.0588801}, "viewport": {"northeast": {"lat": 42.40081989999999, "lng": -70.749455}, "southwest": {"lat": 42.22788, "lng": -71.191113}}}, "icon": "https://maps.gstatic.com/mapfiles/place_api/icons/geocode-71.png", "id": "06755c25d2b34d13942a4713971756a55b870ced", "name": "Boston", "photos": [{"height": 3024, "html_attributions": ["<a href=\"https://maps.google.com/maps/contrib/104670289779338733432/photos\">Natalia Zalucean</a>"], "photo_reference": "CmRaAAAA6JBz8AymvwxykjY1Pp29NAIUph51WfeHcsP7VILF5RwCxjhFVZFJ6vbT-hd64kM9rYbTYD9W1XOqzOgOz8-xpqDA9cVsaNykhAAenbXXDxJZQeHto6xfl9OAZjNgProUEhDAWZunb-F7gZ3nAXdd28aOGhStcwXZHIaBu5HMHUaqKuOzjO_yIw", "width": 4032}], "place_id": "ChIJGzE9DS1l44kRoOhiASS_fHg", "reference": "ChIJGzE9DS1l44kRoOhiASS_fHg", "scope": "GOOGLE", "types": ["locality", "political"], "vicinity": "Boston"}, "ChIJlQwTsw9644kRoTdpnz5mtIQ": {"geometry": {"location": {"lat": 42.3469608, "lng": -71.0820617}, "viewport": {"northeast": {"lat": 42.3477173802915, "lng": -71.08091656970849}, "southwest": {"lat": 42.3450194197085, "lng": -71.0836145302915}}}, "icon": "https://maps.gstatic.com/mapfiles/place_api/icons/generic_business-71.png", "id": "405fb412fa8562bb507469013f76626430036409", "name": "Enterprise Rent-A-Car", "opening_hours": {"open_now": true}, "photos": [{"height": 2268, "html_attributions": ["<a href=\"https://maps.google.com/maps/contrib/110817608670192632196/photos\">Jesus Torres</a>"], "photo_reference": "CmRaAAAAScZA5R_Rjgle3t-1qbbZVp-i_T7TM-42uXRefWRQbKY1jxj_E_kjrmlo-y8t-8xERv_PysBKE7PFdOAG5x4cJbXRbW05HOCdGuMx5n5aY8gk5U8cRq79YGNO5T3zZ1Q4EhBBhPq8LmMjlCZO7bIDogyuGhRhLqIzC6Sda0_mIDjT-hHyFJWp2g", "width": 4032}], "place_id": "ChIJlQwTsw9644kRoTdpnz5mtIQ", "plus_code": {"compound_code": "8WW9+Q5 Boston, Massachusetts, United States", "global_code": "87JC8WW9+Q5"}, "rating": 4, "reference": "ChIJlQwTsw9644kRoTdpnz5mtIQ", "scope": "GOOGLE", "types": ["car_rental", "point_of_interest", "establishment"], "user_ratings_total": 163, "vicinity": "102 Belvidere Street, Boston"}, "ChIJlQwTsw9644kRoSnu_zJh8FA": {"geometry": {"location": {"lat": 42.3472057, "lng": -71.0820577}, "viewport": {"northeast": {"lat": 42.3493381, "lng": -71.08106496970849}, "southwest": {"lat": 42.3464949, "lng": -71.0837629302915}}}, "icon": "https://maps.gstatic.com/mapfiles/place_api/icons/shopping-71.png", "id": "5f65c221c680f8fdd82841ce99311fe36c7116c3", "name": "Microsoft Store", "opening_hours": {"open_now": true}, "photos": [{"height": 3024, "html_attributions": ["<a href=\"https://maps.google.com/maps/contrib/101236092263469538545/photos\">Ivaylo Kudinov</a>"], "photo_reference": "CmRZAAAA7GGDcs5BT1HFVRg8IthdjNqh9eJBuRn6QM2_-ga70VuLlMdh0YChdLKzxmEukSwibmHsZJ4wlA9-k1cDiGISvv06UJSmPCWsxv5rf7vJmjTmLE1OzL6hm8xHj7uLQHloEhBsHh3_SgHvKzDodA3_1k5OGhRg5V5S6vcOmgbREC_PEhcoLTy7Hw", "width": 4032}], "place_id": "ChIJlQwTsw9644kRoSnu_zJh8FA", "plus_code": {"compound_code": "8WW9+V5 Boston, Massachusetts, United States", "global_code": "87JC8WW9+V5"}, "rating": 4.1, "reference": "ChIJlQwTsw9644kRoSnu_zJh8FA", "scope": "GOOGLE", "types": ["electronics_store", "store", "point_of_interest", "establishment"], "user_ratings_total": 225, "vicinity": "Prudential Tower, 800 Boylston Street #27, Boston"}, "ChIJOTwLHw5644kRK2pYSTaPgmU": {"geometry": {"location": {"lat": 42.34702519999999, "lng": -71.0822448}, "viewport": {"northeast": {"lat": 42.349328, "lng": -71.0812805697085}, "southwest": {"lat": 42.34625759999999, "lng": -71.0839785302915}}}, "icon": "https://maps.gstatic.com/mapfiles/place_api/icons/generic_business-71.png", "id": "4d0ef4e68e96662c9b0d6267864c76ae24c66a9e", "name": "First American Title Insurance Company - National Commercial Services", "photos": [{"height": 442, "html_attributions": ["<a href=\"https://maps.google.com/maps/contrib/101162953404230356761/photos\">First American Title Insurance Company - National Commercial Services</a>"], "photo_reference": "CmRaAAAAg3rVrGIBbO0tpiKGRtxgwTdF0kOhAb6sWl3F1idvzo0BwPlrm3foM2Mi8agR-cfmc7RbYcvv05lSWAlqEKcQbsqN4z1Gvdr6j6JS5vZAwnAcs43Py8LZcTt0fv4q3DigEhB72RiS2QeZEuom64EdHEV0GhSzWEY8r3l6ubqkWOxddZFMbWv6Iw", "width": 588}], "place_id": "ChIJOTwLHw5644kRK2pYSTaPgmU", "plus_code": {"compound_code": "8WW9+R4 Boston, Massachusetts, United States", "global_code": "87JC8WW9+R4"}, "reference": "ChIJOTwLHw5644kRK2pYSTaPgmU", "scope": "GOOGLE", "types": ["real_estate_agency", "insurance_agency", "finance", "point_of_interest", "establishment"], "vicinity": "800 Boylston Street #2820, Boston"}, "ChIJ_QKAKsV744kRsmY1LoeY84w": {"geometry": {"location": {"lat": 42.3472557, "lng": -71.08191599999999}, "viewport": {"northeast": {"lat": 42.34937939999999, "lng": -71.08091206970849}, "southwest": {"lat": 42.3465478, "lng": -71.08361003029151}}}, "icon": "https://maps.gstatic.com/mapfiles/place_api/icons/generic_business-71.png", "id": "8a5115096e0e00649164fe206190acc370050382", "name": "Greene Oaktree", "opening_hours": {"open_now": false}, "place_id": "ChIJ_QKAKsV744kRsmY1LoeY84w", "plus_code": {"compound_code": "8WW9+W6 Boston, Massachusetts, United States", "global_code": "87JC8WW9+W6"}, "reference": "ChIJ_QKAKsV744kRsmY1LoeY84w", "scope": "GOOGLE", "types": ["point_of_interest", "establishment"], "vicinity": "F16, 800 Boylston Street, Boston"}, "ChIJsfUV-A5644kRxFubWZLMo7w": {"geometry": {"location": {"lat": 42.35026480000001, "lng": -71.0809757}, "viewport": {"northeast": {"lat": 42.356983, "lng": -71.07028989999999}, "southwest": {"lat": 42.341597, "lng": -71.0932962}}}, "icon": "https://maps.gstatic.com/mapfiles/place_api/icons/geocode-71.png", "id": "33919fd9e49b0cde06af64b330ab949ba88171ff", "name": "Back Bay", "photos": [{"height": 3936, "html_attributions": ["<a href=\"https://maps.google.com/maps/contrib/102900160723668849003/photos\">Jim Stanford</a>"], "photo_reference": "CmRaAAAA3A9IpwsY0st9vzMnarQEzfLLqji6fujIcLjZoJ1Vjha9idmeRxd9a3AWRy3C0mfkxLNgcMzkgOiqa5wwelz9szJ7a--M_UKf3VxaoUEz1yPNhgtrqTScNk5eUwG1HCoBEhBvPQmNoa2fG647JiD5whtkGhQwJTc_IdKwmX5LeoV54rELCgp15g", "width": 5248}], "place_id": "ChIJsfUV-A5644kRxFubWZLMo7w", "reference": "ChIJsfUV-A5644kRxFubWZLMo7w", "scope": "GOOGLE", "types": ["neighborhood", "political"], "vicinity": "Boston"}}