{"ChIJE30fUb5544kRSispKzmRNRk": {"geometry": {"location": {"lat": 42.341646, "lng": -71.1235975}, "viewport": {"northeast": {"lat": 42.3429949302915, "lng": -71.12224851970849}, "southwest": {"lat": 42.3402969697085, "lng": -71.12494648029151}}}, "icon": "https://maps.gstatic.com/mapfiles/place_api/icons/geocode-71.png", "id": "17884035e4880f05b5cd9c194eab228666e5a8f9", "name": "Beacon Street", "place_id": "ChIJE30fUb5544kRSispKzmRNRk", "reference": "ChIJE30fUb5544kRSispKzmRNRk", "scope": "GOOGLE", "types": ["route"], "vicinity": "Brookline"}, "ChIJDyLxUb5544kRD3fLgGCvvh4": {"geometry": {"location": {"lat": 42.341811, "lng": -71.123423}, "viewport": {"northeast": {"lat": 42.3431017802915, "lng": -71.1220506197085}, "southwest": {"lat": 42.34040381970851, "lng": -71.12474858029151}}}, "icon": "https://maps.gstatic.com/mapfiles/place_api/icons/generic_business-71.png", "id": "b835d583ef7a3047d1b1b74c9b309ab2b29879c9", "name": "FedEx Office Print & Ship Center", "opening_hours": {"open_now": true}, "photos": [{"height": 750, "html_attributions": ["<a href=\"https://maps.google.com/maps/contrib/115254459962392482148/photos\">FedEx Office Print &amp; Ship Center</a>"], "photo_reference": "CmRaAAAA219RtHT5oCuptB2uaHqg3sxIK_zSLnEdhJnarT7queSw-MVgvk-zCakOz2BFJQP0IGo1GcNpfUO_fv4TmTjl8e8GW8d35v82c9ljbE66XZ1JARcoX1WGdHBfwc3jpK-jEhCZoEgMQjJpkA-pk1H4GoOBGhQkt8xYUGuok-5DANJff8tyem1IDw", "width": 1000}], "place_id": "ChIJDyLxUb5544kRD3fLgGCvvh4", "plus_code": {"compound_code": "8VRG+PJ Brookline, Massachusetts, United States", "global_code": "87JC8VRG+PJ"}, "price_level": 2, "rating": 2.4, "reference": "ChIJDyLxUb5544kRD3fLgGCvvh4", "scope": "GOOGLE", "types": ["store", "point_of_interest", "establishment"], "user_ratings_total": 54, "vicinity": "1370 Beacon Street Suite R2, Brookline"}, "ChIJg6J1Ur5544kRCKy-vpggJK4": {"geometry": {"location": {"lat": 42.3418721, "lng": -71.12345239999999}, "viewport": {"northeast": {"lat": 42.34313188029149, "lng": -71.1220675197085}, "southwest": {"lat": 42.3404339197085, "lng": -71.1247654802915}}}, "icon": "https://maps.gstatic.com/mapfiles/place_api/icons/generic_business-71.png", "id": "2ba6ca409e0e724bde34e972271f02ad47c8e203", "name": "Neal Mcgrath, PHD", "place_id": "ChIJg6J1Ur5544kRCKy-vpggJK4", "plus_code": {"compound_code": "8VRG+PJ Brookline, Massachusetts, United States", "global_code": "87JC8VRG+PJ"}, "reference": "ChIJg6J1Ur5544kRCKy-vpggJK4", "scope": "GOOGLE", "types": ["doctor", "health", "point_of_interest", "establishment"], "vicinity": "1368 Beacon Street, Brookline"}, "ChIJu9QwUb5544kR9R2DnzJKheg": {"geometry": {"location": {"lat": 42.3418721, "lng": -71.12345239999999}, "viewport": {"northeast": {"lat": 42.34313188029149, "lng": -71.1220675197085}, "southwest": {"lat": 42.3404339197085, "lng": -71.1247654802915}}}, "icon": "https://maps.gstatic.com/mapfiles/place_api/icons/generic_business-71.png", "id": "a0cdd922730a68d23e1d12b79f499cfdb3351711", "name": "Brookline Natural Nail", "opening_hours": {"open_now": true}, "photos": [{"height": 2185, "html_attributions": ["<a href=\"https://maps.google.com/maps/contrib/111229509933340281069/photos\">Brookline Natural Nail</a>"], "photo_reference": "CmRaAAAAu3KRxRxIY5KRfN8vkksZaT9bB3vgOW_St9Q_Xx-fsmAcWuFB5IJbxe8ZovvvyKmWhBFBYY5VNx-FK1uyDZaIizDKF-qPrGcUYXHUxk-SgslTBgJpw0TtfeNhjs7OACvDEhAON1QbrWjto65OuLXpRWXcGhSyna-h-0UatqnrKmvjDEJwRONdJw", "width": 2184}], "place_id": "ChIJu9QwUb5544kR9R2DnzJKheg", "plus_code": {"compound_code": "8VRG+PJ Brookline, Massachusetts, United States", "global_code": "87JC8VRG+PJ"}, "rating": 3.8, "reference": "ChIJu9QwUb5544kR9R2DnzJKheg", "scope": "GOOGLE", "types": ["beauty_salon", "hair_care", "point_of_interest", "establishment"], "user_ratings_total": 5, "vicinity": "1372 Beacon Street, Brookline"}, "ChIJg6J1Ur5544kRA9muqmeuAvY": {"geometry": {"location": {"lat": 42.3418249, "lng": -71.123311}, "viewport": {"northeast": {"lat": 42.34312063029149, "lng": -71.1219405697085}, "southwest": {"lat": 42.3404226697085, "lng": -71.1246385302915}}}, "icon": "https://maps.gstatic.com/mapfiles/place_api/icons/generic_business-71.png", "id": "9a630daaa770281730771a5905efc32d12ea480d", "name": "Muscular Solutions", "opening_hours": {"open_now": true}, "photos": [{"height": 612, "html_attributions": ["<a href=\"https://maps.google.com/maps/contrib/114324754217582504189/photos\">Muscular Solutions</a>"], "photo_reference": "CmRaAAAAR_hwmWUOuzdgLjOi2rYojnGIH-7syFCuxJ1nUKUVw6z-5b_m0Jb9PZ4FAyximu6ufVRYbFB-NCsDpiU_mjA24tTh7nWFewc8xO7qwyxYMtESWlOjVQewnpFo0VrX52yBEhCCn03G6AzYvago0t-mDa1-GhRpaHklKG65dkPWlkNoFVotGTXoGg", "width": 792}], "place_id": "ChIJg6J1Ur5544kRA9muqmeuAvY", "plus_code": {"compound_code": "8VRG+PM Brookline, Massachusetts, United States", "global_code": "87JC8VRG+PM"}, "rating": 5, "reference": "ChIJg6J1Ur5544kRA9muqmeuAvY", "scope": "GOOGLE", "types": ["physiotherapist", "health", "point_of_interest", "establishment"], "user_ratings_total": 4, "vicinity": "1368 Beacon Street, Brookline"}, "ChIJg6J1Ur5544kRWsfmcch5VnA": {"geometry": {"location": {"lat": 42.3418901, "lng": -71.1233774}, "viewport": {"northeast": {"lat": 42.3431491802915, "lng": -71.1219922197085}, "southwest": {"lat": 42.34045121970851, "lng": -71.12469018029151}}}, "icon": "https://maps.gstatic.com/mapfiles/place_api/icons/generic_business-71.png", "id": "320c2b1db2b44d2dc4a580865829b6ca2cbd9f9e", "name": "Trio Real Estate Group Llc", "opening_hours": {"open_now": true}, "place_id": "ChIJg6J1Ur5544kRWsfmcch5VnA", "plus_code": {"compound_code": "8VRG+QJ Brookline, Massachusetts, United States", "global_code": "87JC8VRG+QJ"}, "reference": "ChIJg6J1Ur5544kRWsfmcch5VnA", "scope": "GOOGLE", "types": ["real_estate_agency", "point_of_interest", "establishment"], "vicinity": "1368 Beacon Street #109, Brookline"}, "ChIJg6J1Ur5544kRYsi9-cWJX-E": {"geometry": {"location": {"lat": 42.3418721, "lng": -71.12345239999999}, "viewport": {"northeast": {"lat": 42.34313188029149, "lng": -71.1220675197085}, "southwest": {"lat": 42.3404339197085, "lng": -71.1247654802915}}}, "icon": "https://maps.gstatic.com/mapfiles/place_api/icons/generic_business-71.png", "id": "8f8b880bfe6c40b4950aedf9f87bb4832db0fc90", "name": "Erika M. Kaplan, LICSW", "place_id": "ChIJg6J1Ur5544kRYsi9-cWJX-E", "plus_code": {"compound_code": "8VRG+PJ Brookline, Massachusetts, United States", "global_code": "87JC8VRG+PJ"}, "reference": "ChIJg6J1Ur5544kRYsi9-cWJX-E", "scope": "GOOGLE", "types": ["doctor", "health", "point_of_interest", "establishment"], "vicinity": "1368 Beacon Street, Brookline"}, "ChIJg6J1Ur5544kRE_nXxIFlitg": {"geometry": {"location": {"lat": 42.3418721, "lng": -71.12345239999999}, "viewport": {"northeast": {"lat": 42.34313188029149, "lng": -71.1220675197085}, "southwest": {"lat": 42.3404339197085, "lng": -71.1247654802915}}}, "icon": "https://maps.gstatic.com/mapfiles/place_api/icons/generic_business-71.png", "id": "df8019d356899eab9acce82b336e0b808d5a9a9a", "name": "Blair S. Gelbond, LICSW", "place_id": "ChIJg6J1Ur5544kRE_nXxIFlitg", "plus_code": {"compound_code": "8VRG+PJ Brookline, Massachusetts, United States", "global_code": "87JC8VRG+PJ"}, "reference": "ChIJg6J1Ur5544kRE_nXxIFlitg", "scope": "GOOGLE", "types": ["doctor", "health", "point_of_interest", "establishment"], "vicinity": "1368 Beacon Street Suite 108, Brookline, MA 02446, Brookline"}, "ChIJb4l1Ur5544kR4ZGuRgwLPi0": {"geometry": {"location": {"lat": 42.3418901, "lng": -71.1233774}, "viewport": {"northeast": {"lat": 42.3431491802915, "lng": -71.1219922197085}, "southwest": {"lat": 42.34045121970851, "lng": -71.12469018029151}}}, "icon": "https://maps.gstatic.com/mapfiles/place_api/icons/generic_business-71.png", "id": "322be0f65fa01b937787fd6396d9ef3ce084ccf8", "name": "One Body", "place_id": "ChIJb4l1Ur5544kR4ZGuRgwLPi0", "plus_code": {"compound_code": "8VRG+QJ Brookline, Massachusetts, United States", "global_code": "87JC8VRG+QJ"}, "reference": "ChIJb4l1Ur5544kR4ZGuRgwLPi0", "scope": "GOOGLE", "types": ["point_of_interest", "establishment"], "vicinity": "1368 Beacon Street, Brookline"}, "ChIJg6J1Ur5544kR07Pm514m0EA": {"geometry": {"location": {"lat": 42.3418721, "lng": -71.12345239999999}, "viewport": {"northeast": {"lat": 42.34313188029149, "lng": -71.1220675197085}, "southwest": {"lat": 42.3404339197085, "lng": -71.1247654802915}}}, "icon": "https://maps.gstatic.com/mapfiles/place_api/icons/generic_business-71.png", "id": "58b8551bde17e9081e81dc978a3cf925be4f65cb", "name": "Theodore Bradford, LICSW", "place_id": "ChIJg6J1Ur5544kR07Pm514m0EA", "plus_code": {"compound_code": "8VRG+PJ Brookline, Massachusetts, United States", "global_code": "87JC8VRG+PJ"}, "reference": "ChIJg6J1Ur5544kR07Pm514m0EA", "scope": "GOOGLE", "types": ["doctor", "health", "point_of_interest", "establishment"], "vicinity": "1368 Beacon Street, Brookline"}, "ChIJKQ2KTb5544kRVQI6blzd1U4": {"geometry": {"location": {"lat": 42.3418721, "lng": -71.12345239999999}, "viewport": {"northeast": {"lat": 42.34313188029149, "lng": -71.1220675197085}, "southwest": {"lat": 42.3404339197085, "lng": -71.1247654802915}}}, "icon": "https://maps.gstatic.com/mapfiles/place_api/icons/generic_business-71.png", "id": "af897a12dcf88c8c8e7d298bebe7d8f59e69a34e", "name": "Christina Bain, MA - Transformational Healing", "photos": [{"height": 1595, "html_attributions": ["<a href=\"https://maps.google.com/maps/contrib/118235181473184146406/photos\">Christina Bain, MA - Transformational Healing</a>"], "photo_reference": "CmRaAAAAkXpyQZTTEcQrSPK5krZbbSNduqtuu6kth4uiLjWuoS-1dOpaBCz88DLi7uuR9lPz-efcufkNu_WZrOm52T7s3y4rl9RNdfWSqLgXKIH4BAUChxkO4o1biacWrGGWFWXREhCk3Dei3q7u_UZUW-S0bQYRGhT0kA8_NfGJ93T-jJPTu2Ek7yx6pQ", "width": 2048}], "place_id": "ChIJKQ2KTb5544kRVQI6blzd1U4", "plus_code": {"compound_code": "8VRG+PJ Brookline, Massachusetts, United States", "global_code": "87JC8VRG+PJ"}, "reference": "ChIJKQ2KTb5544kRVQI6blzd1U4", "scope": "GOOGLE", "types": ["health", "point_of_interest", "establishment"], "vicinity": "1368 Beacon Street, Brookline"}, "ChIJg6J1Ur5544kRYrBiTWS6ThE": {"geometry": {"location": {"lat": 42.3418901, "lng": -71.1233774}, "viewport": {"northeast": {"lat": 42.3431491802915, "lng": -71.1219922197085}, "southwest": {"lat": 42.34045121970851, "lng": -71.12469018029151}}}, "icon": "https://maps.gstatic.com/mapfiles/place_api/icons/generic_business-71.png", "id": "e0890d53ad19c7178721d8a8b98f7faf765b1d43", "name": "Stepfamily Associates", "place_id": "ChIJg6J1Ur5544kRYrBiTWS6ThE", "plus_code": {"compound_code": "8VRG+QJ Brookline, Massachusetts, United States", "global_code": "87JC8VRG+QJ"}, "reference": "ChIJg6J1Ur5544kRYrBiTWS6ThE", "scope": "GOOGLE", "types": ["health", "point_of_interest", "establishment"], "vicinity": "1368 Beacon Street, Brookline"}, "ChIJg6J1Ur5544kRTMVrsGVqtds": {"geometry": {"location": {"lat": 42.3418901, "lng": -71.1233774}, "viewport": {"northeast": {"lat": 42.3431491802915, "lng": -71.1219922197085}, "southwest": {"lat": 42.34045121970851, "lng": -71.12469018029151}}}, "icon": "https://maps.gstatic.com/mapfiles/place_api/icons/generic_business-71.png", "id": "55b15f13174ec842beacdeb7d2c88b12526f3c95", "name": "Osborne Judy", "place_id": "ChIJg6J1Ur5544kRTMVrsGVqtds", "plus_code": {"compound_code": "8VRG+QJ Brookline, Massachusetts, United States", "global_code": "87JC8VRG+QJ"}, "reference": "ChIJg6J1Ur5544kRTMVrsGVqtds", "scope": "GOOGLE", "types": ["doctor", "health", "point_of_interest", "establishment"], "vicinity": "1368 Beacon Street # 108, Brookline"}, "ChIJkeolDvJcXEAROYB2MNEBx5k": {"geometry": {"location": {"lat": 42.34189, "lng": -71.123377}, "viewport": {"northeast": {"lat": 42.34314913029149, "lng": -71.1219918697085}, "southwest": {"lat": 42.34045116970849, "lng": -71.1246898302915}}}, "icon": "https://maps.gstatic.com/mapfiles/place_api/icons/generic_business-71.png", "id": "4fb9980899a068af06da160e3ecab9f241bd73d3", "name": "Clozure Associates", "place_id": "ChIJkeolDvJcXEAROYB2MNEBx5k", "plus_code": {"compound_code": "8VRG+QJ Brookline, Massachusetts, United States", "global_code": "87JC8VRG+QJ"}, "reference": "ChIJkeolDvJcXEAROYB2MNEBx5k", "scope": "GOOGLE", "types": ["point_of_interest", "establishment"], "vicinity": "1368 Beacon Street #112, Brookline"}, "ChIJ9ThiUr5544kRcT-SXSDHF5s": {"geometry": {"location": {"lat": 42.3418901, "lng": -71.1233774}, "viewport": {"northeast": {"lat": 42.3431491802915, "lng": -71.1219922197085}, "southwest": {"lat": 42.34045121970851, "lng": -71.12469018029151}}}, "icon": "https://maps.gstatic.com/mapfiles/place_api/icons/generic_business-71.png", "id": "79329cdead6a27800376ebdf400a97c1110985cd", "name": "Skin With Care", "opening_hours": {"open_now": true}, "photos": [{"height": 3024, "html_attributions": ["<a href=\"https://maps.google.com/maps/contrib/100845569096181669613/photos\">Skin With Care</a>"], "photo_reference": "CmRaAAAAjFYgn8qomWCOihgIYZksCB_XyDvFERoRopTjmnFcSlNGGqMYLM7k1H2wem6tWKzis-Mf_WgwIKLiEJi87nh0iQoplRqqE31te3ngVEm70nQ2kobvF7ShNMNxhHs0zN1fEhC5EOyEfzdlj7ynAHCkcgTGGhSBimIs4m2tknk8EkKVjGPKAEO2gw", "width": 4032}], "place_id": "ChIJ9ThiUr5544kRcT-SXSDHF5s", "plus_code": {"compound_code": "8VRG+QJ Brookline, Massachusetts, United States", "global_code": "87JC8VRG+QJ"}, "rating": 5, "reference": "ChIJ9ThiUr5544kRcT-SXSDHF5s", "scope": "GOOGLE", "types": ["health", "point_of_interest", "establishment"], "user_ratings_total": 1, "vicinity": "1368 Beacon Street, Brookline"}, "ChIJg6J1Ur5544kRe-T-KPOSV1E": {"geometry": {"location": {"lat": 42.3418721, "lng": -71.12345239999999}, "viewport": {"northeast": {"lat": 42.34313188029149, "lng": -71.1220675197085}, "southwest": {"lat": 42.3404339197085, "lng": -71.1247654802915}}}, "icon": "https://maps.gstatic.com/mapfiles/place_api/icons/generic_business-71.png", "id": "2158d0988533a03f410034b61e9a9f36c5597aa0", "name": "Barry Meklir, MSPT", "place_id": "ChIJg6J1Ur5544kRe-T-KPOSV1E", "plus_code": {"compound_code": "8VRG+PJ Brookline, Massachusetts, United States", "global_code": "87JC8VRG+PJ"}, "reference": "ChIJg6J1Ur5544kRe-T-KPOSV1E", "scope": "GOOGLE", "types": ["physiotherapist", "health", "point_of_interest", "establishment"], "vicinity": "1368 Beacon Street, Brookline"}, "ChIJg6J1Ur5544kRgnnJJF2luPs": {"geometry": {"location": {"lat": 42.3418721, "lng": -71.12345239999999}, "viewport": {"northeast": {"lat": 42.34313188029149, "lng": -71.1220675197085}, "southwest": {"lat": 42.3404339197085, "lng": -71.1247654802915}}}, "icon": "https://maps.gstatic.com/mapfiles/place_api/icons/generic_business-71.png", "id": "21a78117e7068409ae2569ade2485f20b31fe92c", "name": "Janet L. England, LICSW", "place_id": "ChIJg6J1Ur5544kRgnnJJF2luPs", "plus_code": {"compound_code": "8VRG+PJ Brookline, Massachusetts, United States", "global_code": "87JC8VRG+PJ"}, "rating": 1, "reference": "ChIJg6J1Ur5544kRgnnJJF2luPs", "scope": "GOOGLE", "types": ["doctor", "health", "point_of_interest", "establishment"], "user_ratings_total": 1, "vicinity": "1368 Beacon Street, Brookline"}, "ChIJb4l1Ur5544kRT6SEu4Pedp0": {"geometry": {"location": {"lat": 42.3419141, "lng": -71.1234071}, "viewport": {"northeast": {"lat": 42.3431591302915, "lng": -71.12201626970851}, "southwest": {"lat": 42.3404611697085, "lng": -71.12471423029152}}}, "icon": "https://maps.gstatic.com/mapfiles/place_api/icons/generic_business-71.png", "id": "1b2daefee7c8248c4a8ac7b63ab2191ef246c046", "name": "Bikes Belong", "place_id": "ChIJb4l1Ur5544kRT6SEu4Pedp0", "plus_code": {"compound_code": "8VRG+QJ Brookline, Massachusetts, United States", "global_code": "87JC8VRG+QJ"}, "reference": "ChIJb4l1Ur5544kRT6SEu4Pedp0", "scope": "GOOGLE", "types": ["point_of_interest", "establishment"], "vicinity": "1368 Beacon Street # 102, Brookline"}, "ChIJb4l1Ur5544kR52bAOpR8sw4": {"geometry": {"location": {"lat": 42.3419141, "lng": -71.1234071}, "viewport": {"northeast": {"lat": 42.3431591302915, "lng": -71.12201626970851}, "southwest": {"lat": 42.3404611697085, "lng": -71.12471423029152}}}, "icon": "https://maps.gstatic.com/mapfiles/place_api/icons/generic_business-71.png", "id": "6cd74016ed48d2c5ca0c1d000863d58f7991a0ef", "name": "Sports Concussion New England", "place_id": "ChIJb4l1Ur5544kR52bAOpR8sw4", "plus_code": {"compound_code": "8VRG+QJ Brookline, Massachusetts, United States", "global_code": "87JC8VRG+QJ"}, "rating": 5, "reference": "ChIJb4l1Ur5544kR52bAOpR8sw4", "scope": "GOOGLE", "types": ["point_of_interest", "establishment"], "user_ratings_total": 1, "vicinity": "1368 Beacon Street, Brookline"}, "ChIJhZirQQB544kRB9LbXEfedZQ": {"geometry": {"location": {"lat": 42.33176419999999, "lng": -71.1211635}, "viewport": {"northeast": {"lat": 42.3518109, "lng": -71.1056969}, "southwest": {"lat": 42.29459689999999, "lng": -71.1789959}}}, "icon": "https://maps.gstatic.com/mapfiles/place_api/icons/geocode-71.png", "id": "92986b2d1f69af2f2a7e29d34ced8adfa8573beb", "name": "Brookline", "photos": [{"height": 651, "html_attributions": ["<a href=\"https://maps.google.com/maps/contrib/114772942214832951419/photos\">Michael Ahn</a>"], "photo_reference": "CmRaAAAANlGR3XSvlvHjxPFuyxQaA2LpqR6aXM9Qfx8b46ZShVP9GGyRAbuCI064TYw3SzHWK-DBFMeN9rsA3ivY06CP4HDjdZXll7PhlZBXa-DmUACPrsxEMZkHRZXSp7BqZonAEhCTDychZRX8Aw-iuuCCIhQpGhQ2uItm4CPt91mju_bMwZTvtlCkOg", "width": 1608}], "place_id": "ChIJhZirQQB544kRB9LbXEfedZQ", "reference": "ChIJhZirQQB544kRB9LbXEfedZQ", "scope": "GOOGLE", "types": ["locality", "political"], "vicinity": "Brookline"}, "ChIJg6J1Ur5544kRhmS5lv0jxVg": {"geometry": {"location": {"lat": 42.3419141, "lng": -71.1234071}, "viewport": {"northeast": {"lat": 42.3431591302915, "lng": -71.12201626970851}, "southwest": {"lat": 42.3404611697085, "lng": -71.12471423029152}}}, "icon": "https://maps.gstatic.com/mapfiles/place_api/icons/generic_business-71.png", "id": "fbb93b1150d3f0bc28e0f282845cf72d3d7862b7", "name": "American Fortune Real Estate", "place_id": "ChIJg6J1Ur5544kRhmS5lv0jxVg", "plus_code": {"compound_code": "8VRG+QJ Brookline, Massachusetts, United States", "global_code": "87JC8VRG+QJ"}, "reference": "ChIJg6J1Ur5544kRhmS5lv0jxVg", "scope": "GOOGLE", "types": ["real_estate_agency", "point_of_interest", "establishment"], "vicinity": "1368 Beacon Street # 116, Brookline"}, "ChIJwc5JgZV544kR3COX_5fa2gk": {"geometry": {"location": {"lat": 42.3419141, "lng": -71.1234071}, "viewport": {"northeast": {"lat": 42.3431591302915, "lng": -71.12201626970851}, "southwest": {"lat": 42.3404611697085, "lng": -71.12471423029152}}}, "icon": "https://maps.gstatic.com/mapfiles/place_api/icons/generic_business-71.png", "id": "2f5d71a321cb7c7c036f752b7b56173330a1c82e", "name": "Boston Posture Center", "opening_hours": {"open_now": true}, "photos": [{"height": 810, "html_attributions": ["<a href=\"https://maps.google.com/maps/contrib/102414189106449956890/photos\">Boston Posture Center</a>"], "photo_reference": "CmRaAAAAW6qAF8UEcmtqA9MoMMiQfBwkNArb8_V2ahY8GxAEJ55QFvTGKIxJs2YFjU_D2lnC1r_qHMKkpWGVRX27UcgiCOuGBCRerbM78cEOmOPGTFmF2hTHkEPhuOyGgyJDwhs-EhCvznYOW5WGApwsDwoAw0-TGhSagmnyRCAs2JEmwkW0uSVr-Eq9Ew", "width": 800}], "place_id": "ChIJwc5JgZV544kR3COX_5fa2gk", "plus_code": {"compound_code": "8VRG+QJ Brookline, Massachusetts, United States", "global_code": "87JC8VRG+QJ"}, "rating": 5, "reference": "ChIJwc5JgZV544kR3COX_5fa2gk", "scope": "GOOGLE", "types": ["point_of_interest", "establishment"], "user_ratings_total": 1, "vicinity": "1368 Beacon Street #112, Brookline"}, "ChIJg6J1Ur5544kRink50n4A7cY": {"geometry": {"location": {"lat": 42.3418901, "lng": -71.1233774}, "viewport": {"northeast": {"lat": 42.3431491802915, "lng": -71.1219922197085}, "southwest": {"lat": 42.34045121970851, "lng": -71.12469018029151}}}, "icon": "https://maps.gstatic.com/mapfiles/place_api/icons/generic_business-71.png", "id": "4eb065c6bbb89bac78d63b636efc4ee804e753ac", "name": "Niratna Business Solutions Inc", "place_id": "ChIJg6J1Ur5544kRink50n4A7cY", "plus_code": {"compound_code": "8VRG+QJ Brookline, Massachusetts, United States", "global_code": "87JC8VRG+QJ"}, "reference": "ChIJg6J1Ur5544kRink50n4A7cY", "scope": "GOOGLE", "types": ["point_of_interest", "establishment"], "vicinity": "1368 Beacon Street, Brookline"}, "ChIJq6paUr5544kRuFLB1Rb3xvM": {"geometry": {"location": {"lat": 42.3418721, "lng": -71.12345239999999}, "viewport": {"northeast": {"lat": 42.34313188029149, "lng": -71.1220675197085}, "southwest": {"lat": 42.3404339197085, "lng": -71.1247654802915}}}, "icon": "https://maps.gstatic.com/mapfiles/place_api/icons/generic_business-71.png", "id": "ab3a42394651a6af9ad161672bf2a5df77319cc5", "name": "Jaclyn Wolfman, Ph.D.", "place_id": "ChIJq6paUr5544kRuFLB1Rb3xvM", "plus_code": {"compound_code": "8VRG+PJ Brookline, Massachusetts, United States", "global_code": "87JC8VRG+PJ"}, "reference": "ChIJq6paUr5544kRuFLB1Rb3xvM", "scope": "GOOGLE", "types": ["health", "point_of_interest", "establishment"], "vicinity": "1368 Beacon Street, Brookline"}, "ChIJg6J1Ur5544kRfuWKdFHBcyQ": {"geometry": {"location": {"lat": 42.3418721, "lng": -71.12345239999999}, "viewport": {"northeast": {"lat": 42.34313188029149, "lng": -71.1220675197085}, "southwest": {"lat": 42.3404339197085, "lng": -71.1247654802915}}}, "icon": "https://maps.gstatic.com/mapfiles/place_api/icons/generic_business-71.png", "id": "6215e26e47d35af3bb2e48975fd5a4d6ed3400c5", "name": "Leroy L. Kelly, LMHC", "place_id": "ChIJg6J1Ur5544kRfuWKdFHBcyQ", "plus_code": {"compound_code": "8VRG+PJ Brookline, Massachusetts, United States", "global_code": "87JC8VRG+PJ"}, "reference": "ChIJg6J1Ur5544kRfuWKdFHBcyQ", "scope": "GOOGLE", "types": ["doctor", "health", "point_of_interest", "establishment"], "vicinity": "1368 Beacon Street Suite 108, Brookline, MA 02446, Brookline"}, "ChIJgXfTiJV544kRdE6QERkvcAc": {"geometry": {"location": {"lat": 42.3418303, "lng": -71.1232666}, "viewport": {"northeast": {"lat": 42.3431280302915, "lng": -71.1218969697085}, "southwest": {"lat": 42.3404300697085, "lng": -71.12459493029151}}}, "icon": "https://maps.gstatic.com/mapfiles/place_api/icons/generic_business-71.png", "id": "621afc7656c0b54f08a47e0f877a18e78bd4939d", "name": "Allied Properties", "place_id": "ChIJgXfTiJV544kRdE6QERkvcAc", "plus_code": {"compound_code": "8VRG+PM Brookline, Massachusetts, United States", "global_code": "87JC8VRG+PM"}, "reference": "ChIJgXfTiJV544kRdE6QERkvcAc", "scope": "GOOGLE", "types": ["real_estate_agency", "point_of_interest", "establishment"], "vicinity": "1368 Beacon Street #109, Brookline"}, "ChIJg6J1Ur5544kR16NSw3Xrd2k": {"geometry": {"location": {"lat": 42.3418901, "lng": -71.1233774}, "viewport": {"northeast": {"lat": 42.3431491802915, "lng": -71.1219922197085}, "southwest": {"lat": 42.34045121970851, "lng": -71.12469018029151}}}, "icon": "https://maps.gstatic.com/mapfiles/place_api/icons/generic_business-71.png", "id": "66f4e74206b9d828e57732d8e76cc46aa2b9009e", "name": "Dr. Peter W. Lee, DDS", "place_id": "ChIJg6J1Ur5544kR16NSw3Xrd2k", "plus_code": {"compound_code": "8VRG+QJ Brookline, Massachusetts, United States", "global_code": "87JC8VRG+QJ"}, "reference": "ChIJg6J1Ur5544kR16NSw3Xrd2k", "scope": "GOOGLE", "types": ["dentist", "health", "point_of_interest", "establishment"], "vicinity": "1368 Beacon Street #105, Brookline"}, "ChIJg6J1Ur5544kRc_2Xksddu7I": {"geometry": {"location": {"lat": 42.3418901, "lng": -71.1233774}, "viewport": {"northeast": {"lat": 42.3431491802915, "lng": -71.1219922197085}, "southwest": {"lat": 42.34045121970851, "lng": -71.12469018029151}}}, "icon": "https://maps.gstatic.com/mapfiles/place_api/icons/generic_business-71.png", "id": "bc54c01c4dc54355c7e580971e0b1a180802d7da", "name": "Dr. Wai C. Lee, DMD", "place_id": "ChIJg6J1Ur5544kRc_2Xksddu7I", "plus_code": {"compound_code": "8VRG+QJ Brookline, Massachusetts, United States", "global_code": "87JC8VRG+QJ"}, "reference": "ChIJg6J1Ur5544kRc_2Xksddu7I", "scope": "GOOGLE", "types": ["dentist", "health", "point_of_interest", "establishment"], "vicinity": "1368 Beacon Street #105, Brookline"}, "ChIJg6J1Ur5544kRKA-fxE0A2OY": {"geometry": {"location": {"lat": 42.3418901, "lng": -71.1233774}, "viewport": {"northeast": {"lat": 42.3431491802915, "lng": -71.1219922197085}, "southwest": {"lat": 42.34045121970851, "lng": -71.12469018029151}}}, "icon": "https://maps.gstatic.com/mapfiles/place_api/icons/generic_business-71.png", "id": "d2c7b29e841a6bbb6d0f161b32b1f3bbd48f3d4a", "name": "Evans Craig F", "place_id": "ChIJg6J1Ur5544kRKA-fxE0A2OY", "plus_code": {"compound_code": "8VRG+QJ Brookline, Massachusetts, United States", "global_code": "87JC8VRG+QJ"}, "reference": "ChIJg6J1Ur5544kRKA-fxE0A2OY", "scope": "GOOGLE", "types": ["doctor", "health", "point_of_interest", "establishment"], "vicinity": "1368 Beacon Street # 115, Brookline"}, "ChIJ9ThiUr5544kR3W3pkVXS8LU": {"geometry": {"location": {"lat": 42.3418901, "lng": -71.1233774}, "viewport": {"northeast": {"lat": 42.3431491802915, "lng": -71.1219922197085}, "southwest": {"lat": 42.34045121970851, "lng": -71.12469018029151}}}, "icon": "https://maps.gstatic.com/mapfiles/place_api/icons/generic_business-71.png", "id": "e9ac6803dfed05ea767465399c9e561ed90b4718", "name": "Astra Natural", "place_id": "ChIJ9ThiUr5544kR3W3pkVXS8LU", "plus_code": {"compound_code": "8VRG+QJ Brookline, Massachusetts, United States", "global_code": "87JC8VRG+QJ"}, "reference": "ChIJ9ThiUr5544kR3W3pkVXS8LU", "scope": "GOOGLE", "types": ["health", "point_of_interest", "establishment"], "vicinity": "1368 Beacon Street #110, Brookline"}, "ChIJUaNiTb5544kRlEQURXf1sek": {"geometry": {"location": {"lat": 42.3419258, "lng": -71.1233104}, "viewport": {"northeast": {"lat": 42.34317523029149, "lng": -71.12192136970849}, "southwest": {"lat": 42.34047726970849, "lng": -71.12461933029151}}}, "icon": "https://maps.gstatic.com/mapfiles/place_api/icons/restaurant-71.png", "id": "666e3cdbcba0cff58640bf4d4e39b73636b24bd6", "name": "Hamilton Restaurant & Bar", "opening_hours": {"open_now": true}, "photos": [{"height": 3024, "html_attributions": ["<a href=\"https://maps.google.com/maps/contrib/111566301535326062740/photos\">Nina Faulk</a>"], "photo_reference": "CmRaAAAAuUUMyRRt35FiIgareMI331eD693OPhy5wLrT0IDLaYyVdTkaAit0jWH2xLbhASAP6ySkW_aw6XNh8_NX9uEtFmoGNKW2FBbHEE-nq10NHlmsBWYTjlxkISkwAynWUpaAEhDysDtuX1EMJGSf6dvkfoBLGhTQQNceFP_8elfF_K5gjUiheRGlmQ", "width": 4032}], "place_id": "ChIJUaNiTb5544kRlEQURXf1sek", "plus_code": {"compound_code": "8VRG+QM Brookline, Massachusetts, United States", "global_code": "87JC8VRG+QM"}, "rating": 3.7, "reference": "ChIJUaNiTb5544kRlEQURXf1sek", "scope": "GOOGLE", "types": ["restaurant", "bar", "point_of_interest", "food", "establishment"], "user_ratings_total": 73, "vicinity": "1366 Beacon Street, Brookline"}, "ChIJg6J1Ur5544kR1CoGvaFEhFM": {"geometry": {"location": {"lat": 42.3418721, "lng": -71.12345239999999}, "viewport": {"northeast": {"lat": 42.34313188029149, "lng": -71.1220675197085}, "southwest": {"lat": 42.3404339197085, "lng": -71.1247654802915}}}, "icon": "https://maps.gstatic.com/mapfiles/place_api/icons/generic_business-71.png", "id": "950d48466695fbaea61045f775ab686167aadb68", "name": "Naomi G. Axelrod, LICSW", "place_id": "ChIJg6J1Ur5544kR1CoGvaFEhFM", "plus_code": {"compound_code": "8VRG+PJ Brookline, Massachusetts, United States", "global_code": "87JC8VRG+PJ"}, "reference": "ChIJg6J1Ur5544kR1CoGvaFEhFM", "scope": "GOOGLE", "types": ["doctor", "health", "point_of_interest", "establishment"], "vicinity": "1368 Beacon Street, Brookline, MA 02446, Brookline"}, "ChIJg6J1Ur5544kRPnHP6nyLNtc": {"geometry": {"location": {"lat": 42.3418721, "lng": -71.12345239999999}, "viewport": {"northeast": {"lat": 42.34313188029149, "lng": -71.1220675197085}, "southwest": {"lat": 42.3404339197085, "lng": -71.1247654802915}}}, "icon": "https://maps.gstatic.com/mapfiles/place_api/icons/generic_business-71.png", "id": "62aba748f3300ea3c998b6426d30a613a66bd736", "name": "Kathryn S. Kirshner, Kathryn", "place_id": "ChIJg6J1Ur5544kRPnHP6nyLNtc", "plus_code": {"compound_code": "8VRG+PJ Brookline, Massachusetts, United States", "global_code": "87JC8VRG+PJ"}, "reference": "ChIJg6J1Ur5544kRPnHP6nyLNtc", "scope": "GOOGLE", "types": ["health", "point_of_interest", "establishment"], "vicinity": "1368 Beacon Street, Brookline"}, "ChIJg6J1Ur5544kR0xxhMfYtYxs": {"geometry": {"location": {"lat": 42.3418721, "lng": -71.12345239999999}, "viewport": {"northeast": {"lat": 42.34313188029149, "lng": -71.1220675197085}, "southwest": {"lat": 42.3404339197085, "lng": -71.1247654802915}}}, "icon": "https://maps.gstatic.com/mapfiles/place_api/icons/generic_business-71.png", "id": "bed56a01df67d16538e2e5c937f80a6a40cb4d59", "name": "Nancy L. Mcgrath, MSW", "place_id": "ChIJg6J1Ur5544kR0xxhMfYtYxs", "plus_code": {"compound_code": "8VRG+PJ Brookline, Massachusetts, United States", "global_code": "87JC8VRG+PJ"}, "reference": "ChIJg6J1Ur5544kR0xxhMfYtYxs", "scope": "GOOGLE", "types": ["doctor", "health", "point_of_interest", "establishment"], "vicinity": "1368 Beacon Street, Brookline, MA 02446, Brookline"}, "ChIJKQ2KTb5544kRj9g6ip_nL8Q": {"geometry": {"location": {"lat": 42.3419141, "lng": -71.1234071}, "viewport": {"northeast": {"lat": 42.3431591302915, "lng": -71.12201626970851}, "southwest": {"lat": 42.3404611697085, "lng": -71.12471423029152}}}, "icon": "https://maps.gstatic.com/mapfiles/place_api/icons/generic_business-71.png", "id": "d45c7a8b4e445c1535f2efede65ecc9a46495e35", "name": "Lee Dental Associates", "place_id": "ChIJKQ2KTb5544kRj9g6ip_nL8Q", "plus_code": {"compound_code": "8VRG+QJ Brookline, Massachusetts, United States", "global_code": "87JC8VRG+QJ"}, "reference": "ChIJKQ2KTb5544kRj9g6ip_nL8Q", "scope": "GOOGLE", "types": ["dentist", "health", "point_of_interest", "establishment"], "vicinity": "1368 Beacon Street # 105, Brookline"}, "ChIJ_60sHcd544kRLihXHKiLnb0": {"geometry": {"location": {"lat": 42.3419141, "lng": -71.1234071}, "viewport": {"northeast": {"lat": 42.3431591302915, "lng": -71.12201626970851}, "southwest": {"lat": 42.3404611697085, "lng": -71.12471423029152}}}, "icon": "https://maps.gstatic.com/mapfiles/place_api/icons/generic_business-71.png", "id": "53ff65641b013be4e7833f1b2d8d1a4c2fa01301", "name": "Melissa J. Gardner, LMHC", "place_id": "ChIJ_60sHcd544kRLihXHKiLnb0", "plus_code": {"compound_code": "8VRG+QJ Brookline, Massachusetts, United States", "global_code": "87JC8VRG+QJ"}, "reference": "ChIJ_60sHcd544kRLihXHKiLnb0", "scope": "GOOGLE", "types": ["doctor", "health", "point_of_interest", "establishment"], "vicinity": "1368 Beacon Street Suite 114, Brookline"}, "ChIJg6J1Ur5544kR4Ky_823Bcdo": {"geometry": {"location": {"lat": 42.3419141, "lng": -71.1234071}, "viewport": {"northeast": {"lat": 42.3431591302915, "lng": -71.12201626970851}, "southwest": {"lat": 42.3404611697085, "lng": -71.12471423029152}}}, "icon": "https://maps.gstatic.com/mapfiles/place_api/icons/generic_business-71.png", "id": "dfba67ca293d88e21a0e9f7c7a4f9e0a61d015cf", "name": "Levine Enterprises", "place_id": "ChIJg6J1Ur5544kR4Ky_823Bcdo", "plus_code": {"compound_code": "8VRG+QJ Brookline, Massachusetts, United States", "global_code": "87JC8VRG+QJ"}, "reference": "ChIJg6J1Ur5544kR4Ky_823Bcdo", "scope": "GOOGLE", "types": ["real_estate_agency", "point_of_interest", "establishment"], "vicinity": "1368 Beacon Street # 114, Brookline"}}