{"ChIJi3xHkQx644kRN9saLE7iAwI": {"geometry": {"location": {"lat": 42.3496757, "lng": -71.07545999999999}, "viewport": {"northeast": {"lat": 42.3510246302915, "lng": -71.0741109697085}, "southwest": {"lat": 42.3483266697085, "lng": -71.0768089302915}}}, "icon": "https://maps.gstatic.com/mapfiles/place_api/icons/geocode-71.png", "id": "c4f54eb3dd3dcffe0aae9800a331be8589f817cc", "name": "120 St James Ave", "place_id": "ChIJi3xHkQx644kRN9saLE7iAwI", "reference": "ChIJi3xHkQx644kRN9saLE7iAwI", "scope": "GOOGLE", "types": ["route"], "vicinity": "Boston"}, "ChIJ4T7gFQl644kRz59XGUnVilE": {"geometry": {"location": {"lat": 42.3493587, "lng": -71.07581379999999}, "viewport": {"northeast": {"lat": 42.3507116302915, "lng": -71.07445021970848}, "southwest": {"lat": 42.3480136697085, "lng": -71.0771481802915}}}, "icon": "https://maps.gstatic.com/mapfiles/place_api/icons/generic_business-71.png", "id": "5bd9bebca5b75fe10a076e1bb3fab8891afbe4be", "name": "Baystate Financial", "opening_hours": {"open_now": true}, "photos": [{"height": 1324, "html_attributions": ["<a href=\"https://maps.google.com/maps/contrib/106490484026109881656/photos\">Baystate Financial</a>"], "photo_reference": "CmRaAAAABYkQx-MDfJiWs5WbJUpitXHFN2eNWQf2VCT0MeNGVxym03-p2GvpRIlLd1BQxtFmDdd0iFVqG4z9DFTP-TWtZE_XvP9Ff5z9-JW4lIixGOGxZbtHGndWqAiXuiIl0XMlEhDpu2LZ_Cubak0_lM5azsyRGhRClWe24D0IVNawweRbbGpbhYIfIQ", "width": 1324}], "place_id": "ChIJ4T7gFQl644kRz59XGUnVilE", "plus_code": {"compound_code": "8WXF+PM Boston, Massachusetts, United States", "global_code": "87JC8WXF+PM"}, "rating": 3.7, "reference": "ChIJ4T7gFQl644kRz59XGUnVilE", "scope": "GOOGLE", "types": ["insurance_agency", "finance", "point_of_interest", "establishment"], "user_ratings_total": 3, "vicinity": "200 Clarendon Street 19th floor, Boston"}, "ChIJuYrFvgx644kRQNZFlUah9ZY": {"geometry": {"location": {"lat": 42.34937559999999, "lng": -71.0755321}, "viewport": {"northeast": {"lat": 42.35084268029149, "lng": -71.0737568697085}, "southwest": {"lat": 42.3481447197085, "lng": -71.07645483029151}}}, "icon": "https://maps.gstatic.com/mapfiles/place_api/icons/generic_business-71.png", "id": "c34b3aa6129ddd65a7e86bc747394dc2460cc0a7", "name": "Connors Family Office", "photos": [{"height": 1080, "html_attributions": ["<a href=\"https://maps.google.com/maps/contrib/118193160598482061258/photos\">Jeremy Valadez</a>"], "photo_reference": "CmRaAAAAcm6nft6hU1kMRN5wKvjp8YmHkshctR7qImTJr3GmyeRwbybTPXXpWdKAUdX_9vi8jSMAS4OzQHp1PpvW5qWpQToXz9suYI67MvH6Kp5Tg4AkZKsLdJ-PHLfo9zK7mCsUEhD5nOIPJQAzAnnbj-dyXghDGhTJBxm_dUUA-v1eDi3_SCJXf2ZYXQ", "width": 1920}], "place_id": "ChIJuYrFvgx644kRQNZFlUah9ZY", "plus_code": {"compound_code": "8WXF+QQ Boston, Massachusetts, United States", "global_code": "87JC8WXF+QQ"}, "rating": 5, "reference": "ChIJuYrFvgx644kRQNZFlUah9ZY", "scope": "GOOGLE", "types": ["point_of_interest", "establishment"], "user_ratings_total": 1, "vicinity": "200 Clarendon Street, Boston"}, "ChIJuYrFvgx644kR7tOg9AxpVYY": {"geometry": {"location": {"lat": 42.3493159, "lng": -71.0756127}, "viewport": {"northeast": {"lat": 42.3507964302915, "lng": -71.0737888697085}, "southwest": {"lat": 42.3480984697085, "lng": -71.0764868302915}}}, "icon": "https://maps.gstatic.com/mapfiles/place_api/icons/generic_business-71.png", "id": "b05b85a996614033619afd08d1a3f7cd8b24156b", "name": "Commonwealth Venture Management", "place_id": "ChIJuYrFvgx644kR7tOg9AxpVYY", "plus_code": {"compound_code": "8WXF+PQ Boston, Massachusetts, United States", "global_code": "87JC8WXF+PQ"}, "reference": "ChIJuYrFvgx644kR7tOg9AxpVYY", "scope": "GOOGLE", "types": ["point_of_interest", "establishment"], "vicinity": "200 Clarendon Street, Boston"}, "ChIJGzE9DS1l44kRoOhiASS_fHg": {"geometry": {"location": {"lat": 42.3600825, "lng": -71.0588801}, "viewport": {"northeast": {"lat": 42.40081989999999, "lng": -70.749455}, "southwest": {"lat": 42.22788, "lng": -71.191113}}}, "icon": "https://maps.gstatic.com/mapfiles/place_api/icons/geocode-71.png", "id": "06755c25d2b34d13942a4713971756a55b870ced", "name": "Boston", "photos": [{"height": 3024, "html_attributions": ["<a href=\"https://maps.google.com/maps/contrib/104670289779338733432/photos\">Natalia Zalucean</a>"], "photo_reference": "CmRaAAAA3rVTdY4WaTReT_e6wicg_IBhDvFubEM2jpop_hGxuihxKfZvu93KdOymalCfHYRfE5Z0o9IicRlxwMHmT8FkC83giIQ-VCR9fYQqPK3R_sITUjIwJ2E_-I6QU_kzKy4IEhCUNvnnIgtRtkWMlM2FUtFMGhRqIOePdOa08hJ1mII6iI6L1W7N1w", "width": 4032}], "place_id": "ChIJGzE9DS1l44kRoOhiASS_fHg", "reference": "ChIJGzE9DS1l44kRoOhiASS_fHg", "scope": "GOOGLE", "types": ["locality", "political"], "vicinity": "Boston"}}