{"ChIJ9Z2i_gt644kRLFNJM_3CMT0": {"geometry": {"location": {"lat": 42.3514154, "lng": -71.0792077}, "viewport": {"northeast": {"lat": 42.3527643802915, "lng": -71.07705914999998}, "southwest": {"lat": 42.3500664197085, "lng": -71.08135615}}}, "icon": "https://maps.gstatic.com/mapfiles/place_api/icons/geocode-71.png", "id": "d844b115b9a58490a97ccfd6ccbf75a820314fa1", "name": "192-158 MA-2", "place_id": "ChIJ9Z2i_gt644kRLFNJM_3CMT0", "reference": "ChIJ9Z2i_gt644kRLFNJM_3CMT0", "scope": "GOOGLE", "types": ["route"], "vicinity": "Boston"}, "ChIJ5XAJ_wt644kR8-YCauN4OZs": {"geometry": {"location": {"lat": 42.35120149999999, "lng": -71.0792924}, "viewport": {"northeast": {"lat": 42.3526347802915, "lng": -71.0779850697085}, "southwest": {"lat": 42.3499368197085, "lng": -71.08068303029151}}}, "icon": "https://maps.gstatic.com/mapfiles/place_api/icons/generic_business-71.png", "id": "7c6fca27e82701f237e63fae07a29d10f7b68e8d", "name": "Compass Furnished Apartments", "place_id": "ChIJ5XAJ_wt644kR8-YCauN4OZs", "plus_code": {"compound_code": "9W2C+F7 Boston, Massachusetts, United States", "global_code": "87JC9W2C+F7"}, "rating": 4, "reference": "ChIJ5XAJ_wt644kR8-YCauN4OZs", "scope": "GOOGLE", "types": ["lodging", "point_of_interest", "establishment"], "user_ratings_total": 1, "vicinity": "176 Commonwealth Avenue, Boston"}, "ChIJGzE9DS1l44kRoOhiASS_fHg": {"geometry": {"location": {"lat": 42.3600825, "lng": -71.0588801}, "viewport": {"northeast": {"lat": 42.40081989999999, "lng": -70.749455}, "southwest": {"lat": 42.22788, "lng": -71.191113}}}, "icon": "https://maps.gstatic.com/mapfiles/place_api/icons/geocode-71.png", "id": "06755c25d2b34d13942a4713971756a55b870ced", "name": "Boston", "photos": [{"height": 3024, "html_attributions": ["<a href=\"https://maps.google.com/maps/contrib/104670289779338733432/photos\">Natalia Zalucean</a>"], "photo_reference": "CmRaAAAA28sEPd534IcstWhUgcyRarXWcJozAX7skWFMfW-vSysNbZm2qVbof7P5C-eIJ9sLN79jQfGiok1BzxC9VqColHaIi0z1vGMvMLLwo_lgs6JXgp1ZkLLRJ3CrdU3U653HEhCmKOvU0rDRp2o-9sASjr2AGhSaGjCfyr3tmo-TypyxOV97kWMV-w", "width": 4032}], "place_id": "ChIJGzE9DS1l44kRoOhiASS_fHg", "reference": "ChIJGzE9DS1l44kRoOhiASS_fHg", "scope": "GOOGLE", "types": ["locality", "political"], "vicinity": "Boston"}}