{"ChIJeVDx0oNw44kRnNdOqy8PxVg": {"geometry": {"location": {"lat": 42.35449699999999, "lng": -71.05634359999999}, "viewport": {"northeast": {"lat": 42.3558459302915, "lng": -71.05499466970849}, "southwest": {"lat": 42.3531479697085, "lng": -71.0576926302915}}}, "icon": "https://maps.gstatic.com/mapfiles/place_api/icons/geocode-71.png", "id": "42ea3568107718c6aac9d70383e4aec5060ca0d1", "name": "125-127 Federal St", "place_id": "ChIJeVDx0oNw44kRnNdOqy8PxVg", "reference": "ChIJeVDx0oNw44kRnNdOqy8PxVg", "scope": "GOOGLE", "types": ["route"], "vicinity": "Boston"}, "ChIJAXL60oNw44kRZ_ZkAdn0OkY": {"geometry": {"location": {"lat": 42.3544867, "lng": -71.0562336}, "viewport": {"northeast": {"lat": 42.35582998029149, "lng": -71.0549375197085}, "southwest": {"lat": 42.35313201970849, "lng": -71.05763548029151}}}, "icon": "https://maps.gstatic.com/mapfiles/place_api/icons/generic_business-71.png", "id": "0eb6d142259134b939446d5de9049fa912105eca", "name": "Campbell Mithun Inc", "place_id": "ChIJAXL60oNw44kRZ_ZkAdn0OkY", "plus_code": {"compound_code": "9W3V+QG Boston, Massachusetts, United States", "global_code": "87JC9W3V+QG"}, "reference": "ChIJAXL60oNw44kRZ_ZkAdn0OkY", "scope": "GOOGLE", "types": ["point_of_interest", "establishment"], "vicinity": "140 Federal Street, Boston"}, "ChIJGzE9DS1l44kRoOhiASS_fHg": {"geometry": {"location": {"lat": 42.3600825, "lng": -71.0588801}, "viewport": {"northeast": {"lat": 42.40081989999999, "lng": -70.749455}, "southwest": {"lat": 42.22788, "lng": -71.191113}}}, "icon": "https://maps.gstatic.com/mapfiles/place_api/icons/geocode-71.png", "id": "06755c25d2b34d13942a4713971756a55b870ced", "name": "Boston", "photos": [{"height": 3024, "html_attributions": ["<a href=\"https://maps.google.com/maps/contrib/104670289779338733432/photos\">Natalia Zalucean</a>"], "photo_reference": "CmRaAAAAeJOFq-kLcYD8dH34g5EDb7nwcxPb_3Oz7s9frE8s5MufqBM70QnhsHQCIfez0BBn5hmwR5-JqJp_VwGmxQ6NqWLpmD3y1MwLD9yMFZ3Ew1EonOEeeoW7i6tYG7J7gHXsEhA8xVuIPfFe5SdF_-ep_kLhGhTLdvfCPf9j83ufqLMQQ7W35QxsLw", "width": 4032}], "place_id": "ChIJGzE9DS1l44kRoOhiASS_fHg", "reference": "ChIJGzE9DS1l44kRoOhiASS_fHg", "scope": "GOOGLE", "types": ["locality", "political"], "vicinity": "Boston"}}