{"ChIJZ1tEpXR644kRcDd_3u4mn4U": {"geometry": {"location": {"lat": 42.3506023, "lng": -71.0727386}, "viewport": {"northeast": {"lat": 42.3519512302915, "lng": -71.07138966970848}, "southwest": {"lat": 42.34925326970851, "lng": -71.0740876302915}}}, "icon": "https://maps.gstatic.com/mapfiles/place_api/icons/geocode-71.png", "id": "b794f362997b547035f86b4615fe93a32d8220eb", "name": "222-216 Berkeley St", "place_id": "ChIJZ1tEpXR644kRcDd_3u4mn4U", "reference": "ChIJZ1tEpXR644kRcDd_3u4mn4U", "scope": "GOOGLE", "types": ["route"], "vicinity": "Boston"}, "ChIJczeBWgt644kRgz6gw5y-H84": {"geometry": {"location": {"lat": 42.35066700000001, "lng": -71.07319439999999}, "viewport": {"northeast": {"lat": 42.3517211302915, "lng": -71.07233865}, "southwest": {"lat": 42.3490231697085, "lng": -71.07576165}}}, "icon": "https://maps.gstatic.com/mapfiles/place_api/icons/generic_business-71.png", "id": "e5f3649365d80591a06e45505d12ab919c61825c", "name": "The Back Bay Garage", "opening_hours": {"open_now": true}, "photos": [{"height": 3264, "html_attributions": ["<a href=\"https://maps.google.com/maps/contrib/103944317976240600306/photos\">David Rueda</a>"], "photo_reference": "CmRaAAAAyptHPiX5ADejHtBiWl6wnNE8aFL50QptP7TrIdpzDVMtS2B4MMsx4gb4NjB65jqirtIvlBp4-POy768N2Qe6ZgO4538BEWGlsxa6zudZ0MqTOElRxHjd8YGx-JzO1KFhEhBPs0IhGB454c-xzC3wqBkoGhQOX4h_aznMCRFPbm0qsDV_HmmCxQ", "width": 2448}], "place_id": "ChIJczeBWgt644kRgz6gw5y-H84", "plus_code": {"compound_code": "9W2G+7P Boston, Massachusetts, United States", "global_code": "87JC9W2G+7P"}, "rating": 4, "reference": "ChIJczeBWgt644kRgz6gw5y-H84", "scope": "GOOGLE", "types": ["parking", "point_of_interest", "establishment"], "user_ratings_total": 24, "vicinity": "222 Berkeley Street, Boston"}, "ChIJCbOYrXR644kRgxqF7PGQ8Nc": {"geometry": {"location": {"lat": 42.35066700000001, "lng": -71.07319439999999}, "viewport": {"northeast": {"lat": 42.3520681802915, "lng": -71.07165931970849}, "southwest": {"lat": 42.34937021970851, "lng": -71.07435728029151}}}, "icon": "https://maps.gstatic.com/mapfiles/place_api/icons/generic_business-71.png", "id": "2e967436d5ecd502914e1b587f55ee9e45eaf5ba", "name": "GW&K Investment Management", "place_id": "ChIJCbOYrXR644kRgxqF7PGQ8Nc", "plus_code": {"compound_code": "9W2G+7P Boston, Massachusetts, United States", "global_code": "87JC9W2G+7P"}, "reference": "ChIJCbOYrXR644kRgxqF7PGQ8Nc", "scope": "GOOGLE", "types": ["finance", "point_of_interest", "establishment"], "vicinity": "15, 222 Berkeley Street, Boston"}, "ChIJCbOYrXR644kR-qWfXC4ZiQg": {"geometry": {"location": {"lat": 42.35066700000001, "lng": -71.07319439999999}, "viewport": {"northeast": {"lat": 42.3520681802915, "lng": -71.07165931970849}, "southwest": {"lat": 42.34937021970851, "lng": -71.07435728029151}}}, "icon": "https://maps.gstatic.com/mapfiles/place_api/icons/generic_business-71.png", "id": "aaf999c8c2e640c2d6fac85b185e211930d7c1e2", "name": "Boston's Fourth of July", "photos": [{"height": 720, "html_attributions": ["<a href=\"https://maps.google.com/maps/contrib/109517211095427433494/photos\">Irene Skirvin</a>"], "photo_reference": "CmRaAAAAdSUmhW30moUXJ5DfFhbKu-qWmxASl1oL8pti-4VXswfTaaN_TuHps7WhofaW0AowidWVXcehYgMQgHbURIYEoW5zDRN3WJq1vo6nd7vxFjarqX6sO9hf0qvTXAD2SqaqEhCaCfre1ScDgpZtseEjrgoOGhTE9mLvLGzhUiAIxCFEJ08lfyK2cw", "width": 540}], "place_id": "ChIJCbOYrXR644kR-qWfXC4ZiQg", "plus_code": {"compound_code": "9W2G+7P Boston, Massachusetts, United States", "global_code": "87JC9W2G+7P"}, "rating": 2.8, "reference": "ChIJCbOYrXR644kR-qWfXC4ZiQg", "scope": "GOOGLE", "types": ["point_of_interest", "establishment"], "user_ratings_total": 4, "vicinity": "222 Berkeley Street, Boston"}, "ChIJCbOYrXR644kRC4NuUbbprAQ": {"geometry": {"location": {"lat": 42.350727, "lng": -71.073132}, "viewport": {"northeast": {"lat": 42.3522954302915, "lng": -71.07188811970849}, "southwest": {"lat": 42.3495974697085, "lng": -71.0745860802915}}}, "icon": "https://maps.gstatic.com/mapfiles/place_api/icons/generic_business-71.png", "id": "c7d8cdca06605d9a3afffda8c8e11acfb7224397", "name": "Exaltare Capital Partners, LLC", "place_id": "ChIJCbOYrXR644kRC4NuUbbprAQ", "plus_code": {"compound_code": "9W2G+7P Boston, Massachusetts, United States", "global_code": "87JC9W2G+7P"}, "reference": "ChIJCbOYrXR644kRC4NuUbbprAQ", "scope": "GOOGLE", "types": ["finance", "point_of_interest", "establishment"], "vicinity": "500 Boylston Street, Boston"}, "ChIJCbOYrXR644kRbSSfuRy1lbI": {"geometry": {"location": {"lat": 42.35066700000001, "lng": -71.07319439999999}, "viewport": {"northeast": {"lat": 42.3520681802915, "lng": -71.07165931970849}, "southwest": {"lat": 42.34937021970851, "lng": -71.07435728029151}}}, "icon": "https://maps.gstatic.com/mapfiles/place_api/icons/generic_business-71.png", "id": "70a4f0946ac50721ee3db5f937151b11ab279c66", "name": "Capital Growth Management", "place_id": "ChIJCbOYrXR644kRbSSfuRy1lbI", "plus_code": {"compound_code": "9W2G+7P Boston, Massachusetts, United States", "global_code": "87JC9W2G+7P"}, "reference": "ChIJCbOYrXR644kRbSSfuRy1lbI", "scope": "GOOGLE", "types": ["finance", "point_of_interest", "establishment"], "vicinity": "222 Berkeley Street # 1013, Boston"}, "ChIJCbOYrXR644kRbD7U892E1kc": {"geometry": {"location": {"lat": 42.35066700000001, "lng": -71.07319439999999}, "viewport": {"northeast": {"lat": 42.3520681802915, "lng": -71.07165931970849}, "southwest": {"lat": 42.34937021970851, "lng": -71.07435728029151}}}, "icon": "https://maps.gstatic.com/mapfiles/place_api/icons/generic_business-71.png", "id": "48b5d36cd995374cdc8ed265b41b501c00fd7b37", "name": "Summit Partners", "photos": [{"height": 608, "html_attributions": ["<a href=\"https://maps.google.com/maps/contrib/107345704382977897577/photos\">Summit Partners</a>"], "photo_reference": "CmRaAAAAlN0L1gLnoaA-vALA2JrUAYY2zbR3GfNMOyxPE-iJZmaKGN-YbBn_2exYklVSHeit8V5-umtOc82yupL1UnJBw4XPq9sjNjGaWltfWWphuFk42hmu31urlpxmvvwkC92LEhAT11w3KOghknh8S3z1RgqdGhSTkIHEeaEyQzpeDmOfCb6Parb3Eg", "width": 1080}], "place_id": "ChIJCbOYrXR644kRbD7U892E1kc", "plus_code": {"compound_code": "9W2G+7P Boston, Massachusetts, United States", "global_code": "87JC9W2G+7P"}, "rating": 3.7, "reference": "ChIJCbOYrXR644kRbD7U892E1kc", "scope": "GOOGLE", "types": ["finance", "point_of_interest", "establishment"], "user_ratings_total": 3, "vicinity": "222 Berkeley Street, 18th Floor, Boston"}, "ChIJCbOYrXR644kRG7ZR29Km3iM": {"geometry": {"location": {"lat": 42.35066700000001, "lng": -71.07319439999999}, "viewport": {"northeast": {"lat": 42.3520681802915, "lng": -71.07165931970849}, "southwest": {"lat": 42.34937021970851, "lng": -71.07435728029151}}}, "icon": "https://maps.gstatic.com/mapfiles/place_api/icons/generic_business-71.png", "id": "048cfcd0a14080d8af5e4274184a9ae6adc3d35f", "name": "Mugar Enterprises Inc", "place_id": "ChIJCbOYrXR644kRG7ZR29Km3iM", "plus_code": {"compound_code": "9W2G+7P Boston, Massachusetts, United States", "global_code": "87JC9W2G+7P"}, "reference": "ChIJCbOYrXR644kRG7ZR29Km3iM", "scope": "GOOGLE", "types": ["point_of_interest", "establishment"], "vicinity": "222 Berkeley Street # 1325, Boston"}, "ChIJX3lisHR644kRFjXEGDnjOLI": {"geometry": {"location": {"lat": 42.35066700000001, "lng": -71.07319439999999}, "viewport": {"northeast": {"lat": 42.3520681802915, "lng": -71.07165931970849}, "southwest": {"lat": 42.34937021970851, "lng": -71.07435728029151}}}, "icon": "https://maps.gstatic.com/mapfiles/place_api/icons/generic_business-71.png", "id": "7643d8c840029122a363ae54f1d293f8f9554897", "name": "Setpoint Medical Corporation", "place_id": "ChIJX3lisHR644kRFjXEGDnjOLI", "plus_code": {"compound_code": "9W2G+7P Boston, Massachusetts, United States", "global_code": "87JC9W2G+7P"}, "reference": "ChIJX3lisHR644kRFjXEGDnjOLI", "scope": "GOOGLE", "types": ["point_of_interest", "establishment"], "vicinity": "222 Berkeley Street # 20, Boston"}, "ChIJCbOYrXR644kRbpCs0M0n9xc": {"geometry": {"location": {"lat": 42.35066700000001, "lng": -71.07319439999999}, "viewport": {"northeast": {"lat": 42.3520681802915, "lng": -71.07165931970849}, "southwest": {"lat": 42.34937021970851, "lng": -71.07435728029151}}}, "icon": "https://maps.gstatic.com/mapfiles/place_api/icons/generic_business-71.png", "id": "283da61e279a92d045b4fadac4580bf6b2ded98e", "name": "Trade & Reference Pubhs Division", "place_id": "ChIJCbOYrXR644kRbpCs0M0n9xc", "plus_code": {"compound_code": "9W2G+7P Boston, Massachusetts, United States", "global_code": "87JC9W2G+7P"}, "reference": "ChIJCbOYrXR644kRbpCs0M0n9xc", "scope": "GOOGLE", "types": ["point_of_interest", "establishment"], "vicinity": "222 Berkeley Street # 11, Boston"}, "ChIJCbOYrXR644kR1pb3RKEUnLc": {"geometry": {"location": {"lat": 42.35066700000001, "lng": -71.07319439999999}, "viewport": {"northeast": {"lat": 42.3520681802915, "lng": -71.07165931970849}, "southwest": {"lat": 42.34937021970851, "lng": -71.07435728029151}}}, "icon": "https://maps.gstatic.com/mapfiles/place_api/icons/generic_business-71.png", "id": "8eb6daa4e75c52bd52d1f7618bea19089ad58b4d", "name": "Lee & Levine LLP", "place_id": "ChIJCbOYrXR644kR1pb3RKEUnLc", "plus_code": {"compound_code": "9W2G+7P Boston, Massachusetts, United States", "global_code": "87JC9W2G+7P"}, "reference": "ChIJCbOYrXR644kR1pb3RKEUnLc", "scope": "GOOGLE", "types": ["lawyer", "point_of_interest", "establishment"], "vicinity": "222 Berkeley Street # 1300, Boston"}, "ChIJCbOYrXR644kRiVBCaDgkPko": {"geometry": {"location": {"lat": 42.35066700000001, "lng": -71.07319439999999}, "viewport": {"northeast": {"lat": 42.3520681802915, "lng": -71.07165931970849}, "southwest": {"lat": 42.34937021970851, "lng": -71.07435728029151}}}, "icon": "https://maps.gstatic.com/mapfiles/place_api/icons/generic_business-71.png", "id": "f3cc06870fabc547785d9bd582215fd88c9e05a2", "name": "Pamet Capital", "place_id": "ChIJCbOYrXR644kRiVBCaDgkPko", "plus_code": {"compound_code": "9W2G+7P Boston, Massachusetts, United States", "global_code": "87JC9W2G+7P"}, "reference": "ChIJCbOYrXR644kRiVBCaDgkPko", "scope": "GOOGLE", "types": ["finance", "point_of_interest", "establishment"], "vicinity": "222 Berkeley Street # 22, Boston"}, "ChIJCbOYrXR644kR-MczeIQLAik": {"geometry": {"location": {"lat": 42.35066700000001, "lng": -71.07319439999999}, "viewport": {"northeast": {"lat": 42.3520681802915, "lng": -71.07165931970849}, "southwest": {"lat": 42.34937021970851, "lng": -71.07435728029151}}}, "icon": "https://maps.gstatic.com/mapfiles/place_api/icons/generic_business-71.png", "id": "c4b28dacfc4b7b7cc22e84115ee50a4e01c3f6f0", "name": "Ra Pharmaceuticals Inc", "place_id": "ChIJCbOYrXR644kR-MczeIQLAik", "plus_code": {"compound_code": "9W2G+7P Boston, Massachusetts, United States", "global_code": "87JC9W2G+7P"}, "reference": "ChIJCbOYrXR644kR-MczeIQLAik", "scope": "GOOGLE", "types": ["health", "point_of_interest", "establishment"], "vicinity": "222 Berkeley Street # 20, Boston"}, "ChIJCbOYrXR644kR3ZASlHCml-c": {"geometry": {"location": {"lat": 42.35066700000001, "lng": -71.07319439999999}, "viewport": {"northeast": {"lat": 42.3520681802915, "lng": -71.07165931970849}, "southwest": {"lat": 42.34937021970851, "lng": -71.07435728029151}}}, "icon": "https://maps.gstatic.com/mapfiles/place_api/icons/generic_business-71.png", "id": "7bf7486578d3da8c02eed5832bf981045c0db889", "name": "K-12 Publishers Division", "place_id": "ChIJCbOYrXR644kR3ZASlHCml-c", "plus_code": {"compound_code": "9W2G+7P Boston, Massachusetts, United States", "global_code": "87JC9W2G+7P"}, "reference": "ChIJCbOYrXR644kR3ZASlHCml-c", "scope": "GOOGLE", "types": ["point_of_interest", "establishment"], "vicinity": "222 Berkeley Street # 11, Boston"}, "ChIJCbOYrXR644kR33q8GpEza1w": {"geometry": {"location": {"lat": 42.35066700000001, "lng": -71.07319439999999}, "viewport": {"northeast": {"lat": 42.3520681802915, "lng": -71.07165931970849}, "southwest": {"lat": 42.34937021970851, "lng": -71.07435728029151}}}, "icon": "https://maps.gstatic.com/mapfiles/place_api/icons/generic_business-71.png", "id": "f854f8d581c6585cfdf6b5cc051d742bbf870a8f", "name": "Denneen & Co", "opening_hours": {"open_now": true}, "place_id": "ChIJCbOYrXR644kR33q8GpEza1w", "plus_code": {"compound_code": "9W2G+7P Boston, Massachusetts, United States", "global_code": "87JC9W2G+7P"}, "rating": 5, "reference": "ChIJCbOYrXR644kR33q8GpEza1w", "scope": "GOOGLE", "types": ["point_of_interest", "establishment"], "user_ratings_total": 1, "vicinity": "222 Berkeley Street # 12, Boston"}, "ChIJCbOYrXR644kRTOp7L6Uw2oI": {"geometry": {"location": {"lat": 42.35066700000001, "lng": -71.07319439999999}, "viewport": {"northeast": {"lat": 42.3520681802915, "lng": -71.07165931970849}, "southwest": {"lat": 42.34937021970851, "lng": -71.07435728029151}}}, "icon": "https://maps.gstatic.com/mapfiles/place_api/icons/generic_business-71.png", "id": "671d53cdba46200782482a947dfe6ab15ee50586", "name": "Weiss Asset Management LP", "place_id": "ChIJCbOYrXR644kRTOp7L6Uw2oI", "plus_code": {"compound_code": "9W2G+7P Boston, Massachusetts, United States", "global_code": "87JC9W2G+7P"}, "reference": "ChIJCbOYrXR644kRTOp7L6Uw2oI", "scope": "GOOGLE", "types": ["finance", "point_of_interest", "establishment"], "vicinity": "222 Berkeley Street, Boston"}, "ChIJCbOYrXR644kRT2oYzm4wc7k": {"geometry": {"location": {"lat": 42.35066700000001, "lng": -71.07319439999999}, "viewport": {"northeast": {"lat": 42.3520681802915, "lng": -71.07165931970849}, "southwest": {"lat": 42.34937021970851, "lng": -71.07435728029151}}}, "icon": "https://maps.gstatic.com/mapfiles/place_api/icons/generic_business-71.png", "id": "216697b4cf7b39a9787e20352ce8278b9394888c", "name": "Haircutters", "place_id": "ChIJCbOYrXR644kRT2oYzm4wc7k", "plus_code": {"compound_code": "9W2G+7P Boston, Massachusetts, United States", "global_code": "87JC9W2G+7P"}, "reference": "ChIJCbOYrXR644kRT2oYzm4wc7k", "scope": "GOOGLE", "types": ["hair_care", "health", "point_of_interest", "establishment"], "vicinity": "222 Berkeley Street, Boston"}, "ChIJCbOYrXR644kR1pJ9RdVxHWg": {"geometry": {"location": {"lat": 42.35066700000001, "lng": -71.07319439999999}, "viewport": {"northeast": {"lat": 42.3520681802915, "lng": -71.07165931970849}, "southwest": {"lat": 42.34937021970851, "lng": -71.07435728029151}}}, "icon": "https://maps.gstatic.com/mapfiles/place_api/icons/generic_business-71.png", "id": "fa33a5c991036f4ad6d2be33829992f4a416fee7", "name": "Lee Rivers & Corr", "opening_hours": {"open_now": true}, "photos": [{"height": 2048, "html_attributions": ["<a href=\"https://maps.google.com/maps/contrib/102205348531149872465/photos\">Lee Rivers &amp; Corr</a>"], "photo_reference": "CmRaAAAAEFgAJTlrLjC-c8KK1Qk8rZLszMCxiizBUQCOtpCPhXUiUEV41cyLMBM1W67qRsO0TS6ujCak3b4Jf-ZwlgImriBmyet327oDeuKQAp701yJwPn590G925OllSZAqk7ixEhCTH_PjloSUA-N9D0yb49YMGhQ2LQN2O4mgMwErVrcCMFZZnyXbaQ", "width": 1536}], "place_id": "ChIJCbOYrXR644kR1pJ9RdVxHWg", "plus_code": {"compound_code": "9W2G+7P Boston, Massachusetts, United States", "global_code": "87JC9W2G+7P"}, "rating": 5, "reference": "ChIJCbOYrXR644kR1pJ9RdVxHWg", "scope": "GOOGLE", "types": ["lawyer", "point_of_interest", "establishment"], "user_ratings_total": 1, "vicinity": "222 Berkeley Street # 1300, Boston"}, "ChIJCbOYrXR644kR4KRTvOQx1DA": {"geometry": {"location": {"lat": 42.35066700000001, "lng": -71.07319439999999}, "viewport": {"northeast": {"lat": 42.3520681802915, "lng": -71.07165931970849}, "southwest": {"lat": 42.34937021970851, "lng": -71.07435728029151}}}, "icon": "https://maps.gstatic.com/mapfiles/place_api/icons/generic_business-71.png", "id": "a1d106efd8d3249ef47a2c6c28fbae9518192f72", "name": "Learning Technology Division", "place_id": "ChIJCbOYrXR644kR4KRTvOQx1DA", "plus_code": {"compound_code": "9W2G+7P Boston, Massachusetts, United States", "global_code": "87JC9W2G+7P"}, "reference": "ChIJCbOYrXR644kR4KRTvOQx1DA", "scope": "GOOGLE", "types": ["point_of_interest", "establishment"], "vicinity": "222 Berkeley Street # 11, Boston"}, "ChIJGzE9DS1l44kRoOhiASS_fHg": {"geometry": {"location": {"lat": 42.3600825, "lng": -71.0588801}, "viewport": {"northeast": {"lat": 42.40081989999999, "lng": -70.749455}, "southwest": {"lat": 42.22788, "lng": -71.191113}}}, "icon": "https://maps.gstatic.com/mapfiles/place_api/icons/geocode-71.png", "id": "06755c25d2b34d13942a4713971756a55b870ced", "name": "Boston", "photos": [{"height": 3024, "html_attributions": ["<a href=\"https://maps.google.com/maps/contrib/104670289779338733432/photos\">Natalia Zalucean</a>"], "photo_reference": "CmRaAAAAp75d540LKvUbMSkN6K4O5XcAz7fWoPADVvM33llOmjn91y5Snegw-CyCdThXC3_DIJEPAgx2ZK4P5x1WY-kchHEIgtRHSTSBiN1Ftg-5ebNX4iKQrQQu77HbqNr0NdujEhBUvm1GHo0aHjwg9tLMT-2_GhQLpNUi7mK5vlCfPDb-b_tgG3YuUw", "width": 4032}], "place_id": "ChIJGzE9DS1l44kRoOhiASS_fHg", "reference": "ChIJGzE9DS1l44kRoOhiASS_fHg", "scope": "GOOGLE", "types": ["locality", "political"], "vicinity": "Boston"}, "ChIJX3lisHR644kRehL_o2_2hhU": {"geometry": {"location": {"lat": 42.35066700000001, "lng": -71.07319439999999}, "viewport": {"northeast": {"lat": 42.3520681802915, "lng": -71.07165931970849}, "southwest": {"lat": 42.34937021970851, "lng": -71.07435728029151}}}, "icon": "https://maps.gstatic.com/mapfiles/place_api/icons/generic_business-71.png", "id": "158ce6a64c20e06f0b57f5c7d4f351229224a131", "name": "Parven Marc", "place_id": "ChIJX3lisHR644kRehL_o2_2hhU", "plus_code": {"compound_code": "9W2G+7P Boston, Massachusetts, United States", "global_code": "87JC9W2G+7P"}, "reference": "ChIJX3lisHR644kRehL_o2_2hhU", "scope": "GOOGLE", "types": ["insurance_agency", "point_of_interest", "establishment"], "vicinity": "222 Berkeley Street, Boston"}, "ChIJCbOYrXR644kRroL3WOZMgao": {"geometry": {"location": {"lat": 42.35066700000001, "lng": -71.07319439999999}, "viewport": {"northeast": {"lat": 42.3520681802915, "lng": -71.07165931970849}, "southwest": {"lat": 42.34937021970851, "lng": -71.07435728029151}}}, "icon": "https://maps.gstatic.com/mapfiles/place_api/icons/generic_business-71.png", "id": "479084b6a92051d3d22c35e1f56ee669eacf3e89", "name": "Gentleman's Choice", "opening_hours": {"open_now": true}, "place_id": "ChIJCbOYrXR644kRroL3WOZMgao", "plus_code": {"compound_code": "9W2G+7P Boston, Massachusetts, United States", "global_code": "87JC9W2G+7P"}, "rating": 4.6, "reference": "ChIJCbOYrXR644kRroL3WOZMgao", "scope": "GOOGLE", "types": ["hair_care", "health", "point_of_interest", "establishment"], "user_ratings_total": 10, "vicinity": "222 Berkeley Street #3748, Boston"}, "ChIJqevjrXR644kRUjI11NgX5j4": {"geometry": {"location": {"lat": 42.3506616, "lng": -71.0731869}, "viewport": {"northeast": {"lat": 42.35206043029149, "lng": -71.0716530197085}, "southwest": {"lat": 42.3493624697085, "lng": -71.07435098029151}}}, "icon": "https://maps.gstatic.com/mapfiles/place_api/icons/bank_dollar-71.png", "id": "4e556b98127b41e01df14972f1676e5458d23cac", "name": "Three Bays Capital", "place_id": "ChIJqevjrXR644kRUjI11NgX5j4", "plus_code": {"compound_code": "9W2G+7P Boston, Massachusetts, United States", "global_code": "87JC9W2G+7P"}, "reference": "ChIJqevjrXR644kRUjI11NgX5j4", "scope": "GOOGLE", "types": ["bank", "finance", "point_of_interest", "establishment"], "vicinity": "222 Berkeley Street, Boston"}, "ChIJORHYtXR644kRx3WJEWLufZg": {"geometry": {"location": {"lat": 42.35066700000001, "lng": -71.07319439999999}, "viewport": {"northeast": {"lat": 42.3520681802915, "lng": -71.07165931970849}, "southwest": {"lat": 42.34937021970851, "lng": -71.07435728029151}}}, "icon": "https://maps.gstatic.com/mapfiles/place_api/icons/generic_business-71.png", "id": "4e72bfbcc9b0a53af72009595d1ea347caec5e15", "name": "Abrams Capital", "photos": [{"height": 500, "html_attributions": ["<a href=\"https://maps.google.com/maps/contrib/102681563206155586707/photos\">Abrams Capital</a>"], "photo_reference": "CmRaAAAATgvkTvHP08Taj9Ss_fSCEuLdqIsDdQA5zmEqzfQOfQlFeySsV15TQKPh6ofP_y28To9PKYDsJ9EeHZSHT5mXz7Keg9Ka3wsgat02wUuywtBuj471ktQYH8yBhJ4hdtS9EhAJEEmSmMoyYTG3u7yp1yB4GhT24z7uvlKMX_INRPSLMbyPCgcdjw", "width": 2476}], "place_id": "ChIJORHYtXR644kRx3WJEWLufZg", "plus_code": {"compound_code": "9W2G+7P Boston, Massachusetts, United States", "global_code": "87JC9W2G+7P"}, "reference": "ChIJORHYtXR644kRx3WJEWLufZg", "scope": "GOOGLE", "types": ["finance", "point_of_interest", "establishment"], "vicinity": "21st Floor, 222 Berkeley Street, Boston"}, "ChIJCbOYrXR644kRmCjt3KEVp0g": {"geometry": {"location": {"lat": 42.35066700000001, "lng": -71.07319439999999}, "viewport": {"northeast": {"lat": 42.3520681802915, "lng": -71.07165931970849}, "southwest": {"lat": 42.34937021970851, "lng": -71.07435728029151}}}, "icon": "https://maps.gstatic.com/mapfiles/place_api/icons/generic_business-71.png", "id": "9d6e27df220ccc668041603deb891ef3b398c11b", "name": "Bank of New York Trust Co NA", "place_id": "ChIJCbOYrXR644kRmCjt3KEVp0g", "plus_code": {"compound_code": "9W2G+7P Boston, Massachusetts, United States", "global_code": "87JC9W2G+7P"}, "reference": "ChIJCbOYrXR644kRmCjt3KEVp0g", "scope": "GOOGLE", "types": ["finance", "point_of_interest", "establishment"], "vicinity": "222 Berkeley Street # 2, Boston"}, "ChIJ_-rjrXR644kR7XJTeRYnmVA": {"geometry": {"location": {"lat": 42.350667, "lng": -71.0731943}, "viewport": {"northeast": {"lat": 42.3520681802915, "lng": -71.07165926970849}, "southwest": {"lat": 42.3493702197085, "lng": -71.07435723029151}}}, "icon": "https://maps.gstatic.com/mapfiles/place_api/icons/generic_business-71.png", "id": "a3f59c86c25a4ec13105f0313a1ef7615d838323", "name": "The Orchard Group", "place_id": "ChIJ_-rjrXR644kR7XJTeRYnmVA", "plus_code": {"compound_code": "9W2G+7P Boston, Massachusetts, United States", "global_code": "87JC9W2G+7P"}, "reference": "ChIJ_-rjrXR644kR7XJTeRYnmVA", "scope": "GOOGLE", "types": ["point_of_interest", "establishment"], "vicinity": "222 Berkeley Street #2000, Boston"}, "ChIJ_-rjrXR644kRH5h9qO3wPTs": {"geometry": {"location": {"lat": 42.350667, "lng": -71.0731943}, "viewport": {"northeast": {"lat": 42.3520681802915, "lng": -71.07165926970849}, "southwest": {"lat": 42.3493702197085, "lng": -71.07435723029151}}}, "icon": "https://maps.gstatic.com/mapfiles/place_api/icons/generic_business-71.png", "id": "729a99d62f7bc747278adcfd8bb529b3efaad4c6", "name": "Brownfields Recovery Corp.", "place_id": "ChIJ_-rjrXR644kRH5h9qO3wPTs", "plus_code": {"compound_code": "9W2G+7P Boston, Massachusetts, United States", "global_code": "87JC9W2G+7P"}, "reference": "ChIJ_-rjrXR644kRH5h9qO3wPTs", "scope": "GOOGLE", "types": ["real_estate_agency", "point_of_interest", "establishment"], "vicinity": "222 Berkeley Street, Boston"}, "ChIJqevjrXR644kRhfeVpPivEC8": {"geometry": {"location": {"lat": 42.35066700000001, "lng": -71.07319439999999}, "viewport": {"northeast": {"lat": 42.3520681802915, "lng": -71.07165931970849}, "southwest": {"lat": 42.34937021970851, "lng": -71.07435728029151}}}, "icon": "https://maps.gstatic.com/mapfiles/place_api/icons/generic_business-71.png", "id": "045c905d5e156e06e8ea0c696aa26e1976efa529", "name": "Brendan Jones", "place_id": "ChIJqevjrXR644kRhfeVpPivEC8", "plus_code": {"compound_code": "9W2G+7P Boston, Massachusetts, United States", "global_code": "87JC9W2G+7P"}, "reference": "ChIJqevjrXR644kRhfeVpPivEC8", "scope": "GOOGLE", "types": ["point_of_interest", "establishment"], "vicinity": "222 Berkeley Street, Boston"}, "ChIJqevjrXR644kRWLVFhiNt5gM": {"geometry": {"location": {"lat": 42.35066700000001, "lng": -71.07319439999999}, "viewport": {"northeast": {"lat": 42.3520681802915, "lng": -71.07165931970849}, "southwest": {"lat": 42.34937021970851, "lng": -71.07435728029151}}}, "icon": "https://maps.gstatic.com/mapfiles/place_api/icons/generic_business-71.png", "id": "ed9e85f06fecc5954babc3375cf8cfa48b5ce75d", "name": "Porter Shreve", "place_id": "ChIJqevjrXR644kRWLVFhiNt5gM", "plus_code": {"compound_code": "9W2G+7P Boston, Massachusetts, United States", "global_code": "87JC9W2G+7P"}, "reference": "ChIJqevjrXR644kRWLVFhiNt5gM", "scope": "GOOGLE", "types": ["point_of_interest", "establishment"], "vicinity": "222 Berkeley Street, Boston"}, "ChIJA9c89HR644kRwC-Kd2caEpQ": {"geometry": {"location": {"lat": 42.350718, "lng": -71.072672}, "viewport": {"northeast": {"lat": 42.3519393302915, "lng": -71.07126391970849}, "southwest": {"lat": 42.3492413697085, "lng": -71.0739618802915}}}, "icon": "https://maps.gstatic.com/mapfiles/place_api/icons/bank_dollar-71.png", "id": "c28956454f46dbb18373210abb319a0b85292b32", "name": "Santander Bank", "opening_hours": {"open_now": true}, "photos": [{"height": 2326, "html_attributions": ["<a href=\"https://maps.google.com/maps/contrib/116749352607901746051/photos\">Santander Bank</a>"], "photo_reference": "CmRaAAAAmhKilegeoxmr_hS24HQpxQDOzh4RYzBKpX_lHpOiMBMKnuL1pxRYkmpkDP12MN8YvGoGTAL85Bi2N3SPln6JmcNih-hbEYxEIGZmeIKYnrBTwxU7efbtmNHncBxWU9D4EhCZJL5FWgYBkMYLrtwS45nNGhTO3Mg8C3ln4ooOXqqAGQMiNkGa5A", "width": 2326}], "place_id": "ChIJA9c89HR644kRwC-Kd2caEpQ", "plus_code": {"compound_code": "9W2G+7W Boston, Massachusetts, United States", "global_code": "87JC9W2G+7W"}, "reference": "ChIJA9c89HR644kRwC-Kd2caEpQ", "scope": "GOOGLE", "types": ["bank", "insurance_agency", "finance", "point_of_interest", "establishment"], "vicinity": "31 Saint James Avenue, Boston"}, "ChIJCbOYrXR644kRn_r08MhQqAw": {"geometry": {"location": {"lat": 42.35066700000001, "lng": -71.07319439999999}, "viewport": {"northeast": {"lat": 42.3520681802915, "lng": -71.07165931970849}, "southwest": {"lat": 42.34937021970851, "lng": -71.07435728029151}}}, "icon": "https://maps.gstatic.com/mapfiles/place_api/icons/generic_business-71.png", "id": "ed2752abb781971e67650c065ce56f376f7db7a5", "name": "Dr. Susan I. Spitz, MD", "place_id": "ChIJCbOYrXR644kRn_r08MhQqAw", "plus_code": {"compound_code": "9W2G+7P Boston, Massachusetts, United States", "global_code": "87JC9W2G+7P"}, "reference": "ChIJCbOYrXR644kRn_r08MhQqAw", "scope": "GOOGLE", "types": ["doctor", "health", "point_of_interest", "establishment"], "vicinity": "222 Berkeley Street, Boston"}, "ChIJqevjrXR644kRp-5YbhPuvjw": {"geometry": {"location": {"lat": 42.35066700000001, "lng": -71.07319439999999}, "viewport": {"northeast": {"lat": 42.3520681802915, "lng": -71.07165931970849}, "southwest": {"lat": 42.34937021970851, "lng": -71.07435728029151}}}, "icon": "https://maps.gstatic.com/mapfiles/place_api/icons/generic_business-71.png", "id": "b07c6991fbf2d331b4bdaba798237aa1eae41c1d", "name": "Making Conflict Work", "place_id": "ChIJqevjrXR644kRp-5YbhPuvjw", "plus_code": {"compound_code": "9W2G+7P Boston, Massachusetts, United States", "global_code": "87JC9W2G+7P"}, "reference": "ChIJqevjrXR644kRp-5YbhPuvjw", "scope": "GOOGLE", "types": ["health", "point_of_interest", "establishment"], "vicinity": "222 Berkeley Street, Boston"}, "ChIJCbOYrXR644kRd88A1ULfHhk": {"geometry": {"location": {"lat": 42.35066700000001, "lng": -71.07319439999999}, "viewport": {"northeast": {"lat": 42.3520681802915, "lng": -71.07165931970849}, "southwest": {"lat": 42.34937021970851, "lng": -71.07435728029151}}}, "icon": "https://maps.gstatic.com/mapfiles/place_api/icons/generic_business-71.png", "id": "079b19fdb52eca04d6320cd6614614e5fcfccdf8", "name": "Dr. Guy L. Fish, MD", "place_id": "ChIJCbOYrXR644kRd88A1ULfHhk", "plus_code": {"compound_code": "9W2G+7P Boston, Massachusetts, United States", "global_code": "87JC9W2G+7P"}, "reference": "ChIJCbOYrXR644kRd88A1ULfHhk", "scope": "GOOGLE", "types": ["doctor", "health", "point_of_interest", "establishment"], "vicinity": "222 Berkeley Street, Boston"}, "ChIJqevjrXR644kRes7V5gZLF-w": {"geometry": {"location": {"lat": 42.35066700000001, "lng": -71.07319439999999}, "viewport": {"northeast": {"lat": 42.3520681802915, "lng": -71.07165931970849}, "southwest": {"lat": 42.34937021970851, "lng": -71.07435728029151}}}, "icon": "https://maps.gstatic.com/mapfiles/place_api/icons/shopping-71.png", "id": "0f52f88a422ab3e71137d35d2a645ced11e3a05d", "name": "Nancy Shaw", "place_id": "ChIJqevjrXR644kRes7V5gZLF-w", "plus_code": {"compound_code": "9W2G+7P Boston, Massachusetts, United States", "global_code": "87JC9W2G+7P"}, "reference": "ChIJqevjrXR644kRes7V5gZLF-w", "scope": "GOOGLE", "types": ["book_store", "store", "point_of_interest", "establishment"], "vicinity": "222 Berkeley Street, Boston"}, "ChIJqevjrXR644kR1epf0UK0Zjw": {"geometry": {"location": {"lat": 42.35066700000001, "lng": -71.07319439999999}, "viewport": {"northeast": {"lat": 42.3520681802915, "lng": -71.07165931970849}, "southwest": {"lat": 42.34937021970851, "lng": -71.07435728029151}}}, "icon": "https://maps.gstatic.com/mapfiles/place_api/icons/generic_business-71.png", "id": "94a4b7e4f78a02ff189ba6ebc43a32dbf07015d0", "name": "Carole DeSanti", "place_id": "ChIJqevjrXR644kR1epf0UK0Zjw", "plus_code": {"compound_code": "9W2G+7P Boston, Massachusetts, United States", "global_code": "87JC9W2G+7P"}, "reference": "ChIJqevjrXR644kR1epf0UK0Zjw", "scope": "GOOGLE", "types": ["point_of_interest", "establishment"], "vicinity": "222 Berkeley Street, Boston"}, "ChIJqevjrXR644kRKIjD1bV2VV0": {"geometry": {"location": {"lat": 42.35066700000001, "lng": -71.07319439999999}, "viewport": {"northeast": {"lat": 42.3520681802915, "lng": -71.07165931970849}, "southwest": {"lat": 42.34937021970851, "lng": -71.07435728029151}}}, "icon": "https://maps.gstatic.com/mapfiles/place_api/icons/generic_business-71.png", "id": "f005a473bf5922157c01defb36ae0c8e121e024f", "name": "Joshua Wolf Shenk", "place_id": "ChIJqevjrXR644kRKIjD1bV2VV0", "plus_code": {"compound_code": "9W2G+7P Boston, Massachusetts, United States", "global_code": "87JC9W2G+7P"}, "reference": "ChIJqevjrXR644kRKIjD1bV2VV0", "scope": "GOOGLE", "types": ["point_of_interest", "establishment"], "vicinity": "222 Berkeley Street, Boston"}}