{"ChIJGzE9DS1l44kRoOhiASS_fHg": {"geometry": {"location": {"lat": 42.3600825, "lng": -71.0588801}, "viewport": {"northeast": {"lat": 42.40081989999999, "lng": -70.749455}, "southwest": {"lat": 42.22788, "lng": -71.191113}}}, "icon": "https://maps.gstatic.com/mapfiles/place_api/icons/geocode-71.png", "id": "06755c25d2b34d13942a4713971756a55b870ced", "name": "Boston", "photos": [{"height": 3024, "html_attributions": ["<a href=\"https://maps.google.com/maps/contrib/104670289779338733432/photos\">Natalia Zalucean</a>"], "photo_reference": "CmRaAAAAzDiTEmI1WoOJyS1Ez127o_iAAQIJzlZhBNHz4cXku6sREEF_qUqfpf5Y5L1drvGAmFZIEt6Iy9_Wy5Kf6xVqYbghA-rAmDubbP0Q0F1yK2jVbSP4vJAz57cKZPDQhyPoEhB2BfQ1v_amirVuMgr2B467GhQkibwmgDSWOhvDzfPT35SkL70yYA", "width": 4032}], "place_id": "ChIJGzE9DS1l44kRoOhiASS_fHg", "reference": "ChIJGzE9DS1l44kRoOhiASS_fHg", "scope": "GOOGLE", "types": ["locality", "political"], "vicinity": "Boston"}, "ChIJtQj7XnR644kR6AKK8Go1I0g": {"geometry": {"location": {"lat": 42.3507008, "lng": -71.0699302}, "viewport": {"northeast": {"lat": 42.3520528302915, "lng": -71.0686846697085}, "southwest": {"lat": 42.3493548697085, "lng": -71.07138263029151}}}, "icon": "https://maps.gstatic.com/mapfiles/place_api/icons/lodging-71.png", "id": "cb1f1458991061ce7f0a45efc9f489ea628eebc6", "name": "Boston Park Plaza", "photos": [{"height": 1125, "html_attributions": ["<a href=\"https://maps.google.com/maps/contrib/110836217639956526817/photos\">Boston Park Plaza</a>"], "photo_reference": "CmRaAAAAarb9lhOYAwNKgjkLg2HlMFoodvbiC-OtwLvM39QF6WNYlQHOQOv9LiOYhjd65-FpZhHgMCT7tyBawv3qFW7MTdtmQ7bWuQSYI61FwTUFRIXMLPygIdU_2HuWzUVjuLeNEhBzS9Ck0D8nRlJnIRyVEnEiGhQXX8GGObCvIx75pnJuds5NkZ1RMg", "width": 2000}], "place_id": "ChIJtQj7XnR644kR6AKK8Go1I0g", "plus_code": {"compound_code": "9W2J+72 Boston, Massachusetts, United States", "global_code": "87JC9W2J+72"}, "rating": 4.1, "reference": "ChIJtQj7XnR644kR6AKK8Go1I0g", "scope": "GOOGLE", "types": ["lodging", "point_of_interest", "establishment"], "user_ratings_total": 3582, "vicinity": "50 Park Plaza, Boston"}, "ChIJI176ZXR644kReUl37gO0jd8": {"geometry": {"location": {"lat": 42.3505464, "lng": -71.06991119999999}, "viewport": {"northeast": {"lat": 42.35187878029149, "lng": -71.0686358697085}, "southwest": {"lat": 42.34918081970849, "lng": -71.07133383029151}}}, "icon": "https://maps.gstatic.com/mapfiles/place_api/icons/shopping-71.png", "id": "0d837111bcd342553f547b2a6fbb392504d8f066", "name": "Leica Store and Gallery Boston", "opening_hours": {"open_now": true}, "photos": [{"height": 1320, "html_attributions": ["<a href=\"https://maps.google.com/maps/contrib/105188268621231225230/photos\">Leica Store and Gallery Boston</a>"], "photo_reference": "CmRaAAAA1x2oue3u0TacdN6mVOANNvKgu-yhclMQdtNmZ-GqVyMzHD6IxS7y_q_muIiB48ySkK3NtVHWuKE5b1qGjZmjELzjNfJfxbPO9lBgwh6LK9_TsPaaGlnVJeiStpXFgBMIEhDA8acYDt-7yVLos-2OJaCAGhQqmn_0HWPzentoATlGzhhQD42B5Q", "width": 1319}], "place_id": "ChIJI176ZXR644kReUl37gO0jd8", "plus_code": {"compound_code": "9W2J+62 Boston, Massachusetts, United States", "global_code": "87JC9W2J+62"}, "rating": 4.9, "reference": "ChIJI176ZXR644kReUl37gO0jd8", "scope": "GOOGLE", "types": ["electronics_store", "home_goods_store", "store", "point_of_interest", "establishment"], "user_ratings_total": 20, "vicinity": "74 Arlington Street, Boston"}, "ChIJB8buaHR644kRwan35qz8_lc": {"geometry": {"location": {"lat": 42.35048549999999, "lng": -71.06986909999999}, "viewport": {"northeast": {"lat": 42.35181613029149, "lng": -71.0686015197085}, "southwest": {"lat": 42.34911816970849, "lng": -71.0712994802915}}}, "icon": "https://maps.gstatic.com/mapfiles/place_api/icons/generic_business-71.png", "id": "0eb335e210e66c12b880453cec29a0d6c5e3f314", "name": "Boac British Overseas Airways", "place_id": "ChIJB8buaHR644kRwan35qz8_lc", "plus_code": {"compound_code": "9W2J+53 Boston, Massachusetts, United States", "global_code": "87JC9W2J+53"}, "rating": 1, "reference": "ChIJB8buaHR644kRwan35qz8_lc", "scope": "GOOGLE", "types": ["point_of_interest", "establishment"], "user_ratings_total": 1, "vicinity": "76 Arlington Street, Boston"}, "ChIJ3Tb3ZnR644kRGKg0YZYg1E8": {"geometry": {"location": {"lat": 42.350708, "lng": -71.06997199999999}, "viewport": {"northeast": {"lat": 42.3520389302915, "lng": -71.0686999197085}, "southwest": {"lat": 42.3493409697085, "lng": -71.0713978802915}}}, "icon": "https://maps.gstatic.com/mapfiles/place_api/icons/cafe-71.png", "id": "d248893da576c595489a6b6270443d1017ce8237", "name": "Starbucks", "opening_hours": {"open_now": true}, "photos": [{"height": 2448, "html_attributions": ["<a href=\"https://maps.google.com/maps/contrib/109910262342490311453/photos\">N C</a>"], "photo_reference": "CmRaAAAAYbxGyPETaJubjnVLihTnC-PYA_kjtDwvDqR0Bcwj-ISiGx8zdQlPRXe5HFeRXrn1baZWmstz7zEANWUr-T6-X-bJJXNzBAWhan0XNnjKoW6LRgyN6ZIRFaQH6yEGOUiSEhA1yOOwbq3lb8RwdA_NmszKGhT4qNZLR4D0MCmW8vKxwVRU5harLA", "width": 3264}], "place_id": "ChIJ3Tb3ZnR644kRGKg0YZYg1E8", "plus_code": {"compound_code": "9W2J+72 Boston, Massachusetts, United States", "global_code": "87JC9W2J+72"}, "price_level": 2, "rating": 4, "reference": "ChIJ3Tb3ZnR644kRGKg0YZYg1E8", "scope": "GOOGLE", "types": ["cafe", "store", "point_of_interest", "food", "establishment"], "user_ratings_total": 66, "vicinity": "64 Arlington Street, Boston"}, "ChIJKbORmld744kRQSPhgIBF1XY": {"geometry": {"location": {"lat": 42.3507238, "lng": -71.06997090000002}, "viewport": {"northeast": {"lat": 42.3520539302915, "lng": -71.0687024197085}, "southwest": {"lat": 42.3493559697085, "lng": -71.07140038029151}}}, "icon": "https://maps.gstatic.com/mapfiles/place_api/icons/generic_business-71.png", "id": "586785c6aabe62d2456dea37a8d2d183259309ac", "name": "Park Plaza", "place_id": "ChIJKbORmld744kRQSPhgIBF1XY", "plus_code": {"compound_code": "9W2J+72 Boston, Massachusetts, United States", "global_code": "87JC9W2J+72"}, "reference": "ChIJKbORmld744kRQSPhgIBF1XY", "scope": "GOOGLE", "types": ["point_of_interest", "establishment"], "vicinity": "64 Arlington Street, Boston"}, "ChIJW60DJYNw44kRmL2Ehm4t0Bg": {"geometry": {"location": {"lat": 42.3557089, "lng": -71.05720529999999}, "viewport": {"northeast": {"lat": 42.36839699999999, "lng": -71.04779599999999}, "southwest": {"lat": 42.342797, "lng": -71.072996}}}, "icon": "https://maps.gstatic.com/mapfiles/place_api/icons/geocode-71.png", "id": "bc27dcccb31ae90e36c262f557a1c09193ec777d", "name": "Downtown", "photos": [{"height": 629, "html_attributions": ["<a href=\"https://maps.google.com/maps/contrib/111777007894721839306/photos\">verona mantova</a>"], "photo_reference": "CmRaAAAAQozL1FAT9-F3qFTL96JX3ntK4c2j5boyKxIwsmAmpx6FqQYsCn5A_AN1zOPKJ2jsOKjtXKZygImHzSMmSt1Pv5xbodxjhSQSm63iL8tZo2hiRyCKsBQT9g6vNPBq_-frEhD3SZOKVgi2VN86Q9Q19RcZGhQUsu0CFyEzv_SPp3fi-4S0Nbsj8Q", "width": 1000}], "place_id": "ChIJW60DJYNw44kRmL2Ehm4t0Bg", "reference": "ChIJW60DJYNw44kRmL2Ehm4t0Bg", "scope": "GOOGLE", "types": ["neighborhood", "political"], "vicinity": "Boston"}}