{"ChIJD-oFkb9544kRlRWQnKIMNoc": {"geometry": {"location": {"lat": 42.3436062, "lng": -71.12307779999999}, "viewport": {"northeast": {"lat": 42.3449551802915, "lng": -71.1217288197085}, "southwest": {"lat": 42.3422572197085, "lng": -71.12442678029151}}}, "icon": "https://maps.gstatic.com/mapfiles/place_api/icons/geocode-71.png", "id": "06ce26ce7bea258680ce926d4fe9ba09f74bde09", "name": "1-13 Babcock St", "place_id": "ChIJD-oFkb9544kRlRWQnKIMNoc", "reference": "ChIJD-oFkb9544kRlRWQnKIMNoc", "scope": "GOOGLE", "types": ["route"], "vicinity": "Brookline"}, "ChIJq9g6kr9544kR-GZ2-MnWig8": {"geometry": {"location": {"lat": 42.3435633, "lng": -71.1229043}, "viewport": {"northeast": {"lat": 42.3449494302915, "lng": -71.12162721970849}, "southwest": {"lat": 42.3422514697085, "lng": -71.1243251802915}}}, "icon": "https://maps.gstatic.com/mapfiles/place_api/icons/restaurant-71.png", "id": "e51d46625c2d97cc0aa6b3187f3b2ffd26b33c4f", "name": "Shiki", "opening_hours": {"open_now": true}, "photos": [{"height": 2992, "html_attributions": ["<a href=\"https://maps.google.com/maps/contrib/117530916230336693936/photos\">Chris Karl</a>"], "photo_reference": "CmRaAAAApgTQmaTiNtWi3drxaMze_IsbjZl2WQxD-AATcRIsWBJ8foAHR-7AgNsvC6dCPbECnpmAP4P4V5TeR5RWjtJ1Rern_G2P7AHKwVKlaPVeiBposva9333dx7RVaHkv9-xcEhDLHiGE9q46zAhlR6mAvTTFGhRQqyHMqeNBkaQMBCtGv2X0se-7-g", "width": 4000}], "place_id": "ChIJq9g6kr9544kR-GZ2-MnWig8", "plus_code": {"compound_code": "8VVG+CR Brookline, Massachusetts, United States", "global_code": "87JC8VVG+CR"}, "price_level": 2, "rating": 4.4, "reference": "ChIJq9g6kr9544kR-GZ2-MnWig8", "scope": "GOOGLE", "types": ["restaurant", "point_of_interest", "food", "establishment"], "user_ratings_total": 181, "vicinity": "9 Babcock Street, Brookline"}, "ChIJq9g6kr9544kR4RmP4ZDuZ0w": {"geometry": {"location": {"lat": 42.34363159999999, "lng": -71.1228708}, "viewport": {"northeast": {"lat": 42.34501233029149, "lng": -71.1215832697085}, "southwest": {"lat": 42.34231436970849, "lng": -71.1242812302915}}}, "icon": "https://maps.gstatic.com/mapfiles/place_api/icons/generic_business-71.png", "id": "d762df105f1ec237c2677559ff440dc8a2e25946", "name": "Metro Realty Corp", "opening_hours": {"open_now": true}, "photos": [{"height": 980, "html_attributions": ["<a href=\"https://maps.google.com/maps/contrib/107968361622578011808/photos\">Metro Realty Corp</a>"], "photo_reference": "CmRaAAAAYraOsCuBjkEKU5icXOIbbmSIHLWUUQinx2pGXMiS6-25v1f4suTDkm67Kltb8v5hF99qz0Ra8N2TGiqtppB6EvtCFjSt8w0YujFcNiDk0dwHwRnTZW6y6JP11TMIW1GCEhBue0kjuZADrrouA7NACBRbGhRLJR5sX7JAZ7a9h_dBm-oeHMjDgA", "width": 980}], "place_id": "ChIJq9g6kr9544kR4RmP4ZDuZ0w", "plus_code": {"compound_code": "8VVG+FV Brookline, Massachusetts, United States", "global_code": "87JC8VVG+FV"}, "rating": 4.7, "reference": "ChIJq9g6kr9544kR4RmP4ZDuZ0w", "scope": "GOOGLE", "types": ["real_estate_agency", "point_of_interest", "establishment"], "user_ratings_total": 17, "vicinity": "9 Babcock Street, Brookline"}, "ChIJq9g6kr9544kRA_z2pplWIAw": {"geometry": {"location": {"lat": 42.3436183, "lng": -71.1228026}, "viewport": {"northeast": {"lat": 42.3450130802915, "lng": -71.12154216970849}, "southwest": {"lat": 42.3423151197085, "lng": -71.1242401302915}}}, "icon": "https://maps.gstatic.com/mapfiles/place_api/icons/generic_business-71.png", "id": "40250fa7bc7dd90ddbb3c2ab8b20ea56b092ce2a", "name": "Karen Rosen, PhD", "place_id": "ChIJq9g6kr9544kRA_z2pplWIAw", "plus_code": {"compound_code": "8VVG+CV Brookline, Massachusetts, United States", "global_code": "87JC8VVG+CV"}, "reference": "ChIJq9g6kr9544kRA_z2pplWIAw", "scope": "GOOGLE", "types": ["doctor", "health", "point_of_interest", "establishment"], "vicinity": "9 Babcock Street, Brookline"}, "ChIJq9g6kr9544kR-zQ3VEK4294": {"geometry": {"location": {"lat": 42.34362960000001, "lng": -71.1228708}, "viewport": {"northeast": {"lat": 42.3450106802915, "lng": -71.12158386970849}, "southwest": {"lat": 42.3423127197085, "lng": -71.1242818302915}}}, "icon": "https://maps.gstatic.com/mapfiles/place_api/icons/generic_business-71.png", "id": "b9157b63e6a106ce7899366d128d525d020e09a3", "name": "Byron V", "place_id": "ChIJq9g6kr9544kR-zQ3VEK4294", "plus_code": {"compound_code": "8VVG+FV Brookline, Massachusetts, United States", "global_code": "87JC8VVG+FV"}, "reference": "ChIJq9g6kr9544kR-zQ3VEK4294", "scope": "GOOGLE", "types": ["health", "point_of_interest", "establishment"], "vicinity": "9 Babcock Street, Brookline"}, "ChIJq9g6kr9544kR4RDyNwM54o4": {"geometry": {"location": {"lat": 42.34362960000001, "lng": -71.1228708}, "viewport": {"northeast": {"lat": 42.3450106802915, "lng": -71.12158386970849}, "southwest": {"lat": 42.3423127197085, "lng": -71.1242818302915}}}, "icon": "https://maps.gstatic.com/mapfiles/place_api/icons/generic_business-71.png", "id": "7734feb56b325b668b1fb91ee0cf8dd0f2a22502", "name": "Brookline Psychological Services", "place_id": "ChIJq9g6kr9544kR4RDyNwM54o4", "plus_code": {"compound_code": "8VVG+FV Brookline, Massachusetts, United States", "global_code": "87JC8VVG+FV"}, "reference": "ChIJq9g6kr9544kR4RDyNwM54o4", "scope": "GOOGLE", "types": ["health", "point_of_interest", "establishment"], "vicinity": "9 Babcock Street, Brookline"}, "ChIJq9g6kr9544kRp0fWVwd48fA": {"geometry": {"location": {"lat": 42.3436183, "lng": -71.1228026}, "viewport": {"northeast": {"lat": 42.3449672802915, "lng": -71.12145361970849}, "southwest": {"lat": 42.3422693197085, "lng": -71.12415158029151}}}, "icon": "https://maps.gstatic.com/mapfiles/place_api/icons/generic_business-71.png", "id": "5b68062690d4d4e2f9eff1086b6f176c00904909", "name": "Diane T. Kwasnick, EDD", "place_id": "ChIJq9g6kr9544kRp0fWVwd48fA", "plus_code": {"compound_code": "8VVG+CV Brookline, Massachusetts, United States", "global_code": "87JC8VVG+CV"}, "reference": "ChIJq9g6kr9544kRp0fWVwd48fA", "scope": "GOOGLE", "types": ["doctor", "health", "point_of_interest", "establishment"], "vicinity": "9 Babcock Street, Brookline, MA 02446, Brookline"}, "ChIJq9g6kr9544kRvtVzDm8GOL0": {"geometry": {"location": {"lat": 42.3436183, "lng": -71.1228026}, "viewport": {"northeast": {"lat": 42.3449672802915, "lng": -71.12145361970849}, "southwest": {"lat": 42.3422693197085, "lng": -71.12415158029151}}}, "icon": "https://maps.gstatic.com/mapfiles/place_api/icons/generic_business-71.png", "id": "1d2022fccdfb1136b61acf72347cd32793687cee", "name": "Mikele Rauch, LMFT", "place_id": "ChIJq9g6kr9544kRvtVzDm8GOL0", "plus_code": {"compound_code": "8VVG+CV Brookline, Massachusetts, United States", "global_code": "87JC8VVG+CV"}, "reference": "ChIJq9g6kr9544kRvtVzDm8GOL0", "scope": "GOOGLE", "types": ["doctor", "health", "point_of_interest", "establishment"], "vicinity": "9 Babcock Street, Brookline, MA 02446, Brookline"}, "ChIJq9g6kr9544kRVXsM08FcAy4": {"geometry": {"location": {"lat": 42.3436183, "lng": -71.1228026}, "viewport": {"northeast": {"lat": 42.3450130802915, "lng": -71.12154216970849}, "southwest": {"lat": 42.3423151197085, "lng": -71.1242401302915}}}, "icon": "https://maps.gstatic.com/mapfiles/place_api/icons/generic_business-71.png", "id": "7d02de1e74fdf9b12fbc1b644c15c8635ddb42aa", "name": "Dr. Paul Hamburg, MD", "place_id": "ChIJq9g6kr9544kRVXsM08FcAy4", "plus_code": {"compound_code": "8VVG+CV Brookline, Massachusetts, United States", "global_code": "87JC8VVG+CV"}, "reference": "ChIJq9g6kr9544kRVXsM08FcAy4", "scope": "GOOGLE", "types": ["doctor", "health", "point_of_interest", "establishment"], "vicinity": "9 Babcock Street, Brookline"}, "ChIJEUEtzL9544kRpDpKro0yw98": {"geometry": {"location": {"lat": 42.34363, "lng": -71.122871}, "viewport": {"northeast": {"lat": 42.3450109802915, "lng": -71.12158391970851}, "southwest": {"lat": 42.34231301970851, "lng": -71.12428188029152}}}, "icon": "https://maps.gstatic.com/mapfiles/place_api/icons/generic_business-71.png", "id": "81365d28c58ecb1e96d9474ff765b59fa72cda59", "name": "International Society for Infectious Diseases", "photos": [{"height": 1200, "html_attributions": ["<a href=\"https://maps.google.com/maps/contrib/111501654684568052951/photos\">International Society for Infectious Diseases</a>"], "photo_reference": "CmRaAAAAOkmefSOdI8G6Se8F0sHFCAlo0JlmSsrKZMtMGLUZUbIkVyac2JRCWNN17iXDyqCkfOvYTVVLCXvsi1poGC0m0_VBG36PcOrJY8E3ku9Xq6bo7KvvIx0ldBB2KQRaTRTVEhDfO8EdpuDTsN3dSaZTFs9JGhQ-nA4wygJXvM5AdGU9_rk36JKKRw", "width": 1200}], "place_id": "ChIJEUEtzL9544kRpDpKro0yw98", "plus_code": {"compound_code": "8VVG+FV Brookline, Massachusetts, United States", "global_code": "87JC8VVG+FV"}, "reference": "ChIJEUEtzL9544kRpDpKro0yw98", "scope": "GOOGLE", "types": ["point_of_interest", "establishment"], "vicinity": "9 Babcock Street #3, Brookline"}, "ChIJyxJBkr9544kRVD1pGOC0LRk": {"geometry": {"location": {"lat": 42.34364840000001, "lng": -71.1228316}, "viewport": {"northeast": {"lat": 42.3450331802915, "lng": -71.1215518697085}, "southwest": {"lat": 42.3423352197085, "lng": -71.1242498302915}}}, "icon": "https://maps.gstatic.com/mapfiles/place_api/icons/generic_business-71.png", "id": "bb9774a4b22f8487a0cf6cb993b2d3a6bd1f5aa9", "name": "Elena A. Balzac, PhD", "place_id": "ChIJyxJBkr9544kRVD1pGOC0LRk", "plus_code": {"compound_code": "8VVG+FV Brookline, Massachusetts, United States", "global_code": "87JC8VVG+FV"}, "reference": "ChIJyxJBkr9544kRVD1pGOC0LRk", "scope": "GOOGLE", "types": ["doctor", "health", "point_of_interest", "establishment"], "vicinity": "9 Babcock Street, Brookline"}, "ChIJ90hkkb9544kRx6RP8dq9Mb0": {"geometry": {"location": {"lat": 42.3435307, "lng": -71.1229697}, "viewport": {"northeast": {"lat": 42.3449108302915, "lng": -71.12168101970849}, "southwest": {"lat": 42.3422128697085, "lng": -71.12437898029151}}}, "icon": "https://maps.gstatic.com/mapfiles/place_api/icons/generic_business-71.png", "id": "5ab3e14021e14566d304d6106c54d4339860fc2b", "name": "Nouveau Nails", "opening_hours": {"open_now": true}, "photos": [{"height": 3264, "html_attributions": ["<a href=\"https://maps.google.com/maps/contrib/109842239919688196780/photos\">Karen L</a>"], "photo_reference": "CmRaAAAA3UvkmR0Pt0ZaGMoMXT0PDXECxNfAbVeBUZnIpcDFd64f1o-hFJP6RrXqcyHfdKfHFizlzk6jTR_1lG6vCiDA8t5HFL22tNyr0WTOU6DTJ4F7wutn_QxCLye4LyEYRIyOEhDVZxC8X6Rm37WvTCOS1C3GGhSujLagUgIZOqgbvpqIUxw-dR97TQ", "width": 2448}], "place_id": "ChIJ90hkkb9544kRx6RP8dq9Mb0", "plus_code": {"compound_code": "8VVG+CR Brookline, Massachusetts, United States", "global_code": "87JC8VVG+CR"}, "rating": 3.8, "reference": "ChIJ90hkkb9544kRx6RP8dq9Mb0", "scope": "GOOGLE", "types": ["beauty_salon", "point_of_interest", "establishment"], "user_ratings_total": 11, "vicinity": "5 Babcock Street, Brookline"}, "ChIJhZirQQB544kRB9LbXEfedZQ": {"geometry": {"location": {"lat": 42.33176419999999, "lng": -71.1211635}, "viewport": {"northeast": {"lat": 42.3518109, "lng": -71.1056969}, "southwest": {"lat": 42.29459689999999, "lng": -71.1789959}}}, "icon": "https://maps.gstatic.com/mapfiles/place_api/icons/geocode-71.png", "id": "92986b2d1f69af2f2a7e29d34ced8adfa8573beb", "name": "Brookline", "photos": [{"height": 651, "html_attributions": ["<a href=\"https://maps.google.com/maps/contrib/114772942214832951419/photos\">Michael Ahn</a>"], "photo_reference": "CmRaAAAAbC2g2Sgsq8-lyvYxjSOxPJh_JsCvuH0o3EFe03z3i0gyn4yxojM_HEkk-m6BDJi_sMPsbHFRYOs5soE0IH--5pxUsLxWjpjDFyCs85SwKS5Is_bo36TAvTJglW48mXwpEhAGB7cqTfESPnaAM5zPDAnPGhTI51heMp7RlkhDFwB09pdkLUWBJg", "width": 1608}], "place_id": "ChIJhZirQQB544kRB9LbXEfedZQ", "reference": "ChIJhZirQQB544kRB9LbXEfedZQ", "scope": "GOOGLE", "types": ["locality", "political"], "vicinity": "Brookline"}}