{"ChIJGzE9DS1l44kRoOhiASS_fHg": {"geometry": {"location": {"lat": 42.3600825, "lng": -71.0588801}, "viewport": {"northeast": {"lat": 42.40081989999999, "lng": -70.749455}, "southwest": {"lat": 42.22788, "lng": -71.191113}}}, "icon": "https://maps.gstatic.com/mapfiles/place_api/icons/geocode-71.png", "id": "06755c25d2b34d13942a4713971756a55b870ced", "name": "Boston", "photos": [{"height": 3024, "html_attributions": ["<a href=\"https://maps.google.com/maps/contrib/104670289779338733432/photos\">Natalia Zalucean</a>"], "photo_reference": "CmRaAAAAiGEwfKTLJLMYE2ty-YBrYj8G75Wl3vUig3n2hrnlI-3W4SV6c2BSMOUdo0JGStcb_wOZA9n-sJumPnSvwAw0serMz2CUPzz6fkeKnu0N4ywyqK7LFa5N9agGlEAWwV04EhBWZGCW5_6kram-oI00-b1tGhT9HTT5UQJvkRsMgfd4Bx0SKuQ8rw", "width": 4032}], "place_id": "ChIJGzE9DS1l44kRoOhiASS_fHg", "reference": "ChIJGzE9DS1l44kRoOhiASS_fHg", "scope": "GOOGLE", "types": ["locality", "political"], "vicinity": "Boston"}, "ChIJlSJQR4x544kRF28AWfSwH9c": {"geometry": {"location": {"lat": 42.3379741, "lng": -71.10441759999999}, "viewport": {"northeast": {"lat": 42.3394707302915, "lng": -71.10314066970848}, "southwest": {"lat": 42.3367727697085, "lng": -71.1058386302915}}}, "icon": "https://maps.gstatic.com/mapfiles/place_api/icons/generic_business-71.png", "id": "8260741a72739c5ba37580fe0dd053b193f0c0ff", "name": "Boston Children's Hospital Patient Family Parking Garage", "opening_hours": {"open_now": true}, "photos": [{"height": 523, "html_attributions": ["<a href=\"https://maps.google.com/maps/contrib/103235251179118392842/photos\">Boston Children&#39;s Hospital Patient Family Parking Garage</a>"], "photo_reference": "CmRaAAAADyn4Sih0UtUeAb4XKw7k3ONSfPQ6mTZcLjo3bg_Q7YM6P31xbxB6LLsfima7QRnJQz-DU6W9ZK-q5nIw6Kq6mXTKcMe5BVj4LDh_aIvH8LNaPxkDtXM2AFosqfiE20DFEhAVkMqipaO8AIkHLDPFovZ1GhQlna2uh51L77qSOVS733ez-3J9cg", "width": 930}], "place_id": "ChIJlSJQR4x544kRF28AWfSwH9c", "plus_code": {"compound_code": "8VQW+56 Boston, Massachusetts, United States", "global_code": "87JC8VQW+56"}, "rating": 2.5, "reference": "ChIJlSJQR4x544kRF28AWfSwH9c", "scope": "GOOGLE", "types": ["hospital", "parking", "point_of_interest", "establishment"], "user_ratings_total": 4, "vicinity": "2, Blackfan Circle, Boston"}, "ChIJLVVbaYx544kRCMN9tJBkUF0": {"geometry": {"location": {"lat": 42.3380071, "lng": -71.1044661}, "viewport": {"northeast": {"lat": 42.3394701302915, "lng": -71.10312811970849}, "southwest": {"lat": 42.3367721697085, "lng": -71.10582608029151}}}, "icon": "https://maps.gstatic.com/mapfiles/place_api/icons/generic_business-71.png", "id": "367b08c6daffbc240dacc941147bd396a7613036", "name": "Patient Family Garage", "place_id": "ChIJLVVbaYx544kRCMN9tJBkUF0", "reference": "ChIJLVVbaYx544kRCMN9tJBkUF0", "scope": "GOOGLE", "types": ["parking", "premise", "point_of_interest", "establishment"], "vicinity": "Boston"}, "ChIJAfp8Lh5644kR9PDAZN8nEK8": {"geometry": {"location": {"lat": 42.3428653, "lng": -71.1002881}, "viewport": {"northeast": {"lat": 42.3522779, "lng": -71.0818948}, "southwest": {"lat": 42.332897, "lng": -71.11159599999999}}}, "icon": "https://maps.gstatic.com/mapfiles/place_api/icons/geocode-71.png", "id": "4ca9d423ad416930d3a49da3f2de6540df27b390", "name": "Fenway/Kenmore", "photos": [{"height": 1536, "html_attributions": ["<a href=\"https://maps.google.com/maps/contrib/108749372735406640710/photos\">Joshua Arkin</a>"], "photo_reference": "CmRaAAAAJuXWa6OCWxm-DJ-PM8iVlDpp2m3euNQMqq-i6Rz2hcAUBVqGX2BaBitZe4VJ4ePFf6wh86_VmuqGmm-vmpQimO1zDymnQ8f5u_Lun6wqhcvwstZXuDPSmWD63vVNfvDyEhDEwBFytceWN2lzZ6gjJKESGhQsXnAWSuAZJaTaWhSDg4agxfN34w", "width": 2048}], "place_id": "ChIJAfp8Lh5644kR9PDAZN8nEK8", "reference": "ChIJAfp8Lh5644kR9PDAZN8nEK8", "scope": "GOOGLE", "types": ["neighborhood", "political"], "vicinity": "Boston"}}