{"ChIJozY2jw5644kRcv6OwCd7iu0": {"geometry": {"location": {"lat": 42.3492849, "lng": -71.0803284}, "viewport": {"northeast": {"lat": 42.35063388029149, "lng": -71.0789793697085}, "southwest": {"lat": 42.34793591970849, "lng": -71.08167733029151}}}, "icon": "https://maps.gstatic.com/mapfiles/place_api/icons/geocode-71.png", "id": "7730d885a92b9319e82fb474eb1df0e84258df7f", "name": "715-745 Boylston St", "place_id": "ChIJozY2jw5644kRcv6OwCd7iu0", "reference": "ChIJozY2jw5644kRcv6OwCd7iu0", "scope": "GOOGLE", "types": ["route"], "vicinity": "Boston"}, "ChIJNWScjw5644kRpQYFSEU6qzw": {"geometry": {"location": {"lat": 42.3494671, "lng": -71.08023659999999}, "viewport": {"northeast": {"lat": 42.3507463802915, "lng": -71.07885351970849}, "southwest": {"lat": 42.3480484197085, "lng": -71.0815514802915}}}, "icon": "https://maps.gstatic.com/mapfiles/place_api/icons/restaurant-71.png", "id": "9a317dfdd039b32436eac8ee3c9bf73b8e753895", "name": "Uno Pizzeria & Grill", "opening_hours": {"open_now": true}, "photos": [{"height": 720, "html_attributions": ["<a href=\"https://maps.google.com/maps/contrib/111035691269156880743/photos\">Uno Pizzeria &amp; Grill</a>"], "photo_reference": "CmRaAAAAuBDDo2D2lDTENsykd91tDwpb2LfAWbtuY-wUbwfkZPUYVBZLypAtO8zfnHmbqP3m84hv0EpjyYJHWkMuIvtJdG3C0XHVykO60TXHggaTIwHejVbTv8SW7Omv5FlGrekMEhCcU2hddOc9Gj_zoAEn9H2dGhQUgjxUOoCWsgGZ7rHZwsAiklULvQ", "width": 720}], "place_id": "ChIJNWScjw5644kRpQYFSEU6qzw", "plus_code": {"compound_code": "8WX9+QW Boston, Massachusetts, United States", "global_code": "87JC8WX9+QW"}, "price_level": 2, "rating": 4, "reference": "ChIJNWScjw5644kRpQYFSEU6qzw", "scope": "GOOGLE", "types": ["bar", "meal_takeaway", "restaurant", "point_of_interest", "food", "establishment"], "user_ratings_total": 454, "vicinity": "731 Boylston Street, Boston"}, "ChIJjbm-mg5644kRA8kr-jc3yjg": {"geometry": {"location": {"lat": 42.349494, "lng": -71.0800977}, "viewport": {"northeast": {"lat": 42.3507777802915, "lng": -71.0787168197085}, "southwest": {"lat": 42.3480798197085, "lng": -71.08141478029151}}}, "icon": "https://maps.gstatic.com/mapfiles/place_api/icons/restaurant-71.png", "id": "be384e3bfe3f57efb5993249a30876af864d4f6e", "name": "Typhoon Asian Bistro", "opening_hours": {"open_now": true}, "photos": [{"height": 538, "html_attributions": ["<a href=\"https://maps.google.com/maps/contrib/116237606282308387745/photos\">Typhoon Asian Bistro</a>"], "photo_reference": "CmRaAAAAXWM2D3NCgWGbEu6CynDz5kHlVsE9LS1RCeQ1ZzHs-5yygTEbFVVyy3ztnlYSFKMNT145ROnoldVaejt4toIsPraR5EnuMVWXTPh2dXMRhiMM_75u2SgvScx-xGUZEx1JEhBcsiENstSumGQSwHtkfVnQGhQ9y0ThhLK9pL1cetMy49lugEw4wA", "width": 960}], "place_id": "ChIJjbm-mg5644kRA8kr-jc3yjg", "plus_code": {"compound_code": "8WX9+QX Boston, Massachusetts, United States", "global_code": "87JC8WX9+QX"}, "price_level": 2, "rating": 4.1, "reference": "ChIJjbm-mg5644kRA8kr-jc3yjg", "scope": "GOOGLE", "types": ["restaurant", "point_of_interest", "food", "establishment"], "user_ratings_total": 61, "vicinity": "725 Boylston Street, Boston"}, "ChIJ_fsLPgt644kRb6teB4IlA7g": {"geometry": {"location": {"lat": 42.3495163, "lng": -71.0799436}, "viewport": {"northeast": {"lat": 42.3508081802915, "lng": -71.0785677697085}, "southwest": {"lat": 42.3481102197085, "lng": -71.0812657302915}}}, "icon": "https://maps.gstatic.com/mapfiles/place_api/icons/shopping-71.png", "id": "a59c3cce0fa98808eff0fb4153003b1120f6bcdd", "name": "Bella Bridesmaids", "opening_hours": {"open_now": true}, "photos": [{"height": 4032, "html_attributions": ["<a href=\"https://maps.google.com/maps/contrib/110563420603076505006/photos\">Matt S</a>"], "photo_reference": "CmRaAAAA4jFKElov6xbbkl6fRsFdyXDZJ1oHGvPGPfSny5bo13OmINtQ2P_TPR8z_afxDd2ndJoR2VeuN11N1KfJSHDTM2Iqt1cxpKEwVgSXNlh6CqVP84A7f9XNOKXYSFpDqk0aEhCR3PD3xOu_TE11rt1qVEjmGhS8hXPSGTBYSKvb6EfOyAiI5GY2OQ", "width": 3024}], "place_id": "ChIJ_fsLPgt644kRb6teB4IlA7g", "plus_code": {"compound_code": "8WXC+R2 Boston, Massachusetts, United States", "global_code": "87JC8WXC+R2"}, "rating": 4, "reference": "ChIJ_fsLPgt644kRb6teB4IlA7g", "scope": "GOOGLE", "types": ["clothing_store", "store", "point_of_interest", "establishment"], "user_ratings_total": 10, "vicinity": "715 Boylston Street 4th Floor, Boston"}, "ChIJP3ZhhQ5644kRk6JKQ6_NKj8": {"geometry": {"location": {"lat": 42.3495694, "lng": -71.0803438}, "viewport": {"northeast": {"lat": 42.3507907802915, "lng": -71.0789323697085}, "southwest": {"lat": 42.3480928197085, "lng": -71.0816303302915}}}, "icon": "https://maps.gstatic.com/mapfiles/place_api/icons/generic_business-71.png", "id": "eb98d26eb38bfd45967ed7c58792007750b9db6f", "name": "D J USA", "place_id": "ChIJP3ZhhQ5644kRk6JKQ6_NKj8", "plus_code": {"compound_code": "8WX9+RV Boston, Massachusetts, United States", "global_code": "87JC8WX9+RV"}, "reference": "ChIJP3ZhhQ5644kRk6JKQ6_NKj8", "scope": "GOOGLE", "types": ["point_of_interest", "establishment"], "vicinity": "729 Boylston Street # 303, Boston"}, "ChIJzwo3mw5644kRNNxCALJnJnM": {"geometry": {"location": {"lat": 42.34955, "lng": -71.07995679999999}, "viewport": {"northeast": {"lat": 42.3508253302915, "lng": -71.07857321970847}, "southwest": {"lat": 42.3481273697085, "lng": -71.0812711802915}}}, "icon": "https://maps.gstatic.com/mapfiles/place_api/icons/generic_business-71.png", "id": "35bc73d9ad0d825af92eca4699311c9a477cd79f", "name": "Treasured Hands Nail& Beauty Salon", "opening_hours": {"open_now": true}, "photos": [{"height": 1152, "html_attributions": ["<a href=\"https://maps.google.com/maps/contrib/110485402983745960293/photos\">Treasured Hands Nail&amp; Beauty Salon</a>"], "photo_reference": "CmRaAAAAGUpYlol_J-nGqK89BoYpaQ_h9mswscTnEzJnM2IyL-pfUFB8rE55TMJggZREbrOJCVRwnYftbXSoryrw-Xk-ccjdZ2sW3QZBsjaknzI_LfgxmJZWakvPBtE9RIrBEspuEhCcpLoIP8qgmJPCGLsRPMOwGhRZtszqSeeiZU8mGEf8BtCiz8C43A", "width": 2048}], "place_id": "ChIJzwo3mw5644kRNNxCALJnJnM", "plus_code": {"compound_code": "8WXC+R2 Boston, Massachusetts, United States", "global_code": "87JC8WXC+R2"}, "price_level": 2, "rating": 4.3, "reference": "ChIJzwo3mw5644kRNNxCALJnJnM", "scope": "GOOGLE", "types": ["beauty_salon", "hair_care", "point_of_interest", "establishment"], "user_ratings_total": 138, "vicinity": "715 Boylston Street, Boston"}, "ChIJTTe4UA5644kRoUQ4XhrI_58": {"geometry": {"location": {"lat": 42.34948, "lng": -71.079928}, "viewport": {"northeast": {"lat": 42.3507898802915, "lng": -71.0785605197085}, "southwest": {"lat": 42.3480919197085, "lng": -71.08125848029151}}}, "icon": "https://maps.gstatic.com/mapfiles/place_api/icons/generic_business-71.png", "id": "04ff8e873b72b959e23022a6129edf2a42f5dde6", "name": "C.Spa - Boston, Skin & Massage Studio", "opening_hours": {"open_now": true}, "photos": [{"height": 640, "html_attributions": ["<a href=\"https://maps.google.com/maps/contrib/105827368888379727421/photos\">C.Spa - Boston, Skin &amp; Massage Studio</a>"], "photo_reference": "CmRaAAAASSZJ0AsM0A-kT5-3Anl6nSoowzrTCfjDkYWqEmfuY0ZgzuXOhij1bOM009nt3lgeEbEy-Ko6itZl88GUsqcZqtz5AxCbewFC-qke_gHcmUmWdT_SDrULWyNIMn7uhxGxEhDwb6uOBrmjGYXb4AoIPqBrGhRl1W0IwZxRPg9n0n2bWEHnieMgUA", "width": 960}], "place_id": "ChIJTTe4UA5644kRoUQ4XhrI_58", "plus_code": {"compound_code": "8WXC+Q2 Boston, Massachusetts, United States", "global_code": "87JC8WXC+Q2"}, "rating": 5, "reference": "ChIJTTe4UA5644kRoUQ4XhrI_58", "scope": "GOOGLE", "types": ["beauty_salon", "hair_care", "spa", "health", "point_of_interest", "establishment"], "user_ratings_total": 22, "vicinity": "#510, 715 Boylston Street, Boston"}, "ChIJP3ZhhQ5644kRHiR-QF1AKog": {"geometry": {"location": {"lat": 42.3495694, "lng": -71.0803438}, "viewport": {"northeast": {"lat": 42.3507907802915, "lng": -71.0789323697085}, "southwest": {"lat": 42.3480928197085, "lng": -71.0816303302915}}}, "icon": "https://maps.gstatic.com/mapfiles/place_api/icons/generic_business-71.png", "id": "81133a253f5bf54c8509f165a616c912b44ee533", "name": "Sprachreisen Boston - Sprachschulen Boston", "opening_hours": {"open_now": true}, "place_id": "ChIJP3ZhhQ5644kRHiR-QF1AKog", "plus_code": {"compound_code": "8WX9+RV Boston, Massachusetts, United States", "global_code": "87JC8WX9+RV"}, "reference": "ChIJP3ZhhQ5644kRHiR-QF1AKog", "scope": "GOOGLE", "types": ["painter", "point_of_interest", "establishment"], "vicinity": "729 Boylston Street, Boston"}, "ChIJP3ZhhQ5644kRUMaKgH4v_cU": {"geometry": {"location": {"lat": 42.3495694, "lng": -71.0803438}, "viewport": {"northeast": {"lat": 42.3507907802915, "lng": -71.0789323697085}, "southwest": {"lat": 42.3480928197085, "lng": -71.0816303302915}}}, "icon": "https://maps.gstatic.com/mapfiles/place_api/icons/generic_business-71.png", "id": "ebbba4b92a8d2db78d317691ec05c43c0786b476", "name": "Accomplice", "place_id": "ChIJP3ZhhQ5644kRUMaKgH4v_cU", "plus_code": {"compound_code": "8WX9+RV Boston, Massachusetts, United States", "global_code": "87JC8WX9+RV"}, "reference": "ChIJP3ZhhQ5644kRUMaKgH4v_cU", "scope": "GOOGLE", "types": ["point_of_interest", "establishment"], "vicinity": "729 Boylston Street # 5, Boston"}, "ChIJP3ZhhQ5644kRuOsuuboOHys": {"geometry": {"location": {"lat": 42.3495452, "lng": -71.08034889999999}, "viewport": {"northeast": {"lat": 42.3507766802915, "lng": -71.07894241970848}, "southwest": {"lat": 42.3480787197085, "lng": -71.08164038029149}}}, "icon": "https://maps.gstatic.com/mapfiles/place_api/icons/school-71.png", "id": "3646aca5fa20c00e15fdd2e81528709aca344589", "name": "Olin Center for International Study", "place_id": "ChIJP3ZhhQ5644kRuOsuuboOHys", "plus_code": {"compound_code": "8WX9+RV Boston, Massachusetts, United States", "global_code": "87JC8WX9+RV"}, "reference": "ChIJP3ZhhQ5644kRuOsuuboOHys", "scope": "GOOGLE", "types": ["university", "point_of_interest", "school", "establishment"], "vicinity": "729 Boylston Street, Boston"}, "ChIJP3ZhhQ5644kRRSAWKatVlKQ": {"geometry": {"location": {"lat": 42.3495452, "lng": -71.08034889999999}, "viewport": {"northeast": {"lat": 42.3507766802915, "lng": -71.07894241970848}, "southwest": {"lat": 42.3480787197085, "lng": -71.08164038029149}}}, "icon": "https://maps.gstatic.com/mapfiles/place_api/icons/civic_building-71.png", "id": "0d09df5c62ed512c80127c6eb73f1ae6f346b957", "name": "Hospitality Executive Search, Inc.", "opening_hours": {"open_now": true}, "place_id": "ChIJP3ZhhQ5644kRRSAWKatVlKQ", "plus_code": {"compound_code": "8WX9+RV Boston, Massachusetts, United States", "global_code": "87JC8WX9+RV"}, "reference": "ChIJP3ZhhQ5644kRRSAWKatVlKQ", "scope": "GOOGLE", "types": ["point_of_interest", "establishment"], "vicinity": "729 Boylston Street, Boston"}, "ChIJ8Unojw5644kRkw4cHeKN9HI": {"geometry": {"location": {"lat": 42.349569, "lng": -71.080344}, "viewport": {"northeast": {"lat": 42.3507905302915, "lng": -71.0789326197085}, "southwest": {"lat": 42.3480925697085, "lng": -71.0816305802915}}}, "icon": "https://maps.gstatic.com/mapfiles/place_api/icons/generic_business-71.png", "id": "e4f26d67fba1f9d188beefb589c0cd58c126a8d3", "name": "Slc Interiors", "place_id": "ChIJ8Unojw5644kRkw4cHeKN9HI", "plus_code": {"compound_code": "8WX9+RV Boston, Massachusetts, United States", "global_code": "87JC8WX9+RV"}, "reference": "ChIJ8Unojw5644kRkw4cHeKN9HI", "scope": "GOOGLE", "types": ["general_contractor", "point_of_interest", "establishment"], "vicinity": "729 Boylston Street suite 308, Boston"}, "ChIJgxBnhQ5644kRCFLwvyO40jU": {"geometry": {"location": {"lat": 42.3495694, "lng": -71.0803438}, "viewport": {"northeast": {"lat": 42.3507907802915, "lng": -71.0789323697085}, "southwest": {"lat": 42.3480928197085, "lng": -71.0816303302915}}}, "icon": "https://maps.gstatic.com/mapfiles/place_api/icons/generic_business-71.png", "id": "959127bfbfc4a930297adb34e4a20ccf19e6f2b8", "name": "Cantata Singers", "opening_hours": {"open_now": true}, "photos": [{"height": 417, "html_attributions": ["<a href=\"https://maps.google.com/maps/contrib/109262121202363647746/photos\">Cantata Singers</a>"], "photo_reference": "CmRaAAAAqtm7BavSt8iRQxG1mHVHupp6Tb1O3Kjp2xCgxWF-4xrYiP-sjz6YEsjJIcarCjWoV8fYCZXbDCqGCP0HTWdPhka-HW_OPTLKaP98UYCkfgksVf8XAZnntC7MREPqXlI5EhCa6VOZIOfmxyg6wJ9BQsZ6GhRU2bhDaOPTM-KEyz6ZRWWPhV3Y1Q", "width": 417}], "place_id": "ChIJgxBnhQ5644kRCFLwvyO40jU", "plus_code": {"compound_code": "8WX9+RV Boston, Massachusetts, United States", "global_code": "87JC8WX9+RV"}, "reference": "ChIJgxBnhQ5644kRCFLwvyO40jU", "scope": "GOOGLE", "types": ["point_of_interest", "establishment"], "vicinity": "729 Boylston Street # 309, Boston"}, "ChIJf9ODtA9644kRQKkYwUNXMxk": {"geometry": {"location": {"lat": 42.3495694, "lng": -71.0803438}, "viewport": {"northeast": {"lat": 42.3507907802915, "lng": -71.0789323697085}, "southwest": {"lat": 42.3480928197085, "lng": -71.0816303302915}}}, "icon": "https://maps.gstatic.com/mapfiles/place_api/icons/generic_business-71.png", "id": "c20416f4d4c8511614e4eda98316be5aed672dda", "name": "Boston Child Study Center", "opening_hours": {"open_now": true}, "photos": [{"height": 1365, "html_attributions": ["<a href=\"https://maps.google.com/maps/contrib/107147056611155204825/photos\">Boston Child Study Center</a>"], "photo_reference": "CmRaAAAAEMfXbgxIOMm7QHCiVaIH4hLXcnJjHctaDpEMeu1jJoyDqvE_sFAHd-SmLzGx62XbcPTeDQUn9HRp0Hz4JkidkBETD2Gq9zNqvMM75kh3uCi55x-3aGQVO7g5yS18YMvZEhDRTN0Zz3PwEXMF5qo4JOgiGhR6tMcC-81ztRe7-166jBb6ZZDGGQ", "width": 2048}], "place_id": "ChIJf9ODtA9644kRQKkYwUNXMxk", "plus_code": {"compound_code": "8WX9+RV Boston, Massachusetts, United States", "global_code": "87JC8WX9+RV"}, "reference": "ChIJf9ODtA9644kRQKkYwUNXMxk", "scope": "GOOGLE", "types": ["health", "point_of_interest", "establishment"], "vicinity": "F5, 729 Boylston Street, Boston"}, "ChIJP3ZhhQ5644kRNk77_G1fQYA": {"geometry": {"location": {"lat": 42.3495694, "lng": -71.0803438}, "viewport": {"northeast": {"lat": 42.3507907802915, "lng": -71.0789323697085}, "southwest": {"lat": 42.3480928197085, "lng": -71.0816303302915}}}, "icon": "https://maps.gstatic.com/mapfiles/place_api/icons/generic_business-71.png", "id": "7d5b68cf0c1c75658f834511c8206e002360278e", "name": "William A Hermanson Co", "place_id": "ChIJP3ZhhQ5644kRNk77_G1fQYA", "plus_code": {"compound_code": "8WX9+RV Boston, Massachusetts, United States", "global_code": "87JC8WX9+RV"}, "reference": "ChIJP3ZhhQ5644kRNk77_G1fQYA", "scope": "GOOGLE", "types": ["point_of_interest", "establishment"], "vicinity": "729 Boylston Street, Boston"}, "ChIJP3ZhhQ5644kR2gp9Q8Jx12o": {"geometry": {"location": {"lat": 42.3495452, "lng": -71.08034889999999}, "viewport": {"northeast": {"lat": 42.3508941802915, "lng": -71.07899991970848}, "southwest": {"lat": 42.34819621970851, "lng": -71.0816978802915}}}, "icon": "https://maps.gstatic.com/mapfiles/place_api/icons/generic_business-71.png", "id": "2635e6de2cb00ee01997643f5c9e3e51e18881d5", "name": "Margaret M. Magraw, LICSW", "place_id": "ChIJP3ZhhQ5644kR2gp9Q8Jx12o", "plus_code": {"compound_code": "8WX9+RV Boston, Massachusetts, United States", "global_code": "87JC8WX9+RV"}, "reference": "ChIJP3ZhhQ5644kR2gp9Q8Jx12o", "scope": "GOOGLE", "types": ["doctor", "health", "point_of_interest", "establishment"], "vicinity": "729 Boylston Street, Boston, MA 02116, Boston"}, "ChIJv81MdxddXEARGrG1i-TND7o": {"geometry": {"location": {"lat": 42.3495137, "lng": -71.08031969999999}, "viewport": {"northeast": {"lat": 42.3507652802915, "lng": -71.07891906970849}, "southwest": {"lat": 42.34806731970851, "lng": -71.0816170302915}}}, "icon": "https://maps.gstatic.com/mapfiles/place_api/icons/generic_business-71.png", "id": "eac864b81b7736e22c92484ed5b6697978bf8177", "name": "Lichten & Liss-Riordan, P.C.", "opening_hours": {"open_now": true}, "place_id": "ChIJv81MdxddXEARGrG1i-TND7o", "plus_code": {"compound_code": "8WX9+RV Boston, Massachusetts, United States", "global_code": "87JC8WX9+RV"}, "rating": 4.2, "reference": "ChIJv81MdxddXEARGrG1i-TND7o", "scope": "GOOGLE", "types": ["lawyer", "point_of_interest", "establishment"], "user_ratings_total": 5, "vicinity": "729 Boylston Street #2000, Boston"}, "ChIJP3ZhhQ5644kRq3PoS1y2Kn0": {"geometry": {"location": {"lat": 42.3495452, "lng": -71.08034889999999}, "viewport": {"northeast": {"lat": 42.3508941802915, "lng": -71.07899991970848}, "southwest": {"lat": 42.34819621970851, "lng": -71.0816978802915}}}, "icon": "https://maps.gstatic.com/mapfiles/place_api/icons/generic_business-71.png", "id": "2908b54cd1754b62bddec34d1719cd22719f782e", "name": "David J. Brennan, MSW", "place_id": "ChIJP3ZhhQ5644kRq3PoS1y2Kn0", "plus_code": {"compound_code": "8WX9+RV Boston, Massachusetts, United States", "global_code": "87JC8WX9+RV"}, "reference": "ChIJP3ZhhQ5644kRq3PoS1y2Kn0", "scope": "GOOGLE", "types": ["doctor", "health", "point_of_interest", "establishment"], "vicinity": "729 Boylston Street, Boston, MA 02116, Boston"}, "ChIJP3ZhhQ5644kRhQhj8Mlmfy4": {"geometry": {"location": {"lat": 42.3495694, "lng": -71.0803438}, "viewport": {"northeast": {"lat": 42.3507907802915, "lng": -71.0789323697085}, "southwest": {"lat": 42.3480928197085, "lng": -71.0816303302915}}}, "icon": "https://maps.gstatic.com/mapfiles/place_api/icons/generic_business-71.png", "id": "5b8a1426cb7687b7aafc87c1de4f4dbe1190528e", "name": "Deville Douglas M", "place_id": "ChIJP3ZhhQ5644kRhQhj8Mlmfy4", "plus_code": {"compound_code": "8WX9+RV Boston, Massachusetts, United States", "global_code": "87JC8WX9+RV"}, "reference": "ChIJP3ZhhQ5644kRhQhj8Mlmfy4", "scope": "GOOGLE", "types": ["health", "point_of_interest", "establishment"], "vicinity": "729 Boylston Street # 401, Boston"}, "ChIJGzE9DS1l44kRoOhiASS_fHg": {"geometry": {"location": {"lat": 42.3600825, "lng": -71.0588801}, "viewport": {"northeast": {"lat": 42.40081989999999, "lng": -70.749455}, "southwest": {"lat": 42.22788, "lng": -71.191113}}}, "icon": "https://maps.gstatic.com/mapfiles/place_api/icons/geocode-71.png", "id": "06755c25d2b34d13942a4713971756a55b870ced", "name": "Boston", "photos": [{"height": 3024, "html_attributions": ["<a href=\"https://maps.google.com/maps/contrib/104670289779338733432/photos\">Natalia Zalucean</a>"], "photo_reference": "CmRaAAAAeKHGgV3_2K2jSmU9RlZnVCuzLHhVrgztXrTjtlKO4AgfSnjqrJQkZh2C6kEGkJ0N5TrfV8YyB06pmLkOe_3cvVuUbFXGatlAEqXLC8cDaZdGt7gIzgMzSo_qRVYVRX46EhDIafvWMvgFiGJV4Lg2XOlUGhRHEvYFgehuOWKKUIphknhATG2T5A", "width": 4032}], "place_id": "ChIJGzE9DS1l44kRoOhiASS_fHg", "reference": "ChIJGzE9DS1l44kRoOhiASS_fHg", "scope": "GOOGLE", "types": ["locality", "political"], "vicinity": "Boston"}, "ChIJh6-f7vF744kRK7HXtfYJ-CM": {"geometry": {"location": {"lat": 42.34960909999999, "lng": -71.0800704}, "viewport": {"northeast": {"lat": 42.35084523029149, "lng": -71.0786661697085}, "southwest": {"lat": 42.34814726970849, "lng": -71.0813641302915}}}, "icon": "https://maps.gstatic.com/mapfiles/place_api/icons/generic_business-71.png", "id": "ae32aff8fe7c338426097a99a10b3e699d1c2791", "name": "iHurry Auto Transport", "opening_hours": {"open_now": true}, "place_id": "ChIJh6-f7vF744kRK7HXtfYJ-CM", "plus_code": {"compound_code": "8WX9+RX Boston, Massachusetts, United States", "global_code": "87JC8WX9+RX"}, "reference": "ChIJh6-f7vF744kRK7HXtfYJ-CM", "scope": "GOOGLE", "types": ["moving_company", "point_of_interest", "establishment"], "vicinity": "717 Boylston Street, Boston"}, "ChIJa_rVmg5644kRZS0NIW1nijo": {"geometry": {"location": {"lat": 42.34960909999999, "lng": -71.0800704}, "viewport": {"northeast": {"lat": 42.35084523029149, "lng": -71.0786661697085}, "southwest": {"lat": 42.34814726970849, "lng": -71.0813641302915}}}, "icon": "https://maps.gstatic.com/mapfiles/place_api/icons/generic_business-71.png", "id": "bc7e1f12e8a75ce102f2c21afab14d80843e5ccb", "name": "20/20 Vision Care", "place_id": "ChIJa_rVmg5644kRZS0NIW1nijo", "plus_code": {"compound_code": "8WX9+RX Boston, Massachusetts, United States", "global_code": "87JC8WX9+RX"}, "reference": "ChIJa_rVmg5644kRZS0NIW1nijo", "scope": "GOOGLE", "types": ["health", "point_of_interest", "establishment"], "vicinity": "717 Boylston Street, Boston"}, "ChIJw677mg5644kRsNCfjWw1ER8": {"geometry": {"location": {"lat": 42.34964, "lng": -71.08008}, "viewport": {"northeast": {"lat": 42.3508613302915, "lng": -71.0786685697085}, "southwest": {"lat": 42.3481633697085, "lng": -71.0813665302915}}}, "icon": "https://maps.gstatic.com/mapfiles/place_api/icons/shopping-71.png", "id": "7b761964f07e81d9a7830c3121ff6bf89fd2d965", "name": "7-Eleven", "photos": [{"height": 521, "html_attributions": ["<a href=\"https://maps.google.com/maps/contrib/111094737606976362299/photos\">7-Eleven</a>"], "photo_reference": "CmRaAAAAZRQw9VO2CV4c4VYUwKIJOsEeBq5h7nGcceveLMgmHZBBEj8TCQI9pHL7Pj-8OHBPqM5Sz1x3Xfb2eYlwL_5b1qDhIYM7jD0XqSpHJ1q4Goiaf-e9h5bk38xtiJtdTc8sEhAxN3RWB2w8D_aU4f1Cv2pOGhRwuWT4qG6hPbpW3UXu39SzaBOZSw", "width": 864}], "place_id": "ChIJw677mg5644kRsNCfjWw1ER8", "plus_code": {"compound_code": "8WX9+VX Boston, Massachusetts, United States", "global_code": "87JC8WX9+VX"}, "price_level": 1, "rating": 5, "reference": "ChIJw677mg5644kRsNCfjWw1ER8", "scope": "GOOGLE", "types": ["convenience_store", "store", "point_of_interest", "food", "establishment"], "user_ratings_total": 2, "vicinity": "717 Boylston Street, Boston"}}