{"ChIJGzE9DS1l44kRoOhiASS_fHg": {"geometry": {"location": {"lat": 42.3600825, "lng": -71.0588801}, "viewport": {"northeast": {"lat": 42.40081989999999, "lng": -70.749455}, "southwest": {"lat": 42.22788, "lng": -71.191113}}}, "icon": "https://maps.gstatic.com/mapfiles/place_api/icons/geocode-71.png", "id": "06755c25d2b34d13942a4713971756a55b870ced", "name": "Boston", "photos": [{"height": 3024, "html_attributions": ["<a href=\"https://maps.google.com/maps/contrib/104670289779338733432/photos\">Natalia Zalucean</a>"], "photo_reference": "CmRaAAAAySBivpLuqJBDGo7N_GAC0gAJTVyhN0P6Fh3lhR-21oqMwlwXAPbt200XvUEzPCBJcM3jyN8qIQusn7tN-2A5l8xwd4bTjHsYooRSl_Cq8FmMwPVgS8wHNpjNP0RHdvoyEhD_SSrM-VhDrG9koOQJj9jiGhRHL044hhL6hR7usSJhfk_EvxdcyQ", "width": 4032}], "place_id": "ChIJGzE9DS1l44kRoOhiASS_fHg", "reference": "ChIJGzE9DS1l44kRoOhiASS_fHg", "scope": "GOOGLE", "types": ["locality", "political"], "vicinity": "Boston"}, "ChIJ30VlLIJw44kRh4Vp6QSJTsc": {"geometry": {"location": {"lat": 42.35409860000001, "lng": -71.05929440000001}, "viewport": {"northeast": {"lat": 42.3555702302915, "lng": -71.0577766697085}, "southwest": {"lat": 42.3528722697085, "lng": -71.06047463029151}}}, "icon": "https://maps.gstatic.com/mapfiles/place_api/icons/civic_building-71.png", "id": "73fc5adb0d3e136b945c33546bde15831c5c3859", "name": "Mass Health and Education", "opening_hours": {"open_now": true}, "photos": [{"height": 455, "html_attributions": ["<a href=\"https://maps.google.com/maps/contrib/116545412721388208374/photos\">Mass Health and Education</a>"], "photo_reference": "CmRaAAAAjKsKhBFXtX_p76CpUb2lzUIi-wVprwxFGdxHCaI4QHtsqAb9W5dRlQYsLhgiYpNjotjnoJIy-gKT1sYjH7gVjOGD4jgvdG1NFPwZSeXFhUI58EE042yl5qvhJQdLORMoEhA_OA8SN8h6yG6ZKNQHAMWTGhTjJIGvi42odopa_kI3cO6wYes94w", "width": 606}], "place_id": "ChIJ30VlLIJw44kRh4Vp6QSJTsc", "plus_code": {"compound_code": "9W3R+J7 Boston, Massachusetts, United States", "global_code": "87JC9W3R+J7"}, "rating": 5, "reference": "ChIJ30VlLIJw44kRh4Vp6QSJTsc", "scope": "GOOGLE", "types": ["local_government_office", "point_of_interest", "establishment"], "user_ratings_total": 2, "vicinity": "55 Summer Street, Boston"}, "ChIJU4HA-4Jw44kRc1EyX1EfKf0": {"geometry": {"location": {"lat": 42.3542549, "lng": -71.059129}, "viewport": {"northeast": {"lat": 42.3556575302915, "lng": -71.05770621970849}, "southwest": {"lat": 42.3529595697085, "lng": -71.0604041802915}}}, "icon": "https://maps.gstatic.com/mapfiles/place_api/icons/shopping-71.png", "id": "19f01cce758576a9f42ed2e465c58eb3a5488dbd", "name": "CVS", "opening_hours": {"open_now": true}, "photos": [{"height": 800, "html_attributions": ["<a href=\"https://maps.google.com/maps/contrib/111160540774803964409/photos\">CVS</a>"], "photo_reference": "CmRaAAAADE_yJoUC2yRlJizuZwrfLDPeceOovGPl4p-uMX360BivH11h16GRNnhvdxWnwYclFsfdKNto7sq1on2aXTh_LbbAhEFtJqSYhh90jKvPDZbQLyui7LQVeSv9n0mcSA3OEhCbk8KfmYtXhiJMLyyUznV_GhSGQGZYK10yAlr-HP_nozZ1XoII9w", "width": 1067}], "place_id": "ChIJU4HA-4Jw44kRc1EyX1EfKf0", "plus_code": {"compound_code": "9W3R+P8 Boston, Massachusetts, United States", "global_code": "87JC9W3R+P8"}, "rating": 3.7, "reference": "ChIJU4HA-4Jw44kRc1EyX1EfKf0", "scope": "GOOGLE", "types": ["convenience_store", "store", "health", "point_of_interest", "food", "establishment"], "user_ratings_total": 14, "vicinity": "55 Summer Street, Boston"}, "ChIJU4HA-4Jw44kRAsT5AwO3_6Y": {"geometry": {"location": {"lat": 42.35409449999999, "lng": -71.05927539999999}, "viewport": {"northeast": {"lat": 42.35556363029148, "lng": -71.05776111970847}, "southwest": {"lat": 42.35286566970849, "lng": -71.0604590802915}}}, "icon": "https://maps.gstatic.com/mapfiles/place_api/icons/generic_business-71.png", "id": "4b4507ab2818b1a612f040476fd43beedb574604", "name": "American Public Television", "place_id": "ChIJU4HA-4Jw44kRAsT5AwO3_6Y", "plus_code": {"compound_code": "9W3R+J7 Boston, Massachusetts, United States", "global_code": "87JC9W3R+J7"}, "rating": 3, "reference": "ChIJU4HA-4Jw44kRAsT5AwO3_6Y", "scope": "GOOGLE", "types": ["point_of_interest", "establishment"], "user_ratings_total": 1, "vicinity": "55 Summer Street # 4, Boston"}, "ChIJeQnB-4Jw44kRmnh0VpqJWwU": {"geometry": {"location": {"lat": 42.35409859999999, "lng": -71.0592945}, "viewport": {"northeast": {"lat": 42.3555702302915, "lng": -71.05777676970848}, "southwest": {"lat": 42.3528722697085, "lng": -71.0604747302915}}}, "icon": "https://maps.gstatic.com/mapfiles/place_api/icons/generic_business-71.png", "id": "9ec664a6cd9e52dd67a773996ee187285e0c723a", "name": "Murphy William H", "place_id": "ChIJeQnB-4Jw44kRmnh0VpqJWwU", "plus_code": {"compound_code": "9W3R+J7 Boston, Massachusetts, United States", "global_code": "87JC9W3R+J7"}, "reference": "ChIJeQnB-4Jw44kRmnh0VpqJWwU", "scope": "GOOGLE", "types": ["lawyer", "point_of_interest", "establishment"], "vicinity": "55 Summer Street, Boston"}, "ChIJ34bA-4Jw44kRtkt77k60eyI": {"geometry": {"location": {"lat": 42.35409449999999, "lng": -71.05927539999999}, "viewport": {"northeast": {"lat": 42.35556363029148, "lng": -71.05776111970847}, "southwest": {"lat": 42.35286566970849, "lng": -71.0604590802915}}}, "icon": "https://maps.gstatic.com/mapfiles/place_api/icons/generic_business-71.png", "id": "64eefca4a77ff8f5e3394f6a216da9d49b2b1bbd", "name": "Hanscomb Faithful", "place_id": "ChIJ34bA-4Jw44kRtkt77k60eyI", "plus_code": {"compound_code": "9W3R+J7 Boston, Massachusetts, United States", "global_code": "87JC9W3R+J7"}, "reference": "ChIJ34bA-4Jw44kRtkt77k60eyI", "scope": "GOOGLE", "types": ["point_of_interest", "establishment"], "vicinity": "55 Summer Street # 3, Boston"}, "ChIJU4HA-4Jw44kR_xejv66pARo": {"geometry": {"location": {"lat": 42.35424920000001, "lng": -71.0592829}, "viewport": {"northeast": {"lat": 42.3556816802915, "lng": -71.05781906970849}, "southwest": {"lat": 42.3529837197085, "lng": -71.0605170302915}}}, "icon": "https://maps.gstatic.com/mapfiles/place_api/icons/generic_business-71.png", "id": "635f8a0015434efd7909d4717ab4ae890999215e", "name": "Faithful+Gould", "place_id": "ChIJU4HA-4Jw44kR_xejv66pARo", "plus_code": {"compound_code": "9W3R+M7 Boston, Massachusetts, United States", "global_code": "87JC9W3R+M7"}, "reference": "ChIJU4HA-4Jw44kR_xejv66pARo", "scope": "GOOGLE", "types": ["point_of_interest", "establishment"], "vicinity": "55 Summer Street # 3, Boston"}, "ChIJU4HA-4Jw44kR1GX4Fi8_0Lo": {"geometry": {"location": {"lat": 42.35424920000001, "lng": -71.0592829}, "viewport": {"northeast": {"lat": 42.3556816802915, "lng": -71.05781906970849}, "southwest": {"lat": 42.3529837197085, "lng": -71.0605170302915}}}, "icon": "https://maps.gstatic.com/mapfiles/place_api/icons/generic_business-71.png", "id": "e3764be458ac71ef2e822e8f36a39da47dd217c7", "name": "Maximus", "opening_hours": {"open_now": true}, "photos": [{"height": 378, "html_attributions": ["<a href=\"https://maps.google.com/maps/contrib/103517892479187586855/photos\">Robert Oskey</a>"], "photo_reference": "CmRaAAAA43atq0qe7XtOBrEV4WR9eHdBab6KQSFdZbpfMjsOoLxgUr7lZzsxr2ikHB9QN_jAGagwn7jdTiMFnw4vly8sQs3UFa3bETelUVVBmHFJY740qCuNWHA5JQCSEulg7w8cEhBctPNk2Vi-qpxkyHasiChwGhQqxO258swQ5dveXSuBj7cp9S0v1A", "width": 504}], "place_id": "ChIJU4HA-4Jw44kR1GX4Fi8_0Lo", "plus_code": {"compound_code": "9W3R+M7 Boston, Massachusetts, United States", "global_code": "87JC9W3R+M7"}, "rating": 3.6, "reference": "ChIJU4HA-4Jw44kR1GX4Fi8_0Lo", "scope": "GOOGLE", "types": ["point_of_interest", "establishment"], "user_ratings_total": 7, "vicinity": "55 Summer Street # 801, Boston"}, "ChIJGRF--YJw44kRSH8N8eCpODk": {"geometry": {"location": {"lat": 42.35409859999999, "lng": -71.0592945}, "viewport": {"northeast": {"lat": 42.3555702302915, "lng": -71.05777676970848}, "southwest": {"lat": 42.3528722697085, "lng": -71.0604747302915}}}, "icon": "https://maps.gstatic.com/mapfiles/place_api/icons/shopping-71.png", "id": "355abccd1b98d3152a305f7f1d832baeafb3f1a0", "name": "CVS Pharmacy", "opening_hours": {"open_now": true}, "photos": [{"height": 667, "html_attributions": ["<a href=\"https://maps.google.com/maps/contrib/107316784524241083304/photos\">CVS Pharmacy</a>"], "photo_reference": "CmRaAAAAtaTHuYo8FkDiLvrIIvlOcv181HCVssL1QbQ2mub5KcMvZLkHStD8_QfSfrpgdC85sj3WUe4SGLn2mwD61VCQo8j4Q9o5gES9DNirsi06lu5GnB-0ooZdtgGIbyCeWlrNEhB-5lTAMTJxBWByLrbCSnGGGhQY1zFQsLIVnFJFr-I4kXSSb-KNGw", "width": 1000}], "place_id": "ChIJGRF--YJw44kRSH8N8eCpODk", "plus_code": {"compound_code": "9W3R+J7 Boston, Massachusetts, United States", "global_code": "87JC9W3R+J7"}, "reference": "ChIJGRF--YJw44kRSH8N8eCpODk", "scope": "GOOGLE", "types": ["pharmacy", "store", "health", "point_of_interest", "establishment"], "vicinity": "55 Summer Street, Boston"}, "ChIJ814V-n9644kROvhRJUG3Fq0": {"geometry": {"location": {"lat": 42.3541759, "lng": -71.0593033}, "viewport": {"northeast": {"lat": 42.35563013029149, "lng": -71.05780946970849}, "southwest": {"lat": 42.3529321697085, "lng": -71.0605074302915}}}, "icon": "https://maps.gstatic.com/mapfiles/place_api/icons/generic_business-71.png", "id": "5e3242ba21011c6782fed9b1064bc37ca5d62ca9", "name": "Threat Stack", "opening_hours": {"open_now": true}, "photos": [{"height": 943, "html_attributions": ["<a href=\"https://maps.google.com/maps/contrib/104276044846970376182/photos\">Threat Stack</a>"], "photo_reference": "CmRaAAAABgPtZAJfazoGESwPuh_874l_x8-lji2rKhcc4dRghIVgGDHfi7icSFuy25GVz7uLu3RmAhjmPpcXVk6JpdCXqVhaP3gJ05_Mmt-xJoZWx0ppnSBh0i_a7CQgkFCFsmgqEhBWDEg228JxQvL6jwzYRqpfGhTDW2gPnj5hgdERgjRSI0L0pB_tQw", "width": 1613}], "place_id": "ChIJ814V-n9644kROvhRJUG3Fq0", "plus_code": {"compound_code": "9W3R+M7 Boston, Massachusetts, United States", "global_code": "87JC9W3R+M7"}, "rating": 4, "reference": "ChIJ814V-n9644kROvhRJUG3Fq0", "scope": "GOOGLE", "types": ["point_of_interest", "establishment"], "user_ratings_total": 2, "vicinity": "55 Summer Street, Boston"}, "ChIJFYZ68IJw44kRI_F7ryaMP-s": {"geometry": {"location": {"lat": 42.35419979999999, "lng": -71.05921099999999}, "viewport": {"northeast": {"lat": 42.35563113029149, "lng": -71.05774871970848}, "southwest": {"lat": 42.35293316970849, "lng": -71.0604466802915}}}, "icon": "https://maps.gstatic.com/mapfiles/place_api/icons/atm-71.png", "id": "41dca0ee282a545b5474354e18c807b977e054d0", "name": "Santander Bank ATM", "opening_hours": {"open_now": true}, "photos": [{"height": 2326, "html_attributions": ["<a href=\"https://maps.google.com/maps/contrib/113403935763037810600/photos\">Santander Bank ATM</a>"], "photo_reference": "CmRaAAAAWDtFgPdeVIXuEI6GW7-lFOD6tvEjZ4DicTxQOR2mIgkTrDUYI8oFfbl7isP0l9LHrujUNYQpEB9kRCvXsbir_cE1LjnmXJoDXwbTwLlu88VPk0BL-X8H3VVbhTMaAtT-EhDsaKE4BHs7GKEL7iPiASZCGhRYc2Mrb-mbWTja8Mbz9DrSPeISgw", "width": 2326}], "place_id": "ChIJFYZ68IJw44kRI_F7ryaMP-s", "plus_code": {"compound_code": "9W3R+M8 Boston, Massachusetts, United States", "global_code": "87JC9W3R+M8"}, "reference": "ChIJFYZ68IJw44kRI_F7ryaMP-s", "scope": "GOOGLE", "types": ["atm", "insurance_agency", "finance", "point_of_interest", "establishment"], "vicinity": "55 Summer Street, Boston"}, "ChIJcwnB-4Jw44kRtscvg_VKrtk": {"geometry": {"location": {"lat": 42.35429140000001, "lng": -71.0592472}, "viewport": {"northeast": {"lat": 42.3557068802915, "lng": -71.0578067197085}, "southwest": {"lat": 42.3530089197085, "lng": -71.0605046802915}}}, "icon": "https://maps.gstatic.com/mapfiles/place_api/icons/generic_business-71.png", "id": "be9aa3efd77b971d45ca158d28e7efe6c69e82fd", "name": "CVS Photo", "opening_hours": {"open_now": true}, "photos": [{"height": 666, "html_attributions": ["<a href=\"https://maps.google.com/maps/contrib/114294898608694292105/photos\">CVS Photo</a>"], "photo_reference": "CmRaAAAA0JzbGZUuKOk8sKll5EZvc_B5a_b1B0iGdpcQAQU9jL8wV2utuWt_LcV0gE58b0fTYYBFaPc2vCHYRuXj2B4xjbcghrR92Qmq8XJGDG0voU-K8cyngIaZzUtRqThenK0mEhAQ1thuS9vEyfO9hlCLWTH3GhR_Sn0J3JFgcuvj8DP-nejS3T7P7w", "width": 1000}], "place_id": "ChIJcwnB-4Jw44kRtscvg_VKrtk", "plus_code": {"compound_code": "9W3R+P8 Boston, Massachusetts, United States", "global_code": "87JC9W3R+P8"}, "reference": "ChIJcwnB-4Jw44kRtscvg_VKrtk", "scope": "GOOGLE", "types": ["electronics_store", "home_goods_store", "store", "point_of_interest", "establishment"], "vicinity": "55 Summer Street, Boston"}, "ChIJ__-v8YJw44kRhv5rEVwaSN0": {"geometry": {"location": {"lat": 42.35409449999999, "lng": -71.05927539999999}, "viewport": {"northeast": {"lat": 42.35556363029148, "lng": -71.05776111970847}, "southwest": {"lat": 42.35286566970849, "lng": -71.0604590802915}}}, "icon": "https://maps.gstatic.com/mapfiles/place_api/icons/generic_business-71.png", "id": "f10480d4ef9a0d4205eb9273d0494a6167221f69", "name": "Volcanic Sprint", "place_id": "ChIJ__-v8YJw44kRhv5rEVwaSN0", "plus_code": {"compound_code": "9W3R+J7 Boston, Massachusetts, United States", "global_code": "87JC9W3R+J7"}, "reference": "ChIJ__-v8YJw44kRhv5rEVwaSN0", "scope": "GOOGLE", "types": ["point_of_interest", "establishment"], "vicinity": "55 Summer Street, Boston"}, "ChIJo-IZ3s5x44kRVu-ueLVCUcc": {"geometry": {"location": {"lat": 42.35409859999999, "lng": -71.0592945}, "viewport": {"northeast": {"lat": 42.3555702302915, "lng": -71.05777676970848}, "southwest": {"lat": 42.3528722697085, "lng": -71.0604747302915}}}, "icon": "https://maps.gstatic.com/mapfiles/place_api/icons/generic_business-71.png", "id": "160b47a4bf5fef84ae0d39d0f6c7312997991eab", "name": "Create TV", "place_id": "ChIJo-IZ3s5x44kRVu-ueLVCUcc", "plus_code": {"compound_code": "9W3R+J7 Boston, Massachusetts, United States", "global_code": "87JC9W3R+J7"}, "rating": 5, "reference": "ChIJo-IZ3s5x44kRVu-ueLVCUcc", "scope": "GOOGLE", "types": ["point_of_interest", "establishment"], "user_ratings_total": 1, "vicinity": "55 Summer Street, Boston"}, "ChIJU4HA-4Jw44kRydsR7mobnbI": {"geometry": {"location": {"lat": 42.35409859999999, "lng": -71.0592945}, "viewport": {"northeast": {"lat": 42.3555702302915, "lng": -71.05777676970848}, "southwest": {"lat": 42.3528722697085, "lng": -71.0604747302915}}}, "icon": "https://maps.gstatic.com/mapfiles/place_api/icons/generic_business-71.png", "id": "1c209ba770184c10ea4900613b49bfd49c11b4c4", "name": "Moretti Michelle R", "place_id": "ChIJU4HA-4Jw44kRydsR7mobnbI", "plus_code": {"compound_code": "9W3R+J7 Boston, Massachusetts, United States", "global_code": "87JC9W3R+J7"}, "reference": "ChIJU4HA-4Jw44kRydsR7mobnbI", "scope": "GOOGLE", "types": ["lawyer", "point_of_interest", "establishment"], "vicinity": "55 Summer Street, Boston"}, "ChIJnS-n8YJw44kR42ZSjbmXw-U": {"geometry": {"location": {"lat": 42.3540758, "lng": -71.0592575}, "viewport": {"northeast": {"lat": 42.3555461802915, "lng": -71.05774146970849}, "southwest": {"lat": 42.35284821970851, "lng": -71.06043943029151}}}, "icon": "https://maps.gstatic.com/mapfiles/place_api/icons/generic_business-71.png", "id": "4c6c30ec9eb33efc74c7cde74e02653f9c00eb43", "name": "WDTV Public Television Boston", "opening_hours": {"open_now": true}, "place_id": "ChIJnS-n8YJw44kR42ZSjbmXw-U", "plus_code": {"compound_code": "9W3R+J7 Boston, Massachusetts, United States", "global_code": "87JC9W3R+J7"}, "reference": "ChIJnS-n8YJw44kR42ZSjbmXw-U", "scope": "GOOGLE", "types": ["point_of_interest", "establishment"], "vicinity": "55 Summer Street, Boston"}, "ChIJKRCY8YJw44kRlPiy2089wGY": {"geometry": {"location": {"lat": 42.35405850000001, "lng": -71.059291}, "viewport": {"northeast": {"lat": 42.3555393302915, "lng": -71.05776056970849}, "southwest": {"lat": 42.3528413697085, "lng": -71.0604585302915}}}, "icon": "https://maps.gstatic.com/mapfiles/place_api/icons/generic_business-71.png", "id": "716a5c0a7229f5dd0b5ef19675a1ce84efb38bbd", "name": "Wdtv Radio 98.9 Magic Fm Boston", "opening_hours": {"open_now": true}, "place_id": "ChIJKRCY8YJw44kRlPiy2089wGY", "plus_code": {"compound_code": "9W3R+J7 Boston, Massachusetts, United States", "global_code": "87JC9W3R+J7"}, "rating": 4, "reference": "ChIJKRCY8YJw44kRlPiy2089wGY", "scope": "GOOGLE", "types": ["point_of_interest", "establishment"], "user_ratings_total": 2, "vicinity": "55 Summer Street, Boston"}, "ChIJC3yBIoNw44kRTLQCUX7w3J8": {"geometry": {"location": {"lat": 42.35549580000001, "lng": -71.0594338}, "viewport": {"northeast": {"lat": 42.3580143, "lng": -71.0572826}, "southwest": {"lat": 42.3531629, "lng": -71.0633258}}}, "icon": "https://maps.gstatic.com/mapfiles/place_api/icons/geocode-71.png", "id": "b17444457334b229c72e82dab5a3242f1d0e2a61", "name": "Downtown Crossing", "photos": [{"height": 3120, "html_attributions": ["<a href=\"https://maps.google.com/maps/contrib/111777007894721839306/photos\">verona mantova</a>"], "photo_reference": "CmRaAAAA5zg-nYkypDJZsvTEvg-jO2tuaWsgCheWY56gQO94NKHFcjLtyPNLJ197U_0wzCU62p3xA-S0fQgu8GTEkBvf_XVIWVSddSFkK3g6QNnwLTmsWxJmSHm1ofkAca1eqysvEhDo6K3IYQ9JnFhPFasPK1BlGhQmhNZI0Dl8LgjH6j6spAlgwFX_yQ", "width": 4160}], "place_id": "ChIJC3yBIoNw44kRTLQCUX7w3J8", "reference": "ChIJC3yBIoNw44kRTLQCUX7w3J8", "scope": "GOOGLE", "types": ["neighborhood", "political"], "vicinity": "Boston"}}