{"ChIJvT01-IJw44kR11G4-uTHPEI": {"geometry": {"location": {"lat": 42.35427479999999, "lng": -71.058865}, "viewport": {"northeast": {"lat": 42.3556219802915, "lng": -71.05751846970848}, "southwest": {"lat": 42.3529240197085, "lng": -71.0602164302915}}}, "icon": "https://maps.gstatic.com/mapfiles/place_api/icons/geocode-71.png", "id": "aef4a649043fdbafbb006c83c4aa8e091694eb28", "name": "55-79 Summer St", "place_id": "ChIJvT01-IJw44kR11G4-uTHPEI", "reference": "ChIJvT01-IJw44kR11G4-uTHPEI", "scope": "GOOGLE", "types": ["route"], "vicinity": "Boston"}, "ChIJL-Hs-4Jw44kRGlHcuPAPe30": {"geometry": {"location": {"lat": 42.354506, "lng": -71.058832}, "viewport": {"northeast": {"lat": 42.3557920302915, "lng": -71.0575696197085}, "southwest": {"lat": 42.3530940697085, "lng": -71.06026758029151}}}, "icon": "https://maps.gstatic.com/mapfiles/place_api/icons/restaurant-71.png", "id": "ed99abc9ae38bc14b32a776335c39b3adcce9576", "name": "Uno Due Go", "opening_hours": {"open_now": true}, "photos": [{"height": 3024, "html_attributions": ["<a href=\"https://maps.google.com/maps/contrib/109264013353564015340/photos\">Wendy Matheson</a>"], "photo_reference": "CmRaAAAAX4O8jsTdCg4bHu5pgS7m1ZuOfUrf9DLSMEiKNGxCC22CVy21PNXBpiQG7FWAYGtwd58E9OBhmq1tIhDu2TMVLtHsL-An9JQ2G49hHHyYw6wGFs-9ROlR34BLeOtk-4_5EhABmjsb2_N8HU5uxDHZZ7qHGhS_WjbYJKrnQAONyEICfT_WJIj-1A", "width": 4032}], "place_id": "ChIJL-Hs-4Jw44kRGlHcuPAPe30", "plus_code": {"compound_code": "9W3R+RF Boston, Massachusetts, United States", "global_code": "87JC9W3R+RF"}, "price_level": 1, "rating": 4.2, "reference": "ChIJL-Hs-4Jw44kRGlHcuPAPe30", "scope": "GOOGLE", "types": ["restaurant", "point_of_interest", "food", "establishment"], "user_ratings_total": 251, "vicinity": "52 Summer Street, Boston"}, "ChIJG7yS-4Jw44kRcbCxAbTX8tQ": {"geometry": {"location": {"lat": 42.3546294, "lng": -71.0590643}, "viewport": {"northeast": {"lat": 42.3559405802915, "lng": -71.0576621197085}, "southwest": {"lat": 42.3532426197085, "lng": -71.0603600802915}}}, "icon": "https://maps.gstatic.com/mapfiles/place_api/icons/shopping-71.png", "id": "59aab4571d21475ab452a36aba384360a0cfbd82", "name": "7-Eleven", "opening_hours": {"open_now": true}, "photos": [{"height": 588, "html_attributions": ["<a href=\"https://maps.google.com/maps/contrib/102678225058864098372/photos\">7-Eleven</a>"], "photo_reference": "CmRaAAAAajVv2AYROkCZuOUvK4_oLqA2lNy0RxnbYcoKWnoVAh-JLozefXtd6ddNzohfi8sDR7XmhtyYxaq9kKqcNKtkJEqp1vB9Rqy9DBPc6JlV7-DU83UP6mGzuXMTZ_I5W2fVEhA5pQLwWWp0LVpArYWxm-PzGhQ-HF1YcqXzrXOXA2v-7GbA1x8Oiw", "width": 864}], "place_id": "ChIJG7yS-4Jw44kRcbCxAbTX8tQ", "plus_code": {"compound_code": "9W3R+V9 Boston, Massachusetts, United States", "global_code": "87JC9W3R+V9"}, "price_level": 1, "rating": 3.3, "reference": "ChIJG7yS-4Jw44kRcbCxAbTX8tQ", "scope": "GOOGLE", "types": ["convenience_store", "store", "point_of_interest", "food", "establishment"], "user_ratings_total": 11, "vicinity": "50 Summer St Nwc, Boston"}, "ChIJA7SZ_oJw44kR8hhgvymN4zA": {"geometry": {"location": {"lat": 42.3546194, "lng": -71.05902309999999}, "viewport": {"northeast": {"lat": 42.3559431802915, "lng": -71.0576324197085}, "southwest": {"lat": 42.3532452197085, "lng": -71.0603303802915}}}, "icon": "https://maps.gstatic.com/mapfiles/place_api/icons/generic_business-71.png", "id": "ae8e2e81eaf918deb81eb6178a0a94dcae6391de", "name": "Bird Control Boston", "place_id": "ChIJA7SZ_oJw44kR8hhgvymN4zA", "plus_code": {"compound_code": "9W3R+R9 Boston, Massachusetts, United States", "global_code": "87JC9W3R+R9"}, "reference": "ChIJA7SZ_oJw44kR8hhgvymN4zA", "scope": "GOOGLE", "types": ["point_of_interest", "establishment"], "vicinity": "176 Arch Street, Boston"}, "ChIJGzE9DS1l44kRoOhiASS_fHg": {"geometry": {"location": {"lat": 42.3600825, "lng": -71.0588801}, "viewport": {"northeast": {"lat": 42.40081989999999, "lng": -70.749455}, "southwest": {"lat": 42.22788, "lng": -71.191113}}}, "icon": "https://maps.gstatic.com/mapfiles/place_api/icons/geocode-71.png", "id": "06755c25d2b34d13942a4713971756a55b870ced", "name": "Boston", "photos": [{"height": 3024, "html_attributions": ["<a href=\"https://maps.google.com/maps/contrib/104670289779338733432/photos\">Natalia Zalucean</a>"], "photo_reference": "CmRaAAAA7pZ0hGS1XHGjaImC3x1k3byQToLWALZ8ATrMQ1DrNgHl5uUvFweiyzV3LRjk5XlUmUcb6zrfUffo5dKQp5Umjue_WZl5l9YfNzj-A3Y0YTG18CZfCeLHAz-Dnp6nYgDqEhAD9k6TBkT-99Zau9sxOX2-GhRQE8G93WRDw5cL3_jDq8NUAbYNzw", "width": 4032}], "place_id": "ChIJGzE9DS1l44kRoOhiASS_fHg", "reference": "ChIJGzE9DS1l44kRoOhiASS_fHg", "scope": "GOOGLE", "types": ["locality", "political"], "vicinity": "Boston"}}