{"ChIJZ7zsKENw44kR9icehqbJ17k": {"geometry": {"location": {"lat": 42.37030290000001, "lng": -71.0372538}, "viewport": {"northeast": {"lat": 42.3716518302915, "lng": -71.03585729999998}, "southwest": {"lat": 42.3689538697085, "lng": -71.03865009999998}}}, "icon": "https://maps.gstatic.com/mapfiles/place_api/icons/geocode-71.png", "id": "71a91f3c077e39e01f2a1bf111f7f65da134c431", "name": "93-95 Bremen Street", "place_id": "ChIJZ7zsKENw44kR9icehqbJ17k", "reference": "ChIJZ7zsKENw44kR9icehqbJ17k", "scope": "GOOGLE", "types": ["route"], "vicinity": "Boston"}, "ChIJdUDqT_5t44kRVJMEpm5MePE": {"geometry": {"location": {"lat": 42.3699087, "lng": -71.03791410000001}, "viewport": {"northeast": {"lat": 42.3711764302915, "lng": -71.0366318697085}, "southwest": {"lat": 42.3684784697085, "lng": -71.0393298302915}}}, "icon": "https://maps.gstatic.com/mapfiles/place_api/icons/generic_business-71.png", "id": "684eecb3fcfc47500448bae7a12b6c478277851b", "name": "SUPER CARGO", "opening_hours": {"open_now": false}, "photos": [{"height": 450, "html_attributions": ["<a href=\"https://maps.google.com/maps/contrib/117994586629807935342/photos\">SUPER CARGO</a>"], "photo_reference": "CmRaAAAAyEl00XlTDZw0ZIrFdqf1tuWOff2AT3S9horbiAq6hFEvE08sloG7YLySYE7pYG94S9Mt37DVYLOzsj4wG6tNayKBUXgY47rwM60aMatm-U9-7oHEAtDBd-tc1J7ZlF_fEhArmuvoGc7iNxI5SuS60rjJGhT9jS3-V594uy08QOAaypcHFQpBqQ", "width": 600}], "place_id": "ChIJdUDqT_5t44kRVJMEpm5MePE", "plus_code": {"compound_code": "9X96+XR Boston, Massachusetts, United States", "global_code": "87JC9X96+XR"}, "rating": 4.9, "reference": "ChIJdUDqT_5t44kRVJMEpm5MePE", "scope": "GOOGLE", "types": ["moving_company", "point_of_interest", "establishment"], "user_ratings_total": 16, "vicinity": "154 Maverick Street Suite 201, Boston"}, "ChIJX__q00Jw44kRNiZeKEV9XvQ": {"geometry": {"location": {"lat": 42.369752, "lng": -71.03770999999999}, "viewport": {"northeast": {"lat": 42.3710478302915, "lng": -71.03640646970848}, "southwest": {"lat": 42.3683498697085, "lng": -71.0391044302915}}}, "icon": "https://maps.gstatic.com/mapfiles/place_api/icons/generic_business-71.png", "id": "e3ebe8ad1663229b3db4426f90d472019ede210c", "name": "Spataro & Bellino Insurance Agency", "opening_hours": {"open_now": true}, "photos": [{"height": 725, "html_attributions": ["<a href=\"https://maps.google.com/maps/contrib/101626505213784337095/photos\">Spataro &amp; Bellino Insurance Agency</a>"], "photo_reference": "CmRaAAAABt7h_7W4dOVLYEtA4Pb6Z4VhFglmdfugi6KzhCOoCzV6PSLoBCZ_RPy7JTKu2IeISoi0yidArLA0fFDrF-gXTGI3A0Uw2LKQgAvM6iHVVkKGIvnvIe7BwtjH8-1x8MMIEhCe6899R8ht6Wlf3k57r7bfGhTdjRSsWmSlzmpRBydJdO7JkhZhEg", "width": 1917}], "place_id": "ChIJX__q00Jw44kRNiZeKEV9XvQ", "plus_code": {"compound_code": "9X96+WW Boston, Massachusetts, United States", "global_code": "87JC9X96+WW"}, "rating": 5, "reference": "ChIJX__q00Jw44kRNiZeKEV9XvQ", "scope": "GOOGLE", "types": ["insurance_agency", "point_of_interest", "establishment"], "user_ratings_total": 2, "vicinity": "156 Maverick Street, East Boston"}, "ChIJJ4CCLF1w44kRvNEzxXu9yl4": {"geometry": {"location": {"lat": 42.3699021, "lng": -71.03787729999999}, "viewport": {"northeast": {"lat": 42.3711661802915, "lng": -71.03659801970849}, "southwest": {"lat": 42.3684682197085, "lng": -71.0392959802915}}}, "icon": "https://maps.gstatic.com/mapfiles/place_api/icons/shopping-71.png", "id": "3bf36b955d048837b70ae92332903186ee829dbb", "name": "La Tia Smoke Shop", "opening_hours": {"open_now": true}, "photos": [{"height": 3024, "html_attributions": ["<a href=\"https://maps.google.com/maps/contrib/114294041511535996469/photos\">Edwar Merino</a>"], "photo_reference": "CmRaAAAAGuVJqGbxJn2yv2clMMnFaBLSroMVhqQJ2tfqhxOvQbx9p879zvlUSm2-pR5iMbP3V0BkmBkM-D2VrNftKuwpnPlEtMMvjislbBmhxQGF1k6_2gsQHnZx9Imhow1cd3SLEhBsUpbj97UR7Ga47XTw3SICGhQTT0KsoxshXCq_T__UNhaXF2_hlw", "width": 4032}], "place_id": "ChIJJ4CCLF1w44kRvNEzxXu9yl4", "plus_code": {"compound_code": "9X96+XR Boston, Massachusetts, United States", "global_code": "87JC9X96+XR"}, "rating": 4.9, "reference": "ChIJJ4CCLF1w44kRvNEzxXu9yl4", "scope": "GOOGLE", "types": ["clothing_store", "store", "point_of_interest", "establishment"], "user_ratings_total": 48, "vicinity": "154 Maverick Street, East Boston"}, "ChIJ2Q6pLF1w44kRGgfAYQ9_-Z8": {"geometry": {"location": {"lat": 42.369909, "lng": -71.037914}, "viewport": {"northeast": {"lat": 42.3711765802915, "lng": -71.0366318697085}, "southwest": {"lat": 42.3684786197085, "lng": -71.0393298302915}}}, "icon": "https://maps.gstatic.com/mapfiles/place_api/icons/shopping-71.png", "id": "c72c3f8e5e3790d0efbae43e08c60fc669ab2404", "name": "Hugisses Gift Boutique", "opening_hours": {"open_now": true}, "place_id": "ChIJ2Q6pLF1w44kRGgfAYQ9_-Z8", "plus_code": {"compound_code": "9X96+XR Boston, Massachusetts, United States", "global_code": "87JC9X96+XR"}, "rating": 4, "reference": "ChIJ2Q6pLF1w44kRGgfAYQ9_-Z8", "scope": "GOOGLE", "types": ["store", "point_of_interest", "establishment"], "user_ratings_total": 1, "vicinity": "154 Maverick Street #102, Boston"}, "ChIJ2Q6pLF1w44kR-yetdeW6vDA": {"geometry": {"location": {"lat": 42.369914, "lng": -71.03791079999999}, "viewport": {"northeast": {"lat": 42.3711792302915, "lng": -71.0366305697085}, "southwest": {"lat": 42.3684812697085, "lng": -71.03932853029151}}}, "icon": "https://maps.gstatic.com/mapfiles/place_api/icons/generic_business-71.png", "id": "4d1c58f75e1f835a767d928e237d23ac993e24f4", "name": "Didi's Spa", "opening_hours": {"open_now": true}, "photos": [{"height": 1179, "html_attributions": ["<a href=\"https://maps.google.com/maps/contrib/106428458732185351788/photos\">Didi&#39;s Spa</a>"], "photo_reference": "CmRaAAAALn1v-jJ95tHTSHZuld5ue8EMgU5_8DAyTFacF8JfTjV-GXrZhQMOaAinNntADgV0obzUcd-y40hucDogK_Kuh_BAyF3C3gMdA6FLUmFbtEPGWvR2wv0Xpfe-QQvZPC58EhBNKUGEpsaMMCoQpYvdnF1UGhQZb_FYbJ2-ENsx3TO6H40FpsnHOg", "width": 1766}], "place_id": "ChIJ2Q6pLF1w44kR-yetdeW6vDA", "plus_code": {"compound_code": "9X96+XR Boston, Massachusetts, United States", "global_code": "87JC9X96+XR"}, "rating": 5, "reference": "ChIJ2Q6pLF1w44kR-yetdeW6vDA", "scope": "GOOGLE", "types": ["spa", "point_of_interest", "establishment"], "user_ratings_total": 12, "vicinity": "154 Maverick Street Suite 202, Boston"}, "ChIJn8SrLF1w44kRziORZSvyk5U": {"geometry": {"location": {"lat": 42.369914, "lng": -71.03791079999999}, "viewport": {"northeast": {"lat": 42.3711792302915, "lng": -71.0366305697085}, "southwest": {"lat": 42.3684812697085, "lng": -71.03932853029151}}}, "icon": "https://maps.gstatic.com/mapfiles/place_api/icons/generic_business-71.png", "id": "85276745aaebc5ec4c83ffd710ec0a0a2a266573", "name": "Frank Vangeli", "place_id": "ChIJn8SrLF1w44kRziORZSvyk5U", "plus_code": {"compound_code": "9X96+XR Boston, Massachusetts, United States", "global_code": "87JC9X96+XR"}, "reference": "ChIJn8SrLF1w44kRziORZSvyk5U", "scope": "GOOGLE", "types": ["health", "point_of_interest", "establishment"], "vicinity": "154 Maverick Street, Boston"}, "ChIJ2Q6pLF1w44kRfeQPTgXicsk": {"geometry": {"location": {"lat": 42.3698284, "lng": -71.037937}, "viewport": {"northeast": {"lat": 42.3711292302915, "lng": -71.03662756970849}, "southwest": {"lat": 42.3684312697085, "lng": -71.0393255302915}}}, "icon": "https://maps.gstatic.com/mapfiles/place_api/icons/restaurant-71.png", "id": "ee234c5a4f527c8e70d43b1fd739bbd8027d4b99", "name": "Maverick Marketplace Cafe", "opening_hours": {"open_now": true}, "photos": [{"height": 2048, "html_attributions": ["<a href=\"https://maps.google.com/maps/contrib/105855888302305968579/photos\">Maverick Marketplace</a>"], "photo_reference": "CmRaAAAAjHpNwbv9d8aNRUbMnOdl00r4QV8v6YRIcMoUBWTgtlWyNNIkQq9idzgJbLYGxw0p3X2yxXu0jSW8ShaiHPCcAWJ0phxqeIa52FDHsG9fnQUlIlYgmfiDVv6YS171AykHEhAMbtNg_Und3bovujcjsJSxGhRwCYO1W0cKiTBLmdrRYMSfN7C0ow", "width": 1365}], "place_id": "ChIJ2Q6pLF1w44kRfeQPTgXicsk", "plus_code": {"compound_code": "9X96+WR Boston, Massachusetts, United States", "global_code": "87JC9X96+WR"}, "price_level": 1, "rating": 4.3, "reference": "ChIJ2Q6pLF1w44kRfeQPTgXicsk", "scope": "GOOGLE", "types": ["cafe", "jewelry_store", "bar", "clothing_store", "store", "restaurant", "point_of_interest", "food", "establishment"], "user_ratings_total": 132, "vicinity": "154 Maverick Street, Boston"}, "ChIJ2Q6pLF1w44kRLm2be3iJQUI": {"geometry": {"location": {"lat": 42.36991799999999, "lng": -71.037922}, "viewport": {"northeast": {"lat": 42.3711836302915, "lng": -71.0366414697085}, "southwest": {"lat": 42.3684856697085, "lng": -71.0393394302915}}}, "icon": "https://maps.gstatic.com/mapfiles/place_api/icons/generic_business-71.png", "id": "ef51a7241745694d64f49c1336bed450e411eca7", "name": "Ayda Custom Tailoring", "opening_hours": {"open_now": false}, "photos": [{"height": 2048, "html_attributions": ["<a href=\"https://maps.google.com/maps/contrib/102313080525281446554/photos\">Adri&#39;s Custom Tailoring</a>"], "photo_reference": "CmRaAAAAkIwRRbOqsrEoieaAknNXc5Vb9C9LXBl5h27WMT8tRvt8LjfNeGkP74_CAhxXdL9QYTCTFiuJrgr5Tzpdmc16EMiy91BVTECipumQQzOskC6RNLVHQqzI2h0tCmoQD4iLEhAp4qlA386FPuaqUEDAma7eGhT_Scq0xFy73A9d6FsyqgivX8o3Lw", "width": 1365}], "place_id": "ChIJ2Q6pLF1w44kRLm2be3iJQUI", "plus_code": {"compound_code": "9X96+XR Boston, Massachusetts, United States", "global_code": "87JC9X96+XR"}, "rating": 5, "reference": "ChIJ2Q6pLF1w44kRLm2be3iJQUI", "scope": "GOOGLE", "types": ["point_of_interest", "establishment"], "user_ratings_total": 4, "vicinity": "154 Maverick Street #105, Boston"}, "ChIJ2Q6pLF1w44kRZqCEvCxayfo": {"geometry": {"location": {"lat": 42.36991799999999, "lng": -71.037922}, "viewport": {"northeast": {"lat": 42.3711836302915, "lng": -71.0366414697085}, "southwest": {"lat": 42.3684856697085, "lng": -71.0393394302915}}}, "icon": "https://maps.gstatic.com/mapfiles/place_api/icons/generic_business-71.png", "id": "d06033b2e0db0591d756fee57cac76a3be925c00", "name": "Turnover Web", "opening_hours": {"open_now": true}, "photos": [{"height": 597, "html_attributions": ["<a href=\"https://maps.google.com/maps/contrib/100948568464273636879/photos\">Turnover Web</a>"], "photo_reference": "CmRaAAAAoaaA_MiDMH06vmncMY6oJG_ZYlQw_wLNBqyFuE6SXqD7mgetMqfZcjldau04Q_snZVi-Sht0KHpWHkekyDOTHpS5aG13xu0RYM8pCpG1gA6qx3p2t5ZDv3CLvhrgCL8CEhDjPxDVdQ8bsDjN_grk08IRGhT94tFLfafYpdS8vjbicObKKHej7A", "width": 550}], "place_id": "ChIJ2Q6pLF1w44kRZqCEvCxayfo", "plus_code": {"compound_code": "9X96+XR Boston, Massachusetts, United States", "global_code": "87JC9X96+XR"}, "rating": 4.8, "reference": "ChIJ2Q6pLF1w44kRZqCEvCxayfo", "scope": "GOOGLE", "types": ["point_of_interest", "establishment"], "user_ratings_total": 4, "vicinity": "154 Maverick Street #201, Boston"}, "ChIJ2Q6pLF1w44kRVWPjx10szYA": {"geometry": {"location": {"lat": 42.36991799999999, "lng": -71.037922}, "viewport": {"northeast": {"lat": 42.3711836302915, "lng": -71.0366414697085}, "southwest": {"lat": 42.3684856697085, "lng": -71.0393394302915}}}, "icon": "https://maps.gstatic.com/mapfiles/place_api/icons/generic_business-71.png", "id": "96946fc5f50a26d01e9dc091b6d3ce385ad4b87e", "name": "On Off Computers Phones Cameras", "opening_hours": {"open_now": true}, "photos": [{"height": 1365, "html_attributions": ["<a href=\"https://maps.google.com/maps/contrib/105239741573328534979/photos\">On Off Computers Phones Cameras</a>"], "photo_reference": "CmRaAAAAYw_S9_ze9suY9trNMzGoeQKnSrHrZHt5lfPM4cPdEtNZLjkTSHds3Q3Js8rSZ5XYoDqfgQt5rhyscSS1kQMUxLezzU5RtJ3cDoft32NZdqpFD2pEydnH8xQMxCCGYXNzEhC26QqLVLKYuW75lJBwOFGlGhSKea5d-CUAeWuFRLxWxXMEQw6wmw", "width": 2048}], "place_id": "ChIJ2Q6pLF1w44kRVWPjx10szYA", "plus_code": {"compound_code": "9X96+XR Boston, Massachusetts, United States", "global_code": "87JC9X96+XR"}, "reference": "ChIJ2Q6pLF1w44kRVWPjx10szYA", "scope": "GOOGLE", "types": ["electronics_store", "store", "point_of_interest", "establishment"], "vicinity": "154 Maverick Street #103, Boston"}, "ChIJq6quLF1w44kRSB87xVRmPvY": {"geometry": {"location": {"lat": 42.3699087, "lng": -71.03791410000001}, "viewport": {"northeast": {"lat": 42.3711764302915, "lng": -71.0366318697085}, "southwest": {"lat": 42.3684784697085, "lng": -71.0393298302915}}}, "icon": "https://maps.gstatic.com/mapfiles/place_api/icons/generic_business-71.png", "id": "ede5f14a10766ef1e3c0facc3658ed8d71ab6437", "name": "Coordinates Counseling", "place_id": "ChIJq6quLF1w44kRSB87xVRmPvY", "plus_code": {"compound_code": "9X96+XR Boston, Massachusetts, United States", "global_code": "87JC9X96+XR"}, "reference": "ChIJq6quLF1w44kRSB87xVRmPvY", "scope": "GOOGLE", "types": ["health", "point_of_interest", "establishment"], "vicinity": "154 Maverick Street, Boston"}, "ChIJn8SrLF1w44kRCEgDFpzGoiY": {"geometry": {"location": {"lat": 42.369914, "lng": -71.03791079999999}, "viewport": {"northeast": {"lat": 42.3711792302915, "lng": -71.0366305697085}, "southwest": {"lat": 42.3684812697085, "lng": -71.03932853029151}}}, "icon": "https://maps.gstatic.com/mapfiles/place_api/icons/generic_business-71.png", "id": "7bbb21fd6d241ae54fa848cf82fe91f5397c262e", "name": "Living Eastie", "place_id": "ChIJn8SrLF1w44kRCEgDFpzGoiY", "plus_code": {"compound_code": "9X96+XR Boston, Massachusetts, United States", "global_code": "87JC9X96+XR"}, "reference": "ChIJn8SrLF1w44kRCEgDFpzGoiY", "scope": "GOOGLE", "types": ["point_of_interest", "establishment"], "vicinity": "154 Maverick Street, Boston"}, "ChIJGzE9DS1l44kRoOhiASS_fHg": {"geometry": {"location": {"lat": 42.3600825, "lng": -71.0588801}, "viewport": {"northeast": {"lat": 42.40081989999999, "lng": -70.749455}, "southwest": {"lat": 42.22788, "lng": -71.191113}}}, "icon": "https://maps.gstatic.com/mapfiles/place_api/icons/geocode-71.png", "id": "06755c25d2b34d13942a4713971756a55b870ced", "name": "Boston", "photos": [{"height": 3024, "html_attributions": ["<a href=\"https://maps.google.com/maps/contrib/104670289779338733432/photos\">Natalia Zalucean</a>"], "photo_reference": "CmRaAAAADUb5eXCpZMum23p_zhPAch88rbR89PUJXecBD5hccN4L6sEYbfWrQcJe2zYhHv4iLX22EFYbeBS30L8VhrRs9QR1hmcsia2Rux9K00JjRK8gwQsor3yiaZs3V25bc_FiEhAQ6StSX0Cq9a1pTTcIau3LGhTXGnKeM8icU5EfZFvcpIQKakvh8g", "width": 4032}], "place_id": "ChIJGzE9DS1l44kRoOhiASS_fHg", "reference": "ChIJGzE9DS1l44kRoOhiASS_fHg", "scope": "GOOGLE", "types": ["locality", "political"], "vicinity": "Boston"}}