{"ChIJvRbQUXZ644kRGHClqjBGeQE": {"geometry": {"location": {"lat": 42.3516953, "lng": -71.0651379}, "viewport": {"northeast": {"lat": 42.35304423029149, "lng": -71.06378891970849}, "southwest": {"lat": 42.3503462697085, "lng": -71.0664868802915}}}, "icon": "https://maps.gstatic.com/mapfiles/place_api/icons/geocode-71.png", "id": "f65138346d1e49b46240d2f4ecc3421e965c5200", "name": "99-1 Allen's Alley", "place_id": "ChIJvRbQUXZ644kRGHClqjBGeQE", "reference": "ChIJvRbQUXZ644kRGHClqjBGeQE", "scope": "GOOGLE", "types": ["route"], "vicinity": "Boston"}, "ChIJhXvaXHZ644kRM6PBTJON62E": {"geometry": {"location": {"lat": 42.3518103, "lng": -71.06590050000001}, "viewport": {"northeast": {"lat": 42.3531613302915, "lng": -71.0646045697085}, "southwest": {"lat": 42.3504633697085, "lng": -71.0673025302915}}}, "icon": "https://maps.gstatic.com/mapfiles/place_api/icons/school-71.png", "id": "24f0eaa7b97708ecec83871d14c8c339c5a75eff", "name": "Emerson College Tufte PPC", "place_id": "ChIJhXvaXHZ644kRM6PBTJON62E", "plus_code": {"compound_code": "9W2M+PJ Boston, Massachusetts, United States", "global_code": "87JC9W2M+PJ"}, "reference": "ChIJhXvaXHZ644kRM6PBTJON62E", "scope": "GOOGLE", "types": ["school", "point_of_interest", "establishment"], "vicinity": "10 Boylston Place, Boston"}, "ChIJgaQ9XXZ644kRh0sRMUNI6KE": {"geometry": {"location": {"lat": 42.35180270000001, "lng": -71.0659379}, "viewport": {"northeast": {"lat": 42.3531527302915, "lng": -71.0646156697085}, "southwest": {"lat": 42.3504547697085, "lng": -71.06731363029151}}}, "icon": "https://maps.gstatic.com/mapfiles/place_api/icons/generic_business-71.png", "id": "25e1d1fa6dff2cedf6256d9f9f14a78c3fa21199", "name": "Platinum Marketing", "photos": [{"height": 455, "html_attributions": ["<a href=\"https://maps.google.com/maps/contrib/103230382705395192511/photos\">Platinum Marketing</a>"], "photo_reference": "CmRaAAAAlYmIJN5L48me8uA8pnDrs_JK-kLdBseCfhUO88gGh93wMRHRbuoLsoWOl1bRESvaRywg_Y0dfuoCqD2HVojZdOm2ZnO6ShE-e_jCw2tb3UjM-3IV3o9wid-xj9rr-2VlEhBJyp1h1EQOhltKyHrOlBerGhQZdoPIL-pgON7v1PlujKDEUz1YyA", "width": 670}], "place_id": "ChIJgaQ9XXZ644kRh0sRMUNI6KE", "plus_code": {"compound_code": "9W2M+PJ Boston, Massachusetts, United States", "global_code": "87JC9W2M+PJ"}, "reference": "ChIJgaQ9XXZ644kRh0sRMUNI6KE", "scope": "GOOGLE", "types": ["store", "point_of_interest", "establishment"], "vicinity": "3 Boylston Place, Boston"}, "ChIJGzE9DS1l44kRoOhiASS_fHg": {"geometry": {"location": {"lat": 42.3600825, "lng": -71.0588801}, "viewport": {"northeast": {"lat": 42.40081989999999, "lng": -70.749455}, "southwest": {"lat": 42.22788, "lng": -71.191113}}}, "icon": "https://maps.gstatic.com/mapfiles/place_api/icons/geocode-71.png", "id": "06755c25d2b34d13942a4713971756a55b870ced", "name": "Boston", "photos": [{"height": 3024, "html_attributions": ["<a href=\"https://maps.google.com/maps/contrib/104670289779338733432/photos\">Natalia Zalucean</a>"], "photo_reference": "CmRaAAAAwjSPs_iqHzjP9DEhsr1eIy8SY9YFeLmSuISPSTV5KeXlPB6Nu1FwXvFQ1-eMSBDip-thENzJCeMq1zL6RyxPxJIarrvoqf3gVx8q5mAQN9_H_bqdFJDsNoy3J450tXc_EhD4PO3Xd_RYdD68A2ih4X_oGhS5MKQwPOj8P3gvL7Ooa9BkI9ZkOg", "width": 4032}], "place_id": "ChIJGzE9DS1l44kRoOhiASS_fHg", "reference": "ChIJGzE9DS1l44kRoOhiASS_fHg", "scope": "GOOGLE", "types": ["locality", "political"], "vicinity": "Boston"}}