{"ChIJU5HvfXd644kRcJP_-j5xGyM": {"geometry": {"location": {"lat": 42.3501871, "lng": -71.0616892}, "viewport": {"northeast": {"lat": 42.3515360802915, "lng": -71.0603402197085}, "southwest": {"lat": 42.3488381197085, "lng": -71.06303818029151}}}, "icon": "https://maps.gstatic.com/mapfiles/place_api/icons/geocode-71.png", "id": "545e8330b18bd1e5252965d239b27270c012ed22", "name": "146-100 Harrison Ave", "place_id": "ChIJU5HvfXd644kRcJP_-j5xGyM", "reference": "ChIJU5HvfXd644kRcJP_-j5xGyM", "scope": "GOOGLE", "types": ["route"], "vicinity": "Boston"}, "ChIJ06FN2Hl644kRAJe8vs-G6ME": {"geometry": {"location": {"lat": 42.34980100000001, "lng": -71.061489}, "viewport": {"northeast": {"lat": 42.35118713029151, "lng": -71.06030456970849}, "southwest": {"lat": 42.34848916970851, "lng": -71.0630025302915}}}, "icon": "https://maps.gstatic.com/mapfiles/place_api/icons/generic_business-71.png", "id": "caf9f7eaef5b31990a0cbe52a23be7d35e4ec3ef", "name": "Tufts University-Boston Campus: O'Leary Daniel H MD", "place_id": "ChIJ06FN2Hl644kRAJe8vs-G6ME", "plus_code": {"compound_code": "8WXQ+WC Boston, Massachusetts, United States", "global_code": "87JC8WXQ+WC"}, "reference": "ChIJ06FN2Hl644kRAJe8vs-G6ME", "scope": "GOOGLE", "types": ["doctor", "health", "point_of_interest", "establishment"], "vicinity": "136 Harrison Avenue, Boston"}, "ChIJ06FN2Hl644kRDHCRsnvbz6o": {"geometry": {"location": {"lat": 42.34980100000001, "lng": -71.061489}, "viewport": {"northeast": {"lat": 42.35118713029151, "lng": -71.06030456970849}, "southwest": {"lat": 42.34848916970851, "lng": -71.0630025302915}}}, "icon": "https://maps.gstatic.com/mapfiles/place_api/icons/generic_business-71.png", "id": "b8302bd4194750fa56ca2d385f177bdfa3bffff8", "name": "Tufts University-Boston Campus: Wurm W Heinrich MD", "place_id": "ChIJ06FN2Hl644kRDHCRsnvbz6o", "plus_code": {"compound_code": "8WXQ+WC Boston, Massachusetts, United States", "global_code": "87JC8WXQ+WC"}, "reference": "ChIJ06FN2Hl644kRDHCRsnvbz6o", "scope": "GOOGLE", "types": ["doctor", "health", "point_of_interest", "establishment"], "vicinity": "136 Harrison Avenue, Boston"}, "ChIJ06FN2Hl644kRETUS9zIxaA0": {"geometry": {"location": {"lat": 42.3498471, "lng": -71.06156949999999}, "viewport": {"northeast": {"lat": 42.3512229802915, "lng": -71.06033956970849}, "southwest": {"lat": 42.3485250197085, "lng": -71.0630375302915}}}, "icon": "https://maps.gstatic.com/mapfiles/place_api/icons/generic_business-71.png", "id": "dfd8aa2f465b42bc34ecda25a8d07c9284ca1115", "name": "Center for Adaptation Genetics and Drug Resistance: Stuart B. Levy, M.D.", "place_id": "ChIJ06FN2Hl644kRETUS9zIxaA0", "plus_code": {"compound_code": "8WXQ+W9 Boston, Massachusetts, United States", "global_code": "87JC8WXQ+W9"}, "reference": "ChIJ06FN2Hl644kRETUS9zIxaA0", "scope": "GOOGLE", "types": ["doctor", "health", "point_of_interest", "establishment"], "vicinity": "136 Harrison Avenue, Boston"}, "ChIJ06FN2Hl644kRUvjD3qkNv5g": {"geometry": {"location": {"lat": 42.34980100000001, "lng": -71.061489}, "viewport": {"northeast": {"lat": 42.35118713029151, "lng": -71.06030456970849}, "southwest": {"lat": 42.34848916970851, "lng": -71.0630025302915}}}, "icon": "https://maps.gstatic.com/mapfiles/place_api/icons/generic_business-71.png", "id": "c2069c7a8dac5b57342f87b1e78ff01f05f75343", "name": "Dr. David J. Greenblatt, MD", "place_id": "ChIJ06FN2Hl644kRUvjD3qkNv5g", "plus_code": {"compound_code": "8WXQ+WC Boston, Massachusetts, United States", "global_code": "87JC8WXQ+WC"}, "reference": "ChIJ06FN2Hl644kRUvjD3qkNv5g", "scope": "GOOGLE", "types": ["doctor", "health", "point_of_interest", "establishment"], "vicinity": "136 Harrison Avenue, Boston"}, "ChIJ06FN2Hl644kR0SOT0UhpOrI": {"geometry": {"location": {"lat": 42.34980100000001, "lng": -71.061489}, "viewport": {"northeast": {"lat": 42.35118713029151, "lng": -71.06030456970849}, "southwest": {"lat": 42.34848916970851, "lng": -71.0630025302915}}}, "icon": "https://maps.gstatic.com/mapfiles/place_api/icons/school-71.png", "id": "91b607353e46e53b6b56ab808ffb781807a1d90a", "name": "Tufts Healthcare Institute", "place_id": "ChIJ06FN2Hl644kR0SOT0UhpOrI", "plus_code": {"compound_code": "8WXQ+WC Boston, Massachusetts, United States", "global_code": "87JC8WXQ+WC"}, "reference": "ChIJ06FN2Hl644kR0SOT0UhpOrI", "scope": "GOOGLE", "types": ["school", "point_of_interest", "establishment"], "vicinity": "136 Harrison Avenue, Boston"}, "ChIJ06FN2Hl644kRQPxAnwWvWvg": {"geometry": {"location": {"lat": 42.3498471, "lng": -71.06156949999999}, "viewport": {"northeast": {"lat": 42.3512229802915, "lng": -71.06033956970849}, "southwest": {"lat": 42.3485250197085, "lng": -71.0630375302915}}}, "icon": "https://maps.gstatic.com/mapfiles/place_api/icons/generic_business-71.png", "id": "d378f396418c8b240cc7736c2216cb993c257af9", "name": "Dr. Harris A. Berman, MD", "place_id": "ChIJ06FN2Hl644kRQPxAnwWvWvg", "plus_code": {"compound_code": "8WXQ+W9 Boston, Massachusetts, United States", "global_code": "87JC8WXQ+W9"}, "reference": "ChIJ06FN2Hl644kRQPxAnwWvWvg", "scope": "GOOGLE", "types": ["doctor", "health", "point_of_interest", "establishment"], "vicinity": "136 Harrison Avenue, Boston"}, "ChIJ06FN2Hl644kRYPXE9yym0eM": {"geometry": {"location": {"lat": 42.3498471, "lng": -71.06156949999999}, "viewport": {"northeast": {"lat": 42.3512229802915, "lng": -71.06033956970849}, "southwest": {"lat": 42.3485250197085, "lng": -71.0630375302915}}}, "icon": "https://maps.gstatic.com/mapfiles/place_api/icons/generic_business-71.png", "id": "527ce4cd0c41bf946a5867a42cf9ead41707dad2", "name": "Dr. Anthony Robbins, MD", "place_id": "ChIJ06FN2Hl644kRYPXE9yym0eM", "plus_code": {"compound_code": "8WXQ+W9 Boston, Massachusetts, United States", "global_code": "87JC8WXQ+W9"}, "reference": "ChIJ06FN2Hl644kRYPXE9yym0eM", "scope": "GOOGLE", "types": ["doctor", "health", "point_of_interest", "establishment"], "vicinity": "136 Harrison Avenue, Boston"}, "ChIJ06FN2Hl644kRX5MQJGCuBws": {"geometry": {"location": {"lat": 42.34980100000001, "lng": -71.061489}, "viewport": {"northeast": {"lat": 42.35118713029151, "lng": -71.06030456970849}, "southwest": {"lat": 42.34848916970851, "lng": -71.0630025302915}}}, "icon": "https://maps.gstatic.com/mapfiles/place_api/icons/generic_business-71.png", "id": "cae03aa43e21ac70854284819702d343ef96c49f", "name": "Dr. Richard H. Glickman-Simon, MD", "place_id": "ChIJ06FN2Hl644kRX5MQJGCuBws", "plus_code": {"compound_code": "8WXQ+WC Boston, Massachusetts, United States", "global_code": "87JC8WXQ+WC"}, "reference": "ChIJ06FN2Hl644kRX5MQJGCuBws", "scope": "GOOGLE", "types": ["doctor", "health", "point_of_interest", "establishment"], "vicinity": "136 Harrison Avenue, Boston"}, "ChIJ06FN2Hl644kRgJkeDAWDZ1Q": {"geometry": {"location": {"lat": 42.3498471, "lng": -71.06156949999999}, "viewport": {"northeast": {"lat": 42.3512229802915, "lng": -71.06033956970849}, "southwest": {"lat": 42.3485250197085, "lng": -71.0630375302915}}}, "icon": "https://maps.gstatic.com/mapfiles/place_api/icons/generic_business-71.png", "id": "58f238146d6c71b6dca02511c3c1316ee6532521", "name": "Dr. Paul Andrew Hattis, MD", "place_id": "ChIJ06FN2Hl644kRgJkeDAWDZ1Q", "plus_code": {"compound_code": "8WXQ+W9 Boston, Massachusetts, United States", "global_code": "87JC8WXQ+W9"}, "reference": "ChIJ06FN2Hl644kRgJkeDAWDZ1Q", "scope": "GOOGLE", "types": ["doctor", "health", "point_of_interest", "establishment"], "vicinity": "136 Harrison Avenue, Boston"}, "ChIJ06FN2Hl644kR792QeNJCiQg": {"geometry": {"location": {"lat": 42.3498471, "lng": -71.06156949999999}, "viewport": {"northeast": {"lat": 42.3512229802915, "lng": -71.06033956970849}, "southwest": {"lat": 42.3485250197085, "lng": -71.0630375302915}}}, "icon": "https://maps.gstatic.com/mapfiles/place_api/icons/school-71.png", "id": "44aaba1117af3701e96a59d35bb645d6f6d53d77", "name": "Tufts University Public Health", "place_id": "ChIJ06FN2Hl644kR792QeNJCiQg", "plus_code": {"compound_code": "8WXQ+W9 Boston, Massachusetts, United States", "global_code": "87JC8WXQ+W9"}, "reference": "ChIJ06FN2Hl644kR792QeNJCiQg", "scope": "GOOGLE", "types": ["university", "doctor", "health", "point_of_interest", "establishment"], "vicinity": "136 Harrison Avenue, Boston"}, "ChIJ06FN2Hl644kRSgNWojOA6uo": {"geometry": {"location": {"lat": 42.34980100000001, "lng": -71.061489}, "viewport": {"northeast": {"lat": 42.35118713029151, "lng": -71.06030456970849}, "southwest": {"lat": 42.34848916970851, "lng": -71.0630025302915}}}, "icon": "https://maps.gstatic.com/mapfiles/place_api/icons/generic_business-71.png", "id": "81e0735c46a4ab7ae6c6207c343f090b2d4a825c", "name": "Cochran Brent H", "place_id": "ChIJ06FN2Hl644kRSgNWojOA6uo", "plus_code": {"compound_code": "8WXQ+WC Boston, Massachusetts, United States", "global_code": "87JC8WXQ+WC"}, "reference": "ChIJ06FN2Hl644kRSgNWojOA6uo", "scope": "GOOGLE", "types": ["doctor", "health", "point_of_interest", "establishment"], "vicinity": "136 Harrison Avenue, Boston"}, "ChIJ06FN2Hl644kR05c5hqUMWAQ": {"geometry": {"location": {"lat": 42.34980100000001, "lng": -71.061489}, "viewport": {"northeast": {"lat": 42.35118713029151, "lng": -71.06030456970849}, "southwest": {"lat": 42.34848916970851, "lng": -71.0630025302915}}}, "icon": "https://maps.gstatic.com/mapfiles/place_api/icons/generic_business-71.png", "id": "70e1fb7304d97aa749084996be115c5297511557", "name": "Center For Adaptation Gntcs: Levy Stuart B MD", "place_id": "ChIJ06FN2Hl644kR05c5hqUMWAQ", "plus_code": {"compound_code": "8WXQ+WC Boston, Massachusetts, United States", "global_code": "87JC8WXQ+WC"}, "reference": "ChIJ06FN2Hl644kR05c5hqUMWAQ", "scope": "GOOGLE", "types": ["doctor", "health", "point_of_interest", "establishment"], "vicinity": "136 Harrison Avenue, Boston"}, "ChIJ06FN2Hl644kRZCNZIoNNXG4": {"geometry": {"location": {"lat": 42.34980100000001, "lng": -71.061489}, "viewport": {"northeast": {"lat": 42.35118713029151, "lng": -71.06030456970849}, "southwest": {"lat": 42.34848916970851, "lng": -71.0630025302915}}}, "icon": "https://maps.gstatic.com/mapfiles/place_api/icons/generic_business-71.png", "id": "682782c69fa30c71e22fb3db837300d39728928d", "name": "Larry Feig Lab", "place_id": "ChIJ06FN2Hl644kRZCNZIoNNXG4", "plus_code": {"compound_code": "8WXQ+WC Boston, Massachusetts, United States", "global_code": "87JC8WXQ+WC"}, "reference": "ChIJ06FN2Hl644kRZCNZIoNNXG4", "scope": "GOOGLE", "types": ["point_of_interest", "establishment"], "vicinity": "136 Harrison Avenue, Boston"}, "ChIJWTpAdHd644kR3v4uODd79xM": {"geometry": {"location": {"lat": 42.3498129, "lng": -71.06148019999999}, "viewport": {"northeast": {"lat": 42.3511994302915, "lng": -71.06029756970848}, "southwest": {"lat": 42.3485014697085, "lng": -71.0629955302915}}}, "icon": "https://maps.gstatic.com/mapfiles/place_api/icons/school-71.png", "id": "b26d838b5a398cb914fea77a794c76ad85ed9fb6", "name": "Sackler School of Graduate Biomedical Sciences", "place_id": "ChIJWTpAdHd644kR3v4uODd79xM", "plus_code": {"compound_code": "8WXQ+WC Boston, Massachusetts, United States", "global_code": "87JC8WXQ+WC"}, "reference": "ChIJWTpAdHd644kR3v4uODd79xM", "scope": "GOOGLE", "types": ["university", "point_of_interest", "establishment"], "vicinity": "136 Harrison Avenue #813, Boston"}, "ChIJUzGm2Xl644kRSZCNrDt0qNI": {"geometry": {"location": {"lat": 42.3498471, "lng": -71.06156949999999}, "viewport": {"northeast": {"lat": 42.3512229802915, "lng": -71.06033956970849}, "southwest": {"lat": 42.3485250197085, "lng": -71.0630375302915}}}, "icon": "https://maps.gstatic.com/mapfiles/place_api/icons/school-71.png", "id": "c56b31cf3fb0d48a083a72b40a7d0af01431dc54", "name": "Department of Public Health and Community Medicine", "place_id": "ChIJUzGm2Xl644kRSZCNrDt0qNI", "plus_code": {"compound_code": "8WXQ+W9 Boston, Massachusetts, United States", "global_code": "87JC8WXQ+W9"}, "reference": "ChIJUzGm2Xl644kRSZCNrDt0qNI", "scope": "GOOGLE", "types": ["university", "point_of_interest", "establishment"], "vicinity": "Boston"}, "ChIJ06FN2Hl644kRd_4CNNqsYNA": {"geometry": {"location": {"lat": 42.34980100000001, "lng": -71.061489}, "viewport": {"northeast": {"lat": 42.35118713029151, "lng": -71.06030456970849}, "southwest": {"lat": 42.34848916970851, "lng": -71.0630025302915}}}, "icon": "https://maps.gstatic.com/mapfiles/place_api/icons/generic_business-71.png", "id": "edfeeb05a0ce99eba3b49f0c6e46b3695f7a068f", "name": "Kassirer Jerome P MD", "place_id": "ChIJ06FN2Hl644kRd_4CNNqsYNA", "plus_code": {"compound_code": "8WXQ+WC Boston, Massachusetts, United States", "global_code": "87JC8WXQ+WC"}, "reference": "ChIJ06FN2Hl644kRd_4CNNqsYNA", "scope": "GOOGLE", "types": ["doctor", "health", "point_of_interest", "establishment"], "vicinity": "136 Harrison Avenue, Boston"}, "ChIJGzE9DS1l44kRoOhiASS_fHg": {"geometry": {"location": {"lat": 42.3600825, "lng": -71.0588801}, "viewport": {"northeast": {"lat": 42.40081989999999, "lng": -70.749455}, "southwest": {"lat": 42.22788, "lng": -71.191113}}}, "icon": "https://maps.gstatic.com/mapfiles/place_api/icons/geocode-71.png", "id": "06755c25d2b34d13942a4713971756a55b870ced", "name": "Boston", "photos": [{"height": 3024, "html_attributions": ["<a href=\"https://maps.google.com/maps/contrib/104670289779338733432/photos\">Natalia Zalucean</a>"], "photo_reference": "CmRaAAAAvKoaEUqWxhAquksP1C59BV0ELnl_iESNujw5ulBzCQohLqM4JtSAnB8V5uJfty30dSUCR7DuLo2V4UCazdsEPdIJwIs1kUaIXuuByOhaXZptjXUjQOpe4bGAXIiWUqDREhDDcyJI_1ksBSJp8xqhbYRfGhQnuRJyjn8xKT9yyFMoLBHPJ7wEQg", "width": 4032}], "place_id": "ChIJGzE9DS1l44kRoOhiASS_fHg", "reference": "ChIJGzE9DS1l44kRoOhiASS_fHg", "scope": "GOOGLE", "types": ["locality", "political"], "vicinity": "Boston"}}