{"ChIJdbEl279544kRLGDyB_xSOWs": {"geometry": {"location": {"lat": 42.3425362, "lng": -71.121774}, "viewport": {"northeast": {"lat": 42.34388518029149, "lng": -71.12042501970849}, "southwest": {"lat": 42.3411872197085, "lng": -71.1231229802915}}}, "icon": "https://maps.gstatic.com/mapfiles/place_api/icons/geocode-71.png", "id": "565f19344dfbddafa3863115e9c50607ca40f448", "name": "278-270 Harvard St", "place_id": "ChIJdbEl279544kRLGDyB_xSOWs", "reference": "ChIJdbEl279544kRLGDyB_xSOWs", "scope": "GOOGLE", "types": ["route"], "vicinity": "Brookline"}, "ChIJ-Yoe9cZ544kRVYLTECugYd4": {"geometry": {"location": {"lat": 42.342463, "lng": -71.12196899999999}, "viewport": {"northeast": {"lat": 42.34384688029149, "lng": -71.12068426970849}, "southwest": {"lat": 42.34114891970849, "lng": -71.1233822302915}}}, "icon": "https://maps.gstatic.com/mapfiles/place_api/icons/restaurant-71.png", "id": "56cf6f2e52490b98103bedab1f04276c640edc18", "name": "Paris Creperie", "opening_hours": {"open_now": true}, "photos": [{"height": 2533, "html_attributions": ["<a href=\"https://maps.google.com/maps/contrib/106784197723745076481/photos\">Sergio Musetti</a>"], "photo_reference": "CmRaAAAAxZv0lnn0N6bcsdVObQXMavv0ho5nurkRzl2HgbEBOR9mKK6QYPYKiR3OdW2YR1W5kAy-LwQx1oVOIIp78Wb_tP-7QErScicx05HIapgQNAKCzjB1MTwR44dZf7_Ps8BrEhAixgjXwcmqZSC_S0Gco3DaGhTc5wtu__yEKCopaVvPRQ1-Rh7hrg", "width": 3379}], "place_id": "ChIJ-Yoe9cZ544kRVYLTECugYd4", "plus_code": {"compound_code": "8VRH+X6 Brookline, Massachusetts, United States", "global_code": "87JC8VRH+X6"}, "price_level": 1, "rating": 4.4, "reference": "ChIJ-Yoe9cZ544kRVYLTECugYd4", "scope": "GOOGLE", "types": ["cafe", "meal_takeaway", "store", "restaurant", "point_of_interest", "food", "establishment"], "user_ratings_total": 451, "vicinity": "278 Harvard Street, Brookline"}, "ChIJ-Yoe9cZ544kR1RhFm8tmwKA": {"geometry": {"location": {"lat": 42.342445, "lng": -71.1219678}, "viewport": {"northeast": {"lat": 42.3438322302915, "lng": -71.12068926970849}, "southwest": {"lat": 42.3411342697085, "lng": -71.12338723029151}}}, "icon": "https://maps.gstatic.com/mapfiles/place_api/icons/shopping-71.png", "id": "db40ed7152d05a61a6277b2db060eef54f553270", "name": "Chestnut Hill Opticians", "place_id": "ChIJ-Yoe9cZ544kR1RhFm8tmwKA", "plus_code": {"compound_code": "8VRH+X6 Brookline, Massachusetts, United States", "global_code": "87JC8VRH+X6"}, "reference": "ChIJ-Yoe9cZ544kR1RhFm8tmwKA", "scope": "GOOGLE", "types": ["store", "health", "point_of_interest", "establishment"], "vicinity": "278 Harvard Street # A, Brookline"}, "ChIJ-Yoe9cZ544kRQKV3SGEp3aI": {"geometry": {"location": {"lat": 42.3425335, "lng": -71.1220297}, "viewport": {"northeast": {"lat": 42.3438874302915, "lng": -71.1206898697085}, "southwest": {"lat": 42.3411894697085, "lng": -71.1233878302915}}}, "icon": "https://maps.gstatic.com/mapfiles/place_api/icons/shopping-71.png", "id": "021e28440eed830408f148f1c71937d2d90bcbcd", "name": "Coolidge Corner Opticians", "place_id": "ChIJ-Yoe9cZ544kRQKV3SGEp3aI", "plus_code": {"compound_code": "8VVH+25 Brookline, Massachusetts, United States", "global_code": "87JC8VVH+25"}, "rating": 4, "reference": "ChIJ-Yoe9cZ544kRQKV3SGEp3aI", "scope": "GOOGLE", "types": ["store", "health", "point_of_interest", "establishment"], "user_ratings_total": 1, "vicinity": "278 Harvard Street, Brookline"}, "ChIJCeJQxb9544kRPWJi0ER3XcI": {"geometry": {"location": {"lat": 42.3424162, "lng": -71.1218724}, "viewport": {"northeast": {"lat": 42.34382128029149, "lng": -71.1204670697085}, "southwest": {"lat": 42.3411233197085, "lng": -71.1231650302915}}}, "icon": "https://maps.gstatic.com/mapfiles/place_api/icons/restaurant-71.png", "id": "446316ba2d0c061b7528ca37f84dfc86096ce146", "name": "Oath Pizza - Coolidge Corner", "opening_hours": {"open_now": true}, "photos": [{"height": 3024, "html_attributions": ["<a href=\"https://maps.google.com/maps/contrib/115567989646284544319/photos\">Rahul Gaywala</a>"], "photo_reference": "CmRaAAAATyvqSF_0kyXiga37Lpzf2kabsASVFWNH9yfkqz0oQ1cGqIpXyaCBwLqc1Do9prMh6vwXjKuxQBtsWIgoBEcok-K5Q5wCjUclI6K3HW8YNvRNX_7yePBcuK-TKKKY0aA6EhD9engPFcemVUWv2Uf5iVOuGhRdInwt4N5b8-_vf79fq7kr_qM_vg", "width": 4032}], "place_id": "ChIJCeJQxb9544kRPWJi0ER3XcI", "plus_code": {"compound_code": "8VRH+X7 Brookline, Massachusetts, United States", "global_code": "87JC8VRH+X7"}, "price_level": 1, "rating": 4.3, "reference": "ChIJCeJQxb9544kRPWJi0ER3XcI", "scope": "GOOGLE", "types": ["meal_takeaway", "restaurant", "point_of_interest", "food", "establishment"], "user_ratings_total": 123, "vicinity": "276 Harvard Street, Brookline"}, "ChIJ4ZM8uY5w44kRnztRMXnXRCA": {"geometry": {"location": {"lat": 42.34237780000001, "lng": -71.1220598}, "viewport": {"northeast": {"lat": 42.34376058029149, "lng": -71.1207730697085}, "southwest": {"lat": 42.3410626197085, "lng": -71.12347103029151}}}, "icon": "https://maps.gstatic.com/mapfiles/place_api/icons/generic_business-71.png", "id": "785654f69bb98ad509c0bd83d3a04180b077e140", "name": "East Coast Auto Transport", "place_id": "ChIJ4ZM8uY5w44kRnztRMXnXRCA", "plus_code": {"compound_code": "8VRH+X5 Brookline, Massachusetts, United States", "global_code": "87JC8VRH+X5"}, "reference": "ChIJ4ZM8uY5w44kRnztRMXnXRCA", "scope": "GOOGLE", "types": ["moving_company", "point_of_interest", "establishment"], "vicinity": "375 Wampanoag Trl, Brookline"}, "ChIJcSMtzL9544kRcrdbrDIjEjk": {"geometry": {"location": {"lat": 42.3423589, "lng": -71.12190919999999}, "viewport": {"northeast": {"lat": 42.3437715802915, "lng": -71.1206774697085}, "southwest": {"lat": 42.3410736197085, "lng": -71.1233754302915}}}, "icon": "https://maps.gstatic.com/mapfiles/place_api/icons/generic_business-71.png", "id": "6ac77645f1a074d4d612488626948b8bfb24b3bd", "name": "Meeting Service International", "place_id": "ChIJcSMtzL9544kRcrdbrDIjEjk", "plus_code": {"compound_code": "8VRH+W6 Brookline, Massachusetts, United States", "global_code": "87JC8VRH+W6"}, "reference": "ChIJcSMtzL9544kRcrdbrDIjEjk", "scope": "GOOGLE", "types": ["point_of_interest", "establishment"], "vicinity": "1330 Beacon Street, Brookline"}, "ChIJhZirQQB544kRB9LbXEfedZQ": {"geometry": {"location": {"lat": 42.33176419999999, "lng": -71.1211635}, "viewport": {"northeast": {"lat": 42.3518109, "lng": -71.1056969}, "southwest": {"lat": 42.29459689999999, "lng": -71.1789959}}}, "icon": "https://maps.gstatic.com/mapfiles/place_api/icons/geocode-71.png", "id": "92986b2d1f69af2f2a7e29d34ced8adfa8573beb", "name": "Brookline", "photos": [{"height": 651, "html_attributions": ["<a href=\"https://maps.google.com/maps/contrib/114772942214832951419/photos\">Michael Ahn</a>"], "photo_reference": "CmRaAAAAgn6tZwJocQzQgPKfnfIy4lmb0PprA-7ngIV-s1RpTo47tQ5YRAfSM-EJiQMtsOB2cWfgP5X9To6Shi3QkehqgIrswSs6efUy180czvDztt-109bG0BDk-HaVulR_0gW4EhD0L2V7wwe0fSXk8qQWQXYFGhR3-EvXNLpDv2dXu_R7g4w-FhOK9g", "width": 1608}], "place_id": "ChIJhZirQQB544kRB9LbXEfedZQ", "reference": "ChIJhZirQQB544kRB9LbXEfedZQ", "scope": "GOOGLE", "types": ["locality", "political"], "vicinity": "Brookline"}}