{"ChIJnRQZb25544kRW6FAt7oIxQo": {"geometry": {"location": {"lat": 42.31263750000001, "lng": -71.1141327}, "viewport": {"northeast": {"lat": 42.3139874302915, "lng": -71.11279806970849}, "southwest": {"lat": 42.3112894697085, "lng": -71.11549603029151}}}, "icon": "https://maps.gstatic.com/mapfiles/place_api/icons/geocode-71.png", "id": "8c4efb310d0a6877047562428313ec270d9badda", "name": "672-656 Centre St", "place_id": "ChIJnRQZb25544kRW6FAt7oIxQo", "reference": "ChIJnRQZb25544kRW6FAt7oIxQo", "scope": "GOOGLE", "types": ["route"], "vicinity": "Boston"}, "ChIJJ04Nbm5544kRj8vi0lAZX-g": {"geometry": {"location": {"lat": 42.3128395, "lng": -71.11433099999999}, "viewport": {"northeast": {"lat": 42.3141847302915, "lng": -71.11287336970848}, "southwest": {"lat": 42.3114867697085, "lng": -71.11557133029149}}}, "icon": "https://maps.gstatic.com/mapfiles/place_api/icons/shopping-71.png", "id": "61b82938baf5870448af81e3868ab74c24c73b35", "name": "J.P. Licks", "opening_hours": {"open_now": true}, "photos": [{"height": 1613, "html_attributions": ["<a href=\"https://maps.google.com/maps/contrib/100932991575885126394/photos\">J.P. Licks</a>"], "photo_reference": "CmRaAAAAqli5h9o_RY0LhpCKeQUGpageKF4A8-IfA8h1B72jOAV0Db55JG4uPeeWxX4wx4pnlNjSritWRTPXSR-0b07g9r0HZGgAUDfUkCls_bLs3KVzpa7BnEHx0eA7yT4rnWzLEhDl69gN4dYMs1sKOqCMa9O1GhS2sF7ff4_2_WkExDXwwF9a0VPeOA", "width": 2048}], "place_id": "ChIJJ04Nbm5544kRj8vi0lAZX-g", "plus_code": {"compound_code": "8V7P+47 Boston, Massachusetts, United States", "global_code": "87JC8V7P+47"}, "price_level": 2, "rating": 4.5, "reference": "ChIJJ04Nbm5544kRj8vi0lAZX-g", "scope": "GOOGLE", "types": ["cafe", "store", "point_of_interest", "food", "establishment"], "user_ratings_total": 741, "vicinity": "659 Centre Street, Jamaica Plain"}, "ChIJZ2tna25544kRDl4eX1UvRZM": {"geometry": {"location": {"lat": 42.3130289, "lng": -71.11394469999999}, "viewport": {"northeast": {"lat": 42.31437933029149, "lng": -71.11267461970849}, "southwest": {"lat": 42.3116813697085, "lng": -71.1153725802915}}}, "icon": "https://maps.gstatic.com/mapfiles/place_api/icons/restaurant-71.png", "id": "e8d4b73c6923a42b8578b122d105cf08574a95bc", "name": "Cafe Beirut", "opening_hours": {"open_now": true}, "photos": [{"height": 3984, "html_attributions": ["<a href=\"https://maps.google.com/maps/contrib/117705945154376700054/photos\">E B</a>"], "photo_reference": "CmRaAAAAj_OOw8w0xOXFVOdIwwjqIgdZ5fuCSwqZeIawBURzGraJyje65hGSf3xUIbWJv6DRqYYShiEOSIXyFtgt3M-j-3nWW4zR6F5oWtCCsB--_2PF_kKGnmnmZKLU8xkekkLnEhAVWPjHZAMC_4komm9C1iSzGhRniJs4Et2p8OZ6RukIIxQjnEiicQ", "width": 2988}], "place_id": "ChIJZ2tna25544kRDl4eX1UvRZM", "plus_code": {"compound_code": "8V7P+6C Boston, Massachusetts, United States", "global_code": "87JC8V7P+6C"}, "price_level": 2, "rating": 4.1, "reference": "ChIJZ2tna25544kRDl4eX1UvRZM", "scope": "GOOGLE", "types": ["restaurant", "point_of_interest", "food", "establishment"], "user_ratings_total": 147, "vicinity": "654 Centre Street, Jamaica Plain"}, "ChIJs6r0a25544kRfQeE_BgK6ho": {"geometry": {"location": {"lat": 42.3128925, "lng": -71.1139501}, "viewport": {"northeast": {"lat": 42.31424423029149, "lng": -71.1126808197085}, "southwest": {"lat": 42.31154626970849, "lng": -71.11537878029151}}}, "icon": "https://maps.gstatic.com/mapfiles/place_api/icons/shopping-71.png", "id": "400ba91e69888b0e27093c42f8477c570bd0d0c8", "name": "Hardware City Inc", "opening_hours": {"open_now": true}, "photos": [{"height": 3024, "html_attributions": ["<a href=\"https://maps.google.com/maps/contrib/106253482696969079497/photos\">Chris Stamatos</a>"], "photo_reference": "CmRaAAAArHTFCV75R6Pa8t2WGOntqK1yCoX6iHv1Nif_1uIJ-flloCRQlb7AgM6zC4aO_GksiFhBgAtotMEl6VLPTNu4AVSqbzFMRD8GIB5ZdWvN5tPoGA0Ef1GLtpGlQi3ZNfTtEhBHda_ObzJiip7rNlkvHIkZGhSLU07sMYMM6w7PkFxvgzyntLjDHg", "width": 4032}], "place_id": "ChIJs6r0a25544kRfQeE_BgK6ho", "plus_code": {"compound_code": "8V7P+5C Boston, Massachusetts, United States", "global_code": "87JC8V7P+5C"}, "price_level": 2, "rating": 4.5, "reference": "ChIJs6r0a25544kRfQeE_BgK6ho", "scope": "GOOGLE", "types": ["hardware_store", "home_goods_store", "store", "point_of_interest", "establishment"], "user_ratings_total": 23, "vicinity": "656 Centre Street, Jamaica Plain"}, "ChIJK_cubW5544kRSmoywkVhr6E": {"geometry": {"location": {"lat": 42.3131199, "lng": -71.11421399999999}, "viewport": {"northeast": {"lat": 42.31446783029151, "lng": -71.11280786970849}, "southwest": {"lat": 42.31176986970851, "lng": -71.1155058302915}}}, "icon": "https://maps.gstatic.com/mapfiles/place_api/icons/generic_business-71.png", "id": "a44643e588961aafae5ffc5a62e63255190c7349", "name": "PMGinfotech", "opening_hours": {"open_now": true}, "place_id": "ChIJK_cubW5544kRSmoywkVhr6E", "plus_code": {"compound_code": "8V7P+68 Boston, Massachusetts, United States", "global_code": "87JC8V7P+68"}, "reference": "ChIJK_cubW5544kRSmoywkVhr6E", "scope": "GOOGLE", "types": ["point_of_interest", "establishment"], "vicinity": "655 Centre Street, Jamaica Plain"}, "ChIJjzxRaW5544kR0OylQpEidVg": {"geometry": {"location": {"lat": 42.3127944, "lng": -71.1139752}, "viewport": {"northeast": {"lat": 42.3141458302915, "lng": -71.1126964697085}, "southwest": {"lat": 42.3114478697085, "lng": -71.1153944302915}}}, "icon": "https://maps.gstatic.com/mapfiles/place_api/icons/restaurant-71.png", "id": "45a50ccb809667ac339a5f1b1a32e15343a3fc46", "name": "Chilacates Centre St", "opening_hours": {"open_now": true}, "photos": [{"height": 3036, "html_attributions": ["<a href=\"https://maps.google.com/maps/contrib/115832882436993992452/photos\">Sheraz Choudhary</a>"], "photo_reference": "CmRaAAAAxkysxuPQ8rzO-vdHlLKnLBX_lUizDd4kLPYdhaVlSUwIj05eAO-C2_eCNGuWKAvNHEfuvlH4xFlNAeUsgO2Hscjnh9imUw5NAVbY0vWcxb8DqXaR_2HLbyAXtKJhPX2uEhB0IraUkTocPpXO6lbYD026GhTnWVzlFiP6ptyMLBoFqVIeTmwm3w", "width": 4048}], "place_id": "ChIJjzxRaW5544kR0OylQpEidVg", "plus_code": {"compound_code": "8V7P+4C Boston, Massachusetts, United States", "global_code": "87JC8V7P+4C"}, "price_level": 1, "rating": 4.6, "reference": "ChIJjzxRaW5544kR0OylQpEidVg", "scope": "GOOGLE", "types": ["restaurant", "point_of_interest", "food", "establishment"], "user_ratings_total": 258, "vicinity": "658 Centre Street, Boston"}, "ChIJRR78a25544kR65IHbLggJls": {"geometry": {"location": {"lat": 42.3128618, "lng": -71.1139729}, "viewport": {"northeast": {"lat": 42.3142131802915, "lng": -71.11269321970849}, "southwest": {"lat": 42.3115152197085, "lng": -71.1153911802915}}}, "icon": "https://maps.gstatic.com/mapfiles/place_api/icons/shopping-71.png", "id": "f4416f6d43bf11eeac2490aba511a67e7ef3d464", "name": "The Paint Studio", "place_id": "ChIJRR78a25544kR65IHbLggJls", "plus_code": {"compound_code": "8V7P+4C Boston, Massachusetts, United States", "global_code": "87JC8V7P+4C"}, "reference": "ChIJRR78a25544kR65IHbLggJls", "scope": "GOOGLE", "types": ["home_goods_store", "store", "point_of_interest", "establishment"], "vicinity": "656 Centre Street, Jamaica Plain"}, "ChIJU6o-bW5544kR6HcCqZ4q5F0": {"geometry": {"location": {"lat": 42.313101, "lng": -71.114285}, "viewport": {"northeast": {"lat": 42.3144482802915, "lng": -71.11284366970848}, "southwest": {"lat": 42.3117503197085, "lng": -71.11554163029149}}}, "icon": "https://maps.gstatic.com/mapfiles/place_api/icons/generic_business-71.png", "id": "53263d07628dd117dd4eeae4ed3122af143cc625", "name": "Tao and Zen Healing", "opening_hours": {"open_now": true}, "photos": [{"height": 464, "html_attributions": ["<a href=\"https://maps.google.com/maps/contrib/110023359436338952633/photos\">Tao and Zen Healing</a>"], "photo_reference": "CmRaAAAASClBuwGuqvy9da9MmaE7k5x2JRMoNdLLCKtj0FHdhli9KmINDN5XPpAzatCryWD2f0IPpXFFDGEyEQ0Y1ids6L_ydeyvDhUO7odwvX5IkjoC2hih4GDUigPvjPLol8-2EhCKFL0CY_sNOCj-W0GsockYGhSg00MPlNCOTAqw5v-KmxcvTQ83vg", "width": 464}], "place_id": "ChIJU6o-bW5544kR6HcCqZ4q5F0", "plus_code": {"compound_code": "8V7P+67 Boston, Massachusetts, United States", "global_code": "87JC8V7P+67"}, "reference": "ChIJU6o-bW5544kR6HcCqZ4q5F0", "scope": "GOOGLE", "types": ["health", "point_of_interest", "establishment"], "vicinity": "655 Centre St., Box 301380, Jamaica Plain"}, "ChIJGzE9DS1l44kRoOhiASS_fHg": {"geometry": {"location": {"lat": 42.3600825, "lng": -71.0588801}, "viewport": {"northeast": {"lat": 42.40081989999999, "lng": -70.749455}, "southwest": {"lat": 42.22788, "lng": -71.191113}}}, "icon": "https://maps.gstatic.com/mapfiles/place_api/icons/geocode-71.png", "id": "06755c25d2b34d13942a4713971756a55b870ced", "name": "Boston", "photos": [{"height": 3024, "html_attributions": ["<a href=\"https://maps.google.com/maps/contrib/104670289779338733432/photos\">Natalia Zalucean</a>"], "photo_reference": "CmRaAAAA9tbLfmIDi97TDa89_-YKSS6OvjTuHPiW04ktr8d4dE6HbJweoOHHGXXxn5xl2QECfgB5BI8XCqr5oUu2UynZnzlDmHN7FGTiDWUQC-EtHTKmsIGTDie4VNIY8YtPd01aEhBiCK8DYC1no3f1MezN73_MGhRk_rCpRm0i29tk3Q26Y6OwDaKdzA", "width": 4032}], "place_id": "ChIJGzE9DS1l44kRoOhiASS_fHg", "reference": "ChIJGzE9DS1l44kRoOhiASS_fHg", "scope": "GOOGLE", "types": ["locality", "political"], "vicinity": "Boston"}}