{"ChIJC6lUQW5544kRVqSIELAFC6o": {"geometry": {"location": {"lat": 42.31271389999999, "lng": -71.11326559999999}, "viewport": {"northeast": {"lat": 42.3140213302915, "lng": -71.11166050000001}, "southwest": {"lat": 42.3113233697085, "lng": -71.11491889999999}}}, "icon": "https://maps.gstatic.com/mapfiles/place_api/icons/geocode-71.png", "id": "cfa325c210064cb71c69fcca3ab57833fb3934aa", "name": "24-2 Starr Ln", "place_id": "ChIJC6lUQW5544kRVqSIELAFC6o", "reference": "ChIJC6lUQW5544kRVqSIELAFC6o", "scope": "GOOGLE", "types": ["route"], "vicinity": "Boston"}, "ChIJa9okXG5544kRhR3qD9ispKk": {"geometry": {"location": {"lat": 42.3123871, "lng": -71.113089}, "viewport": {"northeast": {"lat": 42.31358263029149, "lng": -71.1118044197085}, "southwest": {"lat": 42.31088466970849, "lng": -71.11450238029151}}}, "icon": "https://maps.gstatic.com/mapfiles/place_api/icons/generic_business-71.png", "id": "8b1f2004fa6298ca0b0a10adb2b40e52b97c90b3", "name": "John A. Durcan, Lic", "place_id": "ChIJa9okXG5544kRhR3qD9ispKk", "plus_code": {"compound_code": "8V6P+XQ Boston, Massachusetts, United States", "global_code": "87JC8V6P+XQ"}, "reference": "ChIJa9okXG5544kRhR3qD9ispKk", "scope": "GOOGLE", "types": ["doctor", "health", "point_of_interest", "establishment"], "vicinity": "16 Seaverns Avenue, Jamaica Plain"}, "ChIJrfDDQ25544kRUggCn-GKWic": {"geometry": {"location": {"lat": 42.31260229999999, "lng": -71.11342549999999}, "viewport": {"northeast": {"lat": 42.3140052302915, "lng": -71.11205181970848}, "southwest": {"lat": 42.3113072697085, "lng": -71.1147497802915}}}, "icon": "https://maps.gstatic.com/mapfiles/place_api/icons/generic_recreational-71.png", "id": "942e57878e05bec5d4bac487ca43ba88238ab9b3", "name": "Starr Lane Community Park", "place_id": "ChIJrfDDQ25544kRUggCn-GKWic", "reference": "ChIJrfDDQ25544kRUggCn-GKWic", "scope": "GOOGLE", "types": ["park", "premise", "point_of_interest", "establishment"], "vicinity": "Boston"}, "ChIJGzE9DS1l44kRoOhiASS_fHg": {"geometry": {"location": {"lat": 42.3600825, "lng": -71.0588801}, "viewport": {"northeast": {"lat": 42.40081989999999, "lng": -70.749455}, "southwest": {"lat": 42.22788, "lng": -71.191113}}}, "icon": "https://maps.gstatic.com/mapfiles/place_api/icons/geocode-71.png", "id": "06755c25d2b34d13942a4713971756a55b870ced", "name": "Boston", "photos": [{"height": 3024, "html_attributions": ["<a href=\"https://maps.google.com/maps/contrib/104670289779338733432/photos\">Natalia Zalucean</a>"], "photo_reference": "CmRaAAAAvhfJdG_0wuWYZ6SmUfuqhxGtxOND_X7SgQ_AUT08AFpAsZ8T7Sz5meBZ6WQeHLqMlY-MXsNILR_zxMcl2X4iC8W605czDzLV8lXNeRIKKn4fCnyhk1MZpqpAtp9N2bqVEhCdqJBfGnb-YaQCu_fidbR1GhQgmwwO30cb9aDzPRm4-es0UnKb0w", "width": 4032}], "place_id": "ChIJGzE9DS1l44kRoOhiASS_fHg", "reference": "ChIJGzE9DS1l44kRoOhiASS_fHg", "scope": "GOOGLE", "types": ["locality", "political"], "vicinity": "Boston"}}