{"ChIJpzpNpsx-44kREVtdcYVHU0I": {"geometry": {"location": {"lat": 42.2873081, "lng": -71.1272166}, "viewport": {"northeast": {"lat": 42.2886581802915, "lng": -71.1258694197085}, "southwest": {"lat": 42.2859602197085, "lng": -71.1285673802915}}}, "icon": "https://maps.gstatic.com/mapfiles/place_api/icons/geocode-71.png", "id": "ceb82df64a97e060b2dd5706580b6ee17625f6a7", "name": "4185-4195 Washington St", "place_id": "ChIJpzpNpsx-44kREVtdcYVHU0I", "reference": "ChIJpzpNpsx-44kREVtdcYVHU0I", "scope": "GOOGLE", "types": ["route"], "vicinity": "Boston"}, "ChIJ_UCaWMt-44kR9McN0towVyQ": {"geometry": {"location": {"lat": 42.287172, "lng": -71.126987}, "viewport": {"northeast": {"lat": 42.2885914302915, "lng": -71.12575006970849}, "southwest": {"lat": 42.2858934697085, "lng": -71.1284480302915}}}, "icon": "https://maps.gstatic.com/mapfiles/place_api/icons/generic_business-71.png", "id": "8742f09303b3329f6e79a8ccc90df5e437db0bd6", "name": "Knights of Columbus", "photos": [{"height": 2397, "html_attributions": ["<a href=\"https://maps.google.com/maps/contrib/109682696758256737321/photos\">Hansel Taveras</a>"], "photo_reference": "CmRaAAAAq9PTDr2s12wOg_QfozMnd8A-I8rLskpLx8E-LuDmiRqHubMtTG4_sHRvnCKcqGdCjw8WEbeG6JURchMcBBPNrh7Ah8H7XDSjBuFLw26TSQjl3vg_BzAdwSFUleX4JpwfEhCMfDy0aoStDhbNGo9zEbTKGhQiBm8UogCJr0iV-f5SUgXFLjLIlA", "width": 2320}], "place_id": "ChIJ_UCaWMt-44kR9McN0towVyQ", "plus_code": {"compound_code": "7VPF+V6 Boston, Massachusetts, United States", "global_code": "87JC7VPF+V6"}, "rating": 4.3, "reference": "ChIJ_UCaWMt-44kR9McN0towVyQ", "scope": "GOOGLE", "types": ["point_of_interest", "establishment"], "user_ratings_total": 3, "vicinity": "4192 Washington Street, Roslindale"}, "ChIJqTDFpsx-44kR9Xz5DSWXyPM": {"geometry": {"location": {"lat": 42.28718420000001, "lng": -71.1269804}, "viewport": {"northeast": {"lat": 42.28860228029151, "lng": -71.1257413197085}, "southwest": {"lat": 42.28590431970851, "lng": -71.12843928029152}}}, "icon": "https://maps.gstatic.com/mapfiles/place_api/icons/generic_business-71.png", "id": "ca0ac370a49989c5ee01dd2b0c5044f66dbedad4", "name": "Olde Bostonian Realty", "opening_hours": {"open_now": true}, "place_id": "ChIJqTDFpsx-44kR9Xz5DSWXyPM", "plus_code": {"compound_code": "7VPF+V6 Boston, Massachusetts, United States", "global_code": "87JC7VPF+V6"}, "reference": "ChIJqTDFpsx-44kR9Xz5DSWXyPM", "scope": "GOOGLE", "types": ["real_estate_agency", "point_of_interest", "establishment"], "vicinity": "4196 Washington Street, Roslindale"}, "ChIJqTDFpsx-44kRe0t-s1ZILAw": {"geometry": {"location": {"lat": 42.28718420000001, "lng": -71.1269804}, "viewport": {"northeast": {"lat": 42.28860228029151, "lng": -71.1257413197085}, "southwest": {"lat": 42.28590431970851, "lng": -71.12843928029152}}}, "icon": "https://maps.gstatic.com/mapfiles/place_api/icons/atm-71.png", "id": "9be5bb4726ca308426e5fd3ec71cc857b2cf4506", "name": "Cardtronics ATM", "place_id": "ChIJqTDFpsx-44kRe0t-s1ZILAw", "plus_code": {"compound_code": "7VPF+V6 Boston, Massachusetts, United States", "global_code": "87JC7VPF+V6"}, "reference": "ChIJqTDFpsx-44kRe0t-s1ZILAw", "scope": "GOOGLE", "types": ["atm", "finance", "point_of_interest", "establishment"], "vicinity": "4196 Washington Street, Roslindale"}, "ChIJd5_wV8t-44kRL10nQBr4a9c": {"geometry": {"location": {"lat": 42.28739340000001, "lng": -71.1269796}, "viewport": {"northeast": {"lat": 42.28876793029151, "lng": -71.1256719197085}, "southwest": {"lat": 42.28606996970851, "lng": -71.1283698802915}}}, "icon": "https://maps.gstatic.com/mapfiles/place_api/icons/generic_business-71.png", "id": "a7f267ad2b1d6396403c0a4c7e33ac2b1028cf9e", "name": "The Sign Post", "opening_hours": {"open_now": true}, "photos": [{"height": 3096, "html_attributions": ["<a href=\"https://maps.google.com/maps/contrib/102577989399185956078/photos\">SignPost Boston</a>"], "photo_reference": "CmRaAAAA9Cq2rChJwKRMHAOjsmPaOkHMp4lOkVkuhoee5OzN8ld7ZjZXvC-ZqtThM2DocSM4XcuJjmkQkY_DkLe4Mp2h7j29d4EvYyhN3_50KzlrGZ0jNOn83RViRAj8yk9vewp0EhDmAvEpbL0KjCANDY1FOSacGhSbL7-Ky5YAxFPMRZSbmDNgJ5xg9g", "width": 2268}], "place_id": "ChIJd5_wV8t-44kRL10nQBr4a9c", "plus_code": {"compound_code": "7VPF+X6 Boston, Massachusetts, United States", "global_code": "87JC7VPF+X6"}, "rating": 3.9, "reference": "ChIJd5_wV8t-44kRL10nQBr4a9c", "scope": "GOOGLE", "types": ["point_of_interest", "establishment"], "user_ratings_total": 7, "vicinity": "4190 Washington Street, Roslindale"}, "ChIJhVnzlcx-44kRaJ8_dgiJHPk": {"geometry": {"location": {"lat": 42.2874298, "lng": -71.1269271}, "viewport": {"northeast": {"lat": 42.2888055302915, "lng": -71.12562441970849}, "southwest": {"lat": 42.28610756970851, "lng": -71.12832238029151}}}, "icon": "https://maps.gstatic.com/mapfiles/place_api/icons/generic_business-71.png", "id": "be5559dbe50baf08e0c50f9b983bb76b6885a5bb", "name": "Binta Africa Hair Braiding", "opening_hours": {"open_now": true}, "photos": [{"height": 1172, "html_attributions": ["<a href=\"https://maps.google.com/maps/contrib/102929925973643731657/photos\">Courvoisier Jones</a>"], "photo_reference": "CmRaAAAALufoW9TMHDfJlvvwzb9C_Jbdt8MPLsJZ_eeHohqs52NLcFklZFK_d9SmfqUVtXHdzdOEWrpa4KbI8cScK5Y7f9kcUIYD70XSdWkjJ1dQnrpcK8bmhn8g2NNQ6VKjD5MjEhAM1f1dIM_Hwy11U847nWxMGhTKKsJ4Aq6oUEtTvcquZo6JavHQPQ", "width": 2048}], "place_id": "ChIJhVnzlcx-44kRaJ8_dgiJHPk", "plus_code": {"compound_code": "7VPF+X6 Boston, Massachusetts, United States", "global_code": "87JC7VPF+X6"}, "rating": 4.5, "reference": "ChIJhVnzlcx-44kRaJ8_dgiJHPk", "scope": "GOOGLE", "types": ["beauty_salon", "hair_care", "point_of_interest", "establishment"], "user_ratings_total": 49, "vicinity": "4186 Washington Street, Roslindale"}, "ChIJk-_SV8t-44kR7a52SPlsFJw": {"geometry": {"location": {"lat": 42.2874298, "lng": -71.1269271}, "viewport": {"northeast": {"lat": 42.2888055302915, "lng": -71.12562441970849}, "southwest": {"lat": 42.28610756970851, "lng": -71.12832238029151}}}, "icon": "https://maps.gstatic.com/mapfiles/place_api/icons/generic_business-71.png", "id": "8dc3f66ac25223a683c559ecbcefa694cab4ba27", "name": "Anj Beauty & Day Spa", "place_id": "ChIJk-_SV8t-44kR7a52SPlsFJw", "plus_code": {"compound_code": "7VPF+X6 Boston, Massachusetts, United States", "global_code": "87JC7VPF+X6"}, "reference": "ChIJk-_SV8t-44kR7a52SPlsFJw", "scope": "GOOGLE", "types": ["beauty_salon", "point_of_interest", "establishment"], "vicinity": "4186 Washington Street, Roslindale"}, "ChIJPRSVV8t-44kRK4SEsrnRAQQ": {"geometry": {"location": {"lat": 42.2874298, "lng": -71.1269271}, "viewport": {"northeast": {"lat": 42.2888055302915, "lng": -71.12562441970849}, "southwest": {"lat": 42.28610756970851, "lng": -71.12832238029151}}}, "icon": "https://maps.gstatic.com/mapfiles/place_api/icons/generic_business-71.png", "id": "3adbb55b78a434a4c15c90752e08f48cefe0bc81", "name": "Bullseye Research Services", "place_id": "ChIJPRSVV8t-44kRK4SEsrnRAQQ", "plus_code": {"compound_code": "7VPF+X6 Boston, Massachusetts, United States", "global_code": "87JC7VPF+X6"}, "reference": "ChIJPRSVV8t-44kRK4SEsrnRAQQ", "scope": "GOOGLE", "types": ["point_of_interest", "establishment"], "vicinity": "4186 Washington Street, Boston"}, "ChIJ1wXWpsx-44kROBj8B98Ff_I": {"geometry": {"location": {"lat": 42.2870805, "lng": -71.12714369999999}, "viewport": {"northeast": {"lat": 42.2884907802915, "lng": -71.12589166970848}, "southwest": {"lat": 42.2857928197085, "lng": -71.1285896302915}}}, "icon": "https://maps.gstatic.com/mapfiles/place_api/icons/generic_business-71.png", "id": "19c591c7eb495e101177e8f12451f0b51337b413", "name": "Seraphic Springs Health Care Agency, Inc", "place_id": "ChIJ1wXWpsx-44kROBj8B98Ff_I", "plus_code": {"compound_code": "7VPF+R4 Boston, Massachusetts, United States", "global_code": "87JC7VPF+R4"}, "rating": 3, "reference": "ChIJ1wXWpsx-44kROBj8B98Ff_I", "scope": "GOOGLE", "types": ["health", "point_of_interest", "establishment"], "user_ratings_total": 2, "vicinity": "4196 Washington Street, Boston"}, "ChIJGzE9DS1l44kRoOhiASS_fHg": {"geometry": {"location": {"lat": 42.3600825, "lng": -71.0588801}, "viewport": {"northeast": {"lat": 42.40081989999999, "lng": -70.749455}, "southwest": {"lat": 42.22788, "lng": -71.191113}}}, "icon": "https://maps.gstatic.com/mapfiles/place_api/icons/geocode-71.png", "id": "06755c25d2b34d13942a4713971756a55b870ced", "name": "Boston", "photos": [{"height": 3024, "html_attributions": ["<a href=\"https://maps.google.com/maps/contrib/104670289779338733432/photos\">Natalia Zalucean</a>"], "photo_reference": "CmRaAAAAg7mXbWU-b-m4SE-fwBkpygFYrXMf9UsPcAzrBJV3v7BRL_I7LsJzgQOIjGxYpASHlPZNSBz2qSb52hLS9mwtn8-gj7bZBRu1Bpp4bKAZcMhLaLLQyuqN6xxfEFCXzcwxEhAt9RA2Vcmj3ZGFNBem2D4CGhQjp69ScMX8ivuR0BzEgGGRhKIULg", "width": 4032}], "place_id": "ChIJGzE9DS1l44kRoOhiASS_fHg", "reference": "ChIJGzE9DS1l44kRoOhiASS_fHg", "scope": "GOOGLE", "types": ["locality", "political"], "vicinity": "Boston"}}