{"ChIJeWtM64Zw44kR_cIkG-OWeqc": {"geometry": {"location": {"lat": 42.3578181, "lng": -71.05422140000002}, "viewport": {"northeast": {"lat": 42.35916578029151, "lng": -71.05287086970849}, "southwest": {"lat": 42.35646781970851, "lng": -71.05556883029149}}}, "icon": "https://maps.gstatic.com/mapfiles/place_api/icons/geocode-71.png", "id": "dec9364a737c5182a2fbba3c6ba0122d23f879ab", "name": "151-155 Milk St", "place_id": "ChIJeWtM64Zw44kR_cIkG-OWeqc", "reference": "ChIJeWtM64Zw44kR_cIkG-OWeqc", "scope": "GOOGLE", "types": ["route"], "vicinity": "Boston"}, "ChIJe5Ik7YZw44kRCvrvGnf89OE": {"geometry": {"location": {"lat": 42.35801249999999, "lng": -71.0541853}, "viewport": {"northeast": {"lat": 42.3593826302915, "lng": -71.0527698697085}, "southwest": {"lat": 42.3566846697085, "lng": -71.0554678302915}}}, "icon": "https://maps.gstatic.com/mapfiles/place_api/icons/restaurant-71.png", "id": "3462fbabce89cb4b80a63fc3b678266c791cbfb2", "name": "Sakurabana Japanese Restaurant", "opening_hours": {"open_now": true}, "photos": [{"height": 640, "html_attributions": ["<a href=\"https://maps.google.com/maps/contrib/116040573608205728480/photos\">Jutarat M</a>"], "photo_reference": "CmRaAAAAPHbQ_0pq05klcj6t_rTZCXGymJvhMcL_o8tphYYkfxqKOr6GFEnTYYX9dbSK-0Jl5Zp7ULf2ZvW853Gc2-4xE0LUzabiRevJ2vQZ2_IOt0M1LunhKhB4tU-OaaJ2sRdjEhDs9Ngufr3ajtgf0ixnI880GhRP0VljPbS3VIK4wxlpdGnqliE_FA", "width": 1136}], "place_id": "ChIJe5Ik7YZw44kRCvrvGnf89OE", "plus_code": {"compound_code": "9W5W+68 Boston, Massachusetts, United States", "global_code": "87JC9W5W+68"}, "price_level": 2, "rating": 4, "reference": "ChIJe5Ik7YZw44kRCvrvGnf89OE", "scope": "GOOGLE", "types": ["restaurant", "point_of_interest", "food", "establishment"], "user_ratings_total": 140, "vicinity": "57 Broad Street, Boston"}, "ChIJxUen7IZw44kRZmQwkerVgVc": {"geometry": {"location": {"lat": 42.3579537, "lng": -71.0542178}, "viewport": {"northeast": {"lat": 42.35926713029149, "lng": -71.05282551970849}, "southwest": {"lat": 42.35656916970849, "lng": -71.05552348029151}}}, "icon": "https://maps.gstatic.com/mapfiles/place_api/icons/lodging-71.png", "id": "1e9855a922acc616fa5ecbe9287ae44604c43fb2", "name": "Boston Furnished Apartments", "place_id": "ChIJxUen7IZw44kRZmQwkerVgVc", "plus_code": {"compound_code": "9W5W+58 Boston, Massachusetts, United States", "global_code": "87JC9W5W+58"}, "reference": "ChIJxUen7IZw44kRZmQwkerVgVc", "scope": "GOOGLE", "types": ["lodging", "point_of_interest", "establishment"], "vicinity": "120 Milk Street, Boston"}, "ChIJe5Ik7YZw44kRxUGQs1m8aeA": {"geometry": {"location": {"lat": 42.358001, "lng": -71.0542613}, "viewport": {"northeast": {"lat": 42.3593821802915, "lng": -71.05281096970849}, "southwest": {"lat": 42.35668421970851, "lng": -71.0555089302915}}}, "icon": "https://maps.gstatic.com/mapfiles/place_api/icons/generic_business-71.png", "id": "fca72d61e62dd7a5cfc8c4146d226d03a73e4d0a", "name": "Assisted Living Guidance", "place_id": "ChIJe5Ik7YZw44kRxUGQs1m8aeA", "plus_code": {"compound_code": "9W5W+67 Boston, Massachusetts, United States", "global_code": "87JC9W5W+67"}, "reference": "ChIJe5Ik7YZw44kRxUGQs1m8aeA", "scope": "GOOGLE", "types": ["health", "point_of_interest", "establishment"], "vicinity": "57 Broad Street, Boston"}, "ChIJNcR6bW5644kRsMeebUq8IfQ": {"geometry": {"location": {"lat": 42.35795579999999, "lng": -71.0542372}, "viewport": {"northeast": {"lat": 42.35926568029149, "lng": -71.05283896970849}, "southwest": {"lat": 42.35656771970849, "lng": -71.0555369302915}}}, "icon": "https://maps.gstatic.com/mapfiles/place_api/icons/generic_business-71.png", "id": "a884d3232b8ae7b8016e7bb155b9e1e73c3f76d2", "name": "SleepAfloat \u2013 Floating Vacation Rentals at Great Locations on the Waterfront", "opening_hours": {"open_now": true}, "photos": [{"height": 600, "html_attributions": ["<a href=\"https://maps.google.com/maps/contrib/102382221832384762480/photos\">SleepAfloat \u2013 Floating Vacation Rentals at Great Locations on the Waterfront</a>"], "photo_reference": "CmRaAAAAx0ZjZQiFhG6sNIpzLpkdiGtbzl8kBEm3pex7roIsPNzuzBcUspg1ib2RjiOeoj6knnL7L6jTVV_1e3kBU7ESLVoXfbrdIRtO5x1j6jvMEYw7X0XwxcUdvoPa-dX2WAw-EhBoEguJUdgiOzMTYn1vQitGGhR5Ru6CCvF87Ww8efXsWgnjTJEp2Q", "width": 816}], "place_id": "ChIJNcR6bW5644kRsMeebUq8IfQ", "plus_code": {"compound_code": "9W5W+58 Boston, Massachusetts, United States", "global_code": "87JC9W5W+58"}, "rating": 3, "reference": "ChIJNcR6bW5644kRsMeebUq8IfQ", "scope": "GOOGLE", "types": ["real_estate_agency", "travel_agency", "point_of_interest", "establishment"], "user_ratings_total": 2, "vicinity": "120 Milk Street #702, Boston"}, "ChIJ4fxYk4Zw44kRcr4NWPBPS2s": {"geometry": {"location": {"lat": 42.3578642, "lng": -71.0543395}, "viewport": {"northeast": {"lat": 42.3591795302915, "lng": -71.05294616970849}, "southwest": {"lat": 42.3564815697085, "lng": -71.05564413029151}}}, "icon": "https://maps.gstatic.com/mapfiles/place_api/icons/generic_business-71.png", "id": "2de9b02da3e7f8ca0bb27e9799d5fa245141cd23", "name": "E F Financial", "place_id": "ChIJ4fxYk4Zw44kRcr4NWPBPS2s", "plus_code": {"compound_code": "9W5W+47 Boston, Massachusetts, United States", "global_code": "87JC9W5W+47"}, "reference": "ChIJ4fxYk4Zw44kRcr4NWPBPS2s", "scope": "GOOGLE", "types": ["finance", "point_of_interest", "establishment"], "vicinity": "118 Milk Street, Boston"}, "ChIJlZGm7YZw44kR3xNIqWuzaX8": {"geometry": {"location": {"lat": 42.35803600000001, "lng": -71.054029}, "viewport": {"northeast": {"lat": 42.3593940302915, "lng": -71.0526513697085}, "southwest": {"lat": 42.35669606970851, "lng": -71.0553493302915}}}, "icon": "https://maps.gstatic.com/mapfiles/place_api/icons/generic_business-71.png", "id": "bb1a1699d664251fc4db6a5f77e22bb097b2887e", "name": "Hide & Seek Media", "opening_hours": {"open_now": true}, "photos": [{"height": 500, "html_attributions": ["<a href=\"https://maps.google.com/maps/contrib/116084681130224557653/photos\">Hide &amp; Seek Media</a>"], "photo_reference": "CmRaAAAAjgWOZTG1OpsWtvicsHu0Lo2jVsylvWduYtA8Ity3DDV0obluG9HNaNqQoGlqs_VZ3s5-O2lKuQ8NT5-8Z90HkdkGJVLMm5Dg-kN3RMhOKFsGUvSxQjgf8pi-FmNSCfmNEhBmF8QKAr-qellFBWl_lGTlGhR1tPZlxB1YaNK89jof6MnUOqzOTA", "width": 1400}], "place_id": "ChIJlZGm7YZw44kR3xNIqWuzaX8", "plus_code": {"compound_code": "9W5W+69 Boston, Massachusetts, United States", "global_code": "87JC9W5W+69"}, "rating": 4.3, "reference": "ChIJlZGm7YZw44kR3xNIqWuzaX8", "scope": "GOOGLE", "types": ["point_of_interest", "establishment"], "user_ratings_total": 4, "vicinity": "54 Broad Street, Boston"}, "ChIJ4fxYk4Zw44kRLr4ILDV1Vik": {"geometry": {"location": {"lat": 42.3578642, "lng": -71.0543395}, "viewport": {"northeast": {"lat": 42.3591795302915, "lng": -71.05294616970849}, "southwest": {"lat": 42.3564815697085, "lng": -71.05564413029151}}}, "icon": "https://maps.gstatic.com/mapfiles/place_api/icons/generic_business-71.png", "id": "5254129ef25566fb4096418130969d10551f58e1", "name": "P.L.A.N.", "opening_hours": {"open_now": false}, "photos": [{"height": 1588, "html_attributions": ["<a href=\"https://maps.google.com/maps/contrib/116454830994655756430/photos\">P.L.A.N.</a>"], "photo_reference": "CmRaAAAA1PT6Rf8jBivp-svbyU3KQM3RiqG5ttd32EaH4PSfEYqdYeuQZyjBB_xlGbie9DJSUD7HA1mERXUkj5dcS4VnxlwODEGvsaLR1YVJth5WeZinRVG4u0Iwlern4GqG2PL5EhD8SLXd2Fus9q1kPBYRGuBPGhTP_zPy1VrYz9_yhIhipQfk1AeWgQ", "width": 2048}], "place_id": "ChIJ4fxYk4Zw44kRLr4ILDV1Vik", "plus_code": {"compound_code": "9W5W+47 Boston, Massachusetts, United States", "global_code": "87JC9W5W+47"}, "reference": "ChIJ4fxYk4Zw44kRLr4ILDV1Vik", "scope": "GOOGLE", "types": ["finance", "point_of_interest", "establishment"], "vicinity": "118 Milk Street, Boston"}, "ChIJ4fxYk4Zw44kRSm6UZV5BfqA": {"geometry": {"location": {"lat": 42.3578642, "lng": -71.0543395}, "viewport": {"northeast": {"lat": 42.3591795302915, "lng": -71.05294616970849}, "southwest": {"lat": 42.3564815697085, "lng": -71.05564413029151}}}, "icon": "https://maps.gstatic.com/mapfiles/place_api/icons/generic_business-71.png", "id": "39a20b2cdfb89f310012181d712e8bcd66489164", "name": "Participant Level Advice Network", "place_id": "ChIJ4fxYk4Zw44kRSm6UZV5BfqA", "plus_code": {"compound_code": "9W5W+47 Boston, Massachusetts, United States", "global_code": "87JC9W5W+47"}, "reference": "ChIJ4fxYk4Zw44kRSm6UZV5BfqA", "scope": "GOOGLE", "types": ["point_of_interest", "establishment"], "vicinity": "118 Milk Street, Boston"}, "ChIJc2VGkNpx44kRLriVfq_a448": {"geometry": {"location": {"lat": 42.35784229999999, "lng": -71.0540525}, "viewport": {"northeast": {"lat": 42.3592168802915, "lng": -71.05273466970849}, "southwest": {"lat": 42.3565189197085, "lng": -71.0554326302915}}}, "icon": "https://maps.gstatic.com/mapfiles/place_api/icons/restaurant-71.png", "id": "61c08af50468e89717fbc08a78905f14c01d7b30", "name": "MIGHTY LOVE FOOD", "opening_hours": {"open_now": false}, "photos": [{"height": 3024, "html_attributions": ["<a href=\"https://maps.google.com/maps/contrib/100046096476915532086/photos\">cameron grob</a>"], "photo_reference": "CmRaAAAAhaE8dDXHMdOUPVrKBPvC7zoLVSnt8sLMrivWraAEHiSDPoz3FYB1FYzDr1jtDd3x11Ro405KAb1oqRYm6OVp7jY70Jm2XluS8sQAdvtp4U86e_g3A3akjAvPNw160HqNEhCTn20xWXge55pNexdq6zVeGhRtSQ9V__COXh3nIAiGThbk3NAPRA", "width": 4032}], "place_id": "ChIJc2VGkNpx44kRLriVfq_a448", "plus_code": {"compound_code": "9W5W+49 Boston, Massachusetts, United States", "global_code": "87JC9W5W+49"}, "rating": 4.2, "reference": "ChIJc2VGkNpx44kRLriVfq_a448", "scope": "GOOGLE", "types": ["restaurant", "point_of_interest", "food", "establishment"], "user_ratings_total": 20, "vicinity": "155 Milk Street, Boston"}, "ChIJrUsv64Zw44kRLrglcYUC1Is": {"geometry": {"location": {"lat": 42.35775719999999, "lng": -71.0540784}, "viewport": {"northeast": {"lat": 42.3591481802915, "lng": -71.05278481970849}, "southwest": {"lat": 42.3564502197085, "lng": -71.0554827802915}}}, "icon": "https://maps.gstatic.com/mapfiles/place_api/icons/shopping-71.png", "id": "faf414c6ce9e1a5e9bac9444457d2712431986f4", "name": "Downtown Auto Carriers", "opening_hours": {"open_now": true}, "place_id": "ChIJrUsv64Zw44kRLrglcYUC1Is", "plus_code": {"compound_code": "9W5W+49 Boston, Massachusetts, United States", "global_code": "87JC9W5W+49"}, "reference": "ChIJrUsv64Zw44kRLrglcYUC1Is", "scope": "GOOGLE", "types": ["car_dealer", "store", "point_of_interest", "establishment"], "vicinity": "153 Milk Street, Boston"}, "ChIJzT7vkoZw44kRbGfMR4zIf2I": {"geometry": {"location": {"lat": 42.3580851, "lng": -71.0543544}, "viewport": {"northeast": {"lat": 42.3594703802915, "lng": -71.05288256970849}, "southwest": {"lat": 42.3567724197085, "lng": -71.05558053029151}}}, "icon": "https://maps.gstatic.com/mapfiles/place_api/icons/generic_business-71.png", "id": "dbaef951554cf3fe2923d629cfaf98ed7bd10b5e", "name": "VPNE Parking Solutions", "place_id": "ChIJzT7vkoZw44kRbGfMR4zIf2I", "plus_code": {"compound_code": "9W5W+67 Boston, Massachusetts, United States", "global_code": "87JC9W5W+67"}, "rating": 1, "reference": "ChIJzT7vkoZw44kRbGfMR4zIf2I", "scope": "GOOGLE", "types": ["parking", "point_of_interest", "establishment"], "user_ratings_total": 3, "vicinity": "47 Broad Street, Boston"}, "ChIJGzE9DS1l44kRoOhiASS_fHg": {"geometry": {"location": {"lat": 42.3600825, "lng": -71.0588801}, "viewport": {"northeast": {"lat": 42.40081989999999, "lng": -70.749455}, "southwest": {"lat": 42.22788, "lng": -71.191113}}}, "icon": "https://maps.gstatic.com/mapfiles/place_api/icons/geocode-71.png", "id": "06755c25d2b34d13942a4713971756a55b870ced", "name": "Boston", "photos": [{"height": 3024, "html_attributions": ["<a href=\"https://maps.google.com/maps/contrib/104670289779338733432/photos\">Natalia Zalucean</a>"], "photo_reference": "CmRaAAAAckkKUV22DP8qLEYjVgcJnVrZxVPsNVP9tv4-lMji5nR8vyIyeIyJTHegp_DYfTPLaCKJLK2Xg9TG8_VQWB7SMwcSkB8x0bYmF-Gw8WPtD4LLHZNIXJ3CYG1fWuISSe6WEhDYar8TYK3Qtjowev4G1vltGhRATiByqJkm0mqReuNtSa5-5Tsiwg", "width": 4032}], "place_id": "ChIJGzE9DS1l44kRoOhiASS_fHg", "reference": "ChIJGzE9DS1l44kRoOhiASS_fHg", "scope": "GOOGLE", "types": ["locality", "political"], "vicinity": "Boston"}}