{"ChIJHUmFund644kR-4-B3ujYApg": {"geometry": {"location": {"lat": 42.3516108, "lng": -71.063827}, "viewport": {"northeast": {"lat": 42.3529597302915, "lng": -71.06247806970849}, "southwest": {"lat": 42.3502617697085, "lng": -71.06517603029151}}}, "icon": "https://maps.gstatic.com/mapfiles/place_api/icons/geocode-71.png", "id": "d1725d2507e71186a475211b65325bed962681e7", "name": "35-83 Lagrange St", "place_id": "ChIJHUmFund644kR-4-B3ujYApg", "reference": "ChIJHUmFund644kR-4-B3ujYApg", "scope": "GOOGLE", "types": ["route"], "vicinity": "Boston"}, "ChIJoT6DGht644kR0Z24qSnV44I": {"geometry": {"location": {"lat": 42.35121600000001, "lng": -71.06345440000001}, "viewport": {"northeast": {"lat": 42.3524601302915, "lng": -71.0621381197085}, "southwest": {"lat": 42.3497621697085, "lng": -71.06483608029151}}}, "icon": "https://maps.gstatic.com/mapfiles/place_api/icons/lodging-71.png", "id": "234b0294babb1fc9b25dbf555a62bf65c86c4657", "name": "HI Boston Hostel", "opening_hours": {"open_now": true}, "photos": [{"height": 2840, "html_attributions": ["<a href=\"https://maps.google.com/maps/contrib/105085306410128519600/photos\">HI Boston Hostel</a>"], "photo_reference": "CmRaAAAAs1-2R925vv_rT48SYmTtWvBVWmuHGqyY99fog_ubD5mymPo_XQtY3PK0QtR6iiz9TMnffPuxA9dm1MBXhmTgQV2ntDfuYartXtdiHjpAinhPJkH_iAhqXFlqc3awUBgeEhDFWsdTsLpXG8M5KKB49364GhS16I4eI2oKGqXiJHrh2vJaO55Tzg", "width": 3257}], "place_id": "ChIJoT6DGht644kR0Z24qSnV44I", "plus_code": {"compound_code": "9W2P+FJ Boston, Massachusetts, United States", "global_code": "87JC9W2P+FJ"}, "rating": 4.5, "reference": "ChIJoT6DGht644kR0Z24qSnV44I", "scope": "GOOGLE", "types": ["lodging", "point_of_interest", "establishment"], "user_ratings_total": 1283, "vicinity": "19 Stuart Street, Boston"}, "ChIJgQ4AvXd644kR5X834q2UZkA": {"geometry": {"location": {"lat": 42.3514628, "lng": -71.06342479999999}, "viewport": {"northeast": {"lat": 42.3528574302915, "lng": -71.06205206970849}, "southwest": {"lat": 42.35015946970851, "lng": -71.06475003029149}}}, "icon": "https://maps.gstatic.com/mapfiles/place_api/icons/generic_business-71.png", "id": "19c002d4f7a14d94251321164cab82960afcaf7a", "name": "The Glass Slipper", "opening_hours": {"open_now": true}, "photos": [{"height": 3024, "html_attributions": ["<a href=\"https://maps.google.com/maps/contrib/109482314425105557743/photos\">Derek McDermott</a>"], "photo_reference": "CmRaAAAASU_0PykYNog4SX8SVetBkUHtWPutZ2b-4kNKeSK7o4N6vWIZ0SQiahkfpMf1gpTi5EyVZORQx7ZyHsRxg3sg91UoImXwFU8phXX-2vuYENtdd62a8J0G4-YxuiIlCS4nEhBR3GhPB7zfPjAaBmTs601XGhSHk7ZVsWCltR7fb7N170qzOVK4yA", "width": 4032}], "place_id": "ChIJgQ4AvXd644kR5X834q2UZkA", "plus_code": {"compound_code": "9W2P+HJ Boston, Massachusetts, United States", "global_code": "87JC9W2P+HJ"}, "rating": 3, "reference": "ChIJgQ4AvXd644kR5X834q2UZkA", "scope": "GOOGLE", "types": ["point_of_interest", "establishment"], "user_ratings_total": 62, "vicinity": "22 Lagrange Street, Boston"}, "ChIJmXQgvXd644kRIWizee9Es4U": {"geometry": {"location": {"lat": 42.35147970000001, "lng": -71.0633324}, "viewport": {"northeast": {"lat": 42.3528617802915, "lng": -71.0619752697085}, "southwest": {"lat": 42.3501638197085, "lng": -71.0646732302915}}}, "icon": "https://maps.gstatic.com/mapfiles/place_api/icons/generic_business-71.png", "id": "86b865f9758f312bceb822f96e3dce02b0a2dbc5", "name": "Centerfolds Boston", "opening_hours": {"open_now": true}, "photos": [{"height": 1957, "html_attributions": ["<a href=\"https://maps.google.com/maps/contrib/109482314425105557743/photos\">Derek McDermott</a>"], "photo_reference": "CmRaAAAAffijOxXBPVmhojJ8L6m2oFzd-YSO1m7HaPxTubr01igNwibU_0HPujOPMjjFfJB3_ekRY3wM9nKnz0UJCTBSlhdthpI35xkfdofeyAQ31jeVIxy1PtcdYNlaDJHzPH5HEhCrPDu2iPBgL-SMfPDUnUu-GhTBeKJeUD5qoHH1IxzzKk7P0MwZxw", "width": 2083}], "place_id": "ChIJmXQgvXd644kRIWizee9Es4U", "plus_code": {"compound_code": "9W2P+HM Boston, Massachusetts, United States", "global_code": "87JC9W2P+HM"}, "rating": 2.5, "reference": "ChIJmXQgvXd644kRIWizee9Es4U", "scope": "GOOGLE", "types": ["point_of_interest", "establishment"], "user_ratings_total": 51, "vicinity": "12 Lagrange Street, Boston"}, "ChIJVVWVo3d644kRBAy_J_6xPSA": {"geometry": {"location": {"lat": 42.3512038, "lng": -71.0634266}, "viewport": {"northeast": {"lat": 42.3524527802915, "lng": -71.06211071970849}, "southwest": {"lat": 42.3497548197085, "lng": -71.06480868029149}}}, "icon": "https://maps.gstatic.com/mapfiles/place_api/icons/lodging-71.png", "id": "12a5f005beda461c2f11b0b5e92f3223a70a2e86", "name": "\ud558\uc774 \ubcf4\uc2a4\ud134 \ud638\uc2a4\ud154", "place_id": "ChIJVVWVo3d644kRBAy_J_6xPSA", "plus_code": {"compound_code": "9W2P+FJ Boston, Massachusetts, United States", "global_code": "87JC9W2P+FJ"}, "rating": 5, "reference": "ChIJVVWVo3d644kRBAy_J_6xPSA", "scope": "GOOGLE", "types": ["lodging", "point_of_interest", "establishment"], "user_ratings_total": 1, "vicinity": "11-25 Stuart Street, Boston"}, "ChIJGzE9DS1l44kRoOhiASS_fHg": {"geometry": {"location": {"lat": 42.3600825, "lng": -71.0588801}, "viewport": {"northeast": {"lat": 42.40081989999999, "lng": -70.749455}, "southwest": {"lat": 42.22788, "lng": -71.191113}}}, "icon": "https://maps.gstatic.com/mapfiles/place_api/icons/geocode-71.png", "id": "06755c25d2b34d13942a4713971756a55b870ced", "name": "Boston", "photos": [{"height": 3024, "html_attributions": ["<a href=\"https://maps.google.com/maps/contrib/104670289779338733432/photos\">Natalia Zalucean</a>"], "photo_reference": "CmRaAAAANhkdenU_iIw3_GmcJ9JclkyMo13tNAoalA7DzuGLQePHnRrO9SP9zTYtzNT17dIXUlxczyLSx3hnn7dX3oRyMClXwUuKTvj0aPxCnnyn8g3otTD6W6cDNLoYjOTqwpYyEhAZRsH3_-QH7mnlCIVzJA5fGhSLfKNpV1w4qAPkEsUBDhv1OxoBcg", "width": 4032}], "place_id": "ChIJGzE9DS1l44kRoOhiASS_fHg", "reference": "ChIJGzE9DS1l44kRoOhiASS_fHg", "scope": "GOOGLE", "types": ["locality", "political"], "vicinity": "Boston"}}