{"ChIJ8atJSXR644kRQaw2yRw-Jc8": {"geometry": {"location": {"lat": 42.3515045, "lng": -71.06942289999999}, "viewport": {"northeast": {"lat": 42.3528446302915, "lng": -71.0680691697085}, "southwest": {"lat": 42.3501466697085, "lng": -71.07076713029151}}}, "icon": "https://maps.gstatic.com/mapfiles/place_api/icons/geocode-71.png", "id": "0939aac8d864dbc5aa376ad320bf10f7930d5372", "name": "23-79 Park Plaza", "place_id": "ChIJ8atJSXR644kRQaw2yRw-Jc8", "reference": "ChIJ8atJSXR644kRQaw2yRw-Jc8", "scope": "GOOGLE", "types": ["route"], "vicinity": "Boston"}, "ChIJef5jWnR644kRK-Y0IjIXA60": {"geometry": {"location": {"lat": 42.3512639, "lng": -71.069863}, "viewport": {"northeast": {"lat": 42.3526512802915, "lng": -71.0685731697085}, "southwest": {"lat": 42.3499533197085, "lng": -71.0712711302915}}}, "icon": "https://maps.gstatic.com/mapfiles/place_api/icons/shopping-71.png", "id": "3602b166603ad9cd872b5d70bd961f566d57947f", "name": "Kashmir", "photos": [{"height": 289, "html_attributions": ["<a href=\"https://maps.google.com/maps/contrib/106924488634632828464/photos\">mojiz ghayyur</a>"], "photo_reference": "CmRaAAAAb2UOh3XBXZZhhxFB6BpbPFlBgTr-YQ5oYIGsfsIJaXW7gwVe0WtAaizCIVjUXfVOqnEzzItI_uEm7yxaKSZAi2HPxQGMAPC_J-75jAMv5E_R-dLVkcK_qP0e0HIWWQkJEhBtRpYAPG8GKylRzAg_NswlGhTP4FDtpwiDTuQjAwYqdejcOFXMxQ", "width": 800}], "place_id": "ChIJef5jWnR644kRK-Y0IjIXA60", "plus_code": {"compound_code": "9W2J+G3 Boston, Massachusetts, United States", "global_code": "87JC9W2J+G3"}, "reference": "ChIJef5jWnR644kRK-Y0IjIXA60", "scope": "GOOGLE", "types": ["home_goods_store", "store", "point_of_interest", "establishment"], "vicinity": "46 Park Plaza, The Boston Park Plaza Hotel & Towers, Boston"}, "ChIJ-xSOdW5544kR-Qwjsdh99Ms": {"geometry": {"location": {"lat": 42.3512738, "lng": -71.0698192}, "viewport": {"northeast": {"lat": 42.3526670302915, "lng": -71.06853841970849}, "southwest": {"lat": 42.3499690697085, "lng": -71.0712363802915}}}, "icon": "https://maps.gstatic.com/mapfiles/place_api/icons/generic_business-71.png", "id": "89bc941a3889e20683e58ae88280b3e60dd36ad5", "name": "Raymond Law Group LLC", "opening_hours": {"open_now": true}, "place_id": "ChIJ-xSOdW5544kR-Qwjsdh99Ms", "plus_code": {"compound_code": "9W2J+G3 Boston, Massachusetts, United States", "global_code": "87JC9W2J+G3"}, "reference": "ChIJ-xSOdW5544kR-Qwjsdh99Ms", "scope": "GOOGLE", "types": ["lawyer", "point_of_interest", "establishment"], "vicinity": "20 Park Plaza, Boston"}, "ChIJ2dGoT3R644kRspavo9qN9fs": {"geometry": {"location": {"lat": 42.35134079999999, "lng": -71.06964239999999}, "viewport": {"northeast": {"lat": 42.35274988029149, "lng": -71.0683120697085}, "southwest": {"lat": 42.3500519197085, "lng": -71.0710100302915}}}, "icon": "https://maps.gstatic.com/mapfiles/place_api/icons/generic_business-71.png", "id": "a13843ae2efdef983b4ff90301d094f22606f27b", "name": "The Kessler FI Group", "place_id": "ChIJ2dGoT3R644kRspavo9qN9fs", "plus_code": {"compound_code": "9W2J+G4 Boston, Massachusetts, United States", "global_code": "87JC9W2J+G4"}, "reference": "ChIJ2dGoT3R644kRspavo9qN9fs", "scope": "GOOGLE", "types": ["point_of_interest", "establishment"], "vicinity": "20 Park Plaza, Boston"}, "ChIJGzE9DS1l44kRoOhiASS_fHg": {"geometry": {"location": {"lat": 42.3600825, "lng": -71.0588801}, "viewport": {"northeast": {"lat": 42.40081989999999, "lng": -70.749455}, "southwest": {"lat": 42.22788, "lng": -71.191113}}}, "icon": "https://maps.gstatic.com/mapfiles/place_api/icons/geocode-71.png", "id": "06755c25d2b34d13942a4713971756a55b870ced", "name": "Boston", "photos": [{"height": 3024, "html_attributions": ["<a href=\"https://maps.google.com/maps/contrib/104670289779338733432/photos\">Natalia Zalucean</a>"], "photo_reference": "CmRaAAAAMR6nP4CEct0_N3HSOIclO_ftdLCUrDF2Dx0pYJW3CM6OC_mNy-oRY37wgvrDbCtgmhbSinYex0VXlAPKTnyd7e2hvXIhgH3PPK6gbxxuTk6IIbA9R-99yT5f1rfb0USuEhCB7EYoRmtBdxTlj3fxU6I2GhR6TH7YQSk_JmvPcA-F-d0DrqXaEg", "width": 4032}], "place_id": "ChIJGzE9DS1l44kRoOhiASS_fHg", "reference": "ChIJGzE9DS1l44kRoOhiASS_fHg", "scope": "GOOGLE", "types": ["locality", "political"], "vicinity": "Boston"}}