{"ChIJhZirQQB544kRB9LbXEfedZQ": {"geometry": {"location": {"lat": 42.33176419999999, "lng": -71.1211635}, "viewport": {"northeast": {"lat": 42.3518109, "lng": -71.1056969}, "southwest": {"lat": 42.29459689999999, "lng": -71.1789959}}}, "icon": "https://maps.gstatic.com/mapfiles/place_api/icons/geocode-71.png", "id": "92986b2d1f69af2f2a7e29d34ced8adfa8573beb", "name": "Brookline", "photos": [{"height": 651, "html_attributions": ["<a href=\"https://maps.google.com/maps/contrib/114772942214832951419/photos\">Michael Ahn</a>"], "photo_reference": "CmRaAAAAjEY3Y4YCBlxUsp5Vm0lB6rxZxj9MddoOuNdsg_rk87GOhhecxY6DISGwp2wiT8DK_hP72b6Cl3AlF8bBqL_mQe9Hx0Bu17jPqy-Fg2Ak7uk0GkftQtQfQHY-Cq8KeYTuEhD02PILhebkwWk1JAB76o2wGhSQY60t5yDWPP9XOro5NDNdLhNuIw", "width": 1608}], "place_id": "ChIJhZirQQB544kRB9LbXEfedZQ", "reference": "ChIJhZirQQB544kRB9LbXEfedZQ", "scope": "GOOGLE", "types": ["locality", "political"], "vicinity": "Brookline"}, "ChIJz29iD79544kR1jUUHshmH7E": {"geometry": {"location": {"lat": 42.3428838, "lng": -71.1243692}, "viewport": {"northeast": {"lat": 42.3442045302915, "lng": -71.1229693197085}, "southwest": {"lat": 42.3415065697085, "lng": -71.12566728029151}}}, "icon": "https://maps.gstatic.com/mapfiles/place_api/icons/generic_business-71.png", "id": "cf041c8b5b6c4e6919927511927a34173a3ae407", "name": "Art Consulting", "place_id": "ChIJz29iD79544kR1jUUHshmH7E", "plus_code": {"compound_code": "8VVG+57 Brookline, Massachusetts, United States", "global_code": "87JC8VVG+57"}, "reference": "ChIJz29iD79544kR1jUUHshmH7E", "scope": "GOOGLE", "types": ["general_contractor", "point_of_interest", "establishment"], "vicinity": "41 Centre Street # 407, Brookline"}, "ChIJz29iD79544kRp8iRSCvslC0": {"geometry": {"location": {"lat": 42.3428838, "lng": -71.1243692}, "viewport": {"northeast": {"lat": 42.3442045302915, "lng": -71.1229693197085}, "southwest": {"lat": 42.3415065697085, "lng": -71.12566728029151}}}, "icon": "https://maps.gstatic.com/mapfiles/place_api/icons/bank_dollar-71.png", "id": "5989aa8799d439a811e065f0c385aad453fe78dc", "name": "41 Centre Condo Trust", "place_id": "ChIJz29iD79544kRp8iRSCvslC0", "plus_code": {"compound_code": "8VVG+57 Brookline, Massachusetts, United States", "global_code": "87JC8VVG+57"}, "reference": "ChIJz29iD79544kRp8iRSCvslC0", "scope": "GOOGLE", "types": ["bank", "atm", "finance", "point_of_interest", "establishment"], "vicinity": "41 Centre Street, Brookline"}, "ChIJ9-XY-sB544kRJGgMDs-D3aY": {"geometry": {"location": {"lat": 42.3469138, "lng": -71.1240559}, "viewport": {"northeast": {"lat": 42.35169399999999, "lng": -71.11404399999999}, "southwest": {"lat": 42.34146, "lng": -71.135429}}}, "icon": "https://maps.gstatic.com/mapfiles/place_api/icons/geocode-71.png", "id": "c819777f9a6925b36283a116bcb23084c93e1b9b", "name": "North Brookline", "place_id": "ChIJ9-XY-sB544kRJGgMDs-D3aY", "reference": "ChIJ9-XY-sB544kRJGgMDs-D3aY", "scope": "GOOGLE", "types": ["neighborhood", "political"], "vicinity": "Boston"}}