{"ChIJEamCPQt644kRfl0Ohb31cZk": {"geometry": {"location": {"lat": 42.35214249999999, "lng": -71.0747129}, "viewport": {"northeast": {"lat": 42.35349143029149, "lng": -71.0725701}, "southwest": {"lat": 42.35079346970849, "lng": -71.0768557}}}, "icon": "https://maps.gstatic.com/mapfiles/place_api/icons/geocode-71.png", "id": "0eff293535f925241b4c69d0416e1b0f2a4e50e9", "name": "97-9 Public Alley 436", "place_id": "ChIJEamCPQt644kRfl0Ohb31cZk", "reference": "ChIJEamCPQt644kRfl0Ohb31cZk", "scope": "GOOGLE", "types": ["route"], "vicinity": "Boston"}, "ChIJzQArGgt644kR4k-YMslJ8hw": {"geometry": {"location": {"lat": 42.3522196, "lng": -71.0753002}, "viewport": {"northeast": {"lat": 42.3536799302915, "lng": -71.0740059197085}, "southwest": {"lat": 42.3509819697085, "lng": -71.0767038802915}}}, "icon": "https://maps.gstatic.com/mapfiles/place_api/icons/generic_business-71.png", "id": "b8bf6417c2020bde97f72101bb0bdde9b4152507", "name": "Cornelia Dimmitt, PHD", "place_id": "ChIJzQArGgt644kR4k-YMslJ8hw", "plus_code": {"compound_code": "9W2F+VV Boston, Massachusetts, United States", "global_code": "87JC9W2F+VV"}, "reference": "ChIJzQArGgt644kR4k-YMslJ8hw", "scope": "GOOGLE", "types": ["doctor", "health", "point_of_interest", "establishment"], "vicinity": "80 Commonwealth Avenue, Boston"}, "ChIJaZjMGQt644kRxEJHjqbTsNI": {"geometry": {"location": {"lat": 42.3522535, "lng": -71.07515240000001}, "viewport": {"northeast": {"lat": 42.35371638029149, "lng": -71.07385936970849}, "southwest": {"lat": 42.3510184197085, "lng": -71.0765573302915}}}, "icon": "https://maps.gstatic.com/mapfiles/place_api/icons/generic_business-71.png", "id": "75e03f5edb350d2f51616cb8401e7f318e7909f2", "name": "74 Commav LLC", "place_id": "ChIJaZjMGQt644kRxEJHjqbTsNI", "plus_code": {"compound_code": "9W2F+WW Boston, Massachusetts, United States", "global_code": "87JC9W2F+WW"}, "reference": "ChIJaZjMGQt644kRxEJHjqbTsNI", "scope": "GOOGLE", "types": ["lawyer", "point_of_interest", "establishment"], "vicinity": "76 Commonwealth Avenue, Boston"}, "ChIJGzE9DS1l44kRoOhiASS_fHg": {"geometry": {"location": {"lat": 42.3600825, "lng": -71.0588801}, "viewport": {"northeast": {"lat": 42.40081989999999, "lng": -70.749455}, "southwest": {"lat": 42.22788, "lng": -71.191113}}}, "icon": "https://maps.gstatic.com/mapfiles/place_api/icons/geocode-71.png", "id": "06755c25d2b34d13942a4713971756a55b870ced", "name": "Boston", "photos": [{"height": 3024, "html_attributions": ["<a href=\"https://maps.google.com/maps/contrib/104670289779338733432/photos\">Natalia Zalucean</a>"], "photo_reference": "CmRaAAAAptdfuv8L56m1CUUuuDMu_wEJjtx7v_cIOtTBhyklPbUstsDDLlEhccAxzpHtBQoZb7_YPJAP174OiPC2pHnpjC9k6CVDZ7dZA-JLN-MDZhsz_21NaBJn4Miy0LzPnGnzEhD1B5mQ7ZbOh-d3qHIVRADpGhShIUY9m_JkI-o_yrPclVmlJvDsyQ", "width": 4032}], "place_id": "ChIJGzE9DS1l44kRoOhiASS_fHg", "reference": "ChIJGzE9DS1l44kRoOhiASS_fHg", "scope": "GOOGLE", "types": ["locality", "political"], "vicinity": "Boston"}}