{"ChIJ3acR049w44kRtDl2rpfjXKM": {"geometry": {"location": {"lat": 42.3645533, "lng": -71.0611242}, "viewport": {"northeast": {"lat": 42.3659047302915, "lng": -71.05977106970849}, "southwest": {"lat": 42.3632067697085, "lng": -71.0624690302915}}}, "icon": "https://maps.gstatic.com/mapfiles/place_api/icons/geocode-71.png", "id": "0bcaecafb61a6338c93447af0e87cb90fb90ceb5", "name": "298-202 Friend St", "place_id": "ChIJ3acR049w44kRtDl2rpfjXKM", "reference": "ChIJ3acR049w44kRtDl2rpfjXKM", "scope": "GOOGLE", "types": ["route"], "vicinity": "Boston"}, "ChIJKUAu0o9w44kRFzYO6XO1u3g": {"geometry": {"location": {"lat": 42.3643533, "lng": -71.0611096}, "viewport": {"northeast": {"lat": 42.3657405302915, "lng": -71.05969836970849}, "southwest": {"lat": 42.3630425697085, "lng": -71.06239633029149}}}, "icon": "https://maps.gstatic.com/mapfiles/place_api/icons/lodging-71.png", "id": "7c6f065a76c2e713f8320c92dda8f1db4fd14cfc", "name": "Friend Street Hostel", "photos": [{"height": 2048, "html_attributions": ["<a href=\"https://maps.google.com/maps/contrib/108368748710709613219/photos\">Friend Street Hostel</a>"], "photo_reference": "CmRaAAAATQ8GDE0e23_9p4iiH5FQz_KPCPmf3_1eVTkkUyf_MY-i4Hy-NCJq9S3-ehdX8MGKvYGHsiuG-yLh4n62WrQsSRpnJ5rUsFy9gqod7k9-wVJvBOnX2QR3OcfRulzt8Sp1EhBVCH2VAA53Jv4K2ZUoNJMYGhQlveZTz1SSRGCt2JK46NkLwd8x7A", "width": 1536}], "place_id": "ChIJKUAu0o9w44kRFzYO6XO1u3g", "plus_code": {"compound_code": "9W7Q+PH Boston, Massachusetts, United States", "global_code": "87JC9W7Q+PH"}, "rating": 2.9, "reference": "ChIJKUAu0o9w44kRFzYO6XO1u3g", "scope": "GOOGLE", "types": ["lodging", "point_of_interest", "establishment"], "user_ratings_total": 29, "vicinity": "234 Friend Street, Boston"}, "ChIJLSWl1I9w44kRhqDcgiagYGk": {"geometry": {"location": {"lat": 42.3645781, "lng": -71.0614196}, "viewport": {"northeast": {"lat": 42.3659870302915, "lng": -71.0599744697085}, "southwest": {"lat": 42.3632890697085, "lng": -71.0626724302915}}}, "icon": "https://maps.gstatic.com/mapfiles/place_api/icons/bar-71.png", "id": "fcc5c4cc7cc726708c74a1cc3007fb9cbc484f66", "name": "The Greatest Bar", "opening_hours": {"open_now": true}, "photos": [{"height": 3036, "html_attributions": ["<a href=\"https://maps.google.com/maps/contrib/103210425075150008033/photos\">Thomas Langerak</a>"], "photo_reference": "CmRZAAAArBLPGB7bnOkjU6nM7EyhpDbhcPjURv9XdehUVFCdNBM6F_Ga7cfgB99_xC4hEjnCsNQKG-YBp7cawU7tjbulHMaAnk19mz7FWirfRK7ccQXuUENjx1dsE5-tGCijS14CEhBwyajo64KWxh2kgvZsjlaaGhRv62dheQ_Ojq2GirFCZ5XESP53lA", "width": 4048}], "place_id": "ChIJLSWl1I9w44kRhqDcgiagYGk", "plus_code": {"compound_code": "9W7Q+RC Boston, Massachusetts, United States", "global_code": "87JC9W7Q+RC"}, "price_level": 2, "rating": 3.8, "reference": "ChIJLSWl1I9w44kRhqDcgiagYGk", "scope": "GOOGLE", "types": ["bar", "night_club", "restaurant", "point_of_interest", "food", "establishment"], "user_ratings_total": 377, "vicinity": "262 Friend Street, Boston"}, "ChIJnfub1I9w44kRDrJsD5lV4mw": {"geometry": {"location": {"lat": 42.3645443, "lng": -71.06145339999999}, "viewport": {"northeast": {"lat": 42.3659549302915, "lng": -71.0600041197085}, "southwest": {"lat": 42.3632569697085, "lng": -71.0627020802915}}}, "icon": "https://maps.gstatic.com/mapfiles/place_api/icons/generic_business-71.png", "id": "cb490fb21f0d5da41e676f33fc6df133a96b4421", "name": "skeeBOSTON", "opening_hours": {"open_now": false}, "photos": [{"height": 1536, "html_attributions": ["<a href=\"https://maps.google.com/maps/contrib/117128952112295181347/photos\">skeeBOSTON</a>"], "photo_reference": "CmRaAAAAuZ0MgFNQX8ebxlM1KbW3KOGkn58A0aIns1Tc7EGijSLiPj10lejBo8F2QapkDh9RGfvq0uXdNiXwXMi-N5VmXjdbE_43sLybF7WEMZOd6qxG0M7CjO2_MKkjHMyS7EY1EhCarI01OIwwFpg2y4IuAk3wGhTo5jTT9kgLxNen9Oaz_qlTtFT9zw", "width": 2048}], "place_id": "ChIJnfub1I9w44kRDrJsD5lV4mw", "plus_code": {"compound_code": "9W7Q+RC Boston, Massachusetts, United States", "global_code": "87JC9W7Q+RC"}, "rating": 5, "reference": "ChIJnfub1I9w44kRDrJsD5lV4mw", "scope": "GOOGLE", "types": ["point_of_interest", "food", "establishment"], "user_ratings_total": 36, "vicinity": "262 Friend Street, Boston"}, "ChIJ6Syc049w44kRgdfy5qdHjxs": {"geometry": {"location": {"lat": 42.3644949, "lng": -71.0613345}, "viewport": {"northeast": {"lat": 42.36589403029149, "lng": -71.0599039197085}, "southwest": {"lat": 42.36319606970849, "lng": -71.06260188029151}}}, "icon": "https://maps.gstatic.com/mapfiles/place_api/icons/restaurant-71.png", "id": "ca7e3abbbd7f4c8a1653f775a31813a539169468", "name": "West End Pizza", "opening_hours": {"open_now": false}, "photos": [{"height": 3120, "html_attributions": ["<a href=\"https://maps.google.com/maps/contrib/118366960396286562471/photos\">Michael Laferriere</a>"], "photo_reference": "CmRaAAAAqotNE3uJY5I1vQCgsSIG0axtR-yopez4QkxH85KPDGW1-awAkxQGS2z9e06XWB_SZbzbj00UF6WG7ZVZvwa296-tk3VfHYQHcBHtPIv-V8bWlYztzcn1i25I0Yz7RyqlEhDPX_tj9RKa9E9Ocy5YvVXZGhRrpj7iLWJWbyLWPd1ft9EI-njZFg", "width": 4160}], "place_id": "ChIJ6Syc049w44kRgdfy5qdHjxs", "plus_code": {"compound_code": "9W7Q+QF Boston, Massachusetts, United States", "global_code": "87JC9W7Q+QF"}, "rating": 3.7, "reference": "ChIJ6Syc049w44kRgdfy5qdHjxs", "scope": "GOOGLE", "types": ["restaurant", "point_of_interest", "food", "establishment"], "user_ratings_total": 18, "vicinity": "252 Friend Street, Boston"}, "ChIJAaUH7yGC44kR8W4MHNhhzW8": {"geometry": {"location": {"lat": 42.364563, "lng": -71.061223}, "viewport": {"northeast": {"lat": 42.3659237802915, "lng": -71.05985481970849}, "southwest": {"lat": 42.3632258197085, "lng": -71.06255278029151}}}, "icon": "https://maps.gstatic.com/mapfiles/place_api/icons/generic_business-71.png", "id": "861ca5b22afa84aa8882c2d27321596e7198b561", "name": "West End HVAC Solutions", "opening_hours": {"open_now": true}, "photos": [{"height": 459, "html_attributions": ["<a href=\"https://maps.google.com/maps/contrib/101302774975110034695/photos\">West End HVAC Solutions</a>"], "photo_reference": "CmRaAAAAHtjp8fQkpLPd9_LnpkjQva16AadVPfxNYmWYPgI1QCrArxxR9n_bF2u5Epwvb_rHMyFJj4VfecJEjAYS1znrfNoUpXkA2YYt3jP_KQvfjcyUVvRj0iKBvIsZK-H6fkWREhA8jTqoHudjGGhqEiAWUslvGhT7TcHqW_fbQEY4lco8hNYWWjTsbw", "width": 612}], "place_id": "ChIJAaUH7yGC44kR8W4MHNhhzW8", "plus_code": {"compound_code": "9W7Q+RG Boston, Massachusetts, United States", "global_code": "87JC9W7Q+RG"}, "rating": 5, "reference": "ChIJAaUH7yGC44kR8W4MHNhhzW8", "scope": "GOOGLE", "types": ["general_contractor", "point_of_interest", "establishment"], "user_ratings_total": 7, "vicinity": "254 Friend Street, Boston"}, "ChIJ26Zk0Y9w44kRWpdOVdNox9s": {"geometry": {"location": {"lat": 42.3643815, "lng": -71.0611558}, "viewport": {"northeast": {"lat": 42.3657713802915, "lng": -71.05974031970848}, "southwest": {"lat": 42.3630734197085, "lng": -71.0624382802915}}}, "icon": "https://maps.gstatic.com/mapfiles/place_api/icons/generic_business-71.png", "id": "aaeeae4f0077c78be823b12bcc5ab8aef8caf20f", "name": "230 Friend St Parking", "place_id": "ChIJ26Zk0Y9w44kRWpdOVdNox9s", "plus_code": {"compound_code": "9W7Q+QG Boston, Massachusetts, United States", "global_code": "87JC9W7Q+QG"}, "reference": "ChIJ26Zk0Y9w44kRWpdOVdNox9s", "scope": "GOOGLE", "types": ["parking", "point_of_interest", "establishment"], "vicinity": "230 Friend St, Boston"}, "ChIJGzE9DS1l44kRoOhiASS_fHg": {"geometry": {"location": {"lat": 42.3600825, "lng": -71.0588801}, "viewport": {"northeast": {"lat": 42.40081989999999, "lng": -70.749455}, "southwest": {"lat": 42.22788, "lng": -71.191113}}}, "icon": "https://maps.gstatic.com/mapfiles/place_api/icons/geocode-71.png", "id": "06755c25d2b34d13942a4713971756a55b870ced", "name": "Boston", "photos": [{"height": 3024, "html_attributions": ["<a href=\"https://maps.google.com/maps/contrib/104670289779338733432/photos\">Natalia Zalucean</a>"], "photo_reference": "CmRaAAAAcSE_zO9U-_ttbyKAQ82zrjGUUEama2Q6212dj6iKULRO8nvzjtwhaccIcTyO5oW0OPo2W3YD8jjYWJeBwZ_AZPj7N1p225Zv2E1SzyCGHxSe760aXGJ_Ok2UO0ObIpf3EhB0EErFef0-2ygCFJwzbGyeGhQ8ytm_5HVfnMfaLSIJQjIXUytWIQ", "width": 4032}], "place_id": "ChIJGzE9DS1l44kRoOhiASS_fHg", "reference": "ChIJGzE9DS1l44kRoOhiASS_fHg", "scope": "GOOGLE", "types": ["locality", "political"], "vicinity": "Boston"}}