{"ChIJ6ZO02J5w44kRqiVsk0LWOQE": {"geometry": {"location": {"lat": 42.3582707, "lng": -71.0705631}, "viewport": {"northeast": {"lat": 42.35963033029149, "lng": -71.0691550197085}, "southwest": {"lat": 42.3569323697085, "lng": -71.07185298029151}}}, "icon": "https://maps.gstatic.com/mapfiles/place_api/icons/geocode-71.png", "id": "b2fd73e62e6bb546144bd1d39c49093d490e88ea", "name": "102-68 Charles St", "place_id": "ChIJ6ZO02J5w44kRqiVsk0LWOQE", "reference": "ChIJ6ZO02J5w44kRqiVsk0LWOQE", "scope": "GOOGLE", "types": ["route"], "vicinity": "Boston"}, "ChIJN1bx155w44kRqFpPRieCW1o": {"geometry": {"location": {"lat": 42.35859480000001, "lng": -71.0705081}, "viewport": {"northeast": {"lat": 42.3599386302915, "lng": -71.0692547197085}, "southwest": {"lat": 42.3572406697085, "lng": -71.0719526802915}}}, "icon": "https://maps.gstatic.com/mapfiles/place_api/icons/restaurant-71.png", "id": "084240658a291652a796a8f89db57076ebd3eb8d", "name": "Artu On Charles Street", "opening_hours": {"open_now": true}, "photos": [{"height": 1365, "html_attributions": ["<a href=\"https://maps.google.com/maps/contrib/104111246635874032234/photos\">ZAGAT</a>"], "photo_reference": "CmRaAAAA5iR3pnsoJz8tmbu4_vUprRy_ez3gAoLJGWbZqcIO3bRr1hzIy0PcMTECaBdtxZDQHBuQ8EgNhizZBsLzP-iC4b2feNlLHucBzAd-JaZJvy7-7IbzOKaCHjUC5bjr5QPhEhDe3zeuc1q7f0_9fwCn9wQvGhQlAq0hXLnjucokqpFeOpEJiovT5A", "width": 2048}], "place_id": "ChIJN1bx155w44kRqFpPRieCW1o", "plus_code": {"compound_code": "9W5H+CQ Boston, Massachusetts, United States", "global_code": "87JC9W5H+CQ"}, "price_level": 2, "rating": 3.9, "reference": "ChIJN1bx155w44kRqFpPRieCW1o", "scope": "GOOGLE", "types": ["restaurant", "point_of_interest", "food", "establishment"], "user_ratings_total": 77, "vicinity": "89 Charles Street, Boston"}, "ChIJmd4jKJ9w44kRTuqJXPQlnSY": {"geometry": {"location": {"lat": 42.358685, "lng": -71.0705}, "viewport": {"northeast": {"lat": 42.3600283302915, "lng": -71.06925506970849}, "southwest": {"lat": 42.35733036970851, "lng": -71.0719530302915}}}, "icon": "https://maps.gstatic.com/mapfiles/place_api/icons/shopping-71.png", "id": "eb15cef40f75ddd96be7069576a200671d6e5c54", "name": "Beacon Hill Chocolates", "opening_hours": {"open_now": true}, "photos": [{"height": 3024, "html_attributions": ["<a href=\"https://maps.google.com/maps/contrib/107889202509790608410/photos\">Daniel Oberman</a>"], "photo_reference": "CmRaAAAAdkc1jgDeM8ZO-B-Mp-E5DgmXk10eAt2qnuaQS08HBqyNhbcxNm-xPsceFpy6FGRYkMyu7SYiWgEi2nC9tJqnk2pXvqxJV9saVLWm8fqkfHR_WAqmZPyUo3AMszfVOfyjEhC8s1h9vViCXt0DFQ_3CP1UGhTDAzGcKV_xYIu4TYZyenNkjVZl5Q", "width": 4032}], "place_id": "ChIJmd4jKJ9w44kRTuqJXPQlnSY", "plus_code": {"compound_code": "9W5H+FR Boston, Massachusetts, United States", "global_code": "87JC9W5H+FR"}, "price_level": 2, "rating": 4.6, "reference": "ChIJmd4jKJ9w44kRTuqJXPQlnSY", "scope": "GOOGLE", "types": ["store", "point_of_interest", "food", "establishment"], "user_ratings_total": 44, "vicinity": "91 Charles Street, Boston"}, "ChIJOQ4w1p5w44kRR8Vuo-nv6pQ": {"geometry": {"location": {"lat": 42.358743, "lng": -71.070516}, "viewport": {"northeast": {"lat": 42.36010913029151, "lng": -71.0691679197085}, "southwest": {"lat": 42.35741116970851, "lng": -71.07186588029151}}}, "icon": "https://maps.gstatic.com/mapfiles/place_api/icons/generic_business-71.png", "id": "28f25935f0ee84fb925e1cca713de9d574e52633", "name": "Adela's Hair Studio", "opening_hours": {"open_now": true}, "photos": [{"height": 960, "html_attributions": ["<a href=\"https://maps.google.com/maps/contrib/109777251225514781633/photos\">Adela&#39;s Hair Studio</a>"], "photo_reference": "CmRaAAAAy1m1COaujGxa0X-NaCvOfy_EfODuYrJLJVKhuymWW50yI5rP7CUcYrYu71XUrnlnlDsZOm7TKBXMPZHAA3WydXuTVaMJPZ1RHtQoOAlLjrgDWRnfy0ppcqXWzO1PsTKqEhBZa-Yp0FUVgKG21HTLudEVGhQ_GuLF0_VbO1cfFqhO5B9lNUXx9A", "width": 640}], "place_id": "ChIJOQ4w1p5w44kRR8Vuo-nv6pQ", "plus_code": {"compound_code": "9W5H+FQ Boston, Massachusetts, United States", "global_code": "87JC9W5H+FQ"}, "rating": 4.8, "reference": "ChIJOQ4w1p5w44kRR8Vuo-nv6pQ", "scope": "GOOGLE", "types": ["beauty_salon", "hair_care", "point_of_interest", "establishment"], "user_ratings_total": 31, "vicinity": "92a Pinckney Street, Boston"}, "ChIJQ9P_1Z5w44kRHyWSORiwmKA": {"geometry": {"location": {"lat": 42.358898, "lng": -71.070577}, "viewport": {"northeast": {"lat": 42.3602441802915, "lng": -71.06930276970849}, "southwest": {"lat": 42.3575462197085, "lng": -71.0720007302915}}}, "icon": "https://maps.gstatic.com/mapfiles/place_api/icons/cafe-71.png", "id": "cb98592221a587652e86eb93dbb9ff168ff4c264", "name": "Starbucks", "opening_hours": {"open_now": true}, "photos": [{"height": 664, "html_attributions": ["<a href=\"https://maps.google.com/maps/contrib/111720328111782330733/photos\">Starbucks</a>"], "photo_reference": "CmRaAAAAKEyheHIV0TYe81Zqm78eSkYN55hIGpURqcYJYynP6HDgkBVgvuvwNM2T_vq3OUWgqaQGr6e0-4gJWaw6jYfo6kKcD8ibFKX7L94MGLp5bFew-t7jfnrM9hq7NksjI-M1EhDkYCmTQQ10Pha0jCnkx5Q4GhQy12U9SBj-VOV0D6pQ-Dis-FjOdg", "width": 732}], "place_id": "ChIJQ9P_1Z5w44kRHyWSORiwmKA", "plus_code": {"compound_code": "9W5H+HQ Boston, Massachusetts, United States", "global_code": "87JC9W5H+HQ"}, "price_level": 2, "rating": 4.1, "reference": "ChIJQ9P_1Z5w44kRHyWSORiwmKA", "scope": "GOOGLE", "types": ["cafe", "store", "point_of_interest", "food", "establishment"], "user_ratings_total": 63, "vicinity": "97 Charles Street, Boston"}, "ChIJN1bx155w44kR0BDYx9aHaq0": {"geometry": {"location": {"lat": 42.35859480000001, "lng": -71.0705081}, "viewport": {"northeast": {"lat": 42.3599386302915, "lng": -71.0692547197085}, "southwest": {"lat": 42.3572406697085, "lng": -71.0719526802915}}}, "icon": "https://maps.gstatic.com/mapfiles/place_api/icons/shopping-71.png", "id": "5e3df2bc544bed5a01817594b0aa254abc5132fe", "name": "Elegant Findings Antiques", "opening_hours": {"open_now": false}, "photos": [{"height": 1655, "html_attributions": ["<a href=\"https://maps.google.com/maps/contrib/109063859425300920453/photos\">Elegant Findings Antiques</a>"], "photo_reference": "CmRaAAAAef1t9lgZDW4waFq4KboH8FsSww_MLUesFN8nLSdrXv_-TkE6NtERTyj_9gMSIAqLY_2hSPTx8ecDkSu1-BXhcoBQpEnUXbs9i3b5D5a7Spmyk7G4LmY9pNMVoOtGJbG5EhDBUoGdJilZEqQ1ghzKJgD_GhSG-jLXOm5qBCwBid1okXayVIYHrw", "width": 1909}], "place_id": "ChIJN1bx155w44kR0BDYx9aHaq0", "plus_code": {"compound_code": "9W5H+CQ Boston, Massachusetts, United States", "global_code": "87JC9W5H+CQ"}, "rating": 4.3, "reference": "ChIJN1bx155w44kR0BDYx9aHaq0", "scope": "GOOGLE", "types": ["art_gallery", "home_goods_store", "store", "point_of_interest", "establishment"], "user_ratings_total": 3, "vicinity": "89 Charles Street, Boston"}, "ChIJM1UsKJ9w44kROXG1QvG8V0Y": {"geometry": {"location": {"lat": 42.3587113, "lng": -71.07053669999999}, "viewport": {"northeast": {"lat": 42.3600555802915, "lng": -71.0692748197085}, "southwest": {"lat": 42.3573576197085, "lng": -71.0719727802915}}}, "icon": "https://maps.gstatic.com/mapfiles/place_api/icons/shopping-71.png", "id": "203dfb4cc78f56cd61f316456bd1a365ad6022b3", "name": "Upstairs Downstairs Antiques", "opening_hours": {"open_now": true}, "photos": [{"height": 2269, "html_attributions": ["<a href=\"https://maps.google.com/maps/contrib/116418393196248526187/photos\">Upstairs Downstairs Antiques</a>"], "photo_reference": "CmRaAAAAwQLf2Tv5agA4chLEIFujYcP3WhXuoXdxSW_DYTKCj_Jrc1jtqObLQNHZbJzNR90aRQzCJRJNHwZRWrQZgpysOW3NrKirau5Vt6D2glIxXKblHDk5iBvqwGFoo260eMpcEhDW6MqYpZTQLPAqchSl6wbaGhTw59IqM9P07UaZEs6UavfXCIfG1A", "width": 4032}], "place_id": "ChIJM1UsKJ9w44kROXG1QvG8V0Y", "plus_code": {"compound_code": "9W5H+FQ Boston, Massachusetts, United States", "global_code": "87JC9W5H+FQ"}, "rating": 4.1, "reference": "ChIJM1UsKJ9w44kROXG1QvG8V0Y", "scope": "GOOGLE", "types": ["home_goods_store", "store", "point_of_interest", "establishment"], "user_ratings_total": 9, "vicinity": "93 Charles Street, Boston"}, "ChIJmd4jKJ9w44kRBRdFdt_jpQA": {"geometry": {"location": {"lat": 42.35868019999999, "lng": -71.07059799999999}, "viewport": {"northeast": {"lat": 42.3600261802915, "lng": -71.06930406970848}, "southwest": {"lat": 42.3573282197085, "lng": -71.0720020302915}}}, "icon": "https://maps.gstatic.com/mapfiles/place_api/icons/generic_business-71.png", "id": "cbdd20e858166781b9a3dba541be9188e9924c19", "name": "Pickney Nails", "opening_hours": {"open_now": true}, "photos": [{"height": 1520, "html_attributions": ["<a href=\"https://maps.google.com/maps/contrib/115490932966293255707/photos\">Pickney Nails</a>"], "photo_reference": "CmRaAAAA0SfDHVuCKbFFM3ubK2d5a-fISdQU1f4pLHrpZtHtGe8m1-g67AaIjAANfPwBN-et57r7qjlBPqas_5yS-UoCrIkseBZCedGaJ_KpUGqiTQopaLKoXYZ0oN0WPPLeNlAmEhC4Olgw-1vLcSQRGr5RZjKEGhTq2M2LB5DRPhoMjO4kqeiqS0jPEQ", "width": 2688}], "place_id": "ChIJmd4jKJ9w44kRBRdFdt_jpQA", "plus_code": {"compound_code": "9W5H+FQ Boston, Massachusetts, United States", "global_code": "87JC9W5H+FQ"}, "rating": 4.2, "reference": "ChIJmd4jKJ9w44kRBRdFdt_jpQA", "scope": "GOOGLE", "types": ["beauty_salon", "point_of_interest", "establishment"], "user_ratings_total": 12, "vicinity": "91 Charles Street # B, Boston"}, "ChIJWRAY2J5w44kR0cAZjjfPjE0": {"geometry": {"location": {"lat": 42.35853669999999, "lng": -71.0704885}, "viewport": {"northeast": {"lat": 42.3598575802915, "lng": -71.0692339197085}, "southwest": {"lat": 42.3571596197085, "lng": -71.0719318802915}}}, "icon": "https://maps.gstatic.com/mapfiles/place_api/icons/generic_business-71.png", "id": "b44f1e2d4f3c488155fad2d285fe7ff652a3a117", "name": "Crescent Realty Co Inc", "photos": [{"height": 3465, "html_attributions": ["<a href=\"https://maps.google.com/maps/contrib/107083124356022633431/photos\">Pisang Rebus</a>"], "photo_reference": "CmRaAAAAu5g59teIIIzDFkcZKTCHnMipLJ6UjMmnQpRONvlwDFqUgq7YVhRy4JWVavWAjYcXCYDOi4iKFEeOK8wfQb-PaqJTuvJoeOx1OaIVdwbn0goj9UHC-im_Hj3MjCWrBd3AEhAngbsEkNRZ4Yg0v2sQxXnnGhTdAFjQqRsCNVmnXg55a8mzWvQBrQ", "width": 4617}], "place_id": "ChIJWRAY2J5w44kR0cAZjjfPjE0", "plus_code": {"compound_code": "9W5H+CR Boston, Massachusetts, United States", "global_code": "87JC9W5H+CR"}, "rating": 3.5, "reference": "ChIJWRAY2J5w44kR0cAZjjfPjE0", "scope": "GOOGLE", "types": ["real_estate_agency", "point_of_interest", "establishment"], "user_ratings_total": 2, "vicinity": "85 Charles Street # 1, Boston"}, "ChIJN1bx155w44kRakhP3j8Ke-s": {"geometry": {"location": {"lat": 42.35858899999999, "lng": -71.070566}, "viewport": {"northeast": {"lat": 42.3599343802915, "lng": -71.06928351970849}, "southwest": {"lat": 42.3572364197085, "lng": -71.07198148029151}}}, "icon": "https://maps.gstatic.com/mapfiles/place_api/icons/generic_business-71.png", "id": "cc4484d8dcf9176765f981d99904b1eb9bbade90", "name": "Paper Conservator", "photos": [{"height": 250, "html_attributions": ["<a href=\"https://maps.google.com/maps/contrib/107931144030713055594/photos\">Paper Conservator</a>"], "photo_reference": "CmRaAAAAhU5Uu9RYmFyQuaeeID6wQfF6s5kgPPLOAT2xx4eXqQibbYOujByK57zEhzJN1jQ7AZ0n5jTxlxX02wwFlfo22qY4VBOF_sp-MYR35jRysF7ZjeDQt6aPTn42EyWkYGJEEhAJZCCh6echiBXeA4RJznHOGhR5vmb4qvTSLb07VQTwFoKf4YtPxg", "width": 333}], "place_id": "ChIJN1bx155w44kRakhP3j8Ke-s", "plus_code": {"compound_code": "9W5H+CQ Boston, Massachusetts, United States", "global_code": "87JC9W5H+CQ"}, "reference": "ChIJN1bx155w44kRakhP3j8Ke-s", "scope": "GOOGLE", "types": ["point_of_interest", "establishment"], "vicinity": "4669, 89 Charles Street # 1, Boston"}, "ChIJabx02J5w44kRM__YCxmbCuY": {"geometry": {"location": {"lat": 42.3585054, "lng": -71.0705569}, "viewport": {"northeast": {"lat": 42.3598372302915, "lng": -71.0692655197085}, "southwest": {"lat": 42.3571392697085, "lng": -71.0719634802915}}}, "icon": "https://maps.gstatic.com/mapfiles/place_api/icons/shopping-71.png", "id": "e0a150ed20fc68ce250dc22bed729fb07e0a4a4b", "name": "Fastachi", "opening_hours": {"open_now": true}, "photos": [{"height": 600, "html_attributions": ["<a href=\"https://maps.google.com/maps/contrib/108627713789523745579/photos\">Fastachi</a>"], "photo_reference": "CmRaAAAA1RrHXsjM3aDc9afwddCQPdnfHih3YSBMEEoP_2vh1cqJBjHdy8-9C58v0gVr7ndRwj5Wv1tPKWqaaZVPrVVqaNJ5XXDE9xQRbjSZ67Aq0FGmKgg3ngxdWrQjOoKTWPsgEhA3QR0JulkcOPNf-DI1JK20GhSSxy-B9kwmP5qK5tvsBlz_waJ_7A", "width": 903}], "place_id": "ChIJabx02J5w44kRM__YCxmbCuY", "plus_code": {"compound_code": "9W5H+CQ Boston, Massachusetts, United States", "global_code": "87JC9W5H+CQ"}, "rating": 4.7, "reference": "ChIJabx02J5w44kRM__YCxmbCuY", "scope": "GOOGLE", "types": ["grocery_or_supermarket", "store", "point_of_interest", "food", "establishment"], "user_ratings_total": 12, "vicinity": "83 Charles Street, Boston"}, "ChIJpSz3XRZx44kR-v2YWBJEjds": {"geometry": {"location": {"lat": 42.3587999, "lng": -71.0707389}, "viewport": {"northeast": {"lat": 42.36014798029149, "lng": -71.06941376970849}, "southwest": {"lat": 42.35745001970849, "lng": -71.07211173029151}}}, "icon": "https://maps.gstatic.com/mapfiles/place_api/icons/museum-71.png", "id": "9fb63a816d0910295dc99752cd6828ab7666abd2", "name": "Beacon Hills", "place_id": "ChIJpSz3XRZx44kR-v2YWBJEjds", "plus_code": {"compound_code": "9W5H+GP Boston, Massachusetts, United States", "global_code": "87JC9W5H+GP"}, "reference": "ChIJpSz3XRZx44kR-v2YWBJEjds", "scope": "GOOGLE", "types": ["museum", "point_of_interest", "establishment"], "vicinity": "95-113 Charles Street, Boston"}, "ChIJYbCYJ59w44kRZXqsG1gpQ4E": {"geometry": {"location": {"lat": 42.358482, "lng": -71.0705067}, "viewport": {"northeast": {"lat": 42.35980903029149, "lng": -71.06923146970848}, "southwest": {"lat": 42.35711106970849, "lng": -71.07192943029149}}}, "icon": "https://maps.gstatic.com/mapfiles/place_api/icons/generic_business-71.png", "id": "a00a07010dfed4b75f0dc063666272e6603813d4", "name": "Ann K. Powers, DC", "place_id": "ChIJYbCYJ59w44kRZXqsG1gpQ4E", "plus_code": {"compound_code": "9W5H+9Q Boston, Massachusetts, United States", "global_code": "87JC9W5H+9Q"}, "reference": "ChIJYbCYJ59w44kRZXqsG1gpQ4E", "scope": "GOOGLE", "types": ["health", "point_of_interest", "establishment"], "vicinity": "83 Charles St, Boston, MA 021144608, Boston"}, "ChIJYbCYJ59w44kRdKAh4am_uCI": {"geometry": {"location": {"lat": 42.358482, "lng": -71.0705067}, "viewport": {"northeast": {"lat": 42.35980903029149, "lng": -71.06923146970848}, "southwest": {"lat": 42.35711106970849, "lng": -71.07192943029149}}}, "icon": "https://maps.gstatic.com/mapfiles/place_api/icons/generic_business-71.png", "id": "089521010f777089c1873225c49db58c7326a7b5", "name": "Melissa G. Buffer, MSPT", "place_id": "ChIJYbCYJ59w44kRdKAh4am_uCI", "plus_code": {"compound_code": "9W5H+9Q Boston, Massachusetts, United States", "global_code": "87JC9W5H+9Q"}, "reference": "ChIJYbCYJ59w44kRdKAh4am_uCI", "scope": "GOOGLE", "types": ["physiotherapist", "health", "point_of_interest", "establishment"], "vicinity": "83 Charles St, Boston, MA 021144608, Boston"}, "ChIJYbCYJ59w44kRmvIxPNDJpg0": {"geometry": {"location": {"lat": 42.358482, "lng": -71.0705067}, "viewport": {"northeast": {"lat": 42.35980903029149, "lng": -71.06923146970848}, "southwest": {"lat": 42.35711106970849, "lng": -71.07192943029149}}}, "icon": "https://maps.gstatic.com/mapfiles/place_api/icons/generic_business-71.png", "id": "4ce3b1d2580f55ee139aa7a66682471f80a4fd5c", "name": "Christopher J. Quigley, DC", "place_id": "ChIJYbCYJ59w44kRmvIxPNDJpg0", "plus_code": {"compound_code": "9W5H+9Q Boston, Massachusetts, United States", "global_code": "87JC9W5H+9Q"}, "reference": "ChIJYbCYJ59w44kRmvIxPNDJpg0", "scope": "GOOGLE", "types": ["health", "point_of_interest", "establishment"], "vicinity": "83 Charles St, Boston, MA 021144608, Boston"}, "ChIJGzE9DS1l44kRoOhiASS_fHg": {"geometry": {"location": {"lat": 42.3600825, "lng": -71.0588801}, "viewport": {"northeast": {"lat": 42.40081989999999, "lng": -70.749455}, "southwest": {"lat": 42.22788, "lng": -71.191113}}}, "icon": "https://maps.gstatic.com/mapfiles/place_api/icons/geocode-71.png", "id": "06755c25d2b34d13942a4713971756a55b870ced", "name": "Boston", "photos": [{"height": 3024, "html_attributions": ["<a href=\"https://maps.google.com/maps/contrib/104670289779338733432/photos\">Natalia Zalucean</a>"], "photo_reference": "CmRaAAAAVdNH-9MfviMLc4SkbS8OKN1SoEo8t3nIYpV5N4DVNHPNLzacF7clEuCg9UFYZcyq_M3hgYiSKZQ3jvtxgiOvky2CXnIBQ8Eq4nNGBTYysB5lxguux2wqS-Z4q4tfhipSEhDAmHPmg2ZiXWxiHN0VDVNoGhQRgMMSrS1PsQhwWn7PKnzGIuSoKQ", "width": 4032}], "place_id": "ChIJGzE9DS1l44kRoOhiASS_fHg", "reference": "ChIJGzE9DS1l44kRoOhiASS_fHg", "scope": "GOOGLE", "types": ["locality", "political"], "vicinity": "Boston"}}