{"ChIJQ0sMQYZw44kR_pJcILMrEsc": {"geometry": {"location": {"lat": 42.359696, "lng": -71.054025}, "viewport": {"northeast": {"lat": 42.36104493029149, "lng": -71.0526760197085}, "southwest": {"lat": 42.35834696970849, "lng": -71.0553739802915}}}, "icon": "https://maps.gstatic.com/mapfiles/place_api/icons/geocode-71.png", "id": "d76904e4662be7b0a04099d75c4635c8b8263b6c", "name": "99-47 Chatham St", "place_id": "ChIJQ0sMQYZw44kR_pJcILMrEsc", "reference": "ChIJQ0sMQYZw44kR_pJcILMrEsc", "scope": "GOOGLE", "types": ["route"], "vicinity": "Boston"}, "ChIJb7nX2YVw44kRlKYNN8wkVNQ": {"geometry": {"location": {"lat": 42.3597994, "lng": -71.0545525}, "viewport": {"northeast": {"lat": 42.3612042802915, "lng": -71.05275446970849}, "southwest": {"lat": 42.3585063197085, "lng": -71.05545243029151}}}, "icon": "https://maps.gstatic.com/mapfiles/place_api/icons/shopping-71.png", "id": "b7eee3115413c30bc9360ea77fa9c75d8c8583ce", "name": "Urban Outfitters", "opening_hours": {"open_now": true}, "photos": [{"height": 3120, "html_attributions": ["<a href=\"https://maps.google.com/maps/contrib/102794787572366252332/photos\">Fredwin Burdierd</a>"], "photo_reference": "CmRaAAAA5EqGKz9yYh3aH4Q4_Hv2m6ZcA2C0nHueK2z5HWgPs9xou-R4wu5Ed2-9hEtB_7GXcTkE7NVwiNQYJThTW8ysXkUZPQp08n1m-qJjzY-r3bUbNq2cVpac8KCVOvJSv7gLEhB3EnT8TZRUr5gQ_C61SvogGhScO4DydalmnTIPdywZxcaRKTDl-w", "width": 4160}], "place_id": "ChIJb7nX2YVw44kRlKYNN8wkVNQ", "plus_code": {"compound_code": "9W5W+W5 Boston, Massachusetts, United States", "global_code": "87JC9W5W+W5"}, "price_level": 3, "rating": 3.9, "reference": "ChIJb7nX2YVw44kRlKYNN8wkVNQ", "scope": "GOOGLE", "types": ["clothing_store", "shoe_store", "electronics_store", "home_goods_store", "store", "point_of_interest", "establishment"], "user_ratings_total": 162, "vicinity": "South Market Street, Boston"}, "ChIJb7nX2YVw44kRw41XOaXcNeQ": {"geometry": {"location": {"lat": 42.3598545, "lng": -71.0543447}, "viewport": {"northeast": {"lat": 42.36120348029149, "lng": -71.0529957197085}, "southwest": {"lat": 42.35850551970849, "lng": -71.05569368029151}}}, "icon": "https://maps.gstatic.com/mapfiles/place_api/icons/shopping-71.png", "id": "233cdf132b26899293283ce55ab263a9ae77e446", "name": "Victoria's Secret", "opening_hours": {"open_now": true}, "photos": [{"height": 2592, "html_attributions": ["<a href=\"https://maps.google.com/maps/contrib/111274940159947168216/photos\">Emilio de Jesus</a>"], "photo_reference": "CmRaAAAAA4dFBDtVnzC3r9BMsAdqRXQ1LD85R76THMK9ryjz7a9g2qgK71gnzhgw9iygY4NMglkrN4-eTR9c186lywPmzmMrmh0yKsWfkF60wEu8cO787VbEYXm2RThBtn6zlLdbEhC_lJWHDncEKZLW_a78WcyeGhSkH_iZywoLFkHUMMuJUQnQ5Y9eAg", "width": 4608}], "place_id": "ChIJb7nX2YVw44kRw41XOaXcNeQ", "plus_code": {"compound_code": "9W5W+W7 Boston, Massachusetts, United States", "global_code": "87JC9W5W+W7"}, "price_level": 2, "rating": 4.2, "reference": "ChIJb7nX2YVw44kRw41XOaXcNeQ", "scope": "GOOGLE", "types": ["clothing_store", "store", "point_of_interest", "establishment"], "user_ratings_total": 103, "vicinity": "4 Faneuil Market Place, Boston"}, "ChIJ6z1l3IVw44kR4JT51IiJLNY": {"geometry": {"location": {"lat": 42.35983780000001, "lng": -71.0546518}, "viewport": {"northeast": {"lat": 42.3612633802915, "lng": -71.05331021970848}, "southwest": {"lat": 42.3585654197085, "lng": -71.0560081802915}}}, "icon": "https://maps.gstatic.com/mapfiles/place_api/icons/generic_business-71.png", "id": "30974d6c39e27c1bf98c82b44ddea336b912c171", "name": "Mercatus Llc", "place_id": "ChIJ6z1l3IVw44kR4JT51IiJLNY", "plus_code": {"compound_code": "9W5W+W4 Boston, Massachusetts, United States", "global_code": "87JC9W5W+W4"}, "reference": "ChIJ6z1l3IVw44kR4JT51IiJLNY", "scope": "GOOGLE", "types": ["point_of_interest", "establishment"], "vicinity": "2 South Market Street # 301, Boston"}, "ChIJb7nX2YVw44kRMOTxAjg5ZJA": {"geometry": {"location": {"lat": 42.35983780000001, "lng": -71.0546518}, "viewport": {"northeast": {"lat": 42.3612633802915, "lng": -71.05331021970848}, "southwest": {"lat": 42.3585654197085, "lng": -71.0560081802915}}}, "icon": "https://maps.gstatic.com/mapfiles/place_api/icons/generic_business-71.png", "id": "c7bb4e0bba6fa8644aea9dc6e35b83ecb9884f82", "name": "Umana Law Inc", "place_id": "ChIJb7nX2YVw44kRMOTxAjg5ZJA", "plus_code": {"compound_code": "9W5W+W4 Boston, Massachusetts, United States", "global_code": "87JC9W5W+W4"}, "reference": "ChIJb7nX2YVw44kRMOTxAjg5ZJA", "scope": "GOOGLE", "types": ["lawyer", "point_of_interest", "establishment"], "vicinity": "2 South Market Street # 402, Boston"}, "ChIJb7nX2YVw44kR-AuI1WQoifI": {"geometry": {"location": {"lat": 42.35983780000001, "lng": -71.0546518}, "viewport": {"northeast": {"lat": 42.3612633802915, "lng": -71.05331021970848}, "southwest": {"lat": 42.3585654197085, "lng": -71.0560081802915}}}, "icon": "https://maps.gstatic.com/mapfiles/place_api/icons/generic_business-71.png", "id": "3c29126c9509793f9f34017092fabc469fe3af32", "name": "Contact Networks", "place_id": "ChIJb7nX2YVw44kR-AuI1WQoifI", "plus_code": {"compound_code": "9W5W+W4 Boston, Massachusetts, United States", "global_code": "87JC9W5W+W4"}, "reference": "ChIJb7nX2YVw44kR-AuI1WQoifI", "scope": "GOOGLE", "types": ["point_of_interest", "establishment"], "vicinity": "2 South Market Street # 301, Boston"}, "ChIJsxcLlhl644kRZpX04BcGuVc": {"geometry": {"location": {"lat": 42.3599928, "lng": -71.0543263}, "viewport": {"northeast": {"lat": 42.3613426802915, "lng": -71.05297751970849}, "southwest": {"lat": 42.3586447197085, "lng": -71.0556754802915}}}, "icon": "https://maps.gstatic.com/mapfiles/place_api/icons/generic_business-71.png", "id": "a71f08c944899a180373ac33ac0a66f488bba0b7", "name": "Popular Properties Realty, Inc.", "opening_hours": {"open_now": true}, "photos": [{"height": 683, "html_attributions": ["<a href=\"https://maps.google.com/maps/contrib/106892560971942625815/photos\">Popular Properties Realty, Inc.</a>"], "photo_reference": "CmRaAAAAKcE69g4CuAr6MwKOBUcGpi-4BjU39s1jTZZkuhxDJZWIhpVxePnYioQQYTLiK10fcuR3zVGf91869inJymk7MhyoDI6f1JqHwlQOl9YnFEXDw4sak-I5fsb6wtWgDl5NEhDRv8QG5lOM6nmi0OySilZWGhTGSirRx-BhPpDB7xAHZN5esVAZvA", "width": 1024}], "place_id": "ChIJsxcLlhl644kRZpX04BcGuVc", "plus_code": {"compound_code": "9W5W+X7 Boston, Massachusetts, United States", "global_code": "87JC9W5W+X7"}, "rating": 2.7, "reference": "ChIJsxcLlhl644kRZpX04BcGuVc", "scope": "GOOGLE", "types": ["real_estate_agency", "point_of_interest", "establishment"], "user_ratings_total": 6, "vicinity": "4 South Market Street, Boston"}, "ChIJNxqZFwx644kRXe-aHe0gW5s": {"geometry": {"location": {"lat": 42.3597487, "lng": -71.0544535}, "viewport": {"northeast": {"lat": 42.3612272302915, "lng": -71.05312861970849}, "southwest": {"lat": 42.3585292697085, "lng": -71.05582658029151}}}, "icon": "https://maps.gstatic.com/mapfiles/place_api/icons/generic_business-71.png", "id": "7b2441f2d94eacaa03d91a19d4ed0014d0e85707", "name": "Diacritech", "place_id": "ChIJNxqZFwx644kRXe-aHe0gW5s", "plus_code": {"compound_code": "9W5W+V6 Boston, Massachusetts, United States", "global_code": "87JC9W5W+V6"}, "reference": "ChIJNxqZFwx644kRXe-aHe0gW5s", "scope": "GOOGLE", "types": ["point_of_interest", "establishment"], "vicinity": "4 South Market Street floor 4, Boston"}, "ChIJJdE_cYZw44kRJc11x63PK3U": {"geometry": {"location": {"lat": 42.35999539999999, "lng": -71.05451169999999}, "viewport": {"northeast": {"lat": 42.3613243802915, "lng": -71.0531590197085}, "southwest": {"lat": 42.3586264197085, "lng": -71.05585698029151}}}, "icon": "https://maps.gstatic.com/mapfiles/place_api/icons/generic_business-71.png", "id": "11c11c26b682b7560036292776f28348e9b7697e", "name": "Assette", "place_id": "ChIJJdE_cYZw44kRJc11x63PK3U", "plus_code": {"compound_code": "9W5W+X5 Boston, Massachusetts, United States", "global_code": "87JC9W5W+X5"}, "reference": "ChIJJdE_cYZw44kRJc11x63PK3U", "scope": "GOOGLE", "types": ["point_of_interest", "establishment"], "vicinity": "1 South Market Street, Boston"}, "ChIJYaIiQIZw44kRAYuUuWdPcAI": {"geometry": {"location": {"lat": 42.3599182, "lng": -71.05440639999999}, "viewport": {"northeast": {"lat": 42.36126718029149, "lng": -71.05305741970848}, "southwest": {"lat": 42.35856921970849, "lng": -71.0557553802915}}}, "icon": "https://maps.gstatic.com/mapfiles/place_api/icons/civic_building-71.png", "id": "8b185122323d0d6ec331d03126994673b0ae0f05", "name": "Queen Consulting Group", "opening_hours": {"open_now": true}, "photos": [{"height": 1280, "html_attributions": ["<a href=\"https://maps.google.com/maps/contrib/111496138016012938944/photos\">Queen Consulting Group</a>"], "photo_reference": "CmRaAAAAOVhCi1MmEXPPHW9k3mC4QDDiM5XLnQMHqxv_09VcBK8utI6CvV6I-9BaJ3Q1eWNODWpIaC0FZ-fpTcLQ-0JglIZCNXG2mvjEbXbZiKeBW63MKzoIwzsEwJ6MeX10yMA5EhDNX02cIKu4xl482YnE6-88GhRR8BTMsI6eBr9CKLX-L-KlcJMmlQ", "width": 2048}], "place_id": "ChIJYaIiQIZw44kRAYuUuWdPcAI", "plus_code": {"compound_code": "9W5W+X6 Boston, Massachusetts, United States", "global_code": "87JC9W5W+X6"}, "rating": 4, "reference": "ChIJYaIiQIZw44kRAYuUuWdPcAI", "scope": "GOOGLE", "types": ["point_of_interest", "establishment"], "user_ratings_total": 1, "vicinity": "4 Faneuil Hall Marketplace, Suite 304, Boston"}, "ChIJJ1Sqa4Zw44kR4-dd9pdchy8": {"geometry": {"location": {"lat": 42.3598292, "lng": -71.0544322}, "viewport": {"northeast": {"lat": 42.3612692802915, "lng": -71.05310006970849}, "southwest": {"lat": 42.3585713197085, "lng": -71.05579803029151}}}, "icon": "https://maps.gstatic.com/mapfiles/place_api/icons/restaurant-71.png", "id": "452de8de4055c501616e7351a37105952c8df916", "name": "Mercado faneuil", "place_id": "ChIJJ1Sqa4Zw44kR4-dd9pdchy8", "plus_code": {"compound_code": "9W5W+W6 Boston, Massachusetts, United States", "global_code": "87JC9W5W+W6"}, "reference": "ChIJJ1Sqa4Zw44kR4-dd9pdchy8", "scope": "GOOGLE", "types": ["restaurant", "point_of_interest", "food", "establishment"], "vicinity": "4 South Market Street, Boston"}, "ChIJ77SGEYZw44kRTFSAvtOu-8M": {"geometry": {"location": {"lat": 42.3598284, "lng": -71.0544808}, "viewport": {"northeast": {"lat": 42.36126643029149, "lng": -71.05314841970849}, "southwest": {"lat": 42.3585684697085, "lng": -71.0558463802915}}}, "icon": "https://maps.gstatic.com/mapfiles/place_api/icons/generic_business-71.png", "id": "a2caa120ee2966af6a28983a8dc434a2d5550bfa", "name": "The Law Firm of Matthew H. Feinberg", "opening_hours": {"open_now": true}, "photos": [{"height": 320, "html_attributions": ["<a href=\"https://maps.google.com/maps/contrib/105198201204975107730/photos\">The Law Firm of Matthew H. Feinberg</a>"], "photo_reference": "CmRaAAAAk4Qd7L-CRAMy89SMJMOSeTyZXGMTVxbHYXRBR_QGQzqOVRasqzCWPmmPkMfj27qS9M8Geue-OAADxGwYqW0eAOXtdvbHYP1Zp60uydcNUZATPZZ0ZwmqIR2jkob2687TEhDGUotm3qmpXGPze4fqF1hAGhSSTG4ueMPoya6wbGlCYTYB3U6KIQ", "width": 1303}], "place_id": "ChIJ77SGEYZw44kRTFSAvtOu-8M", "plus_code": {"compound_code": "9W5W+W6 Boston, Massachusetts, United States", "global_code": "87JC9W5W+W6"}, "reference": "ChIJ77SGEYZw44kRTFSAvtOu-8M", "scope": "GOOGLE", "types": ["lawyer", "point_of_interest", "establishment"], "vicinity": "1 South Market Street, Boston"}, "ChIJvbx_QQV644kRT3WCNzfwvS8": {"geometry": {"location": {"lat": 42.359809, "lng": -71.054366}, "viewport": {"northeast": {"lat": 42.3612622802915, "lng": -71.0530363197085}, "southwest": {"lat": 42.3585643197085, "lng": -71.0557342802915}}}, "icon": "https://maps.gstatic.com/mapfiles/place_api/icons/generic_business-71.png", "id": "acfcedb27067250ec42466a44c369e96a59bda8a", "name": "Eat Your Coffee HQ", "photos": [{"height": 809, "html_attributions": ["<a href=\"https://maps.google.com/maps/contrib/116214150116514845211/photos\">Eat Your Coffee HQ</a>"], "photo_reference": "CmRaAAAAs_C60-q4TNUJQXW8_gkaX3IB8UfhOhqfa_Kw9mYkk3K_gUYDKiBrSKkOQZhUAPNKxg13orKNqDJGiNqNEgveO32AsuTaPPxJvoRfggEXDBTdT8ZFa0wgplti3OGfEVbLEhDhs_J5xqBj7SrCUiDwNsv2GhT0n8Wx8g5_kro3KRbPONQOZurr6g", "width": 809}], "place_id": "ChIJvbx_QQV644kRT3WCNzfwvS8", "plus_code": {"compound_code": "9W5W+W7 Boston, Massachusetts, United States", "global_code": "87JC9W5W+W7"}, "reference": "ChIJvbx_QQV644kRT3WCNzfwvS8", "scope": "GOOGLE", "types": ["point_of_interest", "food", "establishment"], "vicinity": "4 South Market Street, Boston"}, "ChIJtbigE4Zw44kRwq4GA03KT04": {"geometry": {"location": {"lat": 42.3597994, "lng": -71.0544602}, "viewport": {"northeast": {"lat": 42.3612527302915, "lng": -71.0531306197085}, "southwest": {"lat": 42.3585547697085, "lng": -71.0558285802915}}}, "icon": "https://maps.gstatic.com/mapfiles/place_api/icons/shopping-71.png", "id": "f47d6f13c028036d46133b4605ee68188f7ff2ca", "name": "Pepper Palace", "opening_hours": {"open_now": true}, "photos": [{"height": 3024, "html_attributions": ["<a href=\"https://maps.google.com/maps/contrib/108649373334445352398/photos\">Elisa Escamilla</a>"], "photo_reference": "CmRaAAAARdGkoeK_6ZnUhfy36FfyVFDHO6-UuJ34ifnJE7hhCfuzUpzyqgSHunUMh6zua-WLkSuf8DLXtq7PLAOXnZ2dmRK6kf47Ad0WiJ-RhJ86vk7ZJE7blFaGwIVpygOB1CkREhBR8EyfkclAIB5G1wROesuPGhTPxw7uXLc-1fAVcHVJUBwB1GqxHQ", "width": 4032}], "place_id": "ChIJtbigE4Zw44kRwq4GA03KT04", "plus_code": {"compound_code": "9W5W+W6 Boston, Massachusetts, United States", "global_code": "87JC9W5W+W6"}, "rating": 4.6, "reference": "ChIJtbigE4Zw44kRwq4GA03KT04", "scope": "GOOGLE", "types": ["store", "point_of_interest", "food", "establishment"], "user_ratings_total": 41, "vicinity": "4 South Market Street #1155, Boston"}, "ChIJ_UGwa4Zw44kRBbOtUTEWrrE": {"geometry": {"location": {"lat": 42.3597994, "lng": -71.0544602}, "viewport": {"northeast": {"lat": 42.3612527302915, "lng": -71.0531306197085}, "southwest": {"lat": 42.3585547697085, "lng": -71.0558285802915}}}, "icon": "https://maps.gstatic.com/mapfiles/place_api/icons/generic_business-71.png", "id": "451ca133fc1a9353affd3ac282ba9690f7fd8072", "name": "Performance Plus", "place_id": "ChIJ_UGwa4Zw44kRBbOtUTEWrrE", "plus_code": {"compound_code": "9W5W+W6 Boston, Massachusetts, United States", "global_code": "87JC9W5W+W6"}, "reference": "ChIJ_UGwa4Zw44kRBbOtUTEWrrE", "scope": "GOOGLE", "types": ["point_of_interest", "establishment"], "vicinity": "4 South Market Street, Boston"}, "ChIJpyiwa4Zw44kRACwsdcdntDo": {"geometry": {"location": {"lat": 42.3597994, "lng": -71.0544602}, "viewport": {"northeast": {"lat": 42.3612059802915, "lng": -71.05271591970849}, "southwest": {"lat": 42.3585080197085, "lng": -71.05541388029151}}}, "icon": "https://maps.gstatic.com/mapfiles/place_api/icons/shopping-71.png", "id": "326737c63478b530ab20a5712f25e2c48d6b3528", "name": "UNOde50", "opening_hours": {"open_now": true}, "photos": [{"height": 3162, "html_attributions": ["<a href=\"https://maps.google.com/maps/contrib/117415159813031598860/photos\">UNOde50</a>"], "photo_reference": "CmRaAAAApJKXRVuw4IDxTwhbnMIjQV8aJfEPw5SBKEOIVhRJZo1MPGzknt07dzNzNPbo2ALr70_bgoVfEqORrApx0gilhFCbWaBzu750TbcAu5qFU2wvRjz9UCC-DaVu3NyNvtNnEhDJJPh6pFOIu1eHpMXGr9SvGhSLrR4VsfGU2fxAda3QV13qD2MwqA", "width": 4743}], "place_id": "ChIJpyiwa4Zw44kRACwsdcdntDo", "plus_code": {"compound_code": "9W5W+W6 Boston, Massachusetts, United States", "global_code": "87JC9W5W+W6"}, "rating": 3, "reference": "ChIJpyiwa4Zw44kRACwsdcdntDo", "scope": "GOOGLE", "types": ["jewelry_store", "store", "point_of_interest", "establishment"], "user_ratings_total": 8, "vicinity": "4 South Market Street, Bay 34, Boston"}, "ChIJ_UGwa4Zw44kREKyrGadOa70": {"geometry": {"location": {"lat": 42.3597994, "lng": -71.0544602}, "viewport": {"northeast": {"lat": 42.3611483802915, "lng": -71.05311121970848}, "southwest": {"lat": 42.3584504197085, "lng": -71.0558091802915}}}, "icon": "https://maps.gstatic.com/mapfiles/place_api/icons/restaurant-71.png", "id": "e465a0134e208709dc19af0efa822678c3af1162", "name": "Cheers", "photos": [{"height": 3016, "html_attributions": ["<a href=\"https://maps.google.com/maps/contrib/106255772545200604106/photos\">Julian Francis</a>"], "photo_reference": "CmRaAAAAEb92X_22hUko4zNct9Zrox3_KrVVNTtBitVUPTeuPzY3_k3Kj6XPxBFyYOYqh-sqxQku_uJD3lGkIqJJ0ksfdQx0H8w-KW1BdQ-g33M6Nru6KDAs2Jh47zfiZKhdNeRwEhBzpof5r_-bzyhjDcAyDgu6GhT6iaV_0Nt2QMKT9oQDnO7KjhfDuw", "width": 4032}], "place_id": "ChIJ_UGwa4Zw44kREKyrGadOa70", "plus_code": {"compound_code": "9W5W+W6 Boston, Massachusetts, United States", "global_code": "87JC9W5W+W6"}, "rating": 4.5, "reference": "ChIJ_UGwa4Zw44kREKyrGadOa70", "scope": "GOOGLE", "types": ["bar", "restaurant", "point_of_interest", "food", "establishment"], "user_ratings_total": 10, "vicinity": "Faneuil Hall Marketplace, Quincy Market, Boston"}, "ChIJb7nX2YVw44kRGeS6P77ZBDU": {"geometry": {"location": {"lat": 42.35983780000001, "lng": -71.0546518}, "viewport": {"northeast": {"lat": 42.3611867802915, "lng": -71.05330281970849}, "southwest": {"lat": 42.3584888197085, "lng": -71.0560007802915}}}, "icon": "https://maps.gstatic.com/mapfiles/place_api/icons/generic_business-71.png", "id": "6d0176da28803df2a6e26abc8bc8ac815f8d5630", "name": "Commercial Realty Advisors", "place_id": "ChIJb7nX2YVw44kRGeS6P77ZBDU", "plus_code": {"compound_code": "9W5W+W4 Boston, Massachusetts, United States", "global_code": "87JC9W5W+W4"}, "reference": "ChIJb7nX2YVw44kRGeS6P77ZBDU", "scope": "GOOGLE", "types": ["real_estate_agency", "point_of_interest", "establishment"], "vicinity": "8 Faneuil Hall Market Pl # 3, Boston"}, "ChIJq6qqapxw44kRWhK6TQECFC8": {"geometry": {"location": {"lat": 42.35983780000001, "lng": -71.0546518}, "viewport": {"northeast": {"lat": 42.3611867802915, "lng": -71.05330281970849}, "southwest": {"lat": 42.3584888197085, "lng": -71.0560007802915}}}, "icon": "https://maps.gstatic.com/mapfiles/place_api/icons/generic_business-71.png", "id": "8579448cf14355f733093db812f67555faca2fd8", "name": "Rescor Communications", "place_id": "ChIJq6qqapxw44kRWhK6TQECFC8", "plus_code": {"compound_code": "9W5W+W4 Boston, Massachusetts, United States", "global_code": "87JC9W5W+W4"}, "reference": "ChIJq6qqapxw44kRWhK6TQECFC8", "scope": "GOOGLE", "types": ["point_of_interest", "establishment"], "vicinity": "Boston"}, "ChIJGzE9DS1l44kRoOhiASS_fHg": {"geometry": {"location": {"lat": 42.3600825, "lng": -71.0588801}, "viewport": {"northeast": {"lat": 42.40081989999999, "lng": -70.749455}, "southwest": {"lat": 42.22788, "lng": -71.191113}}}, "icon": "https://maps.gstatic.com/mapfiles/place_api/icons/geocode-71.png", "id": "06755c25d2b34d13942a4713971756a55b870ced", "name": "Boston", "photos": [{"height": 3024, "html_attributions": ["<a href=\"https://maps.google.com/maps/contrib/104670289779338733432/photos\">Natalia Zalucean</a>"], "photo_reference": "CmRaAAAAYyR_el124E-tWrRyEupzevlRt4EOyeLxzkoYZDu7aOrfnO9n01YnlbQwM8p9upoEkKp6TJZFGuN5Aqq7bzoXPe_qeqNMLoRVF-JJxcXJCn3zTeneqWHZw_6qYuPdyonMEhCeJaCxf6lONyR8f5mR19rbGhRuBi6p5bLZlOcdriG8cggXCgjFng", "width": 4032}], "place_id": "ChIJGzE9DS1l44kRoOhiASS_fHg", "reference": "ChIJGzE9DS1l44kRoOhiASS_fHg", "scope": "GOOGLE", "types": ["locality", "political"], "vicinity": "Boston"}, "ChIJb7nX2YVw44kRmzafS4rk9cU": {"geometry": {"location": {"lat": 42.35983780000001, "lng": -71.0546518}, "viewport": {"northeast": {"lat": 42.3611867802915, "lng": -71.05330281970849}, "southwest": {"lat": 42.3584888197085, "lng": -71.0560007802915}}}, "icon": "https://maps.gstatic.com/mapfiles/place_api/icons/generic_business-71.png", "id": "cf0d806c1f1fa7c17457952ab032c33ea2be45eb", "name": "Preston Marketing", "place_id": "ChIJb7nX2YVw44kRmzafS4rk9cU", "plus_code": {"compound_code": "9W5W+W4 Boston, Massachusetts, United States", "global_code": "87JC9W5W+W4"}, "reference": "ChIJb7nX2YVw44kRmzafS4rk9cU", "scope": "GOOGLE", "types": ["point_of_interest", "establishment"], "vicinity": "8 Faneuil Hall Market Pl # 400, Boston"}, "ChIJ_UGwa4Zw44kRc9_wndR6Dus": {"geometry": {"location": {"lat": 42.35980929999999, "lng": -71.05436569999999}, "viewport": {"northeast": {"lat": 42.3612624302915, "lng": -71.05303601970849}, "southwest": {"lat": 42.3585644697085, "lng": -71.05573398029149}}}, "icon": "https://maps.gstatic.com/mapfiles/place_api/icons/generic_business-71.png", "id": "65b4b00ff7ae87d53f2593474d463e659350db88", "name": "GHBA", "place_id": "ChIJ_UGwa4Zw44kRc9_wndR6Dus", "plus_code": {"compound_code": "9W5W+W7 Boston, Massachusetts, United States", "global_code": "87JC9W5W+W7"}, "reference": "ChIJ_UGwa4Zw44kRc9_wndR6Dus", "scope": "GOOGLE", "types": ["insurance_agency", "point_of_interest", "establishment"], "vicinity": "4 South Market Street, Boston"}, "ChIJZY5ZaoZw44kRJ-JPz9HmpoQ": {"geometry": {"location": {"lat": 42.35980929999999, "lng": -71.05436569999999}, "viewport": {"northeast": {"lat": 42.3612624302915, "lng": -71.05303601970849}, "southwest": {"lat": 42.3585644697085, "lng": -71.05573398029149}}}, "icon": "https://maps.gstatic.com/mapfiles/place_api/icons/generic_business-71.png", "id": "2e0a23b209856b390c606d2baca5ef3ae3ccf741", "name": "Immersive Gaze", "place_id": "ChIJZY5ZaoZw44kRJ-JPz9HmpoQ", "plus_code": {"compound_code": "9W5W+W7 Boston, Massachusetts, United States", "global_code": "87JC9W5W+W7"}, "reference": "ChIJZY5ZaoZw44kRJ-JPz9HmpoQ", "scope": "GOOGLE", "types": ["point_of_interest", "establishment"], "vicinity": "4 South Market Street, Boston"}, "ChIJ_UGwa4Zw44kRmSiOizDVVXc": {"geometry": {"location": {"lat": 42.35980929999999, "lng": -71.05436569999999}, "viewport": {"northeast": {"lat": 42.3612624302915, "lng": -71.05303601970849}, "southwest": {"lat": 42.3585644697085, "lng": -71.05573398029149}}}, "icon": "https://maps.gstatic.com/mapfiles/place_api/icons/generic_business-71.png", "id": "aa990744a806bcbe5e36a7c6711cbad92f695e31", "name": "MedicusTech", "place_id": "ChIJ_UGwa4Zw44kRmSiOizDVVXc", "plus_code": {"compound_code": "9W5W+W7 Boston, Massachusetts, United States", "global_code": "87JC9W5W+W7"}, "reference": "ChIJ_UGwa4Zw44kRmSiOizDVVXc", "scope": "GOOGLE", "types": ["point_of_interest", "establishment"], "vicinity": "4 South Market Street, Boston"}, "ChIJ_UGwa4Zw44kRKoDo63Zw-xc": {"geometry": {"location": {"lat": 42.3597994, "lng": -71.0544602}, "viewport": {"northeast": {"lat": 42.3612527302915, "lng": -71.0531306197085}, "southwest": {"lat": 42.3585547697085, "lng": -71.0558285802915}}}, "icon": "https://maps.gstatic.com/mapfiles/place_api/icons/bar-71.png", "id": "5076500d2710fef6e47b652827303a174d411b7d", "name": "faneniel hall", "photos": [{"height": 4032, "html_attributions": ["<a href=\"https://maps.google.com/maps/contrib/112543991291261716582/photos\">Tammy Stephenson</a>"], "photo_reference": "CmRaAAAAlb445wGMuCA1FE8fABDOnRdfb_4MS5rDBJJXNzl3wBd3b9NaBYLDhPwCNnPydSKaQ8DG2xCod-LW7PBpTwgRrdOqDAqxIeFHaxt5egVn2RfGu8veKjrMncnvUn3JtMzKEhDHfpK89uKI66c0jO52NkmhGhQKgVxdtaj9ZInH6YkOuvs9uS6EMw", "width": 2268}], "place_id": "ChIJ_UGwa4Zw44kRKoDo63Zw-xc", "plus_code": {"compound_code": "9W5W+W6 Boston, Massachusetts, United States", "global_code": "87JC9W5W+W6"}, "rating": 4.4, "reference": "ChIJ_UGwa4Zw44kRKoDo63Zw-xc", "scope": "GOOGLE", "types": ["bar", "point_of_interest", "establishment"], "user_ratings_total": 9, "vicinity": "4S, South Market Street, Boston"}, "ChIJN1dBBKZx44kR4x-cMlvBG9c": {"geometry": {"location": {"lat": 42.359827, "lng": -71.05430900000002}, "viewport": {"northeast": {"lat": 42.36117598029149, "lng": -71.05296001970851}, "southwest": {"lat": 42.3584780197085, "lng": -71.05565798029151}}}, "icon": "https://maps.gstatic.com/mapfiles/place_api/icons/shopping-71.png", "id": "37f4c917775adee4f0a482d85f1bddaeabceae76", "name": "American Rhino", "opening_hours": {"open_now": true}, "photos": [{"height": 520, "html_attributions": ["<a href=\"https://maps.google.com/maps/contrib/108448266861981792187/photos\">Colin Keogh</a>"], "photo_reference": "CmRaAAAAwo8lkrekUFQ1f-GgFG-hw7WnviSTOL4oBzxxeIavca-GcOv0FGECJs6G5LDP4O18mn6giG3Xc5brybgZueHuKiytOHD5fNpHzjnW6iIHePq8oBweIWwVF2uGLgett8qREhBr2jPvDsMFoI3iCi1nOdLXGhSEpkyYZWF2Dbm8IMXACcPziRIFXg", "width": 780}], "place_id": "ChIJN1dBBKZx44kR4x-cMlvBG9c", "plus_code": {"compound_code": "9W5W+W7 Boston, Massachusetts, United States", "global_code": "87JC9W5W+W7"}, "rating": 5, "reference": "ChIJN1dBBKZx44kR4x-cMlvBG9c", "scope": "GOOGLE", "types": ["clothing_store", "store", "point_of_interest", "establishment"], "user_ratings_total": 1, "vicinity": "4 South Market Street First Floor Space 205B, Boston"}, "ChIJq6qq6mFw44kRVuOXEJkqFfc": {"geometry": {"location": {"lat": 42.35982629999999, "lng": -71.0542213}, "viewport": {"northeast": {"lat": 42.36127828029149, "lng": -71.0528914197085}, "southwest": {"lat": 42.3585803197085, "lng": -71.05558938029151}}}, "icon": "https://maps.gstatic.com/mapfiles/place_api/icons/generic_business-71.png", "id": "6e61f9b67b8b436187277f6461639ea9186c03bb", "name": "Project Citizenship", "opening_hours": {"open_now": true}, "place_id": "ChIJq6qq6mFw44kRVuOXEJkqFfc", "plus_code": {"compound_code": "9W5W+W8 Boston, Massachusetts, United States", "global_code": "87JC9W5W+W8"}, "rating": 4.6, "reference": "ChIJq6qq6mFw44kRVuOXEJkqFfc", "scope": "GOOGLE", "types": ["point_of_interest", "establishment"], "user_ratings_total": 11, "vicinity": "Building, 3rd Floor, 4 South Market Street, Boston"}, "ChIJjelMQixx44kR3PUTcZZdgU8": {"geometry": {"location": {"lat": 42.3600202, "lng": -71.054379}, "viewport": {"northeast": {"lat": 42.3613320802915, "lng": -71.05308836970849}, "southwest": {"lat": 42.3586341197085, "lng": -71.05578633029151}}}, "icon": "https://maps.gstatic.com/mapfiles/place_api/icons/generic_business-71.png", "id": "4268f4568f5eec53debfe64e79fee3386754b0dd", "name": "Chargeback Expertz\u2122 Boston", "opening_hours": {"open_now": true}, "place_id": "ChIJjelMQixx44kR3PUTcZZdgU8", "plus_code": {"compound_code": "9W6W+26 Boston, Massachusetts, United States", "global_code": "87JC9W6W+26"}, "rating": 5, "reference": "ChIJjelMQixx44kR3PUTcZZdgU8", "scope": "GOOGLE", "types": ["accounting", "finance", "point_of_interest", "establishment"], "user_ratings_total": 4, "vicinity": "8 Faneuil Hall, South Market Street 3rd Floor, Boston"}, "ChIJaXWKFJBx44kRRai6kmvplt4": {"geometry": {"location": {"lat": 42.3600202, "lng": -71.054379}, "viewport": {"northeast": {"lat": 42.3613691802915, "lng": -71.05303001970849}, "southwest": {"lat": 42.3586712197085, "lng": -71.0557279802915}}}, "icon": "https://maps.gstatic.com/mapfiles/place_api/icons/generic_business-71.png", "id": "525053fdb2e65eecfe6e845a4cb2b84a09892d6d", "name": "Merchant Stronghold\u2122 Boston", "opening_hours": {"open_now": true}, "place_id": "ChIJaXWKFJBx44kRRai6kmvplt4", "plus_code": {"compound_code": "9W6W+26 Boston, Massachusetts, United States", "global_code": "87JC9W6W+26"}, "rating": 5, "reference": "ChIJaXWKFJBx44kRRai6kmvplt4", "scope": "GOOGLE", "types": ["point_of_interest", "establishment"], "user_ratings_total": 4, "vicinity": "8 Faneuil Hall Market Place 3rd Floor, Boston"}, "ChIJbaW_ZSJx44kRMHbUjrCR4GY": {"geometry": {"location": {"lat": 42.3600202, "lng": -71.054379}, "viewport": {"northeast": {"lat": 42.3613320802915, "lng": -71.05308836970849}, "southwest": {"lat": 42.3586341197085, "lng": -71.05578633029151}}}, "icon": "https://maps.gstatic.com/mapfiles/place_api/icons/generic_business-71.png", "id": "9c9008fc67b91bd6446a32868ec4b00053f64999", "name": "SSL Street\u2122 Boston", "place_id": "ChIJbaW_ZSJx44kRMHbUjrCR4GY", "plus_code": {"compound_code": "9W6W+26 Boston, Massachusetts, United States", "global_code": "87JC9W6W+26"}, "rating": 5, "reference": "ChIJbaW_ZSJx44kRMHbUjrCR4GY", "scope": "GOOGLE", "types": ["point_of_interest", "establishment"], "user_ratings_total": 2, "vicinity": "8 Faneuil Hall, South Market Street 3rd Floor, Boston"}, "ChIJZadxVJtx44kRbaV7NSSbd-c": {"geometry": {"location": {"lat": 42.3600202, "lng": -71.054379}, "viewport": {"northeast": {"lat": 42.3613320802915, "lng": -71.05308836970849}, "southwest": {"lat": 42.3586341197085, "lng": -71.05578633029151}}}, "icon": "https://maps.gstatic.com/mapfiles/place_api/icons/generic_business-71.png", "id": "e341bea4780ef314ecd8b47d5e14bc502d0cc2b6", "name": "Consumer Approach", "opening_hours": {"open_now": true}, "place_id": "ChIJZadxVJtx44kRbaV7NSSbd-c", "plus_code": {"compound_code": "9W6W+26 Boston, Massachusetts, United States", "global_code": "87JC9W6W+26"}, "rating": 5, "reference": "ChIJZadxVJtx44kRbaV7NSSbd-c", "scope": "GOOGLE", "types": ["point_of_interest", "establishment"], "user_ratings_total": 3, "vicinity": "8 Faneuil Hall, South Market Street 3rd Floor, Boston"}, "ChIJKxYlFYZw44kRnHTMiXzLtY0": {"geometry": {"location": {"lat": 42.3600202, "lng": -71.054379}, "viewport": {"northeast": {"lat": 42.3613320802915, "lng": -71.05308836970849}, "southwest": {"lat": 42.3586341197085, "lng": -71.05578633029151}}}, "icon": "https://maps.gstatic.com/mapfiles/place_api/icons/generic_business-71.png", "id": "2a2d26a8cc2cf73df3404c78c0139dfa6f4f9a13", "name": "CYj", "place_id": "ChIJKxYlFYZw44kRnHTMiXzLtY0", "plus_code": {"compound_code": "9W6W+26 Boston, Massachusetts, United States", "global_code": "87JC9W6W+26"}, "reference": "ChIJKxYlFYZw44kRnHTMiXzLtY0", "scope": "GOOGLE", "types": ["travel_agency", "point_of_interest", "establishment"], "vicinity": "South Market Street, Boston"}, "ChIJ7x9TbsZx44kRPA7SfyygU5Q": {"geometry": {"location": {"lat": 42.3600202, "lng": -71.054379}, "viewport": {"northeast": {"lat": 42.3613691802915, "lng": -71.05303001970849}, "southwest": {"lat": 42.3586712197085, "lng": -71.0557279802915}}}, "icon": "https://maps.gstatic.com/mapfiles/place_api/icons/civic_building-71.png", "id": "46f3ab820cf2b288ec0428f1c7b0a968268a16d7", "name": "Roessel Joy LLC", "opening_hours": {"open_now": true}, "place_id": "ChIJ7x9TbsZx44kRPA7SfyygU5Q", "plus_code": {"compound_code": "9W6W+26 Boston, Massachusetts, United States", "global_code": "87JC9W6W+26"}, "rating": 1, "reference": "ChIJ7x9TbsZx44kRPA7SfyygU5Q", "scope": "GOOGLE", "types": ["point_of_interest", "establishment"], "user_ratings_total": 1, "vicinity": "8 Faneuil Hall Market Place #3rd Fl, Boston"}, "ChIJb7nX2YVw44kRR3Dx2dy_fxI": {"geometry": {"location": {"lat": 42.35983780000001, "lng": -71.0546518}, "viewport": {"northeast": {"lat": 42.3611867802915, "lng": -71.05330281970849}, "southwest": {"lat": 42.3584888197085, "lng": -71.0560007802915}}}, "icon": "https://maps.gstatic.com/mapfiles/place_api/icons/generic_business-71.png", "id": "917a936346a21104a322a011e1a85e9d7c414f77", "name": "Driscoll Daniel", "place_id": "ChIJb7nX2YVw44kRR3Dx2dy_fxI", "plus_code": {"compound_code": "9W5W+W4 Boston, Massachusetts, United States", "global_code": "87JC9W5W+W4"}, "reference": "ChIJb7nX2YVw44kRR3Dx2dy_fxI", "scope": "GOOGLE", "types": ["lawyer", "point_of_interest", "establishment"], "vicinity": "8 Faneuil Hall Market Pl # 300, Boston"}, "ChIJs3iYcS1444kRAMemFv9e9R8": {"geometry": {"location": {"lat": 42.35983780000001, "lng": -71.0546518}, "viewport": {"northeast": {"lat": 42.3612633802915, "lng": -71.05331021970848}, "southwest": {"lat": 42.3585654197085, "lng": -71.0560081802915}}}, "icon": "https://maps.gstatic.com/mapfiles/place_api/icons/generic_business-71.png", "id": "1299b7be378c096536ffadb58325380bcb6811a2", "name": "Gunn Partners Inc", "place_id": "ChIJs3iYcS1444kRAMemFv9e9R8", "plus_code": {"compound_code": "9W5W+W4 Boston, Massachusetts, United States", "global_code": "87JC9W5W+W4"}, "reference": "ChIJs3iYcS1444kRAMemFv9e9R8", "scope": "GOOGLE", "types": ["point_of_interest", "establishment"], "vicinity": "2 South Market Street, Boston"}, "ChIJsYtbaoZw44kRCvOeaeP6pu8": {"geometry": {"location": {"lat": 42.35980850000001, "lng": -71.0546618}, "viewport": {"northeast": {"lat": 42.3612484302915, "lng": -71.0533216197085}, "southwest": {"lat": 42.3585504697085, "lng": -71.0560195802915}}}, "icon": "https://maps.gstatic.com/mapfiles/place_api/icons/generic_business-71.png", "id": "97f2f205faf60a805001302113965f0916605ecb", "name": "CraveLabs", "place_id": "ChIJsYtbaoZw44kRCvOeaeP6pu8", "plus_code": {"compound_code": "9W5W+W4 Boston, Massachusetts, United States", "global_code": "87JC9W5W+W4"}, "reference": "ChIJsYtbaoZw44kRCvOeaeP6pu8", "scope": "GOOGLE", "types": ["point_of_interest", "establishment"], "vicinity": "4 floor, 4 South Market Street, Boston"}}