{"ChIJGzE9DS1l44kRoOhiASS_fHg": {"geometry": {"location": {"lat": 42.3600825, "lng": -71.0588801}, "viewport": {"northeast": {"lat": 42.40081989999999, "lng": -70.749455}, "southwest": {"lat": 42.22788, "lng": -71.191113}}}, "icon": "https://maps.gstatic.com/mapfiles/place_api/icons/geocode-71.png", "id": "06755c25d2b34d13942a4713971756a55b870ced", "name": "Boston", "photos": [{"height": 3024, "html_attributions": ["<a href=\"https://maps.google.com/maps/contrib/104670289779338733432/photos\">Natalia Zalucean</a>"], "photo_reference": "CmRaAAAAAJmGY_glQKObK1Q8FXqHg1_O4p1MtsP26AmUzUtb87Y-b24Gf87-rQBkDdHW5LJX18MCx4mK_PN39ztgCJJtunTem_UeJd9i8YIaxEaIYUIqeGxSiXsKOjl_opp1mxAyEhBY2fIxd4UOm8zOoAVtLlwHGhSOlmB993CrwLBuxOcCujBK1K1WGg", "width": 4032}], "place_id": "ChIJGzE9DS1l44kRoOhiASS_fHg", "reference": "ChIJGzE9DS1l44kRoOhiASS_fHg", "scope": "GOOGLE", "types": ["locality", "political"], "vicinity": "Boston"}, "ChIJl0y8E3d644kR2n4bQYzL9TU": {"geometry": {"location": {"lat": 42.3498997, "lng": -71.06309999999999}, "viewport": {"northeast": {"lat": 42.3513002302915, "lng": -71.06193486970848}, "southwest": {"lat": 42.3486022697085, "lng": -71.06463283029149}}}, "icon": "https://maps.gstatic.com/mapfiles/place_api/icons/generic_business-71.png", "id": "02ea385531e369a2e8be547467cadca01f0347c2", "name": "Dr. Deeb N. Salem, MD", "place_id": "ChIJl0y8E3d644kR2n4bQYzL9TU", "plus_code": {"compound_code": "8WXP+XQ Boston, Massachusetts, United States", "global_code": "87JC8WXP+XQ"}, "reference": "ChIJl0y8E3d644kR2n4bQYzL9TU", "scope": "GOOGLE", "types": ["doctor", "health", "point_of_interest", "establishment"], "vicinity": "750 Washington Street, Boston"}, "ChIJl0y8E3d644kRDX6-BRSfx7M": {"geometry": {"location": {"lat": 42.3499574, "lng": -71.0630303}, "viewport": {"northeast": {"lat": 42.3513628302915, "lng": -71.06188266970851}, "southwest": {"lat": 42.3486648697085, "lng": -71.06458063029152}}}, "icon": "https://maps.gstatic.com/mapfiles/place_api/icons/generic_business-71.png", "id": "c025e668cf9ca4698e19c50f306d6a254c760d8b", "name": "Kari E. Roberts, MD", "place_id": "ChIJl0y8E3d644kRDX6-BRSfx7M", "plus_code": {"compound_code": "8WXP+XQ Boston, Massachusetts, United States", "global_code": "87JC8WXP+XQ"}, "reference": "ChIJl0y8E3d644kRDX6-BRSfx7M", "scope": "GOOGLE", "types": ["doctor", "health", "point_of_interest", "establishment"], "vicinity": "750 Washington Street, Boston"}, "ChIJl0y8E3d644kRGI21TsGAS9Q": {"geometry": {"location": {"lat": 42.349897, "lng": -71.063092}, "viewport": {"northeast": {"lat": 42.35129868029151, "lng": -71.06193096970848}, "southwest": {"lat": 42.34860071970851, "lng": -71.06462893029149}}}, "icon": "https://maps.gstatic.com/mapfiles/place_api/icons/generic_business-71.png", "id": "312dfdec7ff3d083f63dd0048946f27771e9a28e", "name": "Dr. Myron Siu, MD", "opening_hours": {"open_now": true}, "photos": [{"height": 357, "html_attributions": ["<a href=\"https://maps.google.com/maps/contrib/106668393486044635353/photos\">Dr. Myron Siu, MD</a>"], "photo_reference": "CmRaAAAAoo7GNz4EMgmnOOpqeoZhBuqcnNtBBbcDXGuW6GAjXJnNN1V-9CGGe4AEY7EDz9teGfi5luZd0I65LeQWzMCwF7GJm1cOINUVofpRi8Ctoosn_C4a0LXVl8Z4z9L9W0F7EhANmXsjCrvmSTsTfw9EFVVYGhQzcH2AIadOEmnrZKAjePP3ehY5xg", "width": 640}], "place_id": "ChIJl0y8E3d644kRGI21TsGAS9Q", "plus_code": {"compound_code": "8WXP+XQ Boston, Massachusetts, United States", "global_code": "87JC8WXP+XQ"}, "rating": 5, "reference": "ChIJl0y8E3d644kRGI21TsGAS9Q", "scope": "GOOGLE", "types": ["doctor", "health", "point_of_interest", "establishment"], "user_ratings_total": 1, "vicinity": "800 Washington Street, Boston"}, "ChIJF0AYbXd644kR-MlfgvNeLLo": {"geometry": {"location": {"lat": 42.3498724, "lng": -71.0631018}, "viewport": {"northeast": {"lat": 42.35127443029149, "lng": -71.0619420197085}, "southwest": {"lat": 42.34857646970849, "lng": -71.06463998029152}}}, "icon": "https://maps.gstatic.com/mapfiles/place_api/icons/generic_business-71.png", "id": "8aeedb75a96081774e2c1fa59f1e539bf86fd20f", "name": "Tufts Medical Center Radiation Oncology", "opening_hours": {"open_now": true}, "photos": [{"height": 1068, "html_attributions": ["<a href=\"https://maps.google.com/maps/contrib/117865171806472266533/photos\">Tufts Medical Center Radiation Oncology</a>"], "photo_reference": "CmRaAAAAKiGZ69jPknyWef_IXp9nJT4ypXSHLlSWXpSi9XJhRqTyw_9aOLwXW4--Ic7m7Oc0KN7tP0oyCB0ru--_beGWvJ8iMET2ANchMrPXpVyYTNnh0m2Czo70UvNrTb9E7dTjEhD3v3yUEJ2z6qrjxI6rqJGAGhQTB1ptYms9-HeLG3S2mAs1IB_MfA", "width": 1900}], "place_id": "ChIJF0AYbXd644kR-MlfgvNeLLo", "plus_code": {"compound_code": "8WXP+WQ Boston, Massachusetts, United States", "global_code": "87JC8WXP+WQ"}, "reference": "ChIJF0AYbXd644kR-MlfgvNeLLo", "scope": "GOOGLE", "types": ["doctor", "health", "point_of_interest", "establishment"], "vicinity": "Basement Level, 800 Washington Street Proger Building, Boston"}, "ChIJl0y8E3d644kRHYnVatqQkjs": {"geometry": {"location": {"lat": 42.34999899999999, "lng": -71.063084}, "viewport": {"northeast": {"lat": 42.35139523029149, "lng": -71.06190356970849}, "southwest": {"lat": 42.3486972697085, "lng": -71.0646015302915}}}, "icon": "https://maps.gstatic.com/mapfiles/place_api/icons/generic_business-71.png", "id": "9a4843f326552b82a90a1e027552f3d31794742c", "name": "Dr. Klemens B. Meyer, MD", "opening_hours": {"open_now": false}, "place_id": "ChIJl0y8E3d644kRHYnVatqQkjs", "plus_code": {"compound_code": "8WXP+XQ Boston, Massachusetts, United States", "global_code": "87JC8WXP+XQ"}, "reference": "ChIJl0y8E3d644kRHYnVatqQkjs", "scope": "GOOGLE", "types": ["doctor", "health", "point_of_interest", "establishment"], "vicinity": "800 Washington Street, Boston"}, "ChIJscbGbXd644kRICOnZoqDLEs": {"geometry": {"location": {"lat": 42.3500445, "lng": -71.0628533}, "viewport": {"northeast": {"lat": 42.35146613029149, "lng": -71.06176351970849}, "southwest": {"lat": 42.34876816970849, "lng": -71.0644614802915}}}, "icon": "https://maps.gstatic.com/mapfiles/place_api/icons/generic_business-71.png", "id": "61cb29f0994412de0a1d5c972bd7b842f2256028", "name": "Tufts PMR", "place_id": "ChIJscbGbXd644kRICOnZoqDLEs", "plus_code": {"compound_code": "9W2P+2V Boston, Massachusetts, United States", "global_code": "87JC9W2P+2V"}, "reference": "ChIJscbGbXd644kRICOnZoqDLEs", "scope": "GOOGLE", "types": ["health", "point_of_interest", "establishment"], "vicinity": "800 Washington Street, Boston"}, "ChIJF0AYbXd644kRKtArFKI1xtI": {"geometry": {"location": {"lat": 42.3498724, "lng": -71.0631018}, "viewport": {"northeast": {"lat": 42.35127443029149, "lng": -71.0619420197085}, "southwest": {"lat": 42.34857646970849, "lng": -71.06463998029152}}}, "icon": "https://maps.gstatic.com/mapfiles/place_api/icons/generic_business-71.png", "id": "9ac2668344ce8db2add84e7f14f9db5dccc00120", "name": "Floating Hospital for Children Radiation Oncology", "opening_hours": {"open_now": true}, "photos": [{"height": 1068, "html_attributions": ["<a href=\"https://maps.google.com/maps/contrib/108620977118003323735/photos\">Floating Hospital for Children Radiation Oncology</a>"], "photo_reference": "CmRaAAAAra8InKqiq0GSkSR950h6avcXJRKwpJEcOAOWtlh28yziYAIzM9se7lL-pQoCI7MlYwDArwYndYkVUtq3v8MX2j-b8o6jQiFFkwioIvEBRyc0pJps5hf31zMT9kWzD0wQEhBssBe10iiPADbJicFOMv_4GhSZ5zBMX67XEkmv6nngklkYGp7GJA", "width": 1900}], "place_id": "ChIJF0AYbXd644kRKtArFKI1xtI", "plus_code": {"compound_code": "8WXP+WQ Boston, Massachusetts, United States", "global_code": "87JC8WXP+WQ"}, "reference": "ChIJF0AYbXd644kRKtArFKI1xtI", "scope": "GOOGLE", "types": ["health", "point_of_interest", "establishment"], "vicinity": "Basement Level, 800 Washington Street Proger Building, Boston"}, "ChIJv2lgRnd644kRhhHF-83wGPc": {"geometry": {"location": {"lat": 42.3500641, "lng": -71.0624052}, "viewport": {"northeast": {"lat": 42.3525502, "lng": -71.058036}, "southwest": {"lat": 42.3469363, "lng": -71.06781}}}, "icon": "https://maps.gstatic.com/mapfiles/place_api/icons/geocode-71.png", "id": "7756c8dc8a59b16de3fa6abc228b6140592c5494", "name": "Chinatown", "photos": [{"height": 3036, "html_attributions": ["<a href=\"https://maps.google.com/maps/contrib/114028827606383148991/photos\">Swe Nar</a>"], "photo_reference": "CmRaAAAAGsoad2jm7dcqcwhSmcVb77gRkt_A8Wz5BkMKQWKTjt9MXnfQ7zwGvZTn7jlFLbctkBh_5YDvC0D7dNlfbFBOhhWLRfBWL5kHDYTXKNCACHBbfCOjWmMIbIbwnaYv7_shEhBvCUc_9tM8r0s82LZ-mnqxGhR4FhSb_RYfO3yBzjlymb5sMx6aAA", "width": 4048}], "place_id": "ChIJv2lgRnd644kRhhHF-83wGPc", "reference": "ChIJv2lgRnd644kRhhHF-83wGPc", "scope": "GOOGLE", "types": ["neighborhood", "political"], "vicinity": "Boston"}}