{"ChIJ90G8vnh644kRTW02PEni2mY": {"geometry": {"location": {"lat": 42.3511572, "lng": -71.0569057}, "viewport": {"northeast": {"lat": 42.35250618029149, "lng": -71.05555671970849}, "southwest": {"lat": 42.3498082197085, "lng": -71.0582546802915}}}, "icon": "https://maps.gstatic.com/mapfiles/place_api/icons/geocode-71.png", "id": "27bd03435f27c55480c4f8d714e5d3f14a64de19", "name": "East Place", "place_id": "ChIJ90G8vnh644kRTW02PEni2mY", "reference": "ChIJ90G8vnh644kRTW02PEni2mY", "scope": "GOOGLE", "types": ["route"], "vicinity": "Boston"}, "ChIJf8oQlXh644kR_Cxp_vi3PAc": {"geometry": {"location": {"lat": 42.351041, "lng": -71.057126}, "viewport": {"northeast": {"lat": 42.3524024802915, "lng": -71.0558891197085}, "southwest": {"lat": 42.3497045197085, "lng": -71.0585870802915}}}, "icon": "https://maps.gstatic.com/mapfiles/place_api/icons/shopping-71.png", "id": "ae8953cfe07b3bc2dba2de01f5b9680549a88464", "name": "Sagarino's", "opening_hours": {"open_now": true}, "photos": [{"height": 474, "html_attributions": ["<a href=\"https://maps.google.com/maps/contrib/112737615932972605348/photos\">Caroline Morson</a>"], "photo_reference": "CmRaAAAAK0tHU0Lv_3dlGxfBJvuPHrinQbvihGfLk22wT9TXgGlA3LSlGkVhsPyDoS4HYoLexk9YOnenYwu1anD3fQlCdB3f-Xk_TWXwKQWd28tmn96-kYhNeGNtsht4h1HaxywsEhCO6LdUaQ1Mqf976s0IU4ChGhToT71vDJm0UZv1Hf7v7PNj3Y55Xw", "width": 353}], "place_id": "ChIJf8oQlXh644kR_Cxp_vi3PAc", "plus_code": {"compound_code": "9W2V+C4 Boston, Massachusetts, United States", "global_code": "87JC9W2V+C4"}, "rating": 3.6, "reference": "ChIJf8oQlXh644kR_Cxp_vi3PAc", "scope": "GOOGLE", "types": ["liquor_store", "grocery_or_supermarket", "store", "point_of_interest", "food", "establishment"], "user_ratings_total": 23, "vicinity": "106 South Street, Boston"}, "ChIJHamR4I9w44kRN7Y25P5g_Yg": {"geometry": {"location": {"lat": 42.3511509, "lng": -71.0566552}, "viewport": {"northeast": {"lat": 42.3525287802915, "lng": -71.05541946970848}, "southwest": {"lat": 42.3498308197085, "lng": -71.0581174302915}}}, "icon": "https://maps.gstatic.com/mapfiles/place_api/icons/generic_business-71.png", "id": "b280bd56f2f7f17a9fcd092979930864661f34ed", "name": "Go City Card by Smart Destinations", "photos": [{"height": 757, "html_attributions": ["<a href=\"https://maps.google.com/maps/contrib/109759809443943040454/photos\">Go City Card by Smart Destinations</a>"], "photo_reference": "CmRaAAAAl2pV6eO6rvjgNI_wzanPo-g35zcopV-53qSfvJHBCYiAHgMkubroNZb_WdOKhA5QiVerkpEXdavYcvIVkI7F4KDhm1e9Znd6js43wVM_J4No0TbacvK43Sz0SMxHuR0aEhDXYA9uS3qCS-DzFX3-F7guGhRlQlhYRVt3LuuHO_Fj8w7CANdbgQ", "width": 2048}], "place_id": "ChIJHamR4I9w44kRN7Y25P5g_Yg", "plus_code": {"compound_code": "9W2V+F8 Boston, Massachusetts, United States", "global_code": "87JC9W2V+F8"}, "rating": 2.3, "reference": "ChIJHamR4I9w44kRN7Y25P5g_Yg", "scope": "GOOGLE", "types": ["travel_agency", "point_of_interest", "establishment"], "user_ratings_total": 12, "vicinity": "711 Atlantic Avenue, 4th Floor, Boston"}, "ChIJZ4W0ByN644kR_4adVB2qfaQ": {"geometry": {"location": {"lat": 42.3510368, "lng": -71.0565687}, "viewport": {"northeast": {"lat": 42.3523521302915, "lng": -71.05509836970849}, "southwest": {"lat": 42.3496541697085, "lng": -71.0577963302915}}}, "icon": "https://maps.gstatic.com/mapfiles/place_api/icons/generic_business-71.png", "id": "a2a6e583447c609d6e22c60fc8a55f7a0772c7b5", "name": "Boston Rising", "place_id": "ChIJZ4W0ByN644kR_4adVB2qfaQ", "plus_code": {"compound_code": "9W2V+C9 Boston, Massachusetts, United States", "global_code": "87JC9W2V+C9"}, "reference": "ChIJZ4W0ByN644kR_4adVB2qfaQ", "scope": "GOOGLE", "types": ["point_of_interest", "establishment"], "vicinity": "711 Atlantic Avenue # 2, Boston"}, "ChIJETHIlHh644kR2xf7jwchoUs": {"geometry": {"location": {"lat": 42.3510293, "lng": -71.0570951}, "viewport": {"northeast": {"lat": 42.35239258029151, "lng": -71.0558745197085}, "southwest": {"lat": 42.34969461970851, "lng": -71.0585724802915}}}, "icon": "https://maps.gstatic.com/mapfiles/place_api/icons/school-71.png", "id": "1dd83f4504afef2351d86f1212074f6f59a6282e", "name": "Academy of Realist Art Boston", "opening_hours": {"open_now": true}, "photos": [{"height": 3159, "html_attributions": ["<a href=\"https://maps.google.com/maps/contrib/117330669959737634391/photos\">Academy of Realist Art Boston</a>"], "photo_reference": "CmRaAAAAM3yngEf3KvwHMmzvli9lPdkf3reQJOTRVxrL1dqoUrz7mgNDKNOATJqxeNbbT1c8FwG2oyRd-dtdvR8yQx3_i0ctPz7ofFnt68BXQqFgAkephoo295uOW1q1AxegLaPHEhC3lO_mkrZSpMovMbPjskw4GhRH5eo9WY671lNnGXypVuxBOGdhjQ", "width": 5184}], "place_id": "ChIJETHIlHh644kR2xf7jwchoUs", "plus_code": {"compound_code": "9W2V+C5 Boston, Massachusetts, United States", "global_code": "87JC9W2V+C5"}, "rating": 5, "reference": "ChIJETHIlHh644kR2xf7jwchoUs", "scope": "GOOGLE", "types": ["point_of_interest", "establishment"], "user_ratings_total": 2, "vicinity": "112 South Street, Boston"}, "ChIJT4ThuXh644kRIO0prMOfSoU": {"geometry": {"location": {"lat": 42.3510368, "lng": -71.0565687}, "viewport": {"northeast": {"lat": 42.3523521302915, "lng": -71.05509836970849}, "southwest": {"lat": 42.3496541697085, "lng": -71.0577963302915}}}, "icon": "https://maps.gstatic.com/mapfiles/place_api/icons/generic_business-71.png", "id": "6ea5fe6ebdf2dd3b33d2a0e93f170a7625fea4f6", "name": "Vehicle Graphics Boston", "place_id": "ChIJT4ThuXh644kRIO0prMOfSoU", "plus_code": {"compound_code": "9W2V+C9 Boston, Massachusetts, United States", "global_code": "87JC9W2V+C9"}, "rating": 5, "reference": "ChIJT4ThuXh644kRIO0prMOfSoU", "scope": "GOOGLE", "types": ["point_of_interest", "establishment"], "user_ratings_total": 8, "vicinity": "711 Atlantic Avenue, Boston"}, "ChIJ2euZsHh644kRaMUiUcXmFXU": {"geometry": {"location": {"lat": 42.351101, "lng": -71.056741}, "viewport": {"northeast": {"lat": 42.3523914302915, "lng": -71.05518086970848}, "southwest": {"lat": 42.3496934697085, "lng": -71.0578788302915}}}, "icon": "https://maps.gstatic.com/mapfiles/place_api/icons/cafe-71.png", "id": "6a4dfe75209c1a3fadf6143845f200f7001ca589", "name": "Dunkin' Donuts", "opening_hours": {"open_now": true}, "photos": [{"height": 4032, "html_attributions": ["<a href=\"https://maps.google.com/maps/contrib/100320327892782694632/photos\">James Jumper</a>"], "photo_reference": "CmRaAAAAOA36CLMlNsanO03mcZFlJNbIbGsGU0dWE9LPXb3_Qb4tOWSaBeSCJEWX_OZn-gcYWk9dsnd_Qje62UwIGy3hmGiitJ407MUfTlmwldEbLC0e_rAedXeLVZIRpvfJOeerEhCkkNE-YE4wGnAoi6NmuSFxGhRKCVUnqxgRDhqNmOHZ1_hbJcnQaQ", "width": 3024}], "place_id": "ChIJ2euZsHh644kRaMUiUcXmFXU", "plus_code": {"compound_code": "9W2V+C8 Boston, Massachusetts, United States", "global_code": "87JC9W2V+C8"}, "price_level": 1, "rating": 3.2, "reference": "ChIJ2euZsHh644kRaMUiUcXmFXU", "scope": "GOOGLE", "types": ["cafe", "bakery", "store", "restaurant", "point_of_interest", "food", "establishment"], "user_ratings_total": 17, "vicinity": "711 Atlantic Avenue, Boston"}, "ChIJj_0GM7Nw44kR92ViioMBoWI": {"geometry": {"location": {"lat": 42.351101, "lng": -71.056741}, "viewport": {"northeast": {"lat": 42.3523914302915, "lng": -71.05518086970848}, "southwest": {"lat": 42.3496934697085, "lng": -71.0578788302915}}}, "icon": "https://maps.gstatic.com/mapfiles/place_api/icons/generic_business-71.png", "id": "e6000f8438eefaec319ec17811983beaee6adb44", "name": "Traackr, Inc.", "place_id": "ChIJj_0GM7Nw44kR92ViioMBoWI", "plus_code": {"compound_code": "9W2V+C8 Boston, Massachusetts, United States", "global_code": "87JC9W2V+C8"}, "reference": "ChIJj_0GM7Nw44kR92ViioMBoWI", "scope": "GOOGLE", "types": ["point_of_interest", "establishment"], "vicinity": "711 Atlantic Avenue, Boston"}, "ChIJp95_uXh644kRPeyGONpNLtw": {"geometry": {"location": {"lat": 42.351101, "lng": -71.056741}, "viewport": {"northeast": {"lat": 42.35238838029149, "lng": -71.0551824197085}, "southwest": {"lat": 42.34969041970849, "lng": -71.05788038029152}}}, "icon": "https://maps.gstatic.com/mapfiles/place_api/icons/generic_business-71.png", "id": "0ed49d075333398c0815d6af77dac6edeb45774c", "name": "ExpanDrive,Inc", "opening_hours": {"open_now": true}, "place_id": "ChIJp95_uXh644kRPeyGONpNLtw", "plus_code": {"compound_code": "9W2V+C8 Boston, Massachusetts, United States", "global_code": "87JC9W2V+C8"}, "reference": "ChIJp95_uXh644kRPeyGONpNLtw", "scope": "GOOGLE", "types": ["point_of_interest", "establishment"], "vicinity": "711 Atlantic Avenue, Boston"}, "ChIJHw9aDzBF5IkR0avp4fgH9F4": {"geometry": {"location": {"lat": 42.351159, "lng": -71.056655}, "viewport": {"northeast": {"lat": 42.3524562802915, "lng": -71.05511966970849}, "southwest": {"lat": 42.3497583197085, "lng": -71.0578176302915}}}, "icon": "https://maps.gstatic.com/mapfiles/place_api/icons/generic_business-71.png", "id": "5885aa598d6ca27f759951335b007ac5c6eab321", "name": "The Law Offices of Seth Yurdin", "opening_hours": {"open_now": true}, "photos": [{"height": 365, "html_attributions": ["<a href=\"https://maps.google.com/maps/contrib/109524624975112600746/photos\">Seth Yurdin</a>"], "photo_reference": "CmRaAAAA3Xnoz-uHa3EOqyowrHf7_PcT0sH0gR1tnpFHNbQ4mQmt7ZEO_oNxeYp9PKQI_w8c2a6tWw3508J1PHw9kPACBuScLOYt3izaUAGsbQvjGsf7SnRJdgNdtLMx5KswpbQeEhAM9CAZT2WvZG6xOmn7rfjyGhTcPClMnMKsqLQYda_nA3m9s2f2YQ", "width": 288}], "place_id": "ChIJHw9aDzBF5IkR0avp4fgH9F4", "plus_code": {"compound_code": "9W2V+F8 Boston, Massachusetts, United States", "global_code": "87JC9W2V+F8"}, "reference": "ChIJHw9aDzBF5IkR0avp4fgH9F4", "scope": "GOOGLE", "types": ["point_of_interest", "establishment"], "vicinity": "711 Atlantic Avenue, Boston"}, "ChIJqZff03mC44kRQ2CbX5ymyKA": {"geometry": {"location": {"lat": 42.3511594, "lng": -71.0566553}, "viewport": {"northeast": {"lat": 42.3525367802915, "lng": -71.05541771970849}, "southwest": {"lat": 42.3498388197085, "lng": -71.0581156802915}}}, "icon": "https://maps.gstatic.com/mapfiles/place_api/icons/generic_business-71.png", "id": "0c7dd47617f99767e5a5c6d4bbc6aaaa094ed43f", "name": "Care 2 Communities", "opening_hours": {"open_now": true}, "photos": [{"height": 1000, "html_attributions": ["<a href=\"https://maps.google.com/maps/contrib/118207297888804078654/photos\">Care 2 Communities</a>"], "photo_reference": "CmRaAAAAqlprIk4vLeXTCTSdhqsRR3I7wx2JQ9PdhVydIVfmxg5Yl8NqauFrVzvu_SDSR_LOhRKAbCv3oje2zZYfMnOaB0FNV97p-IkIdH10OCpVJVRiBzDuNcZ5eSh9WnreDx7VEhAs08TsGnQ8au4BM9Vo_KiqGhTDJ8imDiLT8CqBLUBBeUsdEMoyKQ", "width": 1000}], "place_id": "ChIJqZff03mC44kRQ2CbX5ymyKA", "plus_code": {"compound_code": "9W2V+F8 Boston, Massachusetts, United States", "global_code": "87JC9W2V+F8"}, "reference": "ChIJqZff03mC44kRQ2CbX5ymyKA", "scope": "GOOGLE", "types": ["health", "point_of_interest", "establishment"], "vicinity": "711 Atlantic Avenue, Lower level, Boston"}, "ChIJqd5_uXh644kRCjGieI6U51I": {"geometry": {"location": {"lat": 42.3511594, "lng": -71.0566553}, "viewport": {"northeast": {"lat": 42.3524566302915, "lng": -71.05511971970849}, "southwest": {"lat": 42.3497586697085, "lng": -71.0578176802915}}}, "icon": "https://maps.gstatic.com/mapfiles/place_api/icons/generic_business-71.png", "id": "876f7f6f1c52e7303ab762fe309ccc41a4e3c611", "name": "Raid the Room", "photos": [{"height": 675, "html_attributions": ["<a href=\"https://maps.google.com/maps/contrib/101453155035060895033/photos\">Raid the Room</a>"], "photo_reference": "CmRaAAAATBtQLlkhfnSC6Id7UhNLlg13pDI9WW_Lgp28KFo0-3olkDjxDWMAHAvtb-Wbl9KVyyOQbSQcMDHRjKGS4dQ7UmWjfP6GXtDvv8jdejS_7eHWSwEaz5VRHC-iv_LVbQmWEhCdpbpY9lIWe1c7lZiTGR8uGhSuFcuCVefWo2rVCeUmUVxv1NlfJw", "width": 676}], "place_id": "ChIJqd5_uXh644kRCjGieI6U51I", "plus_code": {"compound_code": "9W2V+F8 Boston, Massachusetts, United States", "global_code": "87JC9W2V+F8"}, "reference": "ChIJqd5_uXh644kRCjGieI6U51I", "scope": "GOOGLE", "types": ["point_of_interest", "establishment"], "vicinity": "711 Atlantic Avenue, Boston"}, "ChIJqd5_uXh644kRS94dyvQEdPU": {"geometry": {"location": {"lat": 42.3511594, "lng": -71.0566553}, "viewport": {"northeast": {"lat": 42.3524566302915, "lng": -71.05511971970849}, "southwest": {"lat": 42.3497586697085, "lng": -71.0578176802915}}}, "icon": "https://maps.gstatic.com/mapfiles/place_api/icons/generic_business-71.png", "id": "5a4727fec9b34f2daab44c81670cc1102d9a3937", "name": "Cielo Concepts", "place_id": "ChIJqd5_uXh644kRS94dyvQEdPU", "plus_code": {"compound_code": "9W2V+F8 Boston, Massachusetts, United States", "global_code": "87JC9W2V+F8"}, "reference": "ChIJqd5_uXh644kRS94dyvQEdPU", "scope": "GOOGLE", "types": ["point_of_interest", "establishment"], "vicinity": "711 Atlantic Avenue, Boston"}, "ChIJqd5_uXh644kRNTTapPelR64": {"geometry": {"location": {"lat": 42.3511594, "lng": -71.0566553}, "viewport": {"northeast": {"lat": 42.3524566302915, "lng": -71.05511971970849}, "southwest": {"lat": 42.3497586697085, "lng": -71.0578176802915}}}, "icon": "https://maps.gstatic.com/mapfiles/place_api/icons/generic_business-71.png", "id": "0edebd703fa77a132dff971ecae87c75f999f9f9", "name": "CATALYTIC", "place_id": "ChIJqd5_uXh644kRNTTapPelR64", "plus_code": {"compound_code": "9W2V+F8 Boston, Massachusetts, United States", "global_code": "87JC9W2V+F8"}, "reference": "ChIJqd5_uXh644kRNTTapPelR64", "scope": "GOOGLE", "types": ["point_of_interest", "establishment"], "vicinity": "711 Atlantic Avenue, Boston"}, "ChIJqd5_uXh644kR1OFYWkwO3RM": {"geometry": {"location": {"lat": 42.3511594, "lng": -71.0566553}, "viewport": {"northeast": {"lat": 42.3524566302915, "lng": -71.05511971970849}, "southwest": {"lat": 42.3497586697085, "lng": -71.0578176802915}}}, "icon": "https://maps.gstatic.com/mapfiles/place_api/icons/shopping-71.png", "id": "8f6f804e17e9336168a28ff515a70572145fe360", "name": "ChargeItSpot", "place_id": "ChIJqd5_uXh644kR1OFYWkwO3RM", "plus_code": {"compound_code": "9W2V+F8 Boston, Massachusetts, United States", "global_code": "87JC9W2V+F8"}, "reference": "ChIJqd5_uXh644kR1OFYWkwO3RM", "scope": "GOOGLE", "types": ["store", "point_of_interest", "establishment"], "vicinity": "711 Atlantic Avenue, Boston"}, "ChIJp95_uXh644kRL2-g4CDu7hc": {"geometry": {"location": {"lat": 42.3511594, "lng": -71.0566552}, "viewport": {"northeast": {"lat": 42.3524566302915, "lng": -71.05511966970847}, "southwest": {"lat": 42.3497586697085, "lng": -71.0578176302915}}}, "icon": "https://maps.gstatic.com/mapfiles/place_api/icons/generic_business-71.png", "id": "4fef744b3a2d170034c81d5650bbbd068a438799", "name": "Iotopia Solutions Inc.", "place_id": "ChIJp95_uXh644kRL2-g4CDu7hc", "plus_code": {"compound_code": "9W2V+F8 Boston, Massachusetts, United States", "global_code": "87JC9W2V+F8"}, "reference": "ChIJp95_uXh644kRL2-g4CDu7hc", "scope": "GOOGLE", "types": ["point_of_interest", "establishment"], "vicinity": "711 Atlantic Avenue, Boston"}, "ChIJp95_uXh644kRAVPi620Gm8s": {"geometry": {"location": {"lat": 42.3511594, "lng": -71.0566552}, "viewport": {"northeast": {"lat": 42.3524566302915, "lng": -71.05511966970847}, "southwest": {"lat": 42.3497586697085, "lng": -71.0578176302915}}}, "icon": "https://maps.gstatic.com/mapfiles/place_api/icons/generic_business-71.png", "id": "31c2223d5443f609221334ca464505b67e622973", "name": "End-to-End 3PL Freight Shipping Arrangement", "place_id": "ChIJp95_uXh644kRAVPi620Gm8s", "plus_code": {"compound_code": "9W2V+F8 Boston, Massachusetts, United States", "global_code": "87JC9W2V+F8"}, "reference": "ChIJp95_uXh644kRAVPi620Gm8s", "scope": "GOOGLE", "types": ["point_of_interest", "establishment"], "vicinity": "711 Atlantic Avenue, Boston"}, "ChIJGc65uXh644kRue_CjR0ZB9Q": {"geometry": {"location": {"lat": 42.35103700000001, "lng": -71.056569}, "viewport": {"northeast": {"lat": 42.3523522802915, "lng": -71.0550985197085}, "southwest": {"lat": 42.34965431970851, "lng": -71.05779648029151}}}, "icon": "https://maps.gstatic.com/mapfiles/place_api/icons/generic_business-71.png", "id": "adb373a49aec7e287368716744fa6a00c44968ad", "name": "GQ Life Sciences, Inc.", "opening_hours": {"open_now": true}, "place_id": "ChIJGc65uXh644kRue_CjR0ZB9Q", "plus_code": {"compound_code": "9W2V+C9 Boston, Massachusetts, United States", "global_code": "87JC9W2V+C9"}, "reference": "ChIJGc65uXh644kRue_CjR0ZB9Q", "scope": "GOOGLE", "types": ["point_of_interest", "establishment"], "vicinity": "711 Atlantic Avenue, Boston"}, "ChIJ1ePwuXh644kRVSod6PLF6eg": {"geometry": {"location": {"lat": 42.35103700000001, "lng": -71.056569}, "viewport": {"northeast": {"lat": 42.3523522802915, "lng": -71.0550985197085}, "southwest": {"lat": 42.34965431970851, "lng": -71.05779648029151}}}, "icon": "https://maps.gstatic.com/mapfiles/place_api/icons/generic_business-71.png", "id": "6006bc3a7c6aba8bed1dedc1fbba09038124f9ba", "name": "Law Office of Heather M. Ward", "opening_hours": {"open_now": true}, "photos": [{"height": 611, "html_attributions": ["<a href=\"https://maps.google.com/maps/contrib/111972619918483737279/photos\">Law Office of Heather M. Ward</a>"], "photo_reference": "CmRaAAAAt-GfaomRMLTo4xeY42vHxVy52hih2TqKrz14DubRdUzYyvrQJW-ziWCGkReIf1vy_f0vrFogYoqFDr89kEn47fvtWThFUCxodPDGSPo4Tak3kgvLW-P5DVTBqOY9t_-YEhClsxuvYELH-uoz_ecjZpMiGhReRxJhqSPLEdyhs1FHtKl-b81v4A", "width": 611}], "place_id": "ChIJ1ePwuXh644kRVSod6PLF6eg", "plus_code": {"compound_code": "9W2V+C9 Boston, Massachusetts, United States", "global_code": "87JC9W2V+C9"}, "rating": 5, "reference": "ChIJ1ePwuXh644kRVSod6PLF6eg", "scope": "GOOGLE", "types": ["lawyer", "point_of_interest", "establishment"], "user_ratings_total": 5, "vicinity": "711 Atlantic Avenue, Boston"}, "ChIJGzE9DS1l44kRoOhiASS_fHg": {"geometry": {"location": {"lat": 42.3600825, "lng": -71.0588801}, "viewport": {"northeast": {"lat": 42.40081989999999, "lng": -70.749455}, "southwest": {"lat": 42.22788, "lng": -71.191113}}}, "icon": "https://maps.gstatic.com/mapfiles/place_api/icons/geocode-71.png", "id": "06755c25d2b34d13942a4713971756a55b870ced", "name": "Boston", "photos": [{"height": 3024, "html_attributions": ["<a href=\"https://maps.google.com/maps/contrib/104670289779338733432/photos\">Natalia Zalucean</a>"], "photo_reference": "CmRaAAAAxrgQUApm3oOmhAuv59bjUtLlk9usGZe_t_5iEOc07JH-BN4oT_nQeay-bClZl-os256FxqN3J16m0zRqimazpmNnWfJvhMQRe1KICMT50X_Bx6JWDTghXXVj6a4hdsYjEhCFeiu8ISip1V3kxNgTFYuoGhTl-L9fIrvGIMlZTDq6_u2oo4oYqw", "width": 4032}], "place_id": "ChIJGzE9DS1l44kRoOhiASS_fHg", "reference": "ChIJGzE9DS1l44kRoOhiASS_fHg", "scope": "GOOGLE", "types": ["locality", "political"], "vicinity": "Boston"}, "ChIJGc65uXh644kR896Ulvr4KhQ": {"geometry": {"location": {"lat": 42.3510368, "lng": -71.0565687}, "viewport": {"northeast": {"lat": 42.3523521302915, "lng": -71.05509836970849}, "southwest": {"lat": 42.3496541697085, "lng": -71.0577963302915}}}, "icon": "https://maps.gstatic.com/mapfiles/place_api/icons/generic_business-71.png", "id": "4f927a17ac26ba9b1664aa6297ddb59943e3436d", "name": "Textcase Translation Agency", "opening_hours": {"open_now": true}, "photos": [{"height": 2448, "html_attributions": ["<a href=\"https://maps.google.com/maps/contrib/109170552576448373093/photos\">Textcase Translation Agency</a>"], "photo_reference": "CmRaAAAAKYJ01BWXXblNHHDQKARslQ8KE8BChBwEAAh4uN3Ixw8JP_4NXgzE7HgkF9jLWuNrf84mZxMWSumgH4wkF4olL5V4TCEYEfZfDBpzhSpLezEWc1EFI8JUHPSKJkDFkt0NEhA_ZQJQg3Fn0e3LIwggqJK0GhShNR9GxFlKc-l9WzTG-lhLRyXaog", "width": 3264}], "place_id": "ChIJGc65uXh644kR896Ulvr4KhQ", "plus_code": {"compound_code": "9W2V+C9 Boston, Massachusetts, United States", "global_code": "87JC9W2V+C9"}, "reference": "ChIJGc65uXh644kR896Ulvr4KhQ", "scope": "GOOGLE", "types": ["point_of_interest", "establishment"], "vicinity": "711 Atlantic Avenue, lower floor, Boston"}, "ChIJGc65uXh644kR2MNYpIPm4OY": {"geometry": {"location": {"lat": 42.3510368, "lng": -71.0565687}, "viewport": {"northeast": {"lat": 42.3523521302915, "lng": -71.05509836970849}, "southwest": {"lat": 42.3496541697085, "lng": -71.0577963302915}}}, "icon": "https://maps.gstatic.com/mapfiles/place_api/icons/generic_business-71.png", "id": "6cabea731b1d63595d355fbe123a6b15d92e77c9", "name": "Beacon Prime Solutions, LLC", "place_id": "ChIJGc65uXh644kR2MNYpIPm4OY", "plus_code": {"compound_code": "9W2V+C9 Boston, Massachusetts, United States", "global_code": "87JC9W2V+C9"}, "reference": "ChIJGc65uXh644kR2MNYpIPm4OY", "scope": "GOOGLE", "types": ["insurance_agency", "point_of_interest", "establishment"], "vicinity": "Lower, 711 Atlantic Avenue, Boston"}, "ChIJGc65uXh644kRzkd03FbKZwY": {"geometry": {"location": {"lat": 42.3510368, "lng": -71.0565687}, "viewport": {"northeast": {"lat": 42.3523521302915, "lng": -71.05509836970849}, "southwest": {"lat": 42.3496541697085, "lng": -71.0577963302915}}}, "icon": "https://maps.gstatic.com/mapfiles/place_api/icons/generic_business-71.png", "id": "b57880f536522c2e15807763bf940f7ba51d0794", "name": "DMZ Interactive", "place_id": "ChIJGc65uXh644kRzkd03FbKZwY", "plus_code": {"compound_code": "9W2V+C9 Boston, Massachusetts, United States", "global_code": "87JC9W2V+C9"}, "reference": "ChIJGc65uXh644kRzkd03FbKZwY", "scope": "GOOGLE", "types": ["point_of_interest", "establishment"], "vicinity": "711 Atlantic Avenue, Boston"}, "ChIJq6pquXh644kRL-jFyjapDdI": {"geometry": {"location": {"lat": 42.351101, "lng": -71.056741}, "viewport": {"northeast": {"lat": 42.3523914302915, "lng": -71.05518086970848}, "southwest": {"lat": 42.3496934697085, "lng": -71.0578788302915}}}, "icon": "https://maps.gstatic.com/mapfiles/place_api/icons/generic_business-71.png", "id": "88e5404192d6934b991e361182a2ab37fcad0387", "name": "lula", "place_id": "ChIJq6pquXh644kRL-jFyjapDdI", "plus_code": {"compound_code": "9W2V+C8 Boston, Massachusetts, United States", "global_code": "87JC9W2V+C8"}, "reference": "ChIJq6pquXh644kRL-jFyjapDdI", "scope": "GOOGLE", "types": ["point_of_interest", "establishment"], "vicinity": "711 Atlantic Avenue, Boston"}, "ChIJq6pquXh644kRHtL2T66AsnA": {"geometry": {"location": {"lat": 42.351101, "lng": -71.056741}, "viewport": {"northeast": {"lat": 42.3523914302915, "lng": -71.05518086970848}, "southwest": {"lat": 42.3496934697085, "lng": -71.0578788302915}}}, "icon": "https://maps.gstatic.com/mapfiles/place_api/icons/school-71.png", "id": "aad5fbafe0bf958e59ea7ba5ddfe9e74a28ab145", "name": "Fiorente Media", "place_id": "ChIJq6pquXh644kRHtL2T66AsnA", "plus_code": {"compound_code": "9W2V+C8 Boston, Massachusetts, United States", "global_code": "87JC9W2V+C8"}, "reference": "ChIJq6pquXh644kRHtL2T66AsnA", "scope": "GOOGLE", "types": ["point_of_interest", "establishment"], "vicinity": "711 Atlantic Avenue, Boston"}, "ChIJq6pquXh644kRJfGxPV6MG9s": {"geometry": {"location": {"lat": 42.351101, "lng": -71.056741}, "viewport": {"northeast": {"lat": 42.3523914302915, "lng": -71.05518086970848}, "southwest": {"lat": 42.3496934697085, "lng": -71.0578788302915}}}, "icon": "https://maps.gstatic.com/mapfiles/place_api/icons/generic_business-71.png", "id": "a57f0262d725494c71862aec1a75c922904b407e", "name": "DNB Advisory LLC", "place_id": "ChIJq6pquXh644kRJfGxPV6MG9s", "plus_code": {"compound_code": "9W2V+C8 Boston, Massachusetts, United States", "global_code": "87JC9W2V+C8"}, "reference": "ChIJq6pquXh644kRJfGxPV6MG9s", "scope": "GOOGLE", "types": ["point_of_interest", "establishment"], "vicinity": "711 Atlantic Avenue, Boston"}, "ChIJq6pquXh644kRyrUa3kQOxB4": {"geometry": {"location": {"lat": 42.351101, "lng": -71.056741}, "viewport": {"northeast": {"lat": 42.3523914302915, "lng": -71.05518086970848}, "southwest": {"lat": 42.3496934697085, "lng": -71.0578788302915}}}, "icon": "https://maps.gstatic.com/mapfiles/place_api/icons/generic_business-71.png", "id": "c416acd2696903025f6a6f7172ea732bd78a56f9", "name": "Hardlight", "place_id": "ChIJq6pquXh644kRyrUa3kQOxB4", "plus_code": {"compound_code": "9W2V+C8 Boston, Massachusetts, United States", "global_code": "87JC9W2V+C8"}, "reference": "ChIJq6pquXh644kRyrUa3kQOxB4", "scope": "GOOGLE", "types": ["point_of_interest", "establishment"], "vicinity": "711 Atlantic Avenue, Boston"}, "ChIJq6pquXh644kRf_FnWPNQrvY": {"geometry": {"location": {"lat": 42.351101, "lng": -71.056741}, "viewport": {"northeast": {"lat": 42.3523914302915, "lng": -71.05518086970848}, "southwest": {"lat": 42.3496934697085, "lng": -71.0578788302915}}}, "icon": "https://maps.gstatic.com/mapfiles/place_api/icons/generic_business-71.png", "id": "c722c2fe8214243f98966b48a8494c56bc7b4ecc", "name": "711 atlantic avenue's tenant handbook:welcome", "place_id": "ChIJq6pquXh644kRf_FnWPNQrvY", "plus_code": {"compound_code": "9W2V+C8 Boston, Massachusetts, United States", "global_code": "87JC9W2V+C8"}, "reference": "ChIJq6pquXh644kRf_FnWPNQrvY", "scope": "GOOGLE", "types": ["point_of_interest", "establishment"], "vicinity": "711 Atlantic Avenue, Boston"}, "ChIJq6pquXh644kRiwVlv0ENGzE": {"geometry": {"location": {"lat": 42.351101, "lng": -71.056741}, "viewport": {"northeast": {"lat": 42.3523914302915, "lng": -71.05518086970848}, "southwest": {"lat": 42.3496934697085, "lng": -71.0578788302915}}}, "icon": "https://maps.gstatic.com/mapfiles/place_api/icons/generic_business-71.png", "id": "87302e75a53fafb97e9db2b03b31fe9c102e5fcb", "name": "CommonMind", "place_id": "ChIJq6pquXh644kRiwVlv0ENGzE", "plus_code": {"compound_code": "9W2V+C8 Boston, Massachusetts, United States", "global_code": "87JC9W2V+C8"}, "reference": "ChIJq6pquXh644kRiwVlv0ENGzE", "scope": "GOOGLE", "types": ["point_of_interest", "establishment"], "vicinity": "711 Atlantic Avenue, Boston"}, "ChIJCTrXuXh644kREdaJ9xfihI4": {"geometry": {"location": {"lat": 42.3510368, "lng": -71.0565687}, "viewport": {"northeast": {"lat": 42.3523521302915, "lng": -71.05509836970849}, "southwest": {"lat": 42.3496541697085, "lng": -71.0577963302915}}}, "icon": "https://maps.gstatic.com/mapfiles/place_api/icons/school-71.png", "id": "d69ec70c720aa429070dcb823e5b6e2bd6fd08d2", "name": "Positive Edge Tutoring Llc", "place_id": "ChIJCTrXuXh644kREdaJ9xfihI4", "plus_code": {"compound_code": "9W2V+C9 Boston, Massachusetts, United States", "global_code": "87JC9W2V+C9"}, "reference": "ChIJCTrXuXh644kREdaJ9xfihI4", "scope": "GOOGLE", "types": ["point_of_interest", "establishment"], "vicinity": "711 Atlantic Avenue, Boston"}, "ChIJT4ThuXh644kRlE75DigOqkI": {"geometry": {"location": {"lat": 42.3510368, "lng": -71.0565687}, "viewport": {"northeast": {"lat": 42.3523521302915, "lng": -71.05509836970849}, "southwest": {"lat": 42.3496541697085, "lng": -71.0577963302915}}}, "icon": "https://maps.gstatic.com/mapfiles/place_api/icons/restaurant-71.png", "id": "4842c717f105b9a2b3a5daad8f61ea9df873e990", "name": "Watermark Donut", "opening_hours": {"open_now": true}, "place_id": "ChIJT4ThuXh644kRlE75DigOqkI", "plus_code": {"compound_code": "9W2V+C9 Boston, Massachusetts, United States", "global_code": "87JC9W2V+C9"}, "rating": 5, "reference": "ChIJT4ThuXh644kRlE75DigOqkI", "scope": "GOOGLE", "types": ["bakery", "store", "point_of_interest", "food", "establishment"], "user_ratings_total": 1, "vicinity": "711 Atlantic Avenue, Boston"}, "ChIJq6pquXh644kRUcYTjUgBbm0": {"geometry": {"location": {"lat": 42.35117, "lng": -71.05665300000001}, "viewport": {"northeast": {"lat": 42.3524668302915, "lng": -71.0551160697085}, "southwest": {"lat": 42.34976886970851, "lng": -71.05781403029151}}}, "icon": "https://maps.gstatic.com/mapfiles/place_api/icons/generic_business-71.png", "id": "70bf175fa1d35f36ff76709321167e43c3eff726", "name": "appranix's", "place_id": "ChIJq6pquXh644kRUcYTjUgBbm0", "plus_code": {"compound_code": "9W2V+F8 Boston, Massachusetts, United States", "global_code": "87JC9W2V+F8"}, "reference": "ChIJq6pquXh644kRUcYTjUgBbm0", "scope": "GOOGLE", "types": ["point_of_interest", "establishment"], "vicinity": "711 Atlantic Avenue, Boston"}, "ChIJhRpWOFB744kRQ49tXtEALsQ": {"geometry": {"location": {"lat": 42.351101, "lng": -71.056741}, "viewport": {"northeast": {"lat": 42.3523914302915, "lng": -71.05518086970848}, "southwest": {"lat": 42.3496934697085, "lng": -71.0578788302915}}}, "icon": "https://maps.gstatic.com/mapfiles/place_api/icons/school-71.png", "id": "e95bbc2f5e6e7805d66ae010a132a1b92405ee44", "name": "First Step Coding", "opening_hours": {"open_now": true}, "photos": [{"height": 2400, "html_attributions": ["<a href=\"https://maps.google.com/maps/contrib/100510368547675188952/photos\">First Step Coding</a>"], "photo_reference": "CmRaAAAAe3dB1wN5CMl00PgL5-FWPxBDnyRbPX4pFzHPZRzrdhamD0dzmnn-n16sAiNbXxnTqQd_fkqIav_KtMn8iJigIWOSxtcUtoj8qf2i7lm3ltjR4qdzVQ4RwlTAEUxomZUrEhALIcBSKfE6QwMTMjCvwoT6GhRwWeaeWSWqGVnQJKiKxliT-1PhVA", "width": 3600}], "place_id": "ChIJhRpWOFB744kRQ49tXtEALsQ", "plus_code": {"compound_code": "9W2V+C8 Boston, Massachusetts, United States", "global_code": "87JC9W2V+C8"}, "rating": 5, "reference": "ChIJhRpWOFB744kRQ49tXtEALsQ", "scope": "GOOGLE", "types": ["point_of_interest", "establishment"], "user_ratings_total": 6, "vicinity": "711 Atlantic Avenue, Boston"}, "ChIJV_QYPcZ744kR0AQrsGMrbWM": {"geometry": {"location": {"lat": 42.35116039999999, "lng": -71.05671559999999}, "viewport": {"northeast": {"lat": 42.35245023029149, "lng": -71.05515336970849}, "southwest": {"lat": 42.34975226970849, "lng": -71.0578513302915}}}, "icon": "https://maps.gstatic.com/mapfiles/place_api/icons/generic_business-71.png", "id": "f14ef7d43dbd3fa2d688a16310a6c2088e8f2941", "name": "SecureFLO, LLC", "opening_hours": {"open_now": true}, "photos": [{"height": 425, "html_attributions": ["<a href=\"https://maps.google.com/maps/contrib/108618833054002246312/photos\">SecureFLO, LLC</a>"], "photo_reference": "CmRaAAAAXAubneHWkxY0G5yF2ElsYil6NyUg-ggASYedZbgjRUx-Zd38iVZvaGI-YfAp_10kIHJKoM8mHHW_IjDpNIVMTw8KN0p30sCRgGjfbw7_gE-YogaBo5vGf4FVIOj-nfsFEhCsdU7Plx9WKrhsY-BUKhYaGhR-t-L18jW4VCMkkY_F0NcNDcOciA", "width": 1400}], "place_id": "ChIJV_QYPcZ744kR0AQrsGMrbWM", "plus_code": {"compound_code": "9W2V+F8 Boston, Massachusetts, United States", "global_code": "87JC9W2V+F8"}, "reference": "ChIJV_QYPcZ744kR0AQrsGMrbWM", "scope": "GOOGLE", "types": ["point_of_interest", "establishment"], "vicinity": "711 Atlantic Avenue, Boston"}, "ChIJT4ThuXh644kRQ49fuvUUtn0": {"geometry": {"location": {"lat": 42.3510368, "lng": -71.0565687}, "viewport": {"northeast": {"lat": 42.3523521302915, "lng": -71.05509836970849}, "southwest": {"lat": 42.3496541697085, "lng": -71.0577963302915}}}, "icon": "https://maps.gstatic.com/mapfiles/place_api/icons/generic_business-71.png", "id": "6fdbf797b7c73d19ff2ec98936ede85dfbef1696", "name": "Zefer Corporation", "place_id": "ChIJT4ThuXh644kRQ49fuvUUtn0", "plus_code": {"compound_code": "9W2V+C9 Boston, Massachusetts, United States", "global_code": "87JC9W2V+C9"}, "reference": "ChIJT4ThuXh644kRQ49fuvUUtn0", "scope": "GOOGLE", "types": ["point_of_interest", "establishment"], "vicinity": "711 Atlantic Avenue # 6, Boston"}, "ChIJqd5_uXh644kRDsDlHARiHC8": {"geometry": {"location": {"lat": 42.3511594, "lng": -71.0566553}, "viewport": {"northeast": {"lat": 42.3524566302915, "lng": -71.05511971970849}, "southwest": {"lat": 42.3497586697085, "lng": -71.0578176802915}}}, "icon": "https://maps.gstatic.com/mapfiles/place_api/icons/generic_business-71.png", "id": "d55cf54cbf0eec7e016850066de39fc3afd9a50c", "name": "Social Contests", "place_id": "ChIJqd5_uXh644kRDsDlHARiHC8", "plus_code": {"compound_code": "9W2V+F8 Boston, Massachusetts, United States", "global_code": "87JC9W2V+F8"}, "reference": "ChIJqd5_uXh644kRDsDlHARiHC8", "scope": "GOOGLE", "types": ["point_of_interest", "establishment"], "vicinity": "711 Atlantic Avenue, Boston"}, "ChIJqUo43Xh644kRO8o8hjP9qO0": {"geometry": {"location": {"lat": 42.3511594, "lng": -71.0566553}, "viewport": {"northeast": {"lat": 42.3524566302915, "lng": -71.05511971970849}, "southwest": {"lat": 42.3497586697085, "lng": -71.0578176802915}}}, "icon": "https://maps.gstatic.com/mapfiles/place_api/icons/generic_business-71.png", "id": "d46ccf76e88c5bcc3359620d24ab9e887d2c06b0", "name": "Juvo Leads", "opening_hours": {"open_now": true}, "photos": [{"height": 608, "html_attributions": ["<a href=\"https://maps.google.com/maps/contrib/103991228635647364453/photos\">Juvo Leads</a>"], "photo_reference": "CmRaAAAASc7jfRHZYGDro-X-6kBzFluwD2mSXxPNtCdU6hus2Q0coZQKaaag0wuzrwpIy0JQShGe1EIv-ktAdjY3tXtXZG9LSQcl6sNveRuta6czcWI2eIGDGHqeDUJ2UYLTQ3grEhBN33LzzWwdENvufjKE5qzcGhSeKhyk1SJvqbVfOeRJZRuFa_0yxQ", "width": 1080}], "place_id": "ChIJqUo43Xh644kRO8o8hjP9qO0", "plus_code": {"compound_code": "9W2V+F8 Boston, Massachusetts, United States", "global_code": "87JC9W2V+F8"}, "reference": "ChIJqUo43Xh644kRO8o8hjP9qO0", "scope": "GOOGLE", "types": ["point_of_interest", "establishment"], "vicinity": "711 Atlantic Avenue, Boston"}, "ChIJqd5_uXh644kR5Hj_8vIiIHM": {"geometry": {"location": {"lat": 42.3511594, "lng": -71.0566553}, "viewport": {"northeast": {"lat": 42.3524566302915, "lng": -71.05511971970849}, "southwest": {"lat": 42.3497586697085, "lng": -71.0578176802915}}}, "icon": "https://maps.gstatic.com/mapfiles/place_api/icons/generic_business-71.png", "id": "0341d12557fc1a11f3ab40402a6edbf92f2ebe2e", "name": "btcRE", "place_id": "ChIJqd5_uXh644kR5Hj_8vIiIHM", "plus_code": {"compound_code": "9W2V+F8 Boston, Massachusetts, United States", "global_code": "87JC9W2V+F8"}, "reference": "ChIJqd5_uXh644kR5Hj_8vIiIHM", "scope": "GOOGLE", "types": ["real_estate_agency", "point_of_interest", "establishment"], "vicinity": "711 Atlantic Avenue, Boston"}, "ChIJqd5_uXh644kRaxboZTRSpE4": {"geometry": {"location": {"lat": 42.3511594, "lng": -71.0566553}, "viewport": {"northeast": {"lat": 42.3524566302915, "lng": -71.05511971970849}, "southwest": {"lat": 42.3497586697085, "lng": -71.0578176802915}}}, "icon": "https://maps.gstatic.com/mapfiles/place_api/icons/generic_business-71.png", "id": "854b0c27e78c5128e6ca21a6465b34433223dbb6", "name": "Merchant Sherpas", "opening_hours": {"open_now": true}, "photos": [{"height": 712, "html_attributions": ["<a href=\"https://maps.google.com/maps/contrib/107601735433445320188/photos\">Merchant Sherpas</a>"], "photo_reference": "CmRaAAAA95ypfvSw2Yvjlp4_l4aUoxdSz4rXwP4gDJghB5rZF1qR_UJfI53FSRW7K6rCSNR1DOGOkEWXLr7qW3cPUryDUIcu-ND8rOfnt2fXxIRKxvlmYfxmeHAINwtRFzQEBprFEhD57JBMBZVWqLhNoBOsJxWQGhQCHOFHP-Q0idZBp2E_kzve9R_Gtg", "width": 1500}], "place_id": "ChIJqd5_uXh644kRaxboZTRSpE4", "plus_code": {"compound_code": "9W2V+F8 Boston, Massachusetts, United States", "global_code": "87JC9W2V+F8"}, "reference": "ChIJqd5_uXh644kRaxboZTRSpE4", "scope": "GOOGLE", "types": ["point_of_interest", "establishment"], "vicinity": "lower, 711 Atlantic Avenue, Boston"}, "ChIJqd5_uXh644kRyj2QfIYdlqU": {"geometry": {"location": {"lat": 42.3511594, "lng": -71.0566553}, "viewport": {"northeast": {"lat": 42.3524566302915, "lng": -71.05511971970849}, "southwest": {"lat": 42.3497586697085, "lng": -71.0578176802915}}}, "icon": "https://maps.gstatic.com/mapfiles/place_api/icons/generic_business-71.png", "id": "2a93c1082308313a8fc4c06b5cb47c16d79c2044", "name": "Heron Interverse", "place_id": "ChIJqd5_uXh644kRyj2QfIYdlqU", "plus_code": {"compound_code": "9W2V+F8 Boston, Massachusetts, United States", "global_code": "87JC9W2V+F8"}, "reference": "ChIJqd5_uXh644kRyj2QfIYdlqU", "scope": "GOOGLE", "types": ["point_of_interest", "establishment"], "vicinity": "745 Atlantic Avenue, Boston"}, "ChIJp95_uXh644kRl7tpbgND3LU": {"geometry": {"location": {"lat": 42.3511594, "lng": -71.0566552}, "viewport": {"northeast": {"lat": 42.3524566302915, "lng": -71.05511966970847}, "southwest": {"lat": 42.3497586697085, "lng": -71.0578176302915}}}, "icon": "https://maps.gstatic.com/mapfiles/place_api/icons/generic_business-71.png", "id": "aa992ac1171af2805692d203d16f4448e7d88b01", "name": "Chrysalis Coaching & Consulting LLC", "place_id": "ChIJp95_uXh644kRl7tpbgND3LU", "plus_code": {"compound_code": "9W2V+F8 Boston, Massachusetts, United States", "global_code": "87JC9W2V+F8"}, "reference": "ChIJp95_uXh644kRl7tpbgND3LU", "scope": "GOOGLE", "types": ["point_of_interest", "establishment"], "vicinity": "711 Atlantic Avenue, Boston"}, "ChIJGc65uXh644kRoRyVnkmPZ0o": {"geometry": {"location": {"lat": 42.3510368, "lng": -71.0565687}, "viewport": {"northeast": {"lat": 42.3523521302915, "lng": -71.05509836970849}, "southwest": {"lat": 42.3496541697085, "lng": -71.0577963302915}}}, "icon": "https://maps.gstatic.com/mapfiles/place_api/icons/generic_business-71.png", "id": "8652b594ab82966aed2344fbb6ee49de8bdfa913", "name": "Copia Real Estate", "opening_hours": {"open_now": true}, "photos": [{"height": 598, "html_attributions": ["<a href=\"https://maps.google.com/maps/contrib/115406338846269472336/photos\">Copia Real Estate</a>"], "photo_reference": "CmRaAAAAdiBYfMN3ZvyQkP59hFcrtWJGq_L-hnhnEedDMcmbk5m5C8IbP8AirG3nwdn5fJnZLA7mWB7dt1D4TI28oKEydIEHYPv-_FrbaCp98qm5Q3FmIidfIu0L7S--hhwm9cLWEhBB7a8kV9zrrKP3bxWa1eNhGhRjIQVnHjIjfhmSSeGOqze3Qp7qsA", "width": 930}], "place_id": "ChIJGc65uXh644kRoRyVnkmPZ0o", "plus_code": {"compound_code": "9W2V+C9 Boston, Massachusetts, United States", "global_code": "87JC9W2V+C9"}, "reference": "ChIJGc65uXh644kRoRyVnkmPZ0o", "scope": "GOOGLE", "types": ["real_estate_agency", "home_goods_store", "store", "general_contractor", "point_of_interest", "establishment"], "vicinity": "711 Atlantic Avenue, Boston"}, "ChIJ22Wdvnh644kRsbNVwDtQ4Hc": {"geometry": {"location": {"lat": 42.35121170000001, "lng": -71.0569658}, "viewport": {"northeast": {"lat": 42.35255143029151, "lng": -71.05558071970849}, "southwest": {"lat": 42.34985346970851, "lng": -71.05827868029151}}}, "icon": "https://maps.gstatic.com/mapfiles/place_api/icons/bank_dollar-71.png", "id": "c3ef552694dadab3637d2f23b52a4a665c02e00b", "name": "VSD Properties LCC", "place_id": "ChIJ22Wdvnh644kRsbNVwDtQ4Hc", "plus_code": {"compound_code": "9W2V+F6 Boston, Massachusetts, United States", "global_code": "87JC9W2V+F6"}, "reference": "ChIJ22Wdvnh644kRsbNVwDtQ4Hc", "scope": "GOOGLE", "types": ["bank", "finance", "point_of_interest", "establishment"], "vicinity": "p.o. box 416198, Boston"}, "ChIJp8shvTp744kRW2BNFaHXAN4": {"geometry": {"location": {"lat": 42.351101, "lng": -71.056741}, "viewport": {"northeast": {"lat": 42.3523914302915, "lng": -71.05518086970848}, "southwest": {"lat": 42.3496934697085, "lng": -71.0578788302915}}}, "icon": "https://maps.gstatic.com/mapfiles/place_api/icons/generic_business-71.png", "id": "c379c0792422cbb2ef9e1d369c59dba63d5fe887", "name": "Dogtown Media", "place_id": "ChIJp8shvTp744kRW2BNFaHXAN4", "plus_code": {"compound_code": "9W2V+C8 Boston, Massachusetts, United States", "global_code": "87JC9W2V+C8"}, "reference": "ChIJp8shvTp744kRW2BNFaHXAN4", "scope": "GOOGLE", "types": ["point_of_interest", "establishment"], "vicinity": "711 Atlantic Avenue, Boston"}}