{"ChIJ4d0Nj5F544kRgsEAzqyWnfY": {"geometry": {"location": {"lat": 42.3372397, "lng": -71.11137120000001}, "viewport": {"northeast": {"lat": 42.33854693029149, "lng": -71.10996976970848}, "southwest": {"lat": 42.3358489697085, "lng": -71.1126677302915}}}, "icon": "https://maps.gstatic.com/mapfiles/place_api/icons/geocode-71.png", "id": "e1e2091ef7bcaf35586eaf611ba741e8bebf3854", "name": "Netherlands Road", "place_id": "ChIJ4d0Nj5F544kRgsEAzqyWnfY", "reference": "ChIJ4d0Nj5F544kRgsEAzqyWnfY", "scope": "GOOGLE", "types": ["route"], "vicinity": "Brookline"}, "ChIJp-0FOo1544kR1bR2h1LxUHc": {"geometry": {"location": {"lat": 42.3421148, "lng": -71.108087}, "viewport": {"northeast": {"lat": 42.34515160000001, "lng": -71.1026476}, "southwest": {"lat": 42.3368082, "lng": -71.1119496}}}, "icon": "https://maps.gstatic.com/mapfiles/place_api/icons/generic_recreational-71.png", "id": "3101f6f63d7113f1ba69141c0f1c71b45320354e", "name": "Riverway I", "place_id": "ChIJp-0FOo1544kR1bR2h1LxUHc", "reference": "ChIJp-0FOo1544kR1bR2h1LxUHc", "scope": "GOOGLE", "types": ["park", "premise", "point_of_interest", "establishment"], "vicinity": "Boston"}, "ChIJGzE9DS1l44kRoOhiASS_fHg": {"geometry": {"location": {"lat": 42.3600825, "lng": -71.0588801}, "viewport": {"northeast": {"lat": 42.40081989999999, "lng": -70.749455}, "southwest": {"lat": 42.22788, "lng": -71.191113}}}, "icon": "https://maps.gstatic.com/mapfiles/place_api/icons/geocode-71.png", "id": "06755c25d2b34d13942a4713971756a55b870ced", "name": "Boston", "photos": [{"height": 3024, "html_attributions": ["<a href=\"https://maps.google.com/maps/contrib/104670289779338733432/photos\">Natalia Zalucean</a>"], "photo_reference": "CmRaAAAAIEUebmjUk3AFGx6V9fxv-gsFjSsWpT8G7yfbio9kOAQqPYvVgcvY0EaHv8IVCCj-zRAeumpIQ3r3mjzkk8xt5GhRhnGwj-_bUlFL2DGUHv5n3qlEN7i4h6a4IiHhYY2HEhDu-xMP876e6DZLjEal-Mk4GhRxrI__TtuGJHTgOHkez8EL6aXuLA", "width": 4032}], "place_id": "ChIJGzE9DS1l44kRoOhiASS_fHg", "reference": "ChIJGzE9DS1l44kRoOhiASS_fHg", "scope": "GOOGLE", "types": ["locality", "political"], "vicinity": "Boston"}}