{"ChIJpSUHhAmC44kRfq9wm3sIklU": {"geometry": {"location": {"lat": 42.3370413, "lng": -71.20922139999999}, "viewport": {"northeast": {"lat": 42.3679719, "lng": -71.1569968}, "southwest": {"lat": 42.2827739, "lng": -71.270359}}}, "icon": "https://maps.gstatic.com/mapfiles/place_api/icons/geocode-71.png", "id": "d74f935d4736f725e4eba20abe314f6094a27c4a", "name": "Newton", "photos": [{"height": 1536, "html_attributions": ["<a href=\"https://maps.google.com/maps/contrib/103956073675495355808/photos\">Fumiaki Imamura</a>"], "photo_reference": "CmRZAAAA5GCfFrR9SaJleeMk334llec69DQTevPMxrbZVfwHsDyq_zMekCLARo_2_9jYby-crLsbsRJfB1xeLeD3lWUAMIkaeKAyqGUO39ZIdmBjDMqDIc-iuXX40RTJjyOEULDDEhCWeAjOYYc890ks-pE4i_jhGhR-IgrAuuiEFBJPRmhH1JhgWX69xA", "width": 2048}], "place_id": "ChIJpSUHhAmC44kRfq9wm3sIklU", "reference": "ChIJpSUHhAmC44kRfq9wm3sIklU", "scope": "GOOGLE", "types": ["locality", "political"], "vicinity": "Newton"}, "ChIJ76z-Te1444kR-cEtISGKH0s": {"geometry": {"location": {"lat": 42.3229141, "lng": -71.1682682}, "viewport": {"northeast": {"lat": 42.32425103029151, "lng": -71.16696561970849}, "southwest": {"lat": 42.32155306970851, "lng": -71.16966358029151}}}, "icon": "https://maps.gstatic.com/mapfiles/place_api/icons/generic_business-71.png", "id": "82769bd9e6b60d030ab7a50f112e6eee25530ac6", "name": "The Green", "place_id": "ChIJ76z-Te1444kR-cEtISGKH0s", "plus_code": {"compound_code": "8RFJ+5M Newton, Massachusetts, United States", "global_code": "87JC8RFJ+5M"}, "reference": "ChIJ76z-Te1444kR-cEtISGKH0s", "scope": "GOOGLE", "types": ["point_of_interest", "establishment"], "vicinity": "Chestnut Hill"}, "ChIJ935y-nR444kRXq9TINc9zps": {"geometry": {"location": {"lat": 42.3303798, "lng": -71.166187}, "viewport": {"northeast": {"lat": 42.344031, "lng": -71.156997}, "southwest": {"lat": 42.320597, "lng": -71.18579799999999}}}, "icon": "https://maps.gstatic.com/mapfiles/place_api/icons/geocode-71.png", "id": "6d79e487197ccbe17502e69c70148b418f4601e8", "name": "Chestnut Hill", "place_id": "ChIJ935y-nR444kRXq9TINc9zps", "reference": "ChIJ935y-nR444kRXq9TINc9zps", "scope": "GOOGLE", "types": ["neighborhood", "political"], "vicinity": "Newton"}}