{"ChIJF8LU_n9w44kRBb1SdTv1SPo": {"geometry": {"location": {"lat": 42.3509743, "lng": -71.04941079999999}, "viewport": {"northeast": {"lat": 42.35232328029149, "lng": -71.0480618197085}, "southwest": {"lat": 42.34962531970849, "lng": -71.0507597802915}}}, "icon": "https://maps.gstatic.com/mapfiles/place_api/icons/geocode-71.png", "id": "f796680570e89d48f591f9cf6318e8799fb7c2df", "name": "336-324 Congress St", "place_id": "ChIJF8LU_n9w44kRBb1SdTv1SPo", "reference": "ChIJF8LU_n9w44kRBb1SdTv1SPo", "scope": "GOOGLE", "types": ["route"], "vicinity": "Boston"}, "ChIJL3Tn-H9w44kRUk1PWm1E-sM": {"geometry": {"location": {"lat": 42.3511004, "lng": -71.0491065}, "viewport": {"northeast": {"lat": 42.35241033029149, "lng": -71.04768391970849}, "southwest": {"lat": 42.3497123697085, "lng": -71.0503818802915}}}, "icon": "https://maps.gstatic.com/mapfiles/place_api/icons/cafe-71.png", "id": "905f68d864ce87da5171288537cba5143255d8f0", "name": "Metro Cafe", "opening_hours": {"open_now": false}, "photos": [{"height": 2340, "html_attributions": ["<a href=\"https://maps.google.com/maps/contrib/111203161841447952472/photos\">Li Zhang</a>"], "photo_reference": "CmRaAAAA6SQGum0EjO32pCZwYZsked65bM2kStoH3lpBkgftQCpXS-fsXPdxW8rdYH4zdVBYySlQcOLoGAaB8T_7MgCINvlwvPZSp1YD43qfZ0STl-IIN2OLGa11adxQjQtDm5L1EhB2hzJSk8ixjtMmgXCipL8ZGhR74CJxHh8hBo-VDfZhnx2MgpS4DA", "width": 4160}], "place_id": "ChIJL3Tn-H9w44kRUk1PWm1E-sM", "plus_code": {"compound_code": "9X22+C9 Boston, Massachusetts, United States", "global_code": "87JC9X22+C9"}, "price_level": 1, "rating": 3.7, "reference": "ChIJL3Tn-H9w44kRUk1PWm1E-sM", "scope": "GOOGLE", "types": ["cafe", "point_of_interest", "food", "establishment"], "user_ratings_total": 46, "vicinity": "332 Congress Street #1, Boston"}, "ChIJJ3sC_H9w44kR4u4VjJa_GC8": {"geometry": {"location": {"lat": 42.3512196, "lng": -71.04929109999999}, "viewport": {"northeast": {"lat": 42.3524749302915, "lng": -71.04804866970848}, "southwest": {"lat": 42.3497769697085, "lng": -71.0507466302915}}}, "icon": "https://maps.gstatic.com/mapfiles/place_api/icons/generic_business-71.png", "id": "0a649b403ebcdbd01bddfd39411089464111a825", "name": "DENTOLOGY", "opening_hours": {"open_now": true}, "photos": [{"height": 375, "html_attributions": ["<a href=\"https://maps.google.com/maps/contrib/117306333166804288421/photos\">DENTOLOGY</a>"], "photo_reference": "CmRaAAAA5zJgf07siu7ZmfQNFylGwRItQ5O-D67rxRquqwfEFulGBltxAy8inS-5BhHM00ctnAuDwtYQSdxLAeWHj9MbfM28GySNI5Gs_m47SS1SP7bmLo1w-kIYQf0sNv9b8gVcEhAhbbamRvmEsGvUBPFpphTUGhQBK2bWJtgkUEvX_V2OEE4ST_nDXw", "width": 600}], "place_id": "ChIJJ3sC_H9w44kR4u4VjJa_GC8", "plus_code": {"compound_code": "9X22+F7 Boston, Massachusetts, United States", "global_code": "87JC9X22+F7"}, "rating": 4.7, "reference": "ChIJJ3sC_H9w44kR4u4VjJa_GC8", "scope": "GOOGLE", "types": ["dentist", "doctor", "health", "point_of_interest", "establishment"], "user_ratings_total": 16, "vicinity": "330 Congress Street, Boston"}, "ChIJnS7Ma4B644kRA4iV2kP7QhY": {"geometry": {"location": {"lat": 42.35110960000001, "lng": -71.049114}, "viewport": {"northeast": {"lat": 42.35241663029151, "lng": -71.0476859697085}, "southwest": {"lat": 42.34971866970852, "lng": -71.0503839302915}}}, "icon": "https://maps.gstatic.com/mapfiles/place_api/icons/generic_business-71.png", "id": "a9cf014b580d600f296481c8e7052731ad485c5c", "name": "Zmags Inc.", "place_id": "ChIJnS7Ma4B644kRA4iV2kP7QhY", "plus_code": {"compound_code": "9X22+C9 Boston, Massachusetts, United States", "global_code": "87JC9X22+C9"}, "reference": "ChIJnS7Ma4B644kRA4iV2kP7QhY", "scope": "GOOGLE", "types": ["point_of_interest", "establishment"], "vicinity": "2nd Floor, 332 Congress Street, Boston"}, "ChIJL3Tn-H9w44kRzu87-ThTrC0": {"geometry": {"location": {"lat": 42.3511651, "lng": -71.0490803}, "viewport": {"northeast": {"lat": 42.3523980302915, "lng": -71.0478633697085}, "southwest": {"lat": 42.3497000697085, "lng": -71.0505613302915}}}, "icon": "https://maps.gstatic.com/mapfiles/place_api/icons/generic_business-71.png", "id": "588a41896052ddb5fdc12e9e5692f78e5a6238f7", "name": "Facing Friday", "opening_hours": {"open_now": false}, "photos": [{"height": 435, "html_attributions": ["<a href=\"https://maps.google.com/maps/contrib/106665917999377486722/photos\">Facing Friday</a>"], "photo_reference": "CmRaAAAALgnc8aXb5BGZCGWLtWiou3smpH7Kot53ZtNr-QF846ns6XFzNkXl7orubDQEFfyPDhz8Del9Ak4P2-CVwUlFdVh0_uJ_37oonuUtEYm9Sx_JelkYdhnUzUQUTnDZCkOqEhD7oXsbD_-pRDq9Hj0LgrzPGhS9dX97DrQyONC9NcWjAqOnaVtX5g", "width": 953}], "place_id": "ChIJL3Tn-H9w44kRzu87-ThTrC0", "plus_code": {"compound_code": "9X22+F9 Boston, Massachusetts, United States", "global_code": "87JC9X22+F9"}, "reference": "ChIJL3Tn-H9w44kRzu87-ThTrC0", "scope": "GOOGLE", "types": ["point_of_interest", "establishment"], "vicinity": "332 Congress Street, Boston"}, "ChIJBb5B6Q1644kRAZJFN0UeLcA": {"geometry": {"location": {"lat": 42.3510777, "lng": -71.0493305}, "viewport": {"northeast": {"lat": 42.35238178029149, "lng": -71.0480326197085}, "southwest": {"lat": 42.3496838197085, "lng": -71.05073058029151}}}, "icon": "https://maps.gstatic.com/mapfiles/place_api/icons/generic_business-71.png", "id": "196129b2254a1f7219e44ddf237385b03a9229ec", "name": "Op Sec Security", "place_id": "ChIJBb5B6Q1644kRAZJFN0UeLcA", "plus_code": {"compound_code": "9X22+C7 Boston, Massachusetts, United States", "global_code": "87JC9X22+C7"}, "reference": "ChIJBb5B6Q1644kRAZJFN0UeLcA", "scope": "GOOGLE", "types": ["point_of_interest", "establishment"], "vicinity": "330 Congress Street, Boston"}, "ChIJJ3sC_H9w44kRiU40_00ZRv0": {"geometry": {"location": {"lat": 42.35122, "lng": -71.049291}, "viewport": {"northeast": {"lat": 42.3524751802915, "lng": -71.0480487197085}, "southwest": {"lat": 42.3497772197085, "lng": -71.05074668029152}}}, "icon": "https://maps.gstatic.com/mapfiles/place_api/icons/generic_business-71.png", "id": "5b2c621d0695d0480573ae9f4f03c40745a1d714", "name": "Cosmetic And Laser Center", "opening_hours": {"open_now": true}, "photos": [{"height": 600, "html_attributions": ["<a href=\"https://maps.google.com/maps/contrib/116150595181242288939/photos\">Cosmetic And Laser Center</a>"], "photo_reference": "CmRaAAAA0gQVZ-Ncv5FJwUFjbCkZemawum1H201vysmB-WS2EVhTNVDtCzl7We61R0tzP6DFB-FmmIz1P5tyJ6RMB7qg8PlIv9VYgKv666hnfvrFEdbJVZtUEh8FShsuDNk1GFmcEhA29y6dpu-JbK6D73mKcc2yGhTUQhgezAK5XeOxtdL7665cOcj0Tg", "width": 900}], "place_id": "ChIJJ3sC_H9w44kRiU40_00ZRv0", "plus_code": {"compound_code": "9X22+F7 Boston, Massachusetts, United States", "global_code": "87JC9X22+F7"}, "rating": 4.8, "reference": "ChIJJ3sC_H9w44kRiU40_00ZRv0", "scope": "GOOGLE", "types": ["beauty_salon", "hair_care", "spa", "health", "point_of_interest", "establishment"], "user_ratings_total": 83, "vicinity": "330 Congress Street, Boston"}, "ChIJL3Tn-H9w44kRjklOJNAYPHY": {"geometry": {"location": {"lat": 42.3511004, "lng": -71.0491065}, "viewport": {"northeast": {"lat": 42.35241033029149, "lng": -71.04768391970849}, "southwest": {"lat": 42.3497123697085, "lng": -71.0503818802915}}}, "icon": "https://maps.gstatic.com/mapfiles/place_api/icons/generic_business-71.png", "id": "746014522bab3c843ef32744ee579aad0e3914c0", "name": "Group Sales", "place_id": "ChIJL3Tn-H9w44kRjklOJNAYPHY", "plus_code": {"compound_code": "9X22+C9 Boston, Massachusetts, United States", "global_code": "87JC9X22+C9"}, "reference": "ChIJL3Tn-H9w44kRjklOJNAYPHY", "scope": "GOOGLE", "types": ["point_of_interest", "establishment"], "vicinity": "332 Congress Street # 101, Boston"}, "ChIJzYUX-39644kRgyw0BM_govg": {"geometry": {"location": {"lat": 42.3511468, "lng": -71.049368}, "viewport": {"northeast": {"lat": 42.3524374802915, "lng": -71.0480853697085}, "southwest": {"lat": 42.3497395197085, "lng": -71.05078333029151}}}, "icon": "https://maps.gstatic.com/mapfiles/place_api/icons/cafe-71.png", "id": "38a002401e8832e290bffe0cddfb0bf880913dc0", "name": "Dunkin' Donuts", "opening_hours": {"open_now": true}, "photos": [{"height": 4032, "html_attributions": ["<a href=\"https://maps.google.com/maps/contrib/113502654185462579089/photos\">Ben Sprecher</a>"], "photo_reference": "CmRaAAAACGni9kB3zMMDh7NXe7OmfqXgUb9dPF77qNpLEeZp_94oCXaXxgga6MkUXNtYbbrmTIoBN1n2F0csDoa9-8grxiCSsL0lviEgHAZadBWds_5xdAjLOWx4-F1u7w17IZFYEhDlVCa9iB66Ofzw2MW5hdYuGhST_27-M_kUu1BVTFGcucFRVrtw3w", "width": 3024}], "place_id": "ChIJzYUX-39644kRgyw0BM_govg", "plus_code": {"compound_code": "9X22+F7 Boston, Massachusetts, United States", "global_code": "87JC9X22+F7"}, "price_level": 1, "rating": 3.8, "reference": "ChIJzYUX-39644kRgyw0BM_govg", "scope": "GOOGLE", "types": ["cafe", "bakery", "store", "restaurant", "point_of_interest", "food", "establishment"], "user_ratings_total": 48, "vicinity": "330 Congress Street, Boston"}, "ChIJYw2_-39w44kRwH0TE2E9Hjw": {"geometry": {"location": {"lat": 42.3511702, "lng": -71.049298}, "viewport": {"northeast": {"lat": 42.35244128029149, "lng": -71.04803766970849}, "southwest": {"lat": 42.3497433197085, "lng": -71.0507356302915}}}, "icon": "https://maps.gstatic.com/mapfiles/place_api/icons/generic_business-71.png", "id": "e8163dc8f761df9c2b3987c9c850948bced221bc", "name": "X-Nth Inc", "place_id": "ChIJYw2_-39w44kRwH0TE2E9Hjw", "plus_code": {"compound_code": "9X22+F7 Boston, Massachusetts, United States", "global_code": "87JC9X22+F7"}, "reference": "ChIJYw2_-39w44kRwH0TE2E9Hjw", "scope": "GOOGLE", "types": ["point_of_interest", "establishment"], "vicinity": "330 Congress Street, Boston"}, "ChIJkSOEpoNw44kRxip7l92UZG8": {"geometry": {"location": {"lat": 42.3511651, "lng": -71.0490803}, "viewport": {"northeast": {"lat": 42.3523980302915, "lng": -71.0478633697085}, "southwest": {"lat": 42.3497000697085, "lng": -71.0505613302915}}}, "icon": "https://maps.gstatic.com/mapfiles/place_api/icons/atm-71.png", "id": "6d873c7a43d854d295d17282bb9395f473391296", "name": "Bank of America ATM", "opening_hours": {"open_now": true}, "place_id": "ChIJkSOEpoNw44kRxip7l92UZG8", "plus_code": {"compound_code": "9X22+F9 Boston, Massachusetts, United States", "global_code": "87JC9X22+F9"}, "rating": 1, "reference": "ChIJkSOEpoNw44kRxip7l92UZG8", "scope": "GOOGLE", "types": ["atm", "finance", "point_of_interest", "establishment"], "user_ratings_total": 1, "vicinity": "332 Congress Street, Boston"}, "ChIJmV0A-n9w44kRO9iD3tkGCEI": {"geometry": {"location": {"lat": 42.3510882, "lng": -71.049048}, "viewport": {"northeast": {"lat": 42.3524104302915, "lng": -71.0476486197085}, "southwest": {"lat": 42.3497124697085, "lng": -71.0503465802915}}}, "icon": "https://maps.gstatic.com/mapfiles/place_api/icons/school-71.png", "id": "4b8faacf2c0568f26c84944edbc346604729ef70", "name": "Ever Fi", "place_id": "ChIJmV0A-n9w44kRO9iD3tkGCEI", "plus_code": {"compound_code": "9X22+C9 Boston, Massachusetts, United States", "global_code": "87JC9X22+C9"}, "reference": "ChIJmV0A-n9w44kRO9iD3tkGCEI", "scope": "GOOGLE", "types": ["point_of_interest", "establishment"], "vicinity": "332 Congress Street, Boston"}, "ChIJJ3sC_H9w44kRGwjYomQNBC4": {"geometry": {"location": {"lat": 42.3512196, "lng": -71.04929109999999}, "viewport": {"northeast": {"lat": 42.3524749302915, "lng": -71.04804866970848}, "southwest": {"lat": 42.3497769697085, "lng": -71.0507466302915}}}, "icon": "https://maps.gstatic.com/mapfiles/place_api/icons/generic_business-71.png", "id": "0ae7c284f9841289a8e5df98a4aa86eb751d6651", "name": "Anton G Andrews DMD", "opening_hours": {"open_now": true}, "place_id": "ChIJJ3sC_H9w44kRGwjYomQNBC4", "plus_code": {"compound_code": "9X22+F7 Boston, Massachusetts, United States", "global_code": "87JC9X22+F7"}, "rating": 5, "reference": "ChIJJ3sC_H9w44kRGwjYomQNBC4", "scope": "GOOGLE", "types": ["dentist", "doctor", "health", "point_of_interest", "establishment"], "user_ratings_total": 1, "vicinity": "330 Congress Street, Boston"}, "ChIJZw2_-39w44kRhJMCcBJg0xk": {"geometry": {"location": {"lat": 42.3512197, "lng": -71.0492912}, "viewport": {"northeast": {"lat": 42.35263123029149, "lng": -71.04786631970849}, "southwest": {"lat": 42.34993326970849, "lng": -71.05056428029151}}}, "icon": "https://maps.gstatic.com/mapfiles/place_api/icons/generic_business-71.png", "id": "42aacb34629453de0ba0a5e8e3b655a8b3fb0bee", "name": "EverTrue", "photos": [{"height": 2000, "html_attributions": ["<a href=\"https://maps.google.com/maps/contrib/107223230144031139649/photos\">EverTrue</a>"], "photo_reference": "CmRaAAAAmizXDFWup5S3pD9LQjm1MTBau1TfdYRypkwG0ZSegTvrHDSyJSTRcO_4NGIET625V_4EdDiLKhWYtRB4LaOekZjvKPpTGi-r-0lztCV1ytpvT5QOnqoRhdn5fCYbIDDREhCy-yeco_koDoaWj6AAfEvIGhQ40SuYCoVZycBzI3k4NOo3LXA9qA", "width": 3000}], "place_id": "ChIJZw2_-39w44kRhJMCcBJg0xk", "plus_code": {"compound_code": "9X22+F7 Boston, Massachusetts, United States", "global_code": "87JC9X22+F7"}, "rating": 5, "reference": "ChIJZw2_-39w44kRhJMCcBJg0xk", "scope": "GOOGLE", "types": ["point_of_interest", "establishment"], "user_ratings_total": 3, "vicinity": "330 Congress St, Floor 2, Boston"}, "ChIJJ3sC_H9w44kR_bKdKHWgUUM": {"geometry": {"location": {"lat": 42.3511702, "lng": -71.0492981}, "viewport": {"northeast": {"lat": 42.35244128029149, "lng": -71.04803771970849}, "southwest": {"lat": 42.3497433197085, "lng": -71.0507356802915}}}, "icon": "https://maps.gstatic.com/mapfiles/place_api/icons/generic_business-71.png", "id": "b7be89770e9c9b359086de04a741718581d783be", "name": "CQW Associates Inc", "place_id": "ChIJJ3sC_H9w44kR_bKdKHWgUUM", "plus_code": {"compound_code": "9X22+F7 Boston, Massachusetts, United States", "global_code": "87JC9X22+F7"}, "reference": "ChIJJ3sC_H9w44kR_bKdKHWgUUM", "scope": "GOOGLE", "types": ["point_of_interest", "establishment"], "vicinity": "330 Congress Street, Boston"}, "ChIJi_QW-n9w44kRfZzBlEkhbYQ": {"geometry": {"location": {"lat": 42.35111, "lng": -71.049114}, "viewport": {"northeast": {"lat": 42.35241698029149, "lng": -71.04768586970849}, "southwest": {"lat": 42.3497190197085, "lng": -71.05038383029151}}}, "icon": "https://maps.gstatic.com/mapfiles/place_api/icons/generic_business-71.png", "id": "ced4eff32b9a73037621963824f441a73aa6dc07", "name": "Merge Architects", "opening_hours": {"open_now": true}, "photos": [{"height": 451, "html_attributions": ["<a href=\"https://maps.google.com/maps/contrib/113554514059601337503/photos\">Merge Architects</a>"], "photo_reference": "CmRaAAAA4n-ad-J4sLFCjVN8VssSRDQSjmvxvFP8Rk-Lk3_2BZ0yX_rl52LadHwawEjoxbm_kvD_K6-y_n9G48vBcOm3Veof4XiossZYbsQegOGWTv_0xzncClRBhX3t0opQh-vxEhDJ-qhMRe9olPoB9CN7DPNVGhTaQXLpbivqwN-EmFqjeWaGpzt8Dg", "width": 2034}], "place_id": "ChIJi_QW-n9w44kRfZzBlEkhbYQ", "plus_code": {"compound_code": "9X22+C9 Boston, Massachusetts, United States", "global_code": "87JC9X22+C9"}, "rating": 5, "reference": "ChIJi_QW-n9w44kRfZzBlEkhbYQ", "scope": "GOOGLE", "types": ["point_of_interest", "establishment"], "user_ratings_total": 1, "vicinity": "332 Congress Street 6th floor, Boston"}, "ChIJZw2_-39w44kRiTZ1rImhxI4": {"geometry": {"location": {"lat": 42.3511702, "lng": -71.0492981}, "viewport": {"northeast": {"lat": 42.35244128029149, "lng": -71.04803771970849}, "southwest": {"lat": 42.3497433197085, "lng": -71.0507356802915}}}, "icon": "https://maps.gstatic.com/mapfiles/place_api/icons/generic_business-71.png", "id": "ec884c0c0c2238dee8664d4dc42059d0d0145139", "name": "Hill International Inc", "place_id": "ChIJZw2_-39w44kRiTZ1rImhxI4", "plus_code": {"compound_code": "9X22+F7 Boston, Massachusetts, United States", "global_code": "87JC9X22+F7"}, "reference": "ChIJZw2_-39w44kRiTZ1rImhxI4", "scope": "GOOGLE", "types": ["general_contractor", "point_of_interest", "establishment"], "vicinity": "6th Floor, 330 Congress Street, Boston"}, "ChIJeX_8PGBx44kR4HBJlVQVQS8": {"geometry": {"location": {"lat": 42.3509952, "lng": -71.0490106}, "viewport": {"northeast": {"lat": 42.3523537302915, "lng": -71.0476797197085}, "southwest": {"lat": 42.34965576970851, "lng": -71.0503776802915}}}, "icon": "https://maps.gstatic.com/mapfiles/place_api/icons/bank_dollar-71.png", "id": "efa1e056e8eae211e2fe01b2a85f5f2b0f771831", "name": "Citizens Bank", "opening_hours": {"open_now": false}, "place_id": "ChIJeX_8PGBx44kR4HBJlVQVQS8", "plus_code": {"compound_code": "9X22+99 Boston, Massachusetts, United States", "global_code": "87JC9X22+99"}, "reference": "ChIJeX_8PGBx44kR4HBJlVQVQS8", "scope": "GOOGLE", "types": ["bank", "atm", "finance", "point_of_interest", "establishment"], "vicinity": "338 Congress Street, Boston"}, "ChIJif2j-39w44kR37sU7yKaUBk": {"geometry": {"location": {"lat": 42.3512197, "lng": -71.0492912}, "viewport": {"northeast": {"lat": 42.3524750302915, "lng": -71.04804876970849}, "southwest": {"lat": 42.3497770697085, "lng": -71.05074673029151}}}, "icon": "https://maps.gstatic.com/mapfiles/place_api/icons/generic_business-71.png", "id": "a3699c4516fd6d214de3ccdd1641b706a8e78ade", "name": "BondLink", "place_id": "ChIJif2j-39w44kR37sU7yKaUBk", "plus_code": {"compound_code": "9X22+F7 Boston, Massachusetts, United States", "global_code": "87JC9X22+F7"}, "reference": "ChIJif2j-39w44kR37sU7yKaUBk", "scope": "GOOGLE", "types": ["point_of_interest", "establishment"], "vicinity": "330 Congress Street, Boston"}, "ChIJGzE9DS1l44kRoOhiASS_fHg": {"geometry": {"location": {"lat": 42.3600825, "lng": -71.0588801}, "viewport": {"northeast": {"lat": 42.40081989999999, "lng": -70.749455}, "southwest": {"lat": 42.22788, "lng": -71.191113}}}, "icon": "https://maps.gstatic.com/mapfiles/place_api/icons/geocode-71.png", "id": "06755c25d2b34d13942a4713971756a55b870ced", "name": "Boston", "photos": [{"height": 3024, "html_attributions": ["<a href=\"https://maps.google.com/maps/contrib/104670289779338733432/photos\">Natalia Zalucean</a>"], "photo_reference": "CmRaAAAA9ZIw2bpzsJLZd6Y-A4Ehk8G_W02RLu_ij4KeL7K75eIB2JSinvNWGZgtVvLa0BrFayGKTRSbz1_bw1RPfMiFt7yeu2VI5t9wXGXnMl7n91CN_UOdLZlI5wzF3OKsXE3PEhBLNeTu8847hbk89SPAoTN1GhT0T-y_9NIwJJT_hydtvD-0_1GpxA", "width": 4032}], "place_id": "ChIJGzE9DS1l44kRoOhiASS_fHg", "reference": "ChIJGzE9DS1l44kRoOhiASS_fHg", "scope": "GOOGLE", "types": ["locality", "political"], "vicinity": "Boston"}}