{"ChIJUZ5m2IZw44kRZfUpDrNZnbE": {"geometry": {"location": {"lat": 42.3568654, "lng": -71.0528213}, "viewport": {"northeast": {"lat": 42.3582132302915, "lng": -71.05147116970849}, "southwest": {"lat": 42.3555152697085, "lng": -71.0541691302915}}}, "icon": "https://maps.gstatic.com/mapfiles/place_api/icons/geocode-71.png", "id": "08592cfd588050b398dd42bf79269a1f8313c714", "name": "84-74 Wendell St", "place_id": "ChIJUZ5m2IZw44kRZfUpDrNZnbE", "reference": "ChIJUZ5m2IZw44kRZfUpDrNZnbE", "scope": "GOOGLE", "types": ["route"], "vicinity": "Boston"}, "ChIJx7iVQHZ644kRQbAv6XWEqso": {"geometry": {"location": {"lat": 42.3566259, "lng": -71.0526112}, "viewport": {"northeast": {"lat": 42.3579095802915, "lng": -71.05123101970848}, "southwest": {"lat": 42.35521161970851, "lng": -71.0539289802915}}}, "icon": "https://maps.gstatic.com/mapfiles/place_api/icons/generic_business-71.png", "id": "aa07de4688871d7a68ae6224f723ff22dba1aa51", "name": "Dick Doherty's Beantown Comedy Clubs", "opening_hours": {"open_now": false}, "photos": [{"height": 5312, "html_attributions": ["<a href=\"https://maps.google.com/maps/contrib/100499509804384435931/photos\">Arkadiy Konyukhov</a>"], "photo_reference": "CmRaAAAANLROzhpSVeI-JbJJ3va_frQjQG-joGOnTzVurUYJmjWUs0kC5ZAlmLe1l98m_qj-bo8iVpNJtnd1lYInzHq1OeZkdcGMpMtgmNJZ8KuN01JKyYnC7AmxB2qpVcogfMg-EhCdWCBw6jdI10_jxsJpZQAWGhRbBzwYg3yy_O86o14ej25xuDgBmA", "width": 2988}], "place_id": "ChIJx7iVQHZ644kRQbAv6XWEqso", "plus_code": {"compound_code": "9W4W+MX Boston, Massachusetts, United States", "global_code": "87JC9W4W+MX"}, "rating": 3.8, "reference": "ChIJx7iVQHZ644kRQbAv6XWEqso", "scope": "GOOGLE", "types": ["point_of_interest", "establishment"], "user_ratings_total": 14, "vicinity": "184 High Street, Boston"}, "ChIJe5MyL4dw44kRvPsKHbfBN74": {"geometry": {"location": {"lat": 42.35664899999999, "lng": -71.05262499999999}, "viewport": {"northeast": {"lat": 42.3579208302915, "lng": -71.0512391197085}, "southwest": {"lat": 42.3552228697085, "lng": -71.0539370802915}}}, "icon": "https://maps.gstatic.com/mapfiles/place_api/icons/generic_business-71.png", "id": "1fdc251efaeb8042afdd688999dd0dbb34510e6b", "name": "Rosenfeld & Rafik, P.C.", "opening_hours": {"open_now": true}, "photos": [{"height": 271, "html_attributions": ["<a href=\"https://maps.google.com/maps/contrib/101779738795475308324/photos\">Mala Rafik</a>"], "photo_reference": "CmRaAAAAP1yiZaBOlZzCBwM6_LWfQ_SbCKkzkWOB4rJ9llvgjxw3Rp8C-YwIxy0Mm_anFzjWatJRb75s39JHSZw97dUKTz7gTxkKs-eXt0MnC74lGaeSfV2lEgS1tICYGxnNBMSqEhDa38uov6_wGXVpZ1kk6igcGhRxvNcrTtp2Ims1ISuBG3aNEeuDjw", "width": 1182}], "place_id": "ChIJe5MyL4dw44kRvPsKHbfBN74", "plus_code": {"compound_code": "9W4W+MX Boston, Massachusetts, United States", "global_code": "87JC9W4W+MX"}, "reference": "ChIJe5MyL4dw44kRvPsKHbfBN74", "scope": "GOOGLE", "types": ["lawyer", "point_of_interest", "establishment"], "vicinity": "184 High Street, Boston"}, "ChIJYVdYIoJw44kRbJr_jdC60Yc": {"geometry": {"location": {"lat": 42.356649, "lng": -71.0526244}, "viewport": {"northeast": {"lat": 42.3579208802915, "lng": -71.0512385697085}, "southwest": {"lat": 42.3552229197085, "lng": -71.05393653029151}}}, "icon": "https://maps.gstatic.com/mapfiles/place_api/icons/civic_building-71.png", "id": "9b26bac0c04eae904590c7a82b67ca9ce381d9d0", "name": "Daniel Roberts", "opening_hours": {"open_now": true}, "place_id": "ChIJYVdYIoJw44kRbJr_jdC60Yc", "plus_code": {"compound_code": "9W4W+MX Boston, Massachusetts, United States", "global_code": "87JC9W4W+MX"}, "reference": "ChIJYVdYIoJw44kRbJr_jdC60Yc", "scope": "GOOGLE", "types": ["point_of_interest", "establishment"], "vicinity": "184 High Street, Boston"}, "ChIJyVbTJodw44kRyZQmUkPYBDg": {"geometry": {"location": {"lat": 42.3568939, "lng": -71.0525182}, "viewport": {"northeast": {"lat": 42.3582865802915, "lng": -71.05121141970851}, "southwest": {"lat": 42.3555886197085, "lng": -71.05390938029151}}}, "icon": "https://maps.gstatic.com/mapfiles/place_api/icons/generic_business-71.png", "id": "aa16b414c3197962af2c85db1398d4aab1cacdd1", "name": "Wilkinson Legal Support Services", "place_id": "ChIJyVbTJodw44kRyZQmUkPYBDg", "plus_code": {"compound_code": "9W4W+QX Boston, Massachusetts, United States", "global_code": "87JC9W4W+QX"}, "reference": "ChIJyVbTJodw44kRyZQmUkPYBDg", "scope": "GOOGLE", "types": ["point_of_interest", "establishment"], "vicinity": "87 Wendell Street # 200, Boston"}, "ChIJ9WkyL4dw44kR2uZI7YyHmkI": {"geometry": {"location": {"lat": 42.3566489, "lng": -71.0526247}, "viewport": {"northeast": {"lat": 42.35792078029149, "lng": -71.0512388697085}, "southwest": {"lat": 42.3552228197085, "lng": -71.0539368302915}}}, "icon": "https://maps.gstatic.com/mapfiles/place_api/icons/generic_business-71.png", "id": "088a4300b214eceebaf82b2c0f8cd01485f429db", "name": "Hedge Op Compliance Llc", "place_id": "ChIJ9WkyL4dw44kR2uZI7YyHmkI", "plus_code": {"compound_code": "9W4W+MX Boston, Massachusetts, United States", "global_code": "87JC9W4W+MX"}, "reference": "ChIJ9WkyL4dw44kR2uZI7YyHmkI", "scope": "GOOGLE", "types": ["point_of_interest", "establishment"], "vicinity": "184 High Street # 6, Boston"}, "ChIJ9WkyL4dw44kR7hFKBe4dFuM": {"geometry": {"location": {"lat": 42.3566489, "lng": -71.0526247}, "viewport": {"northeast": {"lat": 42.35792078029149, "lng": -71.0512388697085}, "southwest": {"lat": 42.3552228197085, "lng": -71.0539368302915}}}, "icon": "https://maps.gstatic.com/mapfiles/place_api/icons/generic_business-71.png", "id": "433d9a0bef4073d24bcd71d6129e78455704a4e7", "name": "Green Insurance Exchange LLC", "place_id": "ChIJ9WkyL4dw44kR7hFKBe4dFuM", "plus_code": {"compound_code": "9W4W+MX Boston, Massachusetts, United States", "global_code": "87JC9W4W+MX"}, "reference": "ChIJ9WkyL4dw44kR7hFKBe4dFuM", "scope": "GOOGLE", "types": ["insurance_agency", "point_of_interest", "establishment"], "vicinity": "184 High Street # 602, Boston"}, "ChIJR1TTJodw44kRlwEn9_nFZIg": {"geometry": {"location": {"lat": 42.3568939, "lng": -71.0525182}, "viewport": {"northeast": {"lat": 42.3582865802915, "lng": -71.05121141970851}, "southwest": {"lat": 42.3555886197085, "lng": -71.05390938029151}}}, "icon": "https://maps.gstatic.com/mapfiles/place_api/icons/generic_business-71.png", "id": "0effa037adbe9c969190715fed0c06a5f146fb04", "name": "B Stock Solutions", "place_id": "ChIJR1TTJodw44kRlwEn9_nFZIg", "plus_code": {"compound_code": "9W4W+QX Boston, Massachusetts, United States", "global_code": "87JC9W4W+QX"}, "rating": 5, "reference": "ChIJR1TTJodw44kRlwEn9_nFZIg", "scope": "GOOGLE", "types": ["point_of_interest", "establishment"], "user_ratings_total": 1, "vicinity": "3rd floor, 200 High Street, Boston"}, "ChIJ9WkyL4dw44kRN4zeyhnSqBs": {"geometry": {"location": {"lat": 42.3566489, "lng": -71.0526247}, "viewport": {"northeast": {"lat": 42.35792078029149, "lng": -71.0512388697085}, "southwest": {"lat": 42.3552228197085, "lng": -71.0539368302915}}}, "icon": "https://maps.gstatic.com/mapfiles/place_api/icons/generic_business-71.png", "id": "86564c32016dd1b521a087fdbba2d4ef3c891b86", "name": "Taurus Management", "place_id": "ChIJ9WkyL4dw44kRN4zeyhnSqBs", "plus_code": {"compound_code": "9W4W+MX Boston, Massachusetts, United States", "global_code": "87JC9W4W+MX"}, "reference": "ChIJ9WkyL4dw44kRN4zeyhnSqBs", "scope": "GOOGLE", "types": ["point_of_interest", "establishment"], "vicinity": "184 High Street, Boston"}, "ChIJHTE6L4dw44kRbtg9xQ3k8Gw": {"geometry": {"location": {"lat": 42.3566492, "lng": -71.0526244}, "viewport": {"northeast": {"lat": 42.3579209802915, "lng": -71.0512385197085}, "southwest": {"lat": 42.3552230197085, "lng": -71.05393648029151}}}, "icon": "https://maps.gstatic.com/mapfiles/place_api/icons/generic_business-71.png", "id": "b132d59b9a16f68dcf371bd49b720f87a66791d6", "name": "CarTrawler", "place_id": "ChIJHTE6L4dw44kRbtg9xQ3k8Gw", "plus_code": {"compound_code": "9W4W+MX Boston, Massachusetts, United States", "global_code": "87JC9W4W+MX"}, "rating": 1, "reference": "ChIJHTE6L4dw44kRbtg9xQ3k8Gw", "scope": "GOOGLE", "types": ["point_of_interest", "establishment"], "user_ratings_total": 8, "vicinity": "184 High Street, Boston"}, "ChIJ_RU7L4dw44kR3U-eM4Yr-ug": {"geometry": {"location": {"lat": 42.3566492, "lng": -71.0526244}, "viewport": {"northeast": {"lat": 42.3579209802915, "lng": -71.0512385197085}, "southwest": {"lat": 42.3552230197085, "lng": -71.05393648029151}}}, "icon": "https://maps.gstatic.com/mapfiles/place_api/icons/generic_business-71.png", "id": "7c02f487720f86cc74d379b951d99d2b0cfec631", "name": "Jonathan M. Feigenbaum, Esquire, Boston Disability Lawyer", "opening_hours": {"open_now": true}, "photos": [{"height": 667, "html_attributions": ["<a href=\"https://maps.google.com/maps/contrib/113401348341580179245/photos\">Jonathan M. Feigenbaum, Esquire, Boston Disability Lawyer</a>"], "photo_reference": "CmRaAAAAwHN-G2Ap1S0zUqkBGFNsfbJ16A7i-7Equ55XgEYSTGTXbtyoPB-ggYie__XGPYf5iNnkfe3fU-bggpPdea2s7MC2PzYR7oFAG9rtvb81x46n5I4sPcTmsXgX3_1nhgwCEhAQVSal3fkPBlOvaeeaprE2GhS6beyq9E71jwM9ViSzo_kgEuvKNA", "width": 1000}], "place_id": "ChIJ_RU7L4dw44kR3U-eM4Yr-ug", "plus_code": {"compound_code": "9W4W+MX Boston, Massachusetts, United States", "global_code": "87JC9W4W+MX"}, "rating": 4.9, "reference": "ChIJ_RU7L4dw44kR3U-eM4Yr-ug", "scope": "GOOGLE", "types": ["lawyer", "point_of_interest", "establishment"], "user_ratings_total": 45, "vicinity": "184 High Street #503, Boston"}, "ChIJ0TtpKIdw44kRFtCUFoXNeX4": {"geometry": {"location": {"lat": 42.356649, "lng": -71.0526247}, "viewport": {"northeast": {"lat": 42.3579208302915, "lng": -71.0512388697085}, "southwest": {"lat": 42.35522286970851, "lng": -71.0539368302915}}}, "icon": "https://maps.gstatic.com/mapfiles/place_api/icons/generic_business-71.png", "id": "7752a83e85e2f113c14a64faf9ffe4f6218c37bd", "name": "Collins Law", "place_id": "ChIJ0TtpKIdw44kRFtCUFoXNeX4", "plus_code": {"compound_code": "9W4W+MX Boston, Massachusetts, United States", "global_code": "87JC9W4W+MX"}, "reference": "ChIJ0TtpKIdw44kRFtCUFoXNeX4", "scope": "GOOGLE", "types": ["point_of_interest", "establishment"], "vicinity": "184 High Street #503, Boston"}, "ChIJ0TtpKIdw44kR51vm1kbELFA": {"geometry": {"location": {"lat": 42.356649, "lng": -71.0526247}, "viewport": {"northeast": {"lat": 42.3579208302915, "lng": -71.0512388697085}, "southwest": {"lat": 42.35522286970851, "lng": -71.0539368302915}}}, "icon": "https://maps.gstatic.com/mapfiles/place_api/icons/civic_building-71.png", "id": "c466fc4a0ab7ebabe6fa919a49ba4a12ad68463e", "name": "The Independent Medical Exam", "place_id": "ChIJ0TtpKIdw44kR51vm1kbELFA", "plus_code": {"compound_code": "9W4W+MX Boston, Massachusetts, United States", "global_code": "87JC9W4W+MX"}, "reference": "ChIJ0TtpKIdw44kR51vm1kbELFA", "scope": "GOOGLE", "types": ["local_government_office", "health", "point_of_interest", "establishment"], "vicinity": "184 High Street #503, Boston"}, "ChIJHTE6L4dw44kRLiH1wteuaHQ": {"geometry": {"location": {"lat": 42.3566489, "lng": -71.0526247}, "viewport": {"northeast": {"lat": 42.35792078029149, "lng": -71.0512388697085}, "southwest": {"lat": 42.3552228197085, "lng": -71.0539368302915}}}, "icon": "https://maps.gstatic.com/mapfiles/place_api/icons/civic_building-71.png", "id": "59dcce4199dcfe137b8a1fa7f046f0c9645f4521", "name": "Skidoo Staffing Inc", "place_id": "ChIJHTE6L4dw44kRLiH1wteuaHQ", "plus_code": {"compound_code": "9W4W+MX Boston, Massachusetts, United States", "global_code": "87JC9W4W+MX"}, "reference": "ChIJHTE6L4dw44kRLiH1wteuaHQ", "scope": "GOOGLE", "types": ["point_of_interest", "establishment"], "vicinity": "184 High Street, Boston"}, "ChIJHTE6L4dw44kRjDnS0mLCvvA": {"geometry": {"location": {"lat": 42.3566489, "lng": -71.0526247}, "viewport": {"northeast": {"lat": 42.35792078029149, "lng": -71.0512388697085}, "southwest": {"lat": 42.3552228197085, "lng": -71.0539368302915}}}, "icon": "https://maps.gstatic.com/mapfiles/place_api/icons/bar-71.png", "id": "d0aa268d449370962599f2226b1cc02742278933", "name": "Down Nightclub Boston", "opening_hours": {"open_now": false}, "photos": [{"height": 692, "html_attributions": ["<a href=\"https://maps.google.com/maps/contrib/111828873191329284655/photos\">Down Nightclub Boston</a>"], "photo_reference": "CmRaAAAAunGTOHNmuaB8uhG-YuOy3FWWV3nFptlNwWwhpHNYtmDlYUnGPwa9KC4Dy20A1klg5TgsbC7dG6ICebVpADzALDZfVxk3CCNlqeL0t0xn_Y32BDAbkYGjcsNlqHuNBvCLEhC5R9VqOeh4nrCpjTKFZRSKGhT2YoS1NpywOMmq2APvkhwWI5fzdw", "width": 692}], "place_id": "ChIJHTE6L4dw44kRjDnS0mLCvvA", "plus_code": {"compound_code": "9W4W+MX Boston, Massachusetts, United States", "global_code": "87JC9W4W+MX"}, "rating": 3.4, "reference": "ChIJHTE6L4dw44kRjDnS0mLCvvA", "scope": "GOOGLE", "types": ["night_club", "bar", "point_of_interest", "establishment"], "user_ratings_total": 16, "vicinity": "184 High Street, Boston"}, "ChIJ2ztpKIdw44kR9qecQ1TPIok": {"geometry": {"location": {"lat": 42.3566489, "lng": -71.0526247}, "viewport": {"northeast": {"lat": 42.35792078029149, "lng": -71.0512388697085}, "southwest": {"lat": 42.3552228197085, "lng": -71.0539368302915}}}, "icon": "https://maps.gstatic.com/mapfiles/place_api/icons/generic_business-71.png", "id": "d0a320147c8b33df0d7b46144167c0956a6dcb19", "name": "Brian Cavanaugh - Mortgage Network, Inc. NMLS#441864", "opening_hours": {"open_now": true}, "photos": [{"height": 480, "html_attributions": ["<a href=\"https://maps.google.com/maps/contrib/113392804672941420267/photos\">Brian Cavanaugh - Mortgage Network, Inc. NMLS#441864</a>"], "photo_reference": "CmRaAAAARnOCqzpBb32jH4FsD-YjYUAGY6KvHe05eh1gSjwv-02pvzNghsAxkvWd2fRmbmv0jqG61q_GNo3_7usn984ZsjzFBQEMLN1t3q8ilc4f6gpeWLM-D_ZntjVcDw49O8cpEhDbZZNAWRsSqD9BoAQWCwdIGhSGn_MInofGsKEpkUAJT_aPDsWHrw", "width": 725}], "place_id": "ChIJ2ztpKIdw44kR9qecQ1TPIok", "plus_code": {"compound_code": "9W4W+MX Boston, Massachusetts, United States", "global_code": "87JC9W4W+MX"}, "rating": 5, "reference": "ChIJ2ztpKIdw44kR9qecQ1TPIok", "scope": "GOOGLE", "types": ["finance", "point_of_interest", "establishment"], "user_ratings_total": 41, "vicinity": "184 High Street 7th Floor, Boston"}, "ChIJHTE6L4dw44kRR53Hnt4oI-s": {"geometry": {"location": {"lat": 42.3566538, "lng": -71.05253739999999}, "viewport": {"northeast": {"lat": 42.3579322802915, "lng": -71.05115861970849}, "southwest": {"lat": 42.3552343197085, "lng": -71.05385658029151}}}, "icon": "https://maps.gstatic.com/mapfiles/place_api/icons/generic_business-71.png", "id": "ccddec7e48b3feb05bd55414dcde8a2d5cd63a33", "name": "3LP Advisors LLC", "place_id": "ChIJHTE6L4dw44kRR53Hnt4oI-s", "plus_code": {"compound_code": "9W4W+MX Boston, Massachusetts, United States", "global_code": "87JC9W4W+MX"}, "reference": "ChIJHTE6L4dw44kRR53Hnt4oI-s", "scope": "GOOGLE", "types": ["point_of_interest", "establishment"], "vicinity": "184 High Street, Boston"}, "ChIJ2ztpKIdw44kRgvFByQZRloY": {"geometry": {"location": {"lat": 42.35664479999999, "lng": -71.052512}, "viewport": {"northeast": {"lat": 42.3579300302915, "lng": -71.05113606970849}, "southwest": {"lat": 42.3552320697085, "lng": -71.0538340302915}}}, "icon": "https://maps.gstatic.com/mapfiles/place_api/icons/generic_business-71.png", "id": "f1d7419f4c29b0b94652d81e24f69f1338de9ba5", "name": "Burst", "opening_hours": {"open_now": true}, "photos": [{"height": 462, "html_attributions": ["<a href=\"https://maps.google.com/maps/contrib/113595327015473359585/photos\">Burst</a>"], "photo_reference": "CmRaAAAALb-8vnwJO1g68VP7wTdu-QfJrUz4_tXPSQGNiXTkmVJY7d3Z0Q-jDHMv-ZWjd4C8Y9Yp7hCrUDbgbATiQHnvJ-9jyCgGpqd2wAb6w7CZBOuD9Dop2BzifTNZwDQFgOSDEhCghNyXoGWVFZjP4j0GcEmqGhTNIccx8oQeNmDqhkUzdc8W1j-d3Q", "width": 462}], "place_id": "ChIJ2ztpKIdw44kRgvFByQZRloY", "plus_code": {"compound_code": "9W4W+MX Boston, Massachusetts, United States", "global_code": "87JC9W4W+MX"}, "rating": 5, "reference": "ChIJ2ztpKIdw44kRgvFByQZRloY", "scope": "GOOGLE", "types": ["point_of_interest", "establishment"], "user_ratings_total": 1, "vicinity": "184 High Street, Boston"}, "ChIJ9WkyL4dw44kRodkd73Rur8w": {"geometry": {"location": {"lat": 42.3566489, "lng": -71.0526247}, "viewport": {"northeast": {"lat": 42.35792078029149, "lng": -71.0512388697085}, "southwest": {"lat": 42.3552228197085, "lng": -71.0539368302915}}}, "icon": "https://maps.gstatic.com/mapfiles/place_api/icons/generic_business-71.png", "id": "f25e65873900371d278968ab3da596eb2e682967", "name": "Associated Press", "photos": [{"height": 3264, "html_attributions": ["<a href=\"https://maps.google.com/maps/contrib/117345867157693569843/photos\">Craig Turner</a>"], "photo_reference": "CmRaAAAA16vYuWDl0N0WMjIC97aV0d9-WX013loyg-CWCPREawRnO4xuixXRoq9hpJ9DiUOuYE3M5Pn1ZdOzwoCT2m8kN7sg7GPBQbmUKSHYn4IgAcl48F0vYK78U6WiemJFiV1KEhCxVSNxd6YlND89RLEGJoMXGhRBUGrpKedrYAB8GiLTQB04j0nOtw", "width": 1836}], "place_id": "ChIJ9WkyL4dw44kRodkd73Rur8w", "plus_code": {"compound_code": "9W4W+MX Boston, Massachusetts, United States", "global_code": "87JC9W4W+MX"}, "reference": "ChIJ9WkyL4dw44kRodkd73Rur8w", "scope": "GOOGLE", "types": ["point_of_interest", "establishment"], "vicinity": "184 High Street, Boston"}, "ChIJGzE9DS1l44kRoOhiASS_fHg": {"geometry": {"location": {"lat": 42.3600825, "lng": -71.0588801}, "viewport": {"northeast": {"lat": 42.40081989999999, "lng": -70.749455}, "southwest": {"lat": 42.22788, "lng": -71.191113}}}, "icon": "https://maps.gstatic.com/mapfiles/place_api/icons/geocode-71.png", "id": "06755c25d2b34d13942a4713971756a55b870ced", "name": "Boston", "photos": [{"height": 3024, "html_attributions": ["<a href=\"https://maps.google.com/maps/contrib/104670289779338733432/photos\">Natalia Zalucean</a>"], "photo_reference": "CmRaAAAAam78GJZxmzg4zt7ueIB2DD9_cIlXDSkH16pJxXM4NtWJYyiPbz94UFZm85zmaWXv4HIraygoy_R5DaPNxUMNygonXdTjg3fScSTfr6vKkRMUcPfqyym3iZxKzBBNzmXfEhAwrj77soLF8LDmGhO6m5WLGhTRdIyws-b_DFdj3He64BVGBSEaVA", "width": 4032}], "place_id": "ChIJGzE9DS1l44kRoOhiASS_fHg", "reference": "ChIJGzE9DS1l44kRoOhiASS_fHg", "scope": "GOOGLE", "types": ["locality", "political"], "vicinity": "Boston"}, "ChIJlUenK51w44kRxlza9lquYyk": {"geometry": {"location": {"lat": 42.3566254, "lng": -71.0527946}, "viewport": {"northeast": {"lat": 42.3578886802915, "lng": -71.0513990697085}, "southwest": {"lat": 42.3551907197085, "lng": -71.0540970302915}}}, "icon": "https://maps.gstatic.com/mapfiles/place_api/icons/generic_business-71.png", "id": "b4d4bcea0a6d49b156eab4b5787869b1c09e78da", "name": "United For A Fair Economy", "place_id": "ChIJlUenK51w44kRxlza9lquYyk", "plus_code": {"compound_code": "9W4W+MV Boston, Massachusetts, United States", "global_code": "87JC9W4W+MV"}, "reference": "ChIJlUenK51w44kRxlza9lquYyk", "scope": "GOOGLE", "types": ["point_of_interest", "establishment"], "vicinity": "184 High Street, Boston"}, "ChIJ2ztpKIdw44kRZS0zbW_Q-Ec": {"geometry": {"location": {"lat": 42.3566254, "lng": -71.0527946}, "viewport": {"northeast": {"lat": 42.3578886802915, "lng": -71.0513990697085}, "southwest": {"lat": 42.3551907197085, "lng": -71.0540970302915}}}, "icon": "https://maps.gstatic.com/mapfiles/place_api/icons/generic_business-71.png", "id": "a32894d5afa1307548c1b0e09f6a10ee37bc4045", "name": "Mortgage Network, Inc.", "opening_hours": {"open_now": true}, "photos": [{"height": 1152, "html_attributions": ["<a href=\"https://maps.google.com/maps/contrib/111748981080283424283/photos\">Mortgage Network, Inc.</a>"], "photo_reference": "CmRaAAAAbX5-b5rLAyTVMk-es5P2ZieAywY7GVGChltXLSSt4Do50trCbbWcuEPZDX-3zbiHSrFmmXb1No9dq1297y9SAAjmjZZIoux6OiyBUxcG4BtcYocMIsj9njdHxJse_2_1EhC03f-ZWww95pkndwK6dQQ_GhTvfqRryz5edtEQ_eo3IZnHdENFCA", "width": 2048}], "place_id": "ChIJ2ztpKIdw44kRZS0zbW_Q-Ec", "plus_code": {"compound_code": "9W4W+MV Boston, Massachusetts, United States", "global_code": "87JC9W4W+MV"}, "rating": 4.7, "reference": "ChIJ2ztpKIdw44kRZS0zbW_Q-Ec", "scope": "GOOGLE", "types": ["finance", "point_of_interest", "establishment"], "user_ratings_total": 6, "vicinity": "184 High Street #702, Boston"}, "ChIJDbhkRM9x44kRHBWEctWwObA": {"geometry": {"location": {"lat": 42.3568605, "lng": -71.05255559999999}, "viewport": {"northeast": {"lat": 42.3582576802915, "lng": -71.0512531697085}, "southwest": {"lat": 42.3555597197085, "lng": -71.05395113029151}}}, "icon": "https://maps.gstatic.com/mapfiles/place_api/icons/generic_business-71.png", "id": "9529659c2378210303ec5717b48c3b85d3f1cc2b", "name": "Hackett Brown and Renner", "place_id": "ChIJDbhkRM9x44kRHBWEctWwObA", "plus_code": {"compound_code": "9W4W+PX Boston, Massachusetts, United States", "global_code": "87JC9W4W+PX"}, "reference": "ChIJDbhkRM9x44kRHBWEctWwObA", "scope": "GOOGLE", "types": ["point_of_interest", "establishment"], "vicinity": "85-87 Wendell Street #46, Boston"}, "ChIJ1bzUJodw44kREb6pBtC3hXc": {"geometry": {"location": {"lat": 42.35689720000001, "lng": -71.05253929999999}, "viewport": {"northeast": {"lat": 42.3582850802915, "lng": -71.05122786970848}, "southwest": {"lat": 42.3555871197085, "lng": -71.05392583029149}}}, "icon": "https://maps.gstatic.com/mapfiles/place_api/icons/generic_business-71.png", "id": "6eb7d0e1b148798e41aa33a12c5314beae2dc940", "name": "Ben Brenner Associates", "place_id": "ChIJ1bzUJodw44kREb6pBtC3hXc", "plus_code": {"compound_code": "9W4W+QX Boston, Massachusetts, United States", "global_code": "87JC9W4W+QX"}, "reference": "ChIJ1bzUJodw44kREb6pBtC3hXc", "scope": "GOOGLE", "types": ["finance", "point_of_interest", "establishment"], "vicinity": "85 Wendell Street, Boston"}, "ChIJyVbTJodw44kRXmSxW33HPJM": {"geometry": {"location": {"lat": 42.3568939, "lng": -71.0525182}, "viewport": {"northeast": {"lat": 42.3582865802915, "lng": -71.05121141970851}, "southwest": {"lat": 42.3555886197085, "lng": -71.05390938029151}}}, "icon": "https://maps.gstatic.com/mapfiles/place_api/icons/generic_business-71.png", "id": "effa25feed253df309e36c128289080a4c5643c9", "name": "Ruthian Accounting Services", "place_id": "ChIJyVbTJodw44kRXmSxW33HPJM", "plus_code": {"compound_code": "9W4W+QX Boston, Massachusetts, United States", "global_code": "87JC9W4W+QX"}, "rating": 5, "reference": "ChIJyVbTJodw44kRXmSxW33HPJM", "scope": "GOOGLE", "types": ["accounting", "finance", "point_of_interest", "establishment"], "user_ratings_total": 1, "vicinity": "87 Wendell Street, Boston"}, "ChIJgTQnJIdw44kR_Tv-TadHxs0": {"geometry": {"location": {"lat": 42.3568939, "lng": -71.0525182}, "viewport": {"northeast": {"lat": 42.3582865802915, "lng": -71.05121141970851}, "southwest": {"lat": 42.3555886197085, "lng": -71.05390938029151}}}, "icon": "https://maps.gstatic.com/mapfiles/place_api/icons/generic_business-71.png", "id": "54b8034c924a3c483c4dcc70f58a6ec14ad58456", "name": "Todd, Shane & Siyu's Office", "place_id": "ChIJgTQnJIdw44kR_Tv-TadHxs0", "plus_code": {"compound_code": "9W4W+QX Boston, Massachusetts, United States", "global_code": "87JC9W4W+QX"}, "reference": "ChIJgTQnJIdw44kR_Tv-TadHxs0", "scope": "GOOGLE", "types": ["general_contractor", "point_of_interest", "establishment"], "vicinity": "85-87 Wendell Street, Boston"}, "ChIJ0TtpKIdw44kRi0agZe30W6s": {"geometry": {"location": {"lat": 42.356649, "lng": -71.0526247}, "viewport": {"northeast": {"lat": 42.3579208302915, "lng": -71.0512388697085}, "southwest": {"lat": 42.35522286970851, "lng": -71.0539368302915}}}, "icon": "https://maps.gstatic.com/mapfiles/place_api/icons/generic_business-71.png", "id": "f972d90056e6415e151c51a1b524bd41b0812ff6", "name": "Brian Mitchell & Associates", "place_id": "ChIJ0TtpKIdw44kRi0agZe30W6s", "plus_code": {"compound_code": "9W4W+MX Boston, Massachusetts, United States", "global_code": "87JC9W4W+MX"}, "reference": "ChIJ0TtpKIdw44kRi0agZe30W6s", "scope": "GOOGLE", "types": ["point_of_interest", "establishment"], "vicinity": "184 High Street #701, Boston"}, "ChIJ2ztpKIdw44kRi_N8a46mDx0": {"geometry": {"location": {"lat": 42.3566489, "lng": -71.0526247}, "viewport": {"northeast": {"lat": 42.35792078029149, "lng": -71.0512388697085}, "southwest": {"lat": 42.3552228197085, "lng": -71.0539368302915}}}, "icon": "https://maps.gstatic.com/mapfiles/place_api/icons/generic_business-71.png", "id": "604242252a29530d8e8e956021d2fca4f46a3929", "name": "Sherpa Technology Group", "photos": [{"height": 1000, "html_attributions": ["<a href=\"https://maps.google.com/maps/contrib/109926462453656010283/photos\">Sherpa Technology Group</a>"], "photo_reference": "CmRaAAAAlKqQtqFealHlXAJJhkeH2puvqJ0Hb7YL1T6EqDbX-VFgnZz958jpMQEkRRsSw5ousQA4ZKqo87GGgsG02qaQzHz_nFBogbuu3znGEOurVeVWP52cYCW8IEdhUKcPfuj9EhBMX0O1eCgfrXkdJNY9Lq-sGhTnNhgmvDcNHYVsw69EuwZaPbsxlw", "width": 1000}], "place_id": "ChIJ2ztpKIdw44kRi_N8a46mDx0", "plus_code": {"compound_code": "9W4W+MX Boston, Massachusetts, United States", "global_code": "87JC9W4W+MX"}, "reference": "ChIJ2ztpKIdw44kRi_N8a46mDx0", "scope": "GOOGLE", "types": ["point_of_interest", "establishment"], "vicinity": "184 High Street #401, Boston"}, "ChIJ9WkyL4dw44kRPhRpA2LGq7U": {"geometry": {"location": {"lat": 42.3566489, "lng": -71.0526247}, "viewport": {"northeast": {"lat": 42.35792078029149, "lng": -71.0512388697085}, "southwest": {"lat": 42.3552228197085, "lng": -71.0539368302915}}}, "icon": "https://maps.gstatic.com/mapfiles/place_api/icons/generic_business-71.png", "id": "4b40dc1ae8cd3a3781b2b6c67c2b15ce7c3e6b8e", "name": "Spire Creative Services", "place_id": "ChIJ9WkyL4dw44kRPhRpA2LGq7U", "plus_code": {"compound_code": "9W4W+MX Boston, Massachusetts, United States", "global_code": "87JC9W4W+MX"}, "reference": "ChIJ9WkyL4dw44kRPhRpA2LGq7U", "scope": "GOOGLE", "types": ["point_of_interest", "establishment"], "vicinity": "184 High Street, Boston"}, "ChIJ2ztpKIdw44kRUlBYDsTkEbU": {"geometry": {"location": {"lat": 42.3566489, "lng": -71.0526247}, "viewport": {"northeast": {"lat": 42.35792078029149, "lng": -71.0512388697085}, "southwest": {"lat": 42.3552228197085, "lng": -71.0539368302915}}}, "icon": "https://maps.gstatic.com/mapfiles/place_api/icons/civic_building-71.png", "id": "10e8e5c1d5c5251f878d0c9b220ea0257d99b7d8", "name": "Daly & Company", "place_id": "ChIJ2ztpKIdw44kRUlBYDsTkEbU", "plus_code": {"compound_code": "9W4W+MX Boston, Massachusetts, United States", "global_code": "87JC9W4W+MX"}, "reference": "ChIJ2ztpKIdw44kRUlBYDsTkEbU", "scope": "GOOGLE", "types": ["point_of_interest", "establishment"], "vicinity": "184 High Street, Boston"}, "ChIJ2ztpKIdw44kRXQxiPT5NJQ8": {"geometry": {"location": {"lat": 42.3566489, "lng": -71.0526247}, "viewport": {"northeast": {"lat": 42.35792078029149, "lng": -71.0512388697085}, "southwest": {"lat": 42.3552228197085, "lng": -71.0539368302915}}}, "icon": "https://maps.gstatic.com/mapfiles/place_api/icons/generic_business-71.png", "id": "5fb0a09344eb85a662f8b05a923a32cf0627a183", "name": "whitewaterredhotlead", "place_id": "ChIJ2ztpKIdw44kRXQxiPT5NJQ8", "plus_code": {"compound_code": "9W4W+MX Boston, Massachusetts, United States", "global_code": "87JC9W4W+MX"}, "reference": "ChIJ2ztpKIdw44kRXQxiPT5NJQ8", "scope": "GOOGLE", "types": ["point_of_interest", "establishment"], "vicinity": "184 High Street, Boston"}, "ChIJq6ra14Zw44kR-KTpQRNc6oU": {"geometry": {"location": {"lat": 42.3566254, "lng": -71.0527946}, "viewport": {"northeast": {"lat": 42.3578886802915, "lng": -71.0513990697085}, "southwest": {"lat": 42.3551907197085, "lng": -71.0540970302915}}}, "icon": "https://maps.gstatic.com/mapfiles/place_api/icons/generic_business-71.png", "id": "ec6ac34146e9d0210f50eacc0a9b9b9a4c112598", "name": "Swift Current Energy", "place_id": "ChIJq6ra14Zw44kR-KTpQRNc6oU", "plus_code": {"compound_code": "9W4W+MV Boston, Massachusetts, United States", "global_code": "87JC9W4W+MV"}, "reference": "ChIJq6ra14Zw44kR-KTpQRNc6oU", "scope": "GOOGLE", "types": ["point_of_interest", "establishment"], "vicinity": "184 High Street, Boston"}, "ChIJHY80HIVw44kRe9JEhKQjuNo": {"geometry": {"location": {"lat": 42.35658919999999, "lng": -71.052508}, "viewport": {"northeast": {"lat": 42.35790018029149, "lng": -71.0511429697085}, "southwest": {"lat": 42.3552022197085, "lng": -71.05384093029151}}}, "icon": "https://maps.gstatic.com/mapfiles/place_api/icons/generic_business-71.png", "id": "e9df2b036e0b7f159a081fca0ae4bf94f0f15ca7", "name": "Voysis", "opening_hours": {"open_now": true}, "photos": [{"height": 800, "html_attributions": ["<a href=\"https://maps.google.com/maps/contrib/118045465609482074048/photos\">Voysis</a>"], "photo_reference": "CmRaAAAA2LdWZO4pQRfnGRVpant_u24ws30tnwUFoEm29N_jV0irl0bwr3g2vHjQpTgJNBFWnWmtcpUpUIK3Uw6oPtUMSn7bBtWuvMwza9mhkX49SvSJdm-i_vr4OvyJacRkin1OEhDP4fxJv0ugt8L5DxUSg6cKGhSoQK6JE2_iaX6sptxuaT1ae5UHkw", "width": 800}], "place_id": "ChIJHY80HIVw44kRe9JEhKQjuNo", "plus_code": {"compound_code": "9W4W+JX Boston, Massachusetts, United States", "global_code": "87JC9W4W+JX"}, "reference": "ChIJHY80HIVw44kRe9JEhKQjuNo", "scope": "GOOGLE", "types": ["point_of_interest", "establishment"], "vicinity": "184 High Street, Boston"}, "ChIJq6ra14Zw44kRRLRywYrO4H4": {"geometry": {"location": {"lat": 42.3566254, "lng": -71.0527946}, "viewport": {"northeast": {"lat": 42.3578886802915, "lng": -71.0513990697085}, "southwest": {"lat": 42.3551907197085, "lng": -71.0540970302915}}}, "icon": "https://maps.gstatic.com/mapfiles/place_api/icons/restaurant-71.png", "id": "eab2568cd92368f8f49efa3c07cef94d8061ed55", "name": "Sat\u00e9 Grill Food Truck", "opening_hours": {"open_now": true}, "photos": [{"height": 1536, "html_attributions": ["<a href=\"https://maps.google.com/maps/contrib/104793962556863774702/photos\">Sat\u00e9 Grill Food Truck</a>"], "photo_reference": "CmRaAAAAGBsF4Q3oxD5PClEkKMOFotaGWdickJKLXmSX9YJj1Jnnu71g5g7vDPLuGkFAK3-M9_zdUC22-omNgLGCeXDXKwLVDRnOFSwJuuIVigfEmKzPDFDjkShYCDkzdS-jCs9eEhBd1LO8w4wIzOjhx0mc0QJlGhTNp9YI-9DASQpBeB7axwPEnajgeg", "width": 2048}], "place_id": "ChIJq6ra14Zw44kRRLRywYrO4H4", "plus_code": {"compound_code": "9W4W+MV Boston, Massachusetts, United States", "global_code": "87JC9W4W+MV"}, "rating": 5, "reference": "ChIJq6ra14Zw44kRRLRywYrO4H4", "scope": "GOOGLE", "types": ["restaurant", "point_of_interest", "food", "establishment"], "user_ratings_total": 1, "vicinity": "184 High Street, Boston"}, "ChIJ463L93xx44kRWVV9yoRds1g": {"geometry": {"location": {"lat": 42.3566254, "lng": -71.0527946}, "viewport": {"northeast": {"lat": 42.3578886802915, "lng": -71.0513990697085}, "southwest": {"lat": 42.3551907197085, "lng": -71.0540970302915}}}, "icon": "https://maps.gstatic.com/mapfiles/place_api/icons/generic_business-71.png", "id": "a9a400eccb16b94116a94dde6238a97bc19f3833", "name": "Elisa Balboni - Mortgage Network Inc., NLMS #179909", "opening_hours": {"open_now": true}, "place_id": "ChIJ463L93xx44kRWVV9yoRds1g", "plus_code": {"compound_code": "9W4W+MV Boston, Massachusetts, United States", "global_code": "87JC9W4W+MV"}, "reference": "ChIJ463L93xx44kRWVV9yoRds1g", "scope": "GOOGLE", "types": ["finance", "point_of_interest", "establishment"], "vicinity": "184 High Street #702, Boston"}}