{"ChIJ_TJhj3d644kRolFxrfvpIeQ": {"geometry": {"location": {"lat": 42.3512273, "lng": -71.06214539999999}, "viewport": {"northeast": {"lat": 42.35257628029149, "lng": -71.06079646970849}, "southwest": {"lat": 42.34987831970849, "lng": -71.0634944302915}}}, "icon": "https://maps.gstatic.com/mapfiles/place_api/icons/geocode-71.png", "id": "cfb6c024bbe23770d8b91827a9342d7821efbd6d", "name": "2-8 Knapp St", "place_id": "ChIJ_TJhj3d644kRolFxrfvpIeQ", "reference": "ChIJ_TJhj3d644kRolFxrfvpIeQ", "scope": "GOOGLE", "types": ["route"], "vicinity": "Boston"}, "ChIJPQ5XKHh644kRv5e3BF6epWU": {"geometry": {"location": {"lat": 42.35101049999999, "lng": -71.0616268}, "viewport": {"northeast": {"lat": 42.3523319802915, "lng": -71.06015476970849}, "southwest": {"lat": 42.3496340197085, "lng": -71.0628527302915}}}, "icon": "https://maps.gstatic.com/mapfiles/place_api/icons/restaurant-71.png", "id": "923dd80e24af10729baae6f9439e4edb3e53bad7", "name": "Hong Kong Eatery", "opening_hours": {"open_now": true}, "photos": [{"height": 3024, "html_attributions": ["<a href=\"https://maps.google.com/maps/contrib/115972304609392075711/photos\">Jian Feng Kong</a>"], "photo_reference": "CmRaAAAARBEcJi7ajKXac4wsO05q6dR2Ttfs0SgT0WyTEi_D5H29821BK6QqoEaSdV5hs49NheYof9uTbu8XranadCq6cco6EiVqoaZgyF-WAinSijE1BfQuNQI-LWBMPoV9Dm8eEhAVKRlUk3bTO0JuE3zgjHrgGhQPfRTa6gI1wCydq2sTqdL5m0B36A", "width": 4032}], "place_id": "ChIJPQ5XKHh644kRv5e3BF6epWU", "plus_code": {"compound_code": "9W2Q+C8 Boston, Massachusetts, United States", "global_code": "87JC9W2Q+C8"}, "price_level": 1, "rating": 4.1, "reference": "ChIJPQ5XKHh644kRv5e3BF6epWU", "scope": "GOOGLE", "types": ["restaurant", "point_of_interest", "food", "establishment"], "user_ratings_total": 395, "vicinity": "79 Harrison Avenue, Boston"}, "ChIJvWBUgXd644kRj3_EVsFiUrs": {"geometry": {"location": {"lat": 42.3508769, "lng": -71.0619861}, "viewport": {"northeast": {"lat": 42.3521832302915, "lng": -71.06068646970849}, "southwest": {"lat": 42.3494852697085, "lng": -71.06338443029149}}}, "icon": "https://maps.gstatic.com/mapfiles/place_api/icons/generic_business-71.png", "id": "f065d90dffdee8a9157b834c6e534ffbb9f47e39", "name": "Eva Beauty & Skin Care Center", "opening_hours": {"open_now": true}, "photos": [{"height": 2688, "html_attributions": ["<a href=\"https://maps.google.com/maps/contrib/104701845955524637324/photos\">Tim Hannafin</a>"], "photo_reference": "CmRaAAAAgs7IXqOOyhFWPDmcKkGhb_WZwjM2GbLEvX1QwbonI5PtqosxKRaoK3f5urIdnyw-dlRTDxS1D-pN389d-1EzXRaBwBsIAKAxhTVW9JohOFAgFdMGVF-l6xWdFtF99DSpEhAgG7nvV3XYbxMbRw3mODlcGhSc4e27_H17pjORS2Z5Xo82Ldkhzg", "width": 1520}], "place_id": "ChIJvWBUgXd644kRj3_EVsFiUrs", "plus_code": {"compound_code": "9W2Q+96 Boston, Massachusetts, United States", "global_code": "87JC9W2Q+96"}, "rating": 4.3, "reference": "ChIJvWBUgXd644kRj3_EVsFiUrs", "scope": "GOOGLE", "types": ["beauty_salon", "point_of_interest", "establishment"], "user_ratings_total": 12, "vicinity": "24 Kneeland Street, Boston"}, "ChIJY_3ojnd644kR978xdheRItI": {"geometry": {"location": {"lat": 42.35103699999999, "lng": -71.0619234}, "viewport": {"northeast": {"lat": 42.35234498029149, "lng": -71.06059141970849}, "southwest": {"lat": 42.34964701970849, "lng": -71.06328938029151}}}, "icon": "https://maps.gstatic.com/mapfiles/place_api/icons/generic_business-71.png", "id": "3025ed4b9809457b88dfe3265d59c149e9d91c94", "name": "Coco Head Hair Studio", "opening_hours": {"open_now": true}, "photos": [{"height": 4032, "html_attributions": ["<a href=\"https://maps.google.com/maps/contrib/109399729848724779905/photos\">Xin Zhang</a>"], "photo_reference": "CmRaAAAAJ7t3G4vU1CeDC4IueAZqdknOiBKsmobHqgQo3B5zSLx59nbd0pY9K26I9447GVeZmvR22GoRbJDAWuBmCt1l9mlFmB2tbVvo0mNRADgbFO5QOZ2aNtxxXI-FwpM9bXAJEhAD2K3bjOqW8iscmuiep1NMGhRsuhAmRJfqjULMdYQD0qJrg-RhZg", "width": 3024}], "place_id": "ChIJY_3ojnd644kR978xdheRItI", "plus_code": {"compound_code": "9W2Q+C6 Boston, Massachusetts, United States", "global_code": "87JC9W2Q+C6"}, "rating": 4.5, "reference": "ChIJY_3ojnd644kR978xdheRItI", "scope": "GOOGLE", "types": ["beauty_salon", "hair_care", "point_of_interest", "establishment"], "user_ratings_total": 39, "vicinity": "9 Knapp Street, Boston"}, "ChIJkQIegXd644kRhXpoadAOr8s": {"geometry": {"location": {"lat": 42.3508642, "lng": -71.06187899999999}, "viewport": {"northeast": {"lat": 42.35214818029149, "lng": -71.0605601697085}, "southwest": {"lat": 42.34945021970849, "lng": -71.0632581302915}}}, "icon": "https://maps.gstatic.com/mapfiles/place_api/icons/school-71.png", "id": "3c1bcf1673ed51eb7d5c9c8595c4a432491e94e1", "name": "Chinese Institute of Language", "place_id": "ChIJkQIegXd644kRhXpoadAOr8s", "plus_code": {"compound_code": "9W2Q+86 Boston, Massachusetts, United States", "global_code": "87JC9W2Q+86"}, "rating": 3.5, "reference": "ChIJkQIegXd644kRhXpoadAOr8s", "scope": "GOOGLE", "types": ["point_of_interest", "establishment"], "user_ratings_total": 2, "vicinity": "30 Kneeland Street # 3, Boston"}, "ChIJVx0egXd644kR0agnO4grIFQ": {"geometry": {"location": {"lat": 42.3508642, "lng": -71.06187899999999}, "viewport": {"northeast": {"lat": 42.35214818029149, "lng": -71.0605601697085}, "southwest": {"lat": 42.34945021970849, "lng": -71.0632581302915}}}, "icon": "https://maps.gstatic.com/mapfiles/place_api/icons/generic_business-71.png", "id": "9d03b2cbadc435305c913a41175e7de3b7ca0c64", "name": "Guan Rong MD", "place_id": "ChIJVx0egXd644kR0agnO4grIFQ", "plus_code": {"compound_code": "9W2Q+86 Boston, Massachusetts, United States", "global_code": "87JC9W2Q+86"}, "reference": "ChIJVx0egXd644kR0agnO4grIFQ", "scope": "GOOGLE", "types": ["doctor", "health", "point_of_interest", "establishment"], "vicinity": "30 Kneeland Street, Boston"}, "ChIJY0dtj3d644kRzg8G02GQAUQ": {"geometry": {"location": {"lat": 42.35104209999999, "lng": -71.06190649999999}, "viewport": {"northeast": {"lat": 42.3523459802915, "lng": -71.0605762197085}, "southwest": {"lat": 42.3496480197085, "lng": -71.0632741802915}}}, "icon": "https://maps.gstatic.com/mapfiles/place_api/icons/generic_business-71.png", "id": "10fc97022dd32be8d38e856a136f20fa183dcb8f", "name": "9 Knapp Street Realty Trust", "place_id": "ChIJY0dtj3d644kRzg8G02GQAUQ", "plus_code": {"compound_code": "9W2Q+C6 Boston, Massachusetts, United States", "global_code": "87JC9W2Q+C6"}, "rating": 5, "reference": "ChIJY0dtj3d644kRzg8G02GQAUQ", "scope": "GOOGLE", "types": ["real_estate_agency", "point_of_interest", "establishment"], "user_ratings_total": 1, "vicinity": "9 Knapp Street # 4, Boston"}, "ChIJ-WxNhHd644kRI-MdNekaUkI": {"geometry": {"location": {"lat": 42.35103699999999, "lng": -71.0619234}, "viewport": {"northeast": {"lat": 42.35234498029149, "lng": -71.06059141970849}, "southwest": {"lat": 42.34964701970849, "lng": -71.06328938029151}}}, "icon": "https://maps.gstatic.com/mapfiles/place_api/icons/generic_business-71.png", "id": "85581756b16dfc866e9ac4afc530400b5588528f", "name": "Vioclean All Natural Green Carpet Cleaning", "opening_hours": {"open_now": false}, "place_id": "ChIJ-WxNhHd644kRI-MdNekaUkI", "plus_code": {"compound_code": "9W2Q+C6 Boston, Massachusetts, United States", "global_code": "87JC9W2Q+C6"}, "rating": 4, "reference": "ChIJ-WxNhHd644kRI-MdNekaUkI", "scope": "GOOGLE", "types": ["laundry", "point_of_interest", "establishment"], "user_ratings_total": 1, "vicinity": "9 Knapp Street, Boston"}, "ChIJTaCLKnh644kRgG4DzJGQQ70": {"geometry": {"location": {"lat": 42.3508741, "lng": -71.06182890000001}, "viewport": {"northeast": {"lat": 42.35214793029149, "lng": -71.0605147197085}, "southwest": {"lat": 42.3494499697085, "lng": -71.0632126802915}}}, "icon": "https://maps.gstatic.com/mapfiles/place_api/icons/generic_business-71.png", "id": "9e6472ea93c3220d6cbc31fa2af9594279e81ebb", "name": "Western Union", "opening_hours": {"open_now": true}, "photos": [{"height": 1000, "html_attributions": ["<a href=\"https://maps.google.com/maps/contrib/105673811891306331867/photos\">Western Union</a>"], "photo_reference": "CmRZAAAAyg488PQc1vVzlH-o6FNWBGVBosoZxX5fVlA4ffDI7qwb8aqdvLnkorgNLXRdX2s-vlON2KYpWSwGZxaZdH4j6HduAJWvuoNL4W1T5gHGcXmOiWyTj6XfQ9c2IpSqH6fjEhDg2iMA4FtQATPYq2wNLHxRGhTOwOrIn_mz7_Jxn_8A5lzQj-p_Pw", "width": 1000}], "place_id": "ChIJTaCLKnh644kRgG4DzJGQQ70", "plus_code": {"compound_code": "9W2Q+87 Boston, Massachusetts, United States", "global_code": "87JC9W2Q+87"}, "reference": "ChIJTaCLKnh644kRgG4DzJGQQ70", "scope": "GOOGLE", "types": ["finance", "point_of_interest", "establishment"], "vicinity": "44 Kneeland Street, Boston"}, "ChIJO8wsgXd644kRgSB1c2oAtpE": {"geometry": {"location": {"lat": 42.3508642, "lng": -71.06187899999999}, "viewport": {"northeast": {"lat": 42.35214818029149, "lng": -71.0605601697085}, "southwest": {"lat": 42.34945021970849, "lng": -71.0632581302915}}}, "icon": "https://maps.gstatic.com/mapfiles/place_api/icons/generic_business-71.png", "id": "08ce35614b8a474a81ba7a5ad868473dc1d3f9a5", "name": "LIT BOUTIQUE", "place_id": "ChIJO8wsgXd644kRgSB1c2oAtpE", "plus_code": {"compound_code": "9W2Q+86 Boston, Massachusetts, United States", "global_code": "87JC9W2Q+86"}, "reference": "ChIJO8wsgXd644kRgSB1c2oAtpE", "scope": "GOOGLE", "types": ["point_of_interest", "establishment"], "vicinity": "30 Kneeland Street, Boston"}, "ChIJLb8BhHd644kRAl2jd674HdU": {"geometry": {"location": {"lat": 42.3509055, "lng": -71.0620402}, "viewport": {"northeast": {"lat": 42.3522134802915, "lng": -71.0607386697085}, "southwest": {"lat": 42.3495155197085, "lng": -71.0634366302915}}}, "icon": "https://maps.gstatic.com/mapfiles/place_api/icons/generic_business-71.png", "id": "0686c589604fbb8c6c289e9ddfc0107ad777587e", "name": "MBA Insurance Agency", "place_id": "ChIJLb8BhHd644kRAl2jd674HdU", "plus_code": {"compound_code": "9W2Q+95 Boston, Massachusetts, United States", "global_code": "87JC9W2Q+95"}, "reference": "ChIJLb8BhHd644kRAl2jd674HdU", "scope": "GOOGLE", "types": ["insurance_agency", "point_of_interest", "establishment"], "vicinity": "20 Kneeland Street, Boston"}, "ChIJv6oRKHh644kRqo21LeEKGAY": {"geometry": {"location": {"lat": 42.351069, "lng": -71.061604}, "viewport": {"northeast": {"lat": 42.3523903802915, "lng": -71.0601314197085}, "southwest": {"lat": 42.3496924197085, "lng": -71.0628293802915}}}, "icon": "https://maps.gstatic.com/mapfiles/place_api/icons/generic_business-71.png", "id": "727b34f4587c711b535bc399bfd84686d6cbdb04", "name": "Western Union", "opening_hours": {"open_now": true}, "photos": [{"height": 1000, "html_attributions": ["<a href=\"https://maps.google.com/maps/contrib/105344356131133443237/photos\">Western Union</a>"], "photo_reference": "CmRaAAAAAjwNHbPIaSRaIM_7MUqF9ZHlVtq0y03Ts13-42i0LsjSlVGqRgxy99ZemK_cMhf1ZDOaBOay-2409xwm4psr-S3tmluq4bPAEyX_5G0NNcskRxSmObMesNC-NpLqhBqLEhCNGcjTRaZYSPNBiU7DUhGJGhRJclKCxAX6waII4TDmIoQEElJSRw", "width": 1000}], "place_id": "ChIJv6oRKHh644kRqo21LeEKGAY", "plus_code": {"compound_code": "9W2Q+C9 Boston, Massachusetts, United States", "global_code": "87JC9W2Q+C9"}, "reference": "ChIJv6oRKHh644kRqo21LeEKGAY", "scope": "GOOGLE", "types": ["finance", "point_of_interest", "establishment"], "vicinity": "77 Harrison Avenue, Boston"}, "ChIJVx0egXd644kR5_ACVdPYHyE": {"geometry": {"location": {"lat": 42.3508745, "lng": -71.0618248}, "viewport": {"northeast": {"lat": 42.35214773029149, "lng": -71.06051091970849}, "southwest": {"lat": 42.3494497697085, "lng": -71.0632088802915}}}, "icon": "https://maps.gstatic.com/mapfiles/place_api/icons/generic_business-71.png", "id": "3100064c83254a6907949d75c073fd07ed5bc7a1", "name": "Dinh Tran, PT", "photos": [{"height": 3024, "html_attributions": ["<a href=\"https://maps.google.com/maps/contrib/101505479677083860994/photos\">Alex Tang</a>"], "photo_reference": "CmRZAAAA8JUwUXGweZ58GO2f0Df2t9NVUsW_Y92uNfJeE4JtA6wDrHATTfw3SBvDfLY7kk3ZCxLcjODVrGcQzpvfR6k4j222Pn5IPHfoNU-at_zZ4I7iYOXFtjSupYdakz2uRFPlEhBSmGRVzgy13-5ULX4F3EM6GhQSBn_iE8bAVJoc-gdMP7PN_AxtbA", "width": 4032}], "place_id": "ChIJVx0egXd644kR5_ACVdPYHyE", "plus_code": {"compound_code": "9W2Q+87 Boston, Massachusetts, United States", "global_code": "87JC9W2Q+87"}, "reference": "ChIJVx0egXd644kR5_ACVdPYHyE", "scope": "GOOGLE", "types": ["physiotherapist", "health", "point_of_interest", "establishment"], "vicinity": "30 Kneeland Street, Boston"}, "ChIJVx0egXd644kRZTtBF2Y0VpI": {"geometry": {"location": {"lat": 42.3508642, "lng": -71.06187899999999}, "viewport": {"northeast": {"lat": 42.35214818029149, "lng": -71.0605601697085}, "southwest": {"lat": 42.34945021970849, "lng": -71.0632581302915}}}, "icon": "https://maps.gstatic.com/mapfiles/place_api/icons/generic_business-71.png", "id": "c4151ea2dd1bd82706415cf59a4d3ef8d05815cc", "name": "Kenneth Yee Pc", "photos": [{"height": 3024, "html_attributions": ["<a href=\"https://maps.google.com/maps/contrib/101505479677083860994/photos\">Alex Tang</a>"], "photo_reference": "CmRZAAAAcLa2WQhNlUXofddcZULZ9B1wBdRycNbzBACz6iQiYMn2BKZMmLb69MK2KuhRsqaUSrzS1Zfj6C-CiUYEkKMecl--3q1gibVg8BgVoH_z83RDxLC_7dJVBSVFPQNInoArEhCDP1gq5EKn8kfZOR6Ld9uCGhRZVcfM3u4Xmzfe82-aX2xw-DR6dg", "width": 4032}], "place_id": "ChIJVx0egXd644kRZTtBF2Y0VpI", "plus_code": {"compound_code": "9W2Q+86 Boston, Massachusetts, United States", "global_code": "87JC9W2Q+86"}, "rating": 5, "reference": "ChIJVx0egXd644kRZTtBF2Y0VpI", "scope": "GOOGLE", "types": ["lawyer", "point_of_interest", "establishment"], "user_ratings_total": 1, "vicinity": "30 Kneeland Street # 6, Boston"}, "ChIJuZeRhXd644kR4mOrg5vMvGA": {"geometry": {"location": {"lat": 42.35103699999999, "lng": -71.0619234}, "viewport": {"northeast": {"lat": 42.35234498029149, "lng": -71.06059141970849}, "southwest": {"lat": 42.34964701970849, "lng": -71.06328938029151}}}, "icon": "https://maps.gstatic.com/mapfiles/place_api/icons/civic_building-71.png", "id": "9d62e526db4576f7ee66d96ddfdf1875b17cffb1", "name": "Wing Lau Employment Agency", "place_id": "ChIJuZeRhXd644kR4mOrg5vMvGA", "plus_code": {"compound_code": "9W2Q+C6 Boston, Massachusetts, United States", "global_code": "87JC9W2Q+C6"}, "reference": "ChIJuZeRhXd644kR4mOrg5vMvGA", "scope": "GOOGLE", "types": ["point_of_interest", "establishment"], "vicinity": "9 Knapp Street # 6, Boston"}, "ChIJtz3XiHd644kRIYaTGAVXNWk": {"geometry": {"location": {"lat": 42.35103699999999, "lng": -71.0619234}, "viewport": {"northeast": {"lat": 42.35234498029149, "lng": -71.06059141970849}, "southwest": {"lat": 42.34964701970849, "lng": -71.06328938029151}}}, "icon": "https://maps.gstatic.com/mapfiles/place_api/icons/generic_business-71.png", "id": "bea08a91037fc085f6ee1bedfb43fc93b7873d31", "name": "Teo Chew Association of New England", "place_id": "ChIJtz3XiHd644kRIYaTGAVXNWk", "plus_code": {"compound_code": "9W2Q+C6 Boston, Massachusetts, United States", "global_code": "87JC9W2Q+C6"}, "reference": "ChIJtz3XiHd644kRIYaTGAVXNWk", "scope": "GOOGLE", "types": ["point_of_interest", "establishment"], "vicinity": "9 Knapp Street # 3, Boston"}, "ChIJq6qqqnl644kRrxH0VcVqQBc": {"geometry": {"location": {"lat": 42.3510923, "lng": -71.0619286}, "viewport": {"northeast": {"lat": 42.3523755302915, "lng": -71.0606068697085}, "southwest": {"lat": 42.3496775697085, "lng": -71.0633048302915}}}, "icon": "https://maps.gstatic.com/mapfiles/place_api/icons/generic_business-71.png", "id": "7ae7f6dc20cd917afa0d5926763bf10735d9424b", "name": "Angel Beauty Inc", "opening_hours": {"open_now": true}, "place_id": "ChIJq6qqqnl644kRrxH0VcVqQBc", "plus_code": {"compound_code": "9W2Q+C6 Boston, Massachusetts, United States", "global_code": "87JC9W2Q+C6"}, "reference": "ChIJq6qqqnl644kRrxH0VcVqQBc", "scope": "GOOGLE", "types": ["beauty_salon", "point_of_interest", "establishment"], "vicinity": "9 Knapp Street #2, Boston"}, "ChIJB29MgXd644kR25tlcTlIM4s": {"geometry": {"location": {"lat": 42.3508692, "lng": -71.0619524}, "viewport": {"northeast": {"lat": 42.3522568802915, "lng": -71.06058741970848}, "southwest": {"lat": 42.3495589197085, "lng": -71.0632853802915}}}, "icon": "https://maps.gstatic.com/mapfiles/place_api/icons/generic_business-71.png", "id": "313d6d89648819d71f2b662792085a4aa52f6487", "name": "D&K Mart", "place_id": "ChIJB29MgXd644kR25tlcTlIM4s", "plus_code": {"compound_code": "9W2Q+86 Boston, Massachusetts, United States", "global_code": "87JC9W2Q+86"}, "reference": "ChIJB29MgXd644kR25tlcTlIM4s", "scope": "GOOGLE", "types": ["point_of_interest", "establishment"], "vicinity": "Boston"}, "ChIJY7vvfdV744kRStlorXTSZe0": {"geometry": {"location": {"lat": 42.3508666, "lng": -71.0619835}, "viewport": {"northeast": {"lat": 42.35217543029149, "lng": -71.0606809697085}, "southwest": {"lat": 42.3494774697085, "lng": -71.0633789302915}}}, "icon": "https://maps.gstatic.com/mapfiles/place_api/icons/generic_business-71.png", "id": "befe58ac63ed1afad94f32a1a3f4f218db639dc6", "name": "Season Travel", "opening_hours": {"open_now": true}, "photos": [{"height": 4032, "html_attributions": ["<a href=\"https://maps.google.com/maps/contrib/109812748575237259891/photos\">Season Travel</a>"], "photo_reference": "CmRaAAAAPIAetFiUOsW8QVV2JUMqmpU8eDZZTfQroH3IgcH2s6kGIUjbo7ycFyyL6qOVmiXVCyYkQloqB-QW40Q9kgcQsISPWlEJ7fvyHiuKAgZbBgmBEcrKQMu5e5k4HcctlU0QEhDA9PNtJ9nRyeuU2kFvPTBmGhTg-TPQBh-M1T9-NQFPzt6MrkQZEw", "width": 3024}], "place_id": "ChIJY7vvfdV744kRStlorXTSZe0", "plus_code": {"compound_code": "9W2Q+86 Boston, Massachusetts, United States", "global_code": "87JC9W2Q+86"}, "reference": "ChIJY7vvfdV744kRStlorXTSZe0", "scope": "GOOGLE", "types": ["travel_agency", "point_of_interest", "establishment"], "vicinity": "26 Kneeland Street, Boston"}, "ChIJGzE9DS1l44kRoOhiASS_fHg": {"geometry": {"location": {"lat": 42.3600825, "lng": -71.0588801}, "viewport": {"northeast": {"lat": 42.40081989999999, "lng": -70.749455}, "southwest": {"lat": 42.22788, "lng": -71.191113}}}, "icon": "https://maps.gstatic.com/mapfiles/place_api/icons/geocode-71.png", "id": "06755c25d2b34d13942a4713971756a55b870ced", "name": "Boston", "photos": [{"height": 3024, "html_attributions": ["<a href=\"https://maps.google.com/maps/contrib/104670289779338733432/photos\">Natalia Zalucean</a>"], "photo_reference": "CmRaAAAAbUbcKra2ybdREIIts1E8KALCCn3y_6pTgC5qay2EFlCO_S8lKODTM7kv8V2T3WhWjC0PpVa75dozv_8aV7oMcNb1BBCncE-IdFJBs8Xz2ZTSBGrWK6miCYrKzKssc7KmEhA-uaAj7xF-HH6NNJDCTjCNGhSwl2DYpHVv6zU8hw8AJnoW3NeiLw", "width": 4032}], "place_id": "ChIJGzE9DS1l44kRoOhiASS_fHg", "reference": "ChIJGzE9DS1l44kRoOhiASS_fHg", "scope": "GOOGLE", "types": ["locality", "political"], "vicinity": "Boston"}, "ChIJb1Vz4DV744kR1PxZg8NzXzc": {"geometry": {"location": {"lat": 42.350908, "lng": -71.06206259999999}, "viewport": {"northeast": {"lat": 42.3522193302915, "lng": -71.0607571697085}, "southwest": {"lat": 42.3495213697085, "lng": -71.0634551302915}}}, "icon": "https://maps.gstatic.com/mapfiles/place_api/icons/restaurant-71.png", "id": "0f088bc4a9fb786e45175dfbd697a47a54f4b953", "name": "Boom Crispy Chicken", "opening_hours": {"open_now": true}, "photos": [{"height": 829, "html_attributions": ["<a href=\"https://maps.google.com/maps/contrib/111419326936123221540/photos\">Keith Cross</a>"], "photo_reference": "CmRaAAAAhT3t6dyJto7TwuGF2c0olIUAR9ssCy-_nmlOBhRzPcnxRhkH_y1O71D9uK8anFDivIH4YuC4EjBFtsIQGIAACysu0WrwgXRvHlJ6sgFY3sllVZzd1KcUvallRu9CPXV3EhApifswB-JpPKPQe01EXO6VGhTFX3ISSBg0wktluRnfup43fdUNyg", "width": 640}], "place_id": "ChIJb1Vz4DV744kR1PxZg8NzXzc", "plus_code": {"compound_code": "9W2Q+95 Boston, Massachusetts, United States", "global_code": "87JC9W2Q+95"}, "rating": 3.5, "reference": "ChIJb1Vz4DV744kR1PxZg8NzXzc", "scope": "GOOGLE", "types": ["restaurant", "point_of_interest", "food", "establishment"], "user_ratings_total": 19, "vicinity": "22 Kneeland Street, Boston"}, "ChIJvcwchnd644kRGlDdHu62WX4": {"geometry": {"location": {"lat": 42.3511642, "lng": -71.0620189}, "viewport": {"northeast": {"lat": 42.35250938029149, "lng": -71.0607290197085}, "southwest": {"lat": 42.3498114197085, "lng": -71.06342698029151}}}, "icon": "https://maps.gstatic.com/mapfiles/place_api/icons/restaurant-71.png", "id": "b54f9f2326ba26b3b0aef54853f710ff0172a4b5", "name": "Potluck Cafe", "opening_hours": {"open_now": true}, "photos": [{"height": 3096, "html_attributions": ["<a href=\"https://maps.google.com/maps/contrib/101963071938192253369/photos\">Rich Leung</a>"], "photo_reference": "CmRaAAAA4okRWW8zIH-pqUv9UKVskryQzCHIq0tX768grWEWXmGqYTbRuWKaVYhDKY8WH-Bb1YExnHs8D3txKzy0SqKhYVrx8-9JXIetV_jjjJWrQ3RujZKRZOktAIYkHXf81b47EhB0H5XP5cqrCfpZVzv4ZZqqGhQkIf2zYeI9QlS6pWbyw3ceCrj7yA", "width": 4128}], "place_id": "ChIJvcwchnd644kRGlDdHu62WX4", "plus_code": {"compound_code": "9W2Q+F5 Boston, Massachusetts, United States", "global_code": "87JC9W2Q+F5"}, "price_level": 1, "rating": 4.3, "reference": "ChIJvcwchnd644kRGlDdHu62WX4", "scope": "GOOGLE", "types": ["restaurant", "point_of_interest", "food", "establishment"], "user_ratings_total": 42, "vicinity": "7 Knapp Street, Boston"}, "ChIJG1zNgHd644kRWoIEfKdK2wk": {"geometry": {"location": {"lat": 42.350848, "lng": -71.06179999999999}, "viewport": {"northeast": {"lat": 42.3521639302915, "lng": -71.06027511970849}, "southwest": {"lat": 42.3494659697085, "lng": -71.06297308029151}}}, "icon": "https://maps.gstatic.com/mapfiles/place_api/icons/generic_business-71.png", "id": "e11db1321e5c6c916751462be3c380f6c7ab6df4", "name": "Fragrance Day Spa, Inc", "place_id": "ChIJG1zNgHd644kRWoIEfKdK2wk", "plus_code": {"compound_code": "9W2Q+87 Boston, Massachusetts, United States", "global_code": "87JC9W2Q+87"}, "reference": "ChIJG1zNgHd644kRWoIEfKdK2wk", "scope": "GOOGLE", "types": ["spa", "point_of_interest", "establishment"], "vicinity": "99 Harrison Avenue, Boston"}, "ChIJ7515Knh644kR3ntywyrK7mM": {"geometry": {"location": {"lat": 42.3508413, "lng": -71.0618202}, "viewport": {"northeast": {"lat": 42.3522280802915, "lng": -71.06045556970848}, "southwest": {"lat": 42.3495301197085, "lng": -71.0631535302915}}}, "icon": "https://maps.gstatic.com/mapfiles/place_api/icons/cafe-71.png", "id": "3ae2f2c6bda0232bec261c069ed8484650d7f6f1", "name": "Beantown Juice And Tea", "opening_hours": {"open_now": true}, "photos": [{"height": 3024, "html_attributions": ["<a href=\"https://maps.google.com/maps/contrib/110435447089373704958/photos\">Zander lin</a>"], "photo_reference": "CmRaAAAAlv2jDYHliLTGMaAgi6ccm9pZniIM0BY4PAdyjI3PcUtwMPct0d_a_QrdzK6EXIXGlzGOm7IFdB3jMc8fUl-f7s3-mE14DRNEHq23E20nEzX7knlms12qKfIpxLwuwSkZEhCvfNrVsOzYoPZkZsWCa7mCGhSngJrk1M7sQ8MUgKUNoK3DlF9_lA", "width": 4032}], "place_id": "ChIJ7515Knh644kR3ntywyrK7mM", "plus_code": {"compound_code": "9W2Q+87 Boston, Massachusetts, United States", "global_code": "87JC9W2Q+87"}, "rating": 4.4, "reference": "ChIJ7515Knh644kR3ntywyrK7mM", "scope": "GOOGLE", "types": ["cafe", "point_of_interest", "food", "establishment"], "user_ratings_total": 9, "vicinity": "32 keenland st, Boston"}, "ChIJcXPzKXh644kRL0NsTN0DHrA": {"geometry": {"location": {"lat": 42.3508381, "lng": -71.0618107}, "viewport": {"northeast": {"lat": 42.3521533802915, "lng": -71.06028236970849}, "southwest": {"lat": 42.3494554197085, "lng": -71.06298033029151}}}, "icon": "https://maps.gstatic.com/mapfiles/place_api/icons/restaurant-71.png", "id": "b4ed8a20b18ab19af15f23d6b348cddf910e0d9a", "name": "Wai Wai", "opening_hours": {"open_now": true}, "photos": [{"height": 4032, "html_attributions": ["<a href=\"https://maps.google.com/maps/contrib/114324839478679837004/photos\">Jay Lu</a>"], "photo_reference": "CmRaAAAARtcNgE-xDOZLCi3Z3iNxxa9G3mUO8gWdZeFflp0K0DGJqg9H0f9PZi4iDBe6UhE8Lqa10q5Bvpif1WC-9xh5w7G0cS5va4vUTZsyXQpe4vS_yaAZwAJutGJW6S5PsepHEhAsqf9KWV0DyiU3kd31bkEzGhQcnGCwEJyvMX1QM4ucNb1m-dnceQ", "width": 3024}], "place_id": "ChIJcXPzKXh644kRL0NsTN0DHrA", "plus_code": {"compound_code": "9W2Q+87 Boston, Massachusetts, United States", "global_code": "87JC9W2Q+87"}, "price_level": 1, "rating": 4.1, "reference": "ChIJcXPzKXh644kRL0NsTN0DHrA", "scope": "GOOGLE", "types": ["restaurant", "point_of_interest", "food", "establishment"], "user_ratings_total": 16, "vicinity": "99 Harrison Avenue, Boston"}, "ChIJv6oRKHh644kRKtv76y38X4k": {"geometry": {"location": {"lat": 42.351069, "lng": -71.061604}, "viewport": {"northeast": {"lat": 42.3523903802915, "lng": -71.0601314197085}, "southwest": {"lat": 42.3496924197085, "lng": -71.0628293802915}}}, "icon": "https://maps.gstatic.com/mapfiles/place_api/icons/restaurant-71.png", "id": "7afd5a2d3b6d209f9d000347a239adbe7888d937", "name": "Top Bread", "opening_hours": {"open_now": true}, "photos": [{"height": 2988, "html_attributions": ["<a href=\"https://maps.google.com/maps/contrib/108427143153479407933/photos\">W M</a>"], "photo_reference": "CmRaAAAAuNgZGfAYUlcTmwlP0_lddExn6dntmA9-d0498_fU0kl-XVjJvqzGpmdNmwY-8adMK7dfIYuE782X8QtbqUPoDKdZJ_-GhBpAwz9PoWsQQiFqcsehQBct8qMbbEEmhD6WEhDbHancgyZ23kkF-edE-_nVGhQ8urC76GI4mvQ16BNKtqqNjGDnNA", "width": 5312}], "place_id": "ChIJv6oRKHh644kRKtv76y38X4k", "plus_code": {"compound_code": "9W2Q+C9 Boston, Massachusetts, United States", "global_code": "87JC9W2Q+C9"}, "rating": 3.6, "reference": "ChIJv6oRKHh644kRKtv76y38X4k", "scope": "GOOGLE", "types": ["bakery", "store", "point_of_interest", "food", "establishment"], "user_ratings_total": 29, "vicinity": "77 Harrison Avenue, Boston"}}