{"ChIJ6YrgaGp644kR8n8QEeldbrc": {"geometry": {"location": {"lat": 42.3361986, "lng": -71.0696972}, "viewport": {"northeast": {"lat": 42.3375475802915, "lng": -71.06834821970851}, "southwest": {"lat": 42.3348496197085, "lng": -71.07104618029152}}}, "icon": "https://maps.gstatic.com/mapfiles/place_api/icons/geocode-71.png", "id": "3f8de2c22e659fe82c61f1d25051eb8e3fb7f9fe", "name": "631-635 Albany St", "place_id": "ChIJ6YrgaGp644kR8n8QEeldbrc", "reference": "ChIJ6YrgaGp644kR8n8QEeldbrc", "scope": "GOOGLE", "types": ["route"], "vicinity": "Boston"}, "ChIJ_Yyp9Gp644kRlXlNYyY4Hcc": {"geometry": {"location": {"lat": 42.3364937, "lng": -71.06995669999999}, "viewport": {"northeast": {"lat": 42.3378093802915, "lng": -71.06848776970848}, "southwest": {"lat": 42.3351114197085, "lng": -71.07118573029149}}}, "icon": "https://maps.gstatic.com/mapfiles/place_api/icons/generic_business-71.png", "id": "3bbbb1831a66d275c987105d8d4d76ccea70f5e0", "name": "Davey Michael T DDS", "place_id": "ChIJ_Yyp9Gp644kRlXlNYyY4Hcc", "plus_code": {"compound_code": "8WPJ+H2 Boston, Massachusetts, United States", "global_code": "87JC8WPJ+H2"}, "reference": "ChIJ_Yyp9Gp644kRlXlNYyY4Hcc", "scope": "GOOGLE", "types": ["dentist", "health", "point_of_interest", "establishment"], "vicinity": "100 East Newton Street, Boston"}, "ChIJdcZU82p644kRx9mqsWofNOo": {"geometry": {"location": {"lat": 42.3365179, "lng": -71.07002349999999}, "viewport": {"northeast": {"lat": 42.3378214802915, "lng": -71.06852116970849}, "southwest": {"lat": 42.3351235197085, "lng": -71.07121913029151}}}, "icon": "https://maps.gstatic.com/mapfiles/place_api/icons/generic_business-71.png", "id": "c94b27a163f86eedc1c7856ecf18e5bc06699113", "name": "Oral Bu Pathology Associates", "place_id": "ChIJdcZU82p644kRx9mqsWofNOo", "plus_code": {"compound_code": "8WPH+JX Boston, Massachusetts, United States", "global_code": "87JC8WPH+JX"}, "reference": "ChIJdcZU82p644kRx9mqsWofNOo", "scope": "GOOGLE", "types": ["doctor", "health", "point_of_interest", "establishment"], "vicinity": "100 East Newton Street, Boston"}, "ChIJ_Yyp9Gp644kRyO05kY07Qy0": {"geometry": {"location": {"lat": 42.3364696, "lng": -71.0699803}, "viewport": {"northeast": {"lat": 42.3377973302915, "lng": -71.0684995697085}, "southwest": {"lat": 42.3350993697085, "lng": -71.0711975302915}}}, "icon": "https://maps.gstatic.com/mapfiles/place_api/icons/generic_business-71.png", "id": "fdc8cb499522829a747013ef64a950537766207b", "name": "Dudum Daryl J DDS", "place_id": "ChIJ_Yyp9Gp644kRyO05kY07Qy0", "plus_code": {"compound_code": "8WPJ+H2 Boston, Massachusetts, United States", "global_code": "87JC8WPJ+H2"}, "reference": "ChIJ_Yyp9Gp644kRyO05kY07Qy0", "scope": "GOOGLE", "types": ["dentist", "health", "point_of_interest", "establishment"], "vicinity": "100 East Newton Street, Boston"}, "ChIJdcZU82p644kR9ENfSmnOPkY": {"geometry": {"location": {"lat": 42.3365043, "lng": -71.0699807}, "viewport": {"northeast": {"lat": 42.33781468029149, "lng": -71.0684997697085}, "southwest": {"lat": 42.33511671970849, "lng": -71.0711977302915}}}, "icon": "https://maps.gstatic.com/mapfiles/place_api/icons/generic_business-71.png", "id": "2580459ba0573f80a016d4112222b501c745f3dd", "name": "Stoute Gregory a DDS", "place_id": "ChIJdcZU82p644kR9ENfSmnOPkY", "plus_code": {"compound_code": "8WPJ+J2 Boston, Massachusetts, United States", "global_code": "87JC8WPJ+J2"}, "reference": "ChIJdcZU82p644kR9ENfSmnOPkY", "scope": "GOOGLE", "types": ["dentist", "health", "point_of_interest", "establishment"], "vicinity": "100 East Newton Street # 305, Boston"}, "ChIJGzE9DS1l44kRoOhiASS_fHg": {"geometry": {"location": {"lat": 42.3600825, "lng": -71.0588801}, "viewport": {"northeast": {"lat": 42.40081989999999, "lng": -70.749455}, "southwest": {"lat": 42.22788, "lng": -71.191113}}}, "icon": "https://maps.gstatic.com/mapfiles/place_api/icons/geocode-71.png", "id": "06755c25d2b34d13942a4713971756a55b870ced", "name": "Boston", "photos": [{"height": 3024, "html_attributions": ["<a href=\"https://maps.google.com/maps/contrib/104670289779338733432/photos\">Natalia Zalucean</a>"], "photo_reference": "CmRaAAAA0Yde6jB3aqjWqdlgZ2llAJmTJ8rxJr7Cvvh87yeYnFDSJD9WZVhT7fYgrDocomEs9OB6Ov5M3DVITaOMsDBW8M4Ez5giqOlH-lKiCP-_ps7O_JBG_ryxS7XlF3V-vuRLEhDFXIP1jL9zvQnGr80R7EfAGhTrTy3vEEky-UOzlwKSO-1rsZN72g", "width": 4032}], "place_id": "ChIJGzE9DS1l44kRoOhiASS_fHg", "reference": "ChIJGzE9DS1l44kRoOhiASS_fHg", "scope": "GOOGLE", "types": ["locality", "political"], "vicinity": "Boston"}}