{"ChIJraRXu1xw44kRSeEM-l9j9DY": {"geometry": {"location": {"lat": 42.3721712, "lng": -71.0390075}, "viewport": {"northeast": {"lat": 42.3735201302915, "lng": -71.0376585197085}, "southwest": {"lat": 42.3708221697085, "lng": -71.0403564802915}}}, "icon": "https://maps.gstatic.com/mapfiles/place_api/icons/geocode-71.png", "id": "1f1dc650ab5a7e0bc06a78d661d0b3353268fc24", "name": "79-107 Meridian St", "place_id": "ChIJraRXu1xw44kRSeEM-l9j9DY", "reference": "ChIJraRXu1xw44kRSeEM-l9j9DY", "scope": "GOOGLE", "types": ["route"], "vicinity": "Boston"}, "ChIJf9vSulxw44kR3EF1TloXJ6c": {"geometry": {"location": {"lat": 42.37215, "lng": -71.038782}, "viewport": {"northeast": {"lat": 42.3734973302915, "lng": -71.03754541970848}, "southwest": {"lat": 42.3707993697085, "lng": -71.0402433802915}}}, "icon": "https://maps.gstatic.com/mapfiles/place_api/icons/generic_business-71.png", "id": "1c3fb04305befb74611e9d3ead589349f3421b2f", "name": "East Boston Family Dental Center: Rahmatpour Mehdi DDS", "opening_hours": {"open_now": true}, "place_id": "ChIJf9vSulxw44kR3EF1TloXJ6c", "plus_code": {"compound_code": "9XC6+VF Boston, Massachusetts, United States", "global_code": "87JC9XC6+VF"}, "rating": 1.8, "reference": "ChIJf9vSulxw44kR3EF1TloXJ6c", "scope": "GOOGLE", "types": ["dentist", "doctor", "health", "point_of_interest", "establishment"], "user_ratings_total": 5, "vicinity": "79 Meridian Street, Boston"}, "ChIJf16CvFxw44kRgiKmq-7PM9k": {"geometry": {"location": {"lat": 42.3720349, "lng": -71.03882519999999}, "viewport": {"northeast": {"lat": 42.37338248029149, "lng": -71.03756541970849}, "southwest": {"lat": 42.37068451970849, "lng": -71.04026338029149}}}, "icon": "https://maps.gstatic.com/mapfiles/place_api/icons/shopping-71.png", "id": "39335eed1e66438bfc2793f642b2544fc51ca121", "name": "East Boston Farm Stand", "opening_hours": {"open_now": true}, "photos": [{"height": 3024, "html_attributions": ["<a href=\"https://maps.google.com/maps/contrib/111625154825269419528/photos\">Sheldon Lotspeich</a>"], "photo_reference": "CmRaAAAAaUytOctPe9J953RS2yo_vJVqOQoNAz_AFv7Vt8TCLrU__A3Z5Fhv1swDMJz_SeuYzeZya1xKMWwadfVG3jAflKqbDywG8r2V_zTV7LspwWevw-4iKD5umWSf8--lkXqeEhBUoWtAS0hpPeion2V6mbAGGhSkLKBBB_BBHlxC-ZxVAZ9Uos0YCw", "width": 4032}], "place_id": "ChIJf16CvFxw44kRgiKmq-7PM9k", "plus_code": {"compound_code": "9XC6+RF Boston, Massachusetts, United States", "global_code": "87JC9XC6+RF"}, "rating": 4.8, "reference": "ChIJf16CvFxw44kRgiKmq-7PM9k", "scope": "GOOGLE", "types": ["cafe", "grocery_or_supermarket", "store", "point_of_interest", "food", "establishment"], "user_ratings_total": 43, "vicinity": "75 Meridian Street, Boston"}, "ChIJEehdo1xw44kRAUUuAuTsKik": {"geometry": {"location": {"lat": 42.372266, "lng": -71.0390315}, "viewport": {"northeast": {"lat": 42.37361438029149, "lng": -71.0377047197085}, "southwest": {"lat": 42.37091641970849, "lng": -71.0404026802915}}}, "icon": "https://maps.gstatic.com/mapfiles/place_api/icons/generic_business-71.png", "id": "44470e4b78ee71ff6d83f569655d32bb206306d8", "name": "Meridian St @ Havre St", "place_id": "ChIJEehdo1xw44kRAUUuAuTsKik", "plus_code": {"compound_code": "9XC6+W9 Boston, Massachusetts, United States", "global_code": "87JC9XC6+W9"}, "reference": "ChIJEehdo1xw44kRAUUuAuTsKik", "scope": "GOOGLE", "types": ["transit_station", "point_of_interest", "establishment"], "vicinity": "United States"}, "ChIJMSJdvFxw44kRiOYyvMqoC5g": {"geometry": {"location": {"lat": 42.37203, "lng": -71.03910499999999}, "viewport": {"northeast": {"lat": 42.3733797802915, "lng": -71.03770531970848}, "southwest": {"lat": 42.3706818197085, "lng": -71.0404032802915}}}, "icon": "https://maps.gstatic.com/mapfiles/place_api/icons/bus-71.png", "id": "d252ff0152b64aa7cc86bdfcf20ea6b294038d71", "name": "Meridian St @ Havre St", "place_id": "ChIJMSJdvFxw44kRiOYyvMqoC5g", "plus_code": {"compound_code": "9XC6+R9 Boston, Massachusetts, United States", "global_code": "87JC9XC6+R9"}, "reference": "ChIJMSJdvFxw44kRiOYyvMqoC5g", "scope": "GOOGLE", "types": ["bus_station", "transit_station", "point_of_interest", "establishment"], "vicinity": "United States"}, "ChIJf9vSulxw44kRqgRseQCHEdE": {"geometry": {"location": {"lat": 42.3722052, "lng": -71.0387188}, "viewport": {"northeast": {"lat": 42.3735520302915, "lng": -71.03751456970849}, "southwest": {"lat": 42.3708540697085, "lng": -71.0402125302915}}}, "icon": "https://maps.gstatic.com/mapfiles/place_api/icons/restaurant-71.png", "id": "86c91c8fe14877e98c2ae278b86cf01ca8ca9ad2", "name": "Side Street Cafe", "place_id": "ChIJf9vSulxw44kRqgRseQCHEdE", "plus_code": {"compound_code": "9XC6+VG Boston, Massachusetts, United States", "global_code": "87JC9XC6+VG"}, "rating": 1.5, "reference": "ChIJf9vSulxw44kRqgRseQCHEdE", "scope": "GOOGLE", "types": ["restaurant", "point_of_interest", "food", "establishment"], "user_ratings_total": 2, "vicinity": "79 Meridian Street, East Boston"}, "ChIJGzE9DS1l44kRoOhiASS_fHg": {"geometry": {"location": {"lat": 42.3600825, "lng": -71.0588801}, "viewport": {"northeast": {"lat": 42.40081989999999, "lng": -70.749455}, "southwest": {"lat": 42.22788, "lng": -71.191113}}}, "icon": "https://maps.gstatic.com/mapfiles/place_api/icons/geocode-71.png", "id": "06755c25d2b34d13942a4713971756a55b870ced", "name": "Boston", "photos": [{"height": 3024, "html_attributions": ["<a href=\"https://maps.google.com/maps/contrib/104670289779338733432/photos\">Natalia Zalucean</a>"], "photo_reference": "CmRaAAAAc5CIS5WYqMNKJGGeHkdwJXqVKm9cOa0Answ7umCy5u8WtNJBWVH-o8zwqwOQHm7rJZAUoaJxfbPQbBWhodx6MvxaZ6_6L71AuhQVOZHyw4AgqNpCI034E2ldSv3kqp0GEhCmnqF5q-L0GLa4pNTxwZlBGhTiKOwHe2ZLFDmXiut65zsNX0MJ1w", "width": 4032}], "place_id": "ChIJGzE9DS1l44kRoOhiASS_fHg", "reference": "ChIJGzE9DS1l44kRoOhiASS_fHg", "scope": "GOOGLE", "types": ["locality", "political"], "vicinity": "Boston"}}