{"ChIJ6wbC84Rw44kRKuNEv-wLF3g": {"geometry": {"location": {"lat": 42.3586006, "lng": -71.0592064}, "viewport": {"northeast": {"lat": 42.3600089802915, "lng": -71.05778926970848}, "southwest": {"lat": 42.3573110197085, "lng": -71.0604872302915}}}, "icon": "https://maps.gstatic.com/mapfiles/place_api/icons/geocode-71.png", "id": "5dc545e1b20e7aed8b9a1b1bd867027b41eea5bc", "name": "24-98 Court Square", "place_id": "ChIJ6wbC84Rw44kRKuNEv-wLF3g", "reference": "ChIJ6wbC84Rw44kRKuNEv-wLF3g", "scope": "GOOGLE", "types": ["route"], "vicinity": "Boston"}, "ChIJt8NIkPV544kRjKNQgRLdVVM": {"geometry": {"location": {"lat": 42.3584697, "lng": -71.0594869}, "viewport": {"northeast": {"lat": 42.3597924302915, "lng": -71.05804531970848}, "southwest": {"lat": 42.3570944697085, "lng": -71.06074328029149}}}, "icon": "https://maps.gstatic.com/mapfiles/place_api/icons/shopping-71.png", "id": "231b19e9e5fd675e9fd2c847db6614eb67e3a4bc", "name": "Boston Pest Control & Supply", "opening_hours": {"open_now": true}, "place_id": "ChIJt8NIkPV544kRjKNQgRLdVVM", "plus_code": {"compound_code": "9W5R+96 Boston, Massachusetts, United States", "global_code": "87JC9W5R+96"}, "rating": 5, "reference": "ChIJt8NIkPV544kRjKNQgRLdVVM", "scope": "GOOGLE", "types": ["home_goods_store", "store", "point_of_interest", "establishment"], "user_ratings_total": 14, "vicinity": "2504, 29 Court Square, Boston"}, "ChIJa04qjoRw44kRYwn4y9Bvs5E": {"geometry": {"location": {"lat": 42.358144, "lng": -71.059367}, "viewport": {"northeast": {"lat": 42.3592913302915, "lng": -71.05811271970848}, "southwest": {"lat": 42.35659336970851, "lng": -71.0608106802915}}}, "icon": "https://maps.gstatic.com/mapfiles/place_api/icons/generic_business-71.png", "id": "8c20b934082e8cd37e55af1917cecbf974b35117", "name": "Welch & Forbes LLC", "opening_hours": {"open_now": true}, "photos": [{"height": 1393, "html_attributions": ["<a href=\"https://maps.google.com/maps/contrib/117727014250788106569/photos\">Welch &amp; Forbes</a>"], "photo_reference": "CmRaAAAA0hl0NSc5oNzF9O06HZMzM-ekz0cQlZ2z3lgun_OA1PC6lnCmvbUni9UYR8Ljqya1O6yvPk1JzS9NoNVY-aH7i8W00PVrho_SgMiTafqTC_U0NMUOg4POqTvOyGH5WLNBEhDxA5mNoE8NWGpBhqAmCQjSGhSGTdYR9vkFWIDXYTZlNbrsuan8yw", "width": 2048}], "place_id": "ChIJa04qjoRw44kRYwn4y9Bvs5E", "plus_code": {"compound_code": "9W5R+77 Boston, Massachusetts, United States", "global_code": "87JC9W5R+77"}, "rating": 5, "reference": "ChIJa04qjoRw44kRYwn4y9Bvs5E", "scope": "GOOGLE", "types": ["finance", "point_of_interest", "establishment"], "user_ratings_total": 1, "vicinity": "45 School Street, Boston"}, "ChIJ0cGykoRw44kRLqOYwZyUlm4": {"geometry": {"location": {"lat": 42.3584697, "lng": -71.0594869}, "viewport": {"northeast": {"lat": 42.3597924302915, "lng": -71.05804531970848}, "southwest": {"lat": 42.3570944697085, "lng": -71.06074328029149}}}, "icon": "https://maps.gstatic.com/mapfiles/place_api/icons/generic_recreational-71.png", "id": "71a1d592ff318bca14821f9a0f51df588d83e13a", "name": "Levinson Plaza", "place_id": "ChIJ0cGykoRw44kRLqOYwZyUlm4", "plus_code": {"compound_code": "9W5R+96 Boston, Massachusetts, United States", "global_code": "87JC9W5R+96"}, "reference": "ChIJ0cGykoRw44kRLqOYwZyUlm4", "scope": "GOOGLE", "types": ["park", "point_of_interest", "establishment"], "vicinity": "29 Court Square, Boston"}, "ChIJ_____4Rw44kRHa7p43eCBWo": {"geometry": {"location": {"lat": 42.358493, "lng": -71.0593945}, "viewport": {"northeast": {"lat": 42.3598256302915, "lng": -71.0579879197085}, "southwest": {"lat": 42.3571276697085, "lng": -71.0606858802915}}}, "icon": "https://maps.gstatic.com/mapfiles/place_api/icons/generic_business-71.png", "id": "2843cb47d90cde3c9268bb0c67e15636e70d8879", "name": "Odessa Instant Shoe Repair", "opening_hours": {"open_now": false}, "place_id": "ChIJ_____4Rw44kRHa7p43eCBWo", "plus_code": {"compound_code": "9W5R+96 Boston, Massachusetts, United States", "global_code": "87JC9W5R+96"}, "rating": 5, "reference": "ChIJ_____4Rw44kRHa7p43eCBWo", "scope": "GOOGLE", "types": ["point_of_interest", "establishment"], "user_ratings_total": 1, "vicinity": "27 Court Square, Boston"}, "ChIJGzE9DS1l44kRoOhiASS_fHg": {"geometry": {"location": {"lat": 42.3600825, "lng": -71.0588801}, "viewport": {"northeast": {"lat": 42.40081989999999, "lng": -70.749455}, "southwest": {"lat": 42.22788, "lng": -71.191113}}}, "icon": "https://maps.gstatic.com/mapfiles/place_api/icons/geocode-71.png", "id": "06755c25d2b34d13942a4713971756a55b870ced", "name": "Boston", "photos": [{"height": 3024, "html_attributions": ["<a href=\"https://maps.google.com/maps/contrib/104670289779338733432/photos\">Natalia Zalucean</a>"], "photo_reference": "CmRaAAAAKfkTcRFpyQgAy5nu21ffvqm_eu9Q4PUJvjz4eBq6fieYNznh93fK4MHtniKQ8UoK3IQphVZh42Nnt7OiXVAQ_1ZrIOL5QtDJxrOs6vjo1wBh7jtPRwpW1wh2qbkMf4duEhBzNfQuJkByoz3OBCd-dMaIGhSeWRVpdBwVerAEBgKnxbzdSQN7dA", "width": 4032}], "place_id": "ChIJGzE9DS1l44kRoOhiASS_fHg", "reference": "ChIJGzE9DS1l44kRoOhiASS_fHg", "scope": "GOOGLE", "types": ["locality", "political"], "vicinity": "Boston"}}