{"ChIJe-8tFnl644kRRkRVIBkTS6o": {"geometry": {"location": {"lat": 42.3490558, "lng": -71.0572188}, "viewport": {"northeast": {"lat": 42.3504064802915, "lng": -71.0558753697085}, "southwest": {"lat": 42.3477085197085, "lng": -71.05857333029151}}}, "icon": "https://maps.gstatic.com/mapfiles/place_api/icons/geocode-71.png", "id": "b4508955aaac253aeafe4391338b593391e3d201", "name": "John F Fitzgerald Expressway", "place_id": "ChIJe-8tFnl644kRRkRVIBkTS6o", "reference": "ChIJe-8tFnl644kRRkRVIBkTS6o", "scope": "GOOGLE", "types": ["route"], "vicinity": "Boston"}, "ChIJreAc2nh644kR9p3UA-78CD8": {"geometry": {"location": {"lat": 42.34935089999999, "lng": -71.05692669999999}, "viewport": {"northeast": {"lat": 42.35068478029149, "lng": -71.05552821970849}, "southwest": {"lat": 42.3479868197085, "lng": -71.0582261802915}}}, "icon": "https://maps.gstatic.com/mapfiles/place_api/icons/generic_recreational-71.png", "id": "a29820f20a8311ca263c87d24119635aa2c2eb9e", "name": "Atlantic Avenue Plantings", "photos": [{"height": 2268, "html_attributions": ["<a href=\"https://maps.google.com/maps/contrib/115709848633536071805/photos\">Taub Jayson</a>"], "photo_reference": "CmRaAAAANhQNh2EpC9wpdFGWN_22LlZz2GdxuhZ_aMAkrI0GCra-8-yNJDk7vi64ZpyVpXNAaqq0AWT0A46c4NgAWYjdmIldXan5GLcGBqWBDCeHMLURhvCiI4-0NkwQrf60x5XAEhDTBNSpCLUfxIE1AWtgmhG7GhTgz-lKksRlnkoFaucmaAhp_Wls4w", "width": 4032}], "place_id": "ChIJreAc2nh644kR9p3UA-78CD8", "plus_code": {"compound_code": "8WXV+P6 Boston, Massachusetts, United States", "global_code": "87JC8WXV+P6"}, "rating": 5, "reference": "ChIJreAc2nh644kR9p3UA-78CD8", "scope": "GOOGLE", "types": ["park", "point_of_interest", "establishment"], "user_ratings_total": 1, "vicinity": "Boston"}, "ChIJGzE9DS1l44kRoOhiASS_fHg": {"geometry": {"location": {"lat": 42.3600825, "lng": -71.0588801}, "viewport": {"northeast": {"lat": 42.40081989999999, "lng": -70.749455}, "southwest": {"lat": 42.22788, "lng": -71.191113}}}, "icon": "https://maps.gstatic.com/mapfiles/place_api/icons/geocode-71.png", "id": "06755c25d2b34d13942a4713971756a55b870ced", "name": "Boston", "photos": [{"height": 3024, "html_attributions": ["<a href=\"https://maps.google.com/maps/contrib/104670289779338733432/photos\">Natalia Zalucean</a>"], "photo_reference": "CmRaAAAAKxZVC1hl0NKTCX1iMKqWMPiOnLY_yBjIBVlNqoyXak_QETUk1bwS-T4ytfdI3OsKDX3JZCKJcT0WlLpWNRqWQTCD-tAhQ4-0RHqXZMEgTIz82ftHQYKDKEi5YEXmfs2OEhCaF1vpWZ6vADGdOYZw8O85GhReSd5D9dpgF4KNRqmFZyV8BhN5dg", "width": 4032}], "place_id": "ChIJGzE9DS1l44kRoOhiASS_fHg", "reference": "ChIJGzE9DS1l44kRoOhiASS_fHg", "scope": "GOOGLE", "types": ["locality", "political"], "vicinity": "Boston"}}