{"ChIJyzzrOp1w44kRS2MrKRtttVY": {"geometry": {"location": {"lat": 42.3547503, "lng": -71.0625002}, "viewport": {"northeast": {"lat": 42.3560992302915, "lng": -71.0611512697085}, "southwest": {"lat": 42.3534012697085, "lng": -71.06384923029151}}}, "icon": "https://maps.gstatic.com/mapfiles/place_api/icons/geocode-71.png", "id": "15f808b71d2b5f412c1da47ba320dd84e661e8be", "name": "25-33 West St", "place_id": "ChIJyzzrOp1w44kRS2MrKRtttVY", "reference": "ChIJyzzrOp1w44kRS2MrKRtttVY", "scope": "GOOGLE", "types": ["route"], "vicinity": "Boston"}, "ChIJ41-wOp1w44kRty3Tukaa1Gg": {"geometry": {"location": {"lat": 42.3547748, "lng": -71.0623762}, "viewport": {"northeast": {"lat": 42.3560882302915, "lng": -71.0610428697085}, "southwest": {"lat": 42.3533902697085, "lng": -71.06374083029151}}}, "icon": "https://maps.gstatic.com/mapfiles/place_api/icons/restaurant-71.png", "id": "4b054b7f7154714073b056f8ea0e74ce99fe7e92", "name": "Fajitas & 'Ritas", "opening_hours": {"open_now": true}, "photos": [{"height": 2160, "html_attributions": ["<a href=\"https://maps.google.com/maps/contrib/116804562968985606635/photos\">James Vrolyk</a>"], "photo_reference": "CmRaAAAA2ZudoMxBtqmghcSdBN0H9nmbd-0U5Lt3O5A9aPIrPHUCCwkM7NzftQJ5EJhJ3ESTBFVcTlgQLNxEzP3ii5zX3L8wmnvR7zHAD-3TfI6sMmROvI7Ph60YO7PfDxzBmyc_EhA7PlAUFPju0UxLQhxsfsxvGhSRqMEU7vvw2LofXxGo0qcuarTV3w", "width": 3840}], "place_id": "ChIJ41-wOp1w44kRty3Tukaa1Gg", "plus_code": {"compound_code": "9W3Q+W2 Boston, Massachusetts, United States", "global_code": "87JC9W3Q+W2"}, "price_level": 2, "rating": 4.1, "reference": "ChIJ41-wOp1w44kRty3Tukaa1Gg", "scope": "GOOGLE", "types": ["bar", "restaurant", "point_of_interest", "food", "establishment"], "user_ratings_total": 592, "vicinity": "25 West Street, Boston"}, "ChIJm5zg7n9644kRw5KhOvn14Sk": {"geometry": {"location": {"lat": 42.354915, "lng": -71.06264}, "viewport": {"northeast": {"lat": 42.35623158029149, "lng": -71.06132081970848}, "southwest": {"lat": 42.3535336197085, "lng": -71.0640187802915}}}, "icon": "https://maps.gstatic.com/mapfiles/place_api/icons/generic_business-71.png", "id": "0a934fb77459ff559a6d8032e36bffbcca7777bb", "name": "Spaceworks Architectural Interiors", "photos": [{"height": 568, "html_attributions": ["<a href=\"https://maps.google.com/maps/contrib/114598174624431710696/photos\">Spaceworks Architectural Interiors</a>"], "photo_reference": "CmRaAAAAJx9-ucoBotjsSvL69lKrifI1yBIvdlgwk3G6gzpIO-QtZS5uo27OuTUePncdJ_79o06fUUE_sa4BWecRPx2jxQVUdYOB-TWk9Crae53-imXRejxZWC2uu692GUzE5suUEhBOUsHp8WkMrJNKC5UXpONOGhTKepgr37lj1d2jsvxV1dREDCnMBA", "width": 750}], "place_id": "ChIJm5zg7n9644kRw5KhOvn14Sk", "plus_code": {"compound_code": "9W3P+XW Boston, Massachusetts, United States", "global_code": "87JC9W3P+XW"}, "reference": "ChIJm5zg7n9644kRw5KhOvn14Sk", "scope": "GOOGLE", "types": ["general_contractor", "point_of_interest", "establishment"], "vicinity": "41 West Street #3, Boston"}, "ChIJ41-wOp1w44kRHvaVuxcEavg": {"geometry": {"location": {"lat": 42.3548606, "lng": -71.0624516}, "viewport": {"northeast": {"lat": 42.3561634302915, "lng": -71.0611449697085}, "southwest": {"lat": 42.3534654697085, "lng": -71.0638429302915}}}, "icon": "https://maps.gstatic.com/mapfiles/place_api/icons/generic_business-71.png", "id": "cb700d4092d3757180e65cf02404fbc65df38d79", "name": "Lori A. Mackenzie, LMHC", "place_id": "ChIJ41-wOp1w44kRHvaVuxcEavg", "plus_code": {"compound_code": "9W3Q+W2 Boston, Massachusetts, United States", "global_code": "87JC9W3Q+W2"}, "reference": "ChIJ41-wOp1w44kRHvaVuxcEavg", "scope": "GOOGLE", "types": ["doctor", "health", "point_of_interest", "establishment"], "vicinity": "25 West Street, Boston"}, "ChIJ41-wOp1w44kR_RdD7qBnpoU": {"geometry": {"location": {"lat": 42.35484659999999, "lng": -71.06241360000001}, "viewport": {"northeast": {"lat": 42.35614773029149, "lng": -71.0611085697085}, "southwest": {"lat": 42.35344976970849, "lng": -71.06380653029152}}}, "icon": "https://maps.gstatic.com/mapfiles/place_api/icons/generic_business-71.png", "id": "d44fd0598736567e48316b29999ead8f25f55b1b", "name": "Hoxha Karla M", "place_id": "ChIJ41-wOp1w44kR_RdD7qBnpoU", "plus_code": {"compound_code": "9W3Q+W2 Boston, Massachusetts, United States", "global_code": "87JC9W3Q+W2"}, "reference": "ChIJ41-wOp1w44kR_RdD7qBnpoU", "scope": "GOOGLE", "types": ["doctor", "health", "point_of_interest", "establishment"], "vicinity": "25 West Street #5, Boston"}, "ChIJ41-wOp1w44kRXC9m2lGA6Vg": {"geometry": {"location": {"lat": 42.3548606, "lng": -71.0624516}, "viewport": {"northeast": {"lat": 42.3561634302915, "lng": -71.0611449697085}, "southwest": {"lat": 42.3534654697085, "lng": -71.0638429302915}}}, "icon": "https://maps.gstatic.com/mapfiles/place_api/icons/generic_business-71.png", "id": "b6f4906b85782d05cd77178d30692d36a6e73183", "name": "Mark Dagnall, MA", "place_id": "ChIJ41-wOp1w44kRXC9m2lGA6Vg", "plus_code": {"compound_code": "9W3Q+W2 Boston, Massachusetts, United States", "global_code": "87JC9W3Q+W2"}, "reference": "ChIJ41-wOp1w44kRXC9m2lGA6Vg", "scope": "GOOGLE", "types": ["doctor", "health", "point_of_interest", "establishment"], "vicinity": "25 West Street, Boston"}, "ChIJNTVEPut544kR9Hv0nbjBe0o": {"geometry": {"location": {"lat": 42.3548606, "lng": -71.0624516}, "viewport": {"northeast": {"lat": 42.3561634302915, "lng": -71.0611449697085}, "southwest": {"lat": 42.3534654697085, "lng": -71.0638429302915}}}, "icon": "https://maps.gstatic.com/mapfiles/place_api/icons/generic_business-71.png", "id": "833b82a078d8d7e8dc2564c1f2bb70eb9e5f6be2", "name": "Tiffany M. Naste, MSW", "place_id": "ChIJNTVEPut544kR9Hv0nbjBe0o", "plus_code": {"compound_code": "9W3Q+W2 Boston, Massachusetts, United States", "global_code": "87JC9W3Q+W2"}, "reference": "ChIJNTVEPut544kR9Hv0nbjBe0o", "scope": "GOOGLE", "types": ["doctor", "health", "point_of_interest", "establishment"], "vicinity": "25 West Street, Boston"}, "ChIJ41-wOp1w44kR--38Km7NVqY": {"geometry": {"location": {"lat": 42.3548606, "lng": -71.0624516}, "viewport": {"northeast": {"lat": 42.3561634302915, "lng": -71.0611449697085}, "southwest": {"lat": 42.3534654697085, "lng": -71.0638429302915}}}, "icon": "https://maps.gstatic.com/mapfiles/place_api/icons/generic_business-71.png", "id": "7eb33becf536bcdbc5fc646733bb4e57760724e9", "name": "Karen A. Lowe, MSW", "place_id": "ChIJ41-wOp1w44kR--38Km7NVqY", "plus_code": {"compound_code": "9W3Q+W2 Boston, Massachusetts, United States", "global_code": "87JC9W3Q+W2"}, "reference": "ChIJ41-wOp1w44kR--38Km7NVqY", "scope": "GOOGLE", "types": ["doctor", "health", "point_of_interest", "establishment"], "vicinity": "25 West Street, Boston"}, "ChIJ41-wOp1w44kReur5lWVTL7o": {"geometry": {"location": {"lat": 42.35484659999999, "lng": -71.06241360000001}, "viewport": {"northeast": {"lat": 42.35614773029149, "lng": -71.0611085697085}, "southwest": {"lat": 42.35344976970849, "lng": -71.06380653029152}}}, "icon": "https://maps.gstatic.com/mapfiles/place_api/icons/generic_business-71.png", "id": "980f6f79cd5d07e12807028be6648a7bf3a42e4e", "name": "JRI Health Law Institute", "place_id": "ChIJ41-wOp1w44kReur5lWVTL7o", "plus_code": {"compound_code": "9W3Q+W2 Boston, Massachusetts, United States", "global_code": "87JC9W3Q+W2"}, "reference": "ChIJ41-wOp1w44kReur5lWVTL7o", "scope": "GOOGLE", "types": ["lawyer", "point_of_interest", "establishment"], "vicinity": "25 West Street, Boston"}, "ChIJ41-wOp1w44kRwJZ6wv7UvDQ": {"geometry": {"location": {"lat": 42.35484659999999, "lng": -71.06241360000001}, "viewport": {"northeast": {"lat": 42.35614773029149, "lng": -71.0611085697085}, "southwest": {"lat": 42.35344976970849, "lng": -71.06380653029152}}}, "icon": "https://maps.gstatic.com/mapfiles/place_api/icons/generic_business-71.png", "id": "4af70fa4f51b55bdb52456497083e33a4e22ffb4", "name": "Cheng & Tsui Company", "place_id": "ChIJ41-wOp1w44kRwJZ6wv7UvDQ", "plus_code": {"compound_code": "9W3Q+W2 Boston, Massachusetts, United States", "global_code": "87JC9W3Q+W2"}, "rating": 4, "reference": "ChIJ41-wOp1w44kRwJZ6wv7UvDQ", "scope": "GOOGLE", "types": ["point_of_interest", "establishment"], "user_ratings_total": 2, "vicinity": "25 West Street # 503, Boston"}, "ChIJ14TTJJ1w44kRAHrkBHM0-GQ": {"geometry": {"location": {"lat": 42.3549043, "lng": -71.06244339999999}, "viewport": {"northeast": {"lat": 42.35619078029149, "lng": -71.06115181970848}, "southwest": {"lat": 42.3534928197085, "lng": -71.06384978029149}}}, "icon": "https://maps.gstatic.com/mapfiles/place_api/icons/generic_business-71.png", "id": "b94a086ef03a4a96e4a1b1d9552e7c1896be3f8d", "name": "Surf Merchants-Boston", "place_id": "ChIJ14TTJJ1w44kRAHrkBHM0-GQ", "plus_code": {"compound_code": "9W3Q+X2 Boston, Massachusetts, United States", "global_code": "87JC9W3Q+X2"}, "reference": "ChIJ14TTJJ1w44kRAHrkBHM0-GQ", "scope": "GOOGLE", "types": ["point_of_interest", "establishment"], "vicinity": "33 West Street, Boston"}, "ChIJ6cjUOp1w44kRY5lmdqX8BRs": {"geometry": {"location": {"lat": 42.3549043, "lng": -71.06244339999999}, "viewport": {"northeast": {"lat": 42.35619078029149, "lng": -71.06115181970848}, "southwest": {"lat": 42.3534928197085, "lng": -71.06384978029149}}}, "icon": "https://maps.gstatic.com/mapfiles/place_api/icons/generic_business-71.png", "id": "fed31570d7715d072d1a649ac6b52837fe94e420", "name": "Escape the Room Boston", "opening_hours": {"open_now": true}, "photos": [{"height": 4032, "html_attributions": ["<a href=\"https://maps.google.com/maps/contrib/109546058992935758712/photos\">Joon Lee</a>"], "photo_reference": "CmRaAAAAOz6O7LX15wvqbcPSIeednEGfCIRKrllWtZfsIquDIXz7AablMSOSaUcDwxlw_gfHDVZ16yhot6nh5a300AdhIxBUPyCjOGVquKr8dIQlxAlEJJqeTNWTURGuOE3xl2DoEhD9Ol8a6E-P13PSILZCbFeNGhRq8qHIbqTIH6G7q5DtHLQ_eF5-4w", "width": 3024}], "place_id": "ChIJ6cjUOp1w44kRY5lmdqX8BRs", "plus_code": {"compound_code": "9W3Q+X2 Boston, Massachusetts, United States", "global_code": "87JC9W3Q+X2"}, "rating": 4.7, "reference": "ChIJ6cjUOp1w44kRY5lmdqX8BRs", "scope": "GOOGLE", "types": ["point_of_interest", "establishment"], "user_ratings_total": 757, "vicinity": "33 West Street 3rd floor, Boston"}, "ChIJ5ZsRRhZ644kRw-0SvAu8bBk": {"geometry": {"location": {"lat": 42.3549043, "lng": -71.06244339999999}, "viewport": {"northeast": {"lat": 42.35619078029149, "lng": -71.06115181970848}, "southwest": {"lat": 42.3534928197085, "lng": -71.06384978029149}}}, "icon": "https://maps.gstatic.com/mapfiles/place_api/icons/school-71.png", "id": "5e77a4f0d5136e608ca75289cc8560f3554163c0", "name": "Musicians Playground", "photos": [{"height": 1278, "html_attributions": ["<a href=\"https://maps.google.com/maps/contrib/116703265032691025586/photos\">Musicians&#39; Playground</a>"], "photo_reference": "CmRaAAAA3X6Gbt6W_NCRSqkMFBKPr297P7Fv-I_BqtDGQtzr-UfVq7fXiiNMevfZ9HYDczr0I8Z9bPJb-yXZDlqvV1f0SBzJS6-vCn_gKHKk3vmEEA_3oA7v0maaKm6unkTBY4-cEhDqzIKMiCtGo7umQtVRWc0bGhRs2vOPyTlq6gLMoxok0u4NU5UmNA", "width": 1920}], "place_id": "ChIJ5ZsRRhZ644kRw-0SvAu8bBk", "plus_code": {"compound_code": "9W3Q+X2 Boston, Massachusetts, United States", "global_code": "87JC9W3Q+X2"}, "rating": 5, "reference": "ChIJ5ZsRRhZ644kRw-0SvAu8bBk", "scope": "GOOGLE", "types": ["electronics_store", "home_goods_store", "store", "point_of_interest", "school", "establishment"], "user_ratings_total": 18, "vicinity": "33 West Street Floor 5, Boston"}, "ChIJ6cjUOp1w44kRIhomZ6ObE20": {"geometry": {"location": {"lat": 42.35490859999999, "lng": -71.0624433}, "viewport": {"northeast": {"lat": 42.3561935802915, "lng": -71.0611530697085}, "southwest": {"lat": 42.3534956197085, "lng": -71.0638510302915}}}, "icon": "https://maps.gstatic.com/mapfiles/place_api/icons/school-71.png", "id": "e6c8bfa3b44f7712d6d96457a58d3af19b972ba3", "name": "\uc5e0\ubc14\uc2dc", "place_id": "ChIJ6cjUOp1w44kRIhomZ6ObE20", "plus_code": {"compound_code": "9W3Q+X2 Boston, Massachusetts, United States", "global_code": "87JC9W3Q+X2"}, "reference": "ChIJ6cjUOp1w44kRIhomZ6ObE20", "scope": "GOOGLE", "types": ["point_of_interest", "establishment"], "vicinity": "33 West Street, Boston"}, "ChIJXcD2Op1w44kRLCCkXeqvR-s": {"geometry": {"location": {"lat": 42.3547079, "lng": -71.0625374}, "viewport": {"northeast": {"lat": 42.3560726302915, "lng": -71.06117406970849}, "southwest": {"lat": 42.3533746697085, "lng": -71.0638720302915}}}, "icon": "https://maps.gstatic.com/mapfiles/place_api/icons/generic_business-71.png", "id": "3cd21797f53bdd0b320a6558743463a5127aafc6", "name": "Voice & Future Fund Inc", "place_id": "ChIJXcD2Op1w44kRLCCkXeqvR-s", "plus_code": {"compound_code": "9W3P+VX Boston, Massachusetts, United States", "global_code": "87JC9W3P+VX"}, "reference": "ChIJXcD2Op1w44kRLCCkXeqvR-s", "scope": "GOOGLE", "types": ["lawyer", "point_of_interest", "establishment"], "vicinity": "26 West Street #3, Boston"}, "ChIJh2LzIJ1w44kRxCPvxXQGaTI": {"geometry": {"location": {"lat": 42.3550183, "lng": -71.0626141}, "viewport": {"northeast": {"lat": 42.3562951302915, "lng": -71.06133151970849}, "southwest": {"lat": 42.3535971697085, "lng": -71.0640294802915}}}, "icon": "https://maps.gstatic.com/mapfiles/place_api/icons/generic_business-71.png", "id": "8db0f408b8bac770bcd29b4a72c2c4ec49efbb52", "name": "Samaritans, Inc.", "place_id": "ChIJh2LzIJ1w44kRxCPvxXQGaTI", "plus_code": {"compound_code": "9W4P+2X Boston, Massachusetts, United States", "global_code": "87JC9W4P+2X"}, "rating": 4, "reference": "ChIJh2LzIJ1w44kRxCPvxXQGaTI", "scope": "GOOGLE", "types": ["point_of_interest", "establishment"], "user_ratings_total": 7, "vicinity": "41 West Street, Boston"}, "ChIJT01XI51w44kRljvu19UWg34": {"geometry": {"location": {"lat": 42.3550183, "lng": -71.0626141}, "viewport": {"northeast": {"lat": 42.3562951302915, "lng": -71.06133151970849}, "southwest": {"lat": 42.3535971697085, "lng": -71.0640294802915}}}, "icon": "https://maps.gstatic.com/mapfiles/place_api/icons/generic_business-71.png", "id": "59d56e43c8d1508adbf2783c79e4beafd18935eb", "name": "Core Technologies", "opening_hours": {"open_now": false}, "photos": [{"height": 255, "html_attributions": ["<a href=\"https://maps.google.com/maps/contrib/116210068475916932719/photos\">Core Technologies</a>"], "photo_reference": "CmRZAAAAn2lNWl3v-9TPN4F-Nls3U3lok_fAi1gGtC9qlg5q40FSGpkC_zWRlOXQ3A6zmppA6KL2Y6kbyJ6vPt0Fq7KxLdEc1EiyHQaAnZ9GxabuNB5TB3VbgJU3k-emEjnT_TXsEhB9jiqJL4axD_K6KYt4PltTGhRvf-KRq_48b6PdhaNCTUw5FEJ7Qw", "width": 596}], "place_id": "ChIJT01XI51w44kRljvu19UWg34", "plus_code": {"compound_code": "9W4P+2X Boston, Massachusetts, United States", "global_code": "87JC9W4P+2X"}, "reference": "ChIJT01XI51w44kRljvu19UWg34", "scope": "GOOGLE", "types": ["point_of_interest", "establishment"], "vicinity": "699 Boylston Street, Boston"}, "ChIJT01XI51w44kRZ-_B9qOboKU": {"geometry": {"location": {"lat": 42.3550104, "lng": -71.062628}, "viewport": {"northeast": {"lat": 42.3562923302915, "lng": -71.0613407197085}, "southwest": {"lat": 42.3535943697085, "lng": -71.0640386802915}}}, "icon": "https://maps.gstatic.com/mapfiles/place_api/icons/generic_business-71.png", "id": "3db367dcc6b3f61d8d915f48c0c6aaafad4267a2", "name": "Neil Osborne Law Office", "place_id": "ChIJT01XI51w44kRZ-_B9qOboKU", "plus_code": {"compound_code": "9W4P+2W Boston, Massachusetts, United States", "global_code": "87JC9W4P+2W"}, "reference": "ChIJT01XI51w44kRZ-_B9qOboKU", "scope": "GOOGLE", "types": ["lawyer", "point_of_interest", "establishment"], "vicinity": "41 West Street, Boston"}, "ChIJvUqwyONx44kRog-861ceq6I": {"geometry": {"location": {"lat": 42.354904, "lng": -71.062443}, "viewport": {"northeast": {"lat": 42.3561905302915, "lng": -71.0611513697085}, "southwest": {"lat": 42.3534925697085, "lng": -71.0638493302915}}}, "icon": "https://maps.gstatic.com/mapfiles/place_api/icons/school-71.png", "id": "2a02041fb8107cbf1e537aa410640fe7d4343886", "name": "\u9014\u7f8e\u667a\u8bfe\u6ce2\u58eb\u987f\u5b66\u4e60\u4e2d\u5fc3 Boston Smartstudy", "opening_hours": {"open_now": true}, "photos": [{"height": 1365, "html_attributions": ["<a href=\"https://maps.google.com/maps/contrib/111658699319541630304/photos\">Bei Gan</a>"], "photo_reference": "CmRaAAAA_SwoQTBfd32fCvmVgjPRxdfq3p7dLwdMoG07NH49SEDb8RBm8J0T5Ka4JZ_SOB9SX0QUGFQj6g8MZABtzk_ZhtDQL0E-U_8CDmY8zn3lmVj9aKGt0UX7Q5unkiNodTrEEhBMIpjCK8PdMBwpB3WUVqAQGhRZeBFn_Mc2shA4kCkZ9nYj1jDBLA", "width": 2048}], "place_id": "ChIJvUqwyONx44kRog-861ceq6I", "plus_code": {"compound_code": "9W3Q+X2 Boston, Massachusetts, United States", "global_code": "87JC9W3Q+X2"}, "rating": 5, "reference": "ChIJvUqwyONx44kRog-861ceq6I", "scope": "GOOGLE", "types": ["point_of_interest", "establishment"], "user_ratings_total": 2, "vicinity": "33-41 West Street, Boston"}, "ChIJGzE9DS1l44kRoOhiASS_fHg": {"geometry": {"location": {"lat": 42.3600825, "lng": -71.0588801}, "viewport": {"northeast": {"lat": 42.40081989999999, "lng": -70.749455}, "southwest": {"lat": 42.22788, "lng": -71.191113}}}, "icon": "https://maps.gstatic.com/mapfiles/place_api/icons/geocode-71.png", "id": "06755c25d2b34d13942a4713971756a55b870ced", "name": "Boston", "photos": [{"height": 3024, "html_attributions": ["<a href=\"https://maps.google.com/maps/contrib/104670289779338733432/photos\">Natalia Zalucean</a>"], "photo_reference": "CmRaAAAAVBVLeRObETQUsoFdJINkz1fVIUlrZc-n1bSk9mm-XhV7I01dFKv4Sb6RnNKtJwsPyNrtmByGyEpLndKaw51C3Z8IK30rxviEddLtyCyLHqn7_d3yUjuRY6GZPVPLsvFOEhC_4j2d0yseaWaFIAHky6usGhQEcyyYK1ddPDi1rVBB4SE9qEDQFw", "width": 4032}], "place_id": "ChIJGzE9DS1l44kRoOhiASS_fHg", "reference": "ChIJGzE9DS1l44kRoOhiASS_fHg", "scope": "GOOGLE", "types": ["locality", "political"], "vicinity": "Boston"}, "ChIJd6W0JZ1w44kReCoyPVorU2Q": {"geometry": {"location": {"lat": 42.354904, "lng": -71.062443}, "viewport": {"northeast": {"lat": 42.3561905302915, "lng": -71.0611513697085}, "southwest": {"lat": 42.3534925697085, "lng": -71.0638493302915}}}, "icon": "https://maps.gstatic.com/mapfiles/place_api/icons/school-71.png", "id": "d9ce9f6db8802ba4db4be05fd5620b18e2f8136a", "name": "Phemia \u83f2\u7c73\u4e9a\u9ad8\u7aef\u7559\u5b66", "opening_hours": {"open_now": true}, "photos": [{"height": 810, "html_attributions": ["<a href=\"https://maps.google.com/maps/contrib/109083476790178107219/photos\">Phemia \u83f2\u7c73\u4e9a\u9ad8\u7aef\u7559\u5b66</a>"], "photo_reference": "CmRaAAAAHD_XXd6KnbUAUtoNDFDidyyQGKyfdkE5f3V53UtNuWIfRsf6bs9wTqSZB0aPV6RZ4agA60XD-ZeBjTfRkLm5hKi_CDrVOX2Mn8xYVtrCl0W80zwhGu2BHCPvDHW8NLM3EhB-ziRpyWDF0eA8ksqHCOZ2GhSl7g69hZ5240GrJLBXS_ciVz4fTw", "width": 1080}], "place_id": "ChIJd6W0JZ1w44kReCoyPVorU2Q", "plus_code": {"compound_code": "9W3Q+X2 Boston, Massachusetts, United States", "global_code": "87JC9W3Q+X2"}, "rating": 5, "reference": "ChIJd6W0JZ1w44kReCoyPVorU2Q", "scope": "GOOGLE", "types": ["point_of_interest", "establishment"], "user_ratings_total": 1, "vicinity": "33-41 West Street, Boston"}, "ChIJCZyPe6lx44kRsN3OsfF_tRU": {"geometry": {"location": {"lat": 42.354904, "lng": -71.062443}, "viewport": {"northeast": {"lat": 42.3561905302915, "lng": -71.0611513697085}, "southwest": {"lat": 42.3534925697085, "lng": -71.0638493302915}}}, "icon": "https://maps.gstatic.com/mapfiles/place_api/icons/generic_business-71.png", "id": "06f66a9736955641728c35e281e1781c8267c3a2", "name": "USWOO Realty \u7f8e\u7a9d\u623f\u4ea7", "opening_hours": {"open_now": true}, "photos": [{"height": 810, "html_attributions": ["<a href=\"https://maps.google.com/maps/contrib/102419014593598047478/photos\">USWOO Realty \u7f8e\u7a9d\u623f\u4ea7</a>"], "photo_reference": "CmRZAAAAvrFJpzkHlEAWHnGrlnf782otx1CGue6OymPQMUo3uZ1C9mpo2VKCmQXFeVVn-ozmnQTzvpKI78rV8YE7SohkSpfEIArOciwmHOd_IvuNWPN_GL62Fag6CG4MJ-QPuYTIEhDjwqkSa7vjxYby-zKwgi5xGhSne1k8Mh5f6FENRvh7aAOA2v7kCQ", "width": 1080}], "place_id": "ChIJCZyPe6lx44kRsN3OsfF_tRU", "plus_code": {"compound_code": "9W3Q+X2 Boston, Massachusetts, United States", "global_code": "87JC9W3Q+X2"}, "reference": "ChIJCZyPe6lx44kRsN3OsfF_tRU", "scope": "GOOGLE", "types": ["real_estate_agency", "point_of_interest", "establishment"], "vicinity": "33-41 West Street, Boston"}, "ChIJDwPBL51w44kRFgYJQ4QBuD0": {"geometry": {"location": {"lat": 42.3548615, "lng": -71.0622984}, "viewport": {"northeast": {"lat": 42.35613773029149, "lng": -71.06101621970849}, "southwest": {"lat": 42.3534397697085, "lng": -71.06371418029151}}}, "icon": "https://maps.gstatic.com/mapfiles/place_api/icons/generic_business-71.png", "id": "cf5f3377a2316c7b7bf477810c1d70ba8b9cd85a", "name": "2-18 School St Parking", "place_id": "ChIJDwPBL51w44kRFgYJQ4QBuD0", "plus_code": {"compound_code": "9W3Q+W3 Boston, Massachusetts, United States", "global_code": "87JC9W3Q+W3"}, "reference": "ChIJDwPBL51w44kRFgYJQ4QBuD0", "scope": "GOOGLE", "types": ["parking", "point_of_interest", "establishment"], "vicinity": "2-18 School St, Boston"}, "ChIJZyzaMZ1w44kR0mPhivKjqjo": {"geometry": {"location": {"lat": 42.35478149999999, "lng": -71.06221}, "viewport": {"northeast": {"lat": 42.3560723302915, "lng": -71.06092131970848}, "southwest": {"lat": 42.3533743697085, "lng": -71.0636192802915}}}, "icon": "https://maps.gstatic.com/mapfiles/place_api/icons/generic_business-71.png", "id": "7d0fa656f86205d7e6cf435044538588cf278a8e", "name": "VPNE Parking Solutions", "place_id": "ChIJZyzaMZ1w44kR0mPhivKjqjo", "plus_code": {"compound_code": "9W3Q+W4 Boston, Massachusetts, United States", "global_code": "87JC9W3Q+W4"}, "rating": 2.3, "reference": "ChIJZyzaMZ1w44kR0mPhivKjqjo", "scope": "GOOGLE", "types": ["parking", "point_of_interest", "establishment"], "user_ratings_total": 6, "vicinity": "17 West Street, Boston"}, "ChIJ2W3RMZ1w44kRpfbkgK43LOM": {"geometry": {"location": {"lat": 42.354754, "lng": -71.0621919}, "viewport": {"northeast": {"lat": 42.35604928029149, "lng": -71.0608950197085}, "southwest": {"lat": 42.35335131970849, "lng": -71.0635929802915}}}, "icon": "https://maps.gstatic.com/mapfiles/place_api/icons/generic_business-71.png", "id": "60ba37a7ad1ace86ec5fc328262bd10a0c9bf173", "name": "17 West St Parking", "place_id": "ChIJ2W3RMZ1w44kRpfbkgK43LOM", "plus_code": {"compound_code": "9W3Q+W4 Boston, Massachusetts, United States", "global_code": "87JC9W3Q+W4"}, "reference": "ChIJ2W3RMZ1w44kRpfbkgK43LOM", "scope": "GOOGLE", "types": ["parking", "point_of_interest", "establishment"], "vicinity": "17 West St, Boston"}, "ChIJ26hXJJ1w44kRvhYCm1Xmnl0": {"geometry": {"location": {"lat": 42.3549677, "lng": -71.0626579}, "viewport": {"northeast": {"lat": 42.3562693302915, "lng": -71.0613524697085}, "southwest": {"lat": 42.3535713697085, "lng": -71.0640504302915}}}, "icon": "https://maps.gstatic.com/mapfiles/place_api/icons/school-71.png", "id": "77aefbc1e16bba305b897e0c71fbf782dbb8148a", "name": "MintyMentors \u660e\u9014\u6c42\u804c\u54a8\u8be2", "opening_hours": {"open_now": true}, "photos": [{"height": 810, "html_attributions": ["<a href=\"https://maps.google.com/maps/contrib/106167380192155812593/photos\">MintyMentors \u660e\u9014\u6c42\u804c\u54a8\u8be2</a>"], "photo_reference": "CmRaAAAAI230uT7HevAXmhy1luK5L4rtbApIvuArwbSul1GOOHEtz-Kn8BoxpZ8MbnHWpeSlsEvGAHf0NaUA0yIKPNsQpXc1A384pXADUydZcDKHq7Q_IsqKy2L0jhVaCU4kCpWiEhDowu2674IJgg-Ue-4h1shGGhSrfCpUesBWUC_LPhhmkDOI67QAkw", "width": 1080}], "place_id": "ChIJ26hXJJ1w44kRvhYCm1Xmnl0", "plus_code": {"compound_code": "9W3P+XW Boston, Massachusetts, United States", "global_code": "87JC9W3P+XW"}, "rating": 5, "reference": "ChIJ26hXJJ1w44kRvhYCm1Xmnl0", "scope": "GOOGLE", "types": ["point_of_interest", "establishment"], "user_ratings_total": 4, "vicinity": "33-41 West Street, Boston"}, "ChIJgT_o0id544kRwFCxXmLjDM0": {"geometry": {"location": {"lat": 42.3550183, "lng": -71.0626141}, "viewport": {"northeast": {"lat": 42.3562951302915, "lng": -71.06133151970849}, "southwest": {"lat": 42.3535971697085, "lng": -71.0640294802915}}}, "icon": "https://maps.gstatic.com/mapfiles/place_api/icons/shopping-71.png", "id": "cc635796179818f6e4faf423b520477e4221f434", "name": "Mosaic Tile", "opening_hours": {"open_now": false}, "photos": [{"height": 441, "html_attributions": ["<a href=\"https://maps.google.com/maps/contrib/118278933470244148783/photos\">Womack Brandt</a>"], "photo_reference": "CmRaAAAAx4lmUCGmFBCh_coPsN05ucuw-hBO0PTifHPm2E7Q4Om2iRjIzO_3cdQ5MFdRKYbPpKPWfUEK9JzEiTbLKa_94zwPq7BKlyPZ5-wPGwfJBizYMc-vHULMFoorhK0QwsXaEhCYFMOYeNZdw9sJFR1qrmS5GhTiVQOLzbFsE1xwjrYSREJI6djm5g", "width": 677}], "place_id": "ChIJgT_o0id544kRwFCxXmLjDM0", "plus_code": {"global_code": "87JC9W4P+2X"}, "reference": "ChIJgT_o0id544kRwFCxXmLjDM0", "scope": "GOOGLE", "types": ["furniture_store", "home_goods_store", "store", "general_contractor", "point_of_interest", "establishment"], "vicinity": "33-41 West Street suite 455, Boston"}, "ChIJWSaA5z9x44kRpACyiSkmaWE": {"geometry": {"location": {"lat": 42.3550104, "lng": -71.062628}, "viewport": {"northeast": {"lat": 42.3562923302915, "lng": -71.0613407197085}, "southwest": {"lat": 42.3535943697085, "lng": -71.0640386802915}}}, "icon": "https://maps.gstatic.com/mapfiles/place_api/icons/school-71.png", "id": "4fa01df8413275136d71c9faa9953e475bd386d7", "name": "\u6ce2\u58eb\u987f\u667a\u8bfe", "place_id": "ChIJWSaA5z9x44kRpACyiSkmaWE", "plus_code": {"compound_code": "9W4P+2W Boston, Massachusetts, United States", "global_code": "87JC9W4P+2W"}, "reference": "ChIJWSaA5z9x44kRpACyiSkmaWE", "scope": "GOOGLE", "types": ["point_of_interest", "establishment"], "vicinity": "41 West Street 8th floor, Boston"}}