{"ChIJW6f_Vo9w44kRri2AmkHy3xY": {"geometry": {"location": {"lat": 42.3616248, "lng": -71.0562824}, "viewport": {"northeast": {"lat": 42.3629866302915, "lng": -71.0549162197085}, "southwest": {"lat": 42.3602886697085, "lng": -71.05761418029151}}}, "icon": "https://maps.gstatic.com/mapfiles/place_api/icons/geocode-71.png", "id": "06d6cf7e48bb492155892b224a1312b3711c3946", "name": "116-54 Blackstone St", "place_id": "ChIJW6f_Vo9w44kRri2AmkHy3xY", "reference": "ChIJW6f_Vo9w44kRri2AmkHy3xY", "scope": "GOOGLE", "types": ["route"], "vicinity": "Boston"}, "ChIJ4XtXUI9w44kRkZWEYRwScyk": {"geometry": {"location": {"lat": 42.3617005, "lng": -71.05657529999999}, "viewport": {"northeast": {"lat": 42.36308708029151, "lng": -71.0551662697085}, "southwest": {"lat": 42.36038911970851, "lng": -71.0578642302915}}}, "icon": "https://maps.gstatic.com/mapfiles/place_api/icons/bar-71.png", "id": "c34a860c23b58f32d0d4d2967b2a1cea4074d247", "name": "Durty Nelly's", "opening_hours": {"open_now": true}, "photos": [{"height": 3024, "html_attributions": ["<a href=\"https://maps.google.com/maps/contrib/108951869021719141688/photos\">Matthew McDonald</a>"], "photo_reference": "CmRaAAAA1zya_MhloKNPZ17G2rbhMY7ahEJyFl-45oDZljosW0Qw6QbFFI02iLhehuMkNrQIoyalG-8xuFUkm5AgpiZdI2XOch3wArjTvdlMjQ0rZcgH_z4DVZdU4kd8ZuXADT4WEhAcjDuiThUuEjCbxSnXV1tiGhSFzBNSWwT5B9X-S-8Lo6VQuZSRDQ", "width": 4032}], "place_id": "ChIJ4XtXUI9w44kRkZWEYRwScyk", "plus_code": {"compound_code": "9W6V+M9 Boston, Massachusetts, United States", "global_code": "87JC9W6V+M9"}, "price_level": 1, "rating": 4.3, "reference": "ChIJ4XtXUI9w44kRkZWEYRwScyk", "scope": "GOOGLE", "types": ["bar", "restaurant", "point_of_interest", "food", "establishment"], "user_ratings_total": 169, "vicinity": "108 Blackstone Street, Boston"}, "ChIJm2vsW49w44kRADPdfmaoMoQ": {"geometry": {"location": {"lat": 42.3617757, "lng": -71.0567523}, "viewport": {"northeast": {"lat": 42.3631272302915, "lng": -71.0554771697085}, "southwest": {"lat": 42.3604292697085, "lng": -71.0581751302915}}}, "icon": "https://maps.gstatic.com/mapfiles/place_api/icons/generic_business-71.png", "id": "cba90d08caf3ba09e81b75cfe70ab99cc1a2a7cf", "name": "Adam Travel Services", "opening_hours": {"open_now": true}, "photos": [{"height": 2880, "html_attributions": ["<a href=\"https://maps.google.com/maps/contrib/101203124981648266906/photos\">Riley Allen</a>"], "photo_reference": "CmRaAAAAmfrmiXFUJsyE3ajDWGJij63H6mM4eZh9HM6USdJZrDFDOeYeQ8ou41Y_fWlkDkM7xVyFLKgDNW9iz93Hry05mFDi5RpJl0EGYnXtUkAL-_Q69CUuQzC9KQftfLwLChp6EhCn4lssxesymObR1dQo3OTMGhSTCcI7hyOwxR3SMP4ii2PCGQDH3w", "width": 1920}], "place_id": "ChIJm2vsW49w44kRADPdfmaoMoQ", "plus_code": {"compound_code": "9W6V+P7 Boston, Massachusetts, United States", "global_code": "87JC9W6V+P7"}, "rating": 3.6, "reference": "ChIJm2vsW49w44kRADPdfmaoMoQ", "scope": "GOOGLE", "types": ["travel_agency", "point_of_interest", "establishment"], "user_ratings_total": 10, "vicinity": "7 Marshall Street, Boston"}, "ChIJ-S9TXo9w44kRQu_u2g9dLk0": {"geometry": {"location": {"lat": 42.3618141, "lng": -71.056821}, "viewport": {"northeast": {"lat": 42.3631618302915, "lng": -71.05550876970848}, "southwest": {"lat": 42.3604638697085, "lng": -71.0582067302915}}}, "icon": "https://maps.gstatic.com/mapfiles/place_api/icons/generic_business-71.png", "id": "62a0f81e4ca4414befd5824f4d91f9fe0fab9c14", "name": "Blackstone Block Architects", "place_id": "ChIJ-S9TXo9w44kRQu_u2g9dLk0", "plus_code": {"compound_code": "9W6V+P7 Boston, Massachusetts, United States", "global_code": "87JC9W6V+P7"}, "reference": "ChIJ-S9TXo9w44kRQu_u2g9dLk0", "scope": "GOOGLE", "types": ["general_contractor", "point_of_interest", "establishment"], "vicinity": "7 Marshall Street #301, Boston"}, "ChIJ8aAjWo9w44kR9QKZAoDjOoc": {"geometry": {"location": {"lat": 42.3617991, "lng": -71.0566827}, "viewport": {"northeast": {"lat": 42.3631843802915, "lng": -71.0552750197085}, "southwest": {"lat": 42.3604864197085, "lng": -71.05797298029151}}}, "icon": "https://maps.gstatic.com/mapfiles/place_api/icons/generic_business-71.png", "id": "99b23f0a1604417fd47de2387ae6e5a6c16e04e8", "name": "Room Escapers - Boston Escape Rooms", "opening_hours": {"open_now": true}, "photos": [{"height": 2091, "html_attributions": ["<a href=\"https://maps.google.com/maps/contrib/107213464177034733635/photos\">Room Escapers Boston</a>"], "photo_reference": "CmRaAAAAyEuTqd0Bcpr1lOo5oB8-WboLOVwSY-Ewi4NTrocPTAEV8h-entj_0wTzCfPLzI-gm4B1ta2990KoYnjCj-xetVmkt6Nuhn8ZpvWZu67PBj1zwvGa-YXbSSAW81IVmeFEEhBK3OkYbPLhL2N4B0NLO24PGhRMsB3HrbCaHbWv7GjVCNKi9F6kuQ", "width": 3840}], "place_id": "ChIJ8aAjWo9w44kR9QKZAoDjOoc", "plus_code": {"compound_code": "9W6V+P8 Boston, Massachusetts, United States", "global_code": "87JC9W6V+P8"}, "rating": 4.9, "reference": "ChIJ8aAjWo9w44kR9QKZAoDjOoc", "scope": "GOOGLE", "types": ["point_of_interest", "establishment"], "user_ratings_total": 41, "vicinity": "112 Blackstone Street, Boston"}, "ChIJm2vsW49w44kRh5Ki33Rsimo": {"geometry": {"location": {"lat": 42.361806, "lng": -71.05673709999999}, "viewport": {"northeast": {"lat": 42.3631522302915, "lng": -71.05546941970849}, "southwest": {"lat": 42.36045426970851, "lng": -71.05816738029151}}}, "icon": "https://maps.gstatic.com/mapfiles/place_api/icons/generic_business-71.png", "id": "9a37a1832d931980952bcc5d9e1d630a9494e6c1", "name": "BellaVistaTours", "photos": [{"height": 4160, "html_attributions": ["<a href=\"https://maps.google.com/maps/contrib/112956682134553317959/photos\">Chris Ferry</a>"], "photo_reference": "CmRaAAAAqE-aG17glNWiVR2UBc0FARTIf-_f-HaxCnprrj7V5JtwYc_0Yxh3KZayryY1tTils8HjnkVE6cKeniIEePeChiVmRFjDtEZL3ane9OJnjZ0rT2Dw6QRg_jBG53z6XEnVEhBdh2NvMvJwytA10x0bvzjAGhST_9J1RSyeY9FhjBDvY3018xz5gg", "width": 3120}], "place_id": "ChIJm2vsW49w44kRh5Ki33Rsimo", "plus_code": {"compound_code": "9W6V+P8 Boston, Massachusetts, United States", "global_code": "87JC9W6V+P8"}, "rating": 1, "reference": "ChIJm2vsW49w44kRh5Ki33Rsimo", "scope": "GOOGLE", "types": ["travel_agency", "point_of_interest", "establishment"], "user_ratings_total": 2, "vicinity": "7 Marshall Street 2nd Floor, Boston"}, "ChIJPS80Wo9w44kRaEWfQYLJ0VE": {"geometry": {"location": {"lat": 42.36190849999999, "lng": -71.0566267}, "viewport": {"northeast": {"lat": 42.36324448029149, "lng": -71.0552988197085}, "southwest": {"lat": 42.36054651970849, "lng": -71.0579967802915}}}, "icon": "https://maps.gstatic.com/mapfiles/place_api/icons/generic_business-71.png", "id": "a89a4381b952f664cbb4d77dedc0561877315e0a", "name": "Salon JLS", "opening_hours": {"open_now": true}, "photos": [{"height": 1224, "html_attributions": ["<a href=\"https://maps.google.com/maps/contrib/112367016595243203182/photos\">Salon JLS</a>"], "photo_reference": "CmRaAAAA796opgs_NtpmYCovJ9YQAbCB062hldLdKUqfem9QFc1r0BA4IhOZkQgPlcMz1meI9euq5OIfA2ksAuYQJF5sZFHO3PWbPCztrMQz4tJhZYOxS7D0R3jbYTe167Q2Ac9KEhDTvcYTa9uQCNjPytOFKXh6GhTtQph6Oj2XG_IJRvStaev9SjOTmw", "width": 1632}], "place_id": "ChIJPS80Wo9w44kRaEWfQYLJ0VE", "plus_code": {"compound_code": "9W6V+Q8 Boston, Massachusetts, United States", "global_code": "87JC9W6V+Q8"}, "rating": 5, "reference": "ChIJPS80Wo9w44kRaEWfQYLJ0VE", "scope": "GOOGLE", "types": ["hair_care", "point_of_interest", "establishment"], "user_ratings_total": 14, "vicinity": "114 Blackstone Street, Boston"}, "ChIJ1-iQV49w44kRis_DbMCWXNs": {"geometry": {"location": {"lat": 42.3615834, "lng": -71.0564508}, "viewport": {"northeast": {"lat": 42.36297173029151, "lng": -71.0550389197085}, "southwest": {"lat": 42.36027376970851, "lng": -71.0577368802915}}}, "icon": "https://maps.gstatic.com/mapfiles/place_api/icons/restaurant-71.png", "id": "f46b24864bf6c7393509f526fa6b0b003e970bc9", "name": "Haymarket Pizza", "opening_hours": {"open_now": true}, "photos": [{"height": 4048, "html_attributions": ["<a href=\"https://maps.google.com/maps/contrib/106728994962987306979/photos\">Tom Berrigan</a>"], "photo_reference": "CmRaAAAA5yPIrKv2KycbjHYS9uUE920Ggv1Twuw5WO-rTGWw3Y3euv1RGr10rBGxrVPdmZcFHfB2uVV_-iHdDPNUxR3A4rbrGMiMcK08QP3MyZ6EN3I5viFeuBKlYK_NJ0piwRcsEhCSpX7y27D0qzX3wHg699f5GhQ9nXRNY-idIOrCwjmQyvEw_cE9KQ", "width": 3036}], "place_id": "ChIJ1-iQV49w44kRis_DbMCWXNs", "plus_code": {"compound_code": "9W6V+JC Boston, Massachusetts, United States", "global_code": "87JC9W6V+JC"}, "price_level": 1, "rating": 4.3, "reference": "ChIJ1-iQV49w44kRis_DbMCWXNs", "scope": "GOOGLE", "types": ["restaurant", "point_of_interest", "food", "establishment"], "user_ratings_total": 49, "vicinity": "106 Blackstone Street, Boston"}, "ChIJXQWpV49w44kRJQeDXWxxQvY": {"geometry": {"location": {"lat": 42.3615834, "lng": -71.0564508}, "viewport": {"northeast": {"lat": 42.36297173029151, "lng": -71.0550389197085}, "southwest": {"lat": 42.36027376970851, "lng": -71.0577368802915}}}, "icon": "https://maps.gstatic.com/mapfiles/place_api/icons/shopping-71.png", "id": "a2c2442e91fd1c535a7aac650f73032877aac4e9", "name": "Harry's Cold Cut Center", "opening_hours": {"open_now": false}, "photos": [{"height": 4160, "html_attributions": ["<a href=\"https://maps.google.com/maps/contrib/112956682134553317959/photos\">Chris Ferry</a>"], "photo_reference": "CmRaAAAArOL1uqjUBdAOhRTC12LFPAlJAfKb7FhexYGNGctj6QnY2bSFZUTeKXGGe9WHOv4efMRoauoZ-Dtqr4nxq-DfwNw5Z5PnHJCzUBtlfYf1qaZ2j85UgAs43VyMgrKMFawEEhDBO9Kh4SgRjUM8O0DIOg9aGhTGtfU1WStV9iHcfHt9yh2leP7hlw", "width": 3120}], "place_id": "ChIJXQWpV49w44kRJQeDXWxxQvY", "plus_code": {"compound_code": "9W6V+JC Boston, Massachusetts, United States", "global_code": "87JC9W6V+JC"}, "rating": 5, "reference": "ChIJXQWpV49w44kRJQeDXWxxQvY", "scope": "GOOGLE", "types": ["beauty_salon", "store", "point_of_interest", "food", "establishment"], "user_ratings_total": 9, "vicinity": "98 Blackstone Street, Boston"}, "ChIJm2vsW49w44kRARD1sXbINYU": {"geometry": {"location": {"lat": 42.3617762, "lng": -71.0567642}, "viewport": {"northeast": {"lat": 42.36318103029149, "lng": -71.0553249197085}, "southwest": {"lat": 42.36048306970849, "lng": -71.0580228802915}}}, "icon": "https://maps.gstatic.com/mapfiles/place_api/icons/generic_business-71.png", "id": "8995b2e6e1e8ddb88b54b916502a1acd8c7b1c8d", "name": "A-1 Translation Services", "place_id": "ChIJm2vsW49w44kRARD1sXbINYU", "plus_code": {"compound_code": "9W6V+P7 Boston, Massachusetts, United States", "global_code": "87JC9W6V+P7"}, "rating": 4, "reference": "ChIJm2vsW49w44kRARD1sXbINYU", "scope": "GOOGLE", "types": ["real_estate_agency", "travel_agency", "point_of_interest", "establishment"], "user_ratings_total": 1, "vicinity": "120 Blackstone Street, Boston"}, "ChIJN260WY9w44kRRw__kYDdMY8": {"geometry": {"location": {"lat": 42.3617005, "lng": -71.05657529999999}, "viewport": {"northeast": {"lat": 42.36308708029151, "lng": -71.0551662697085}, "southwest": {"lat": 42.36038911970851, "lng": -71.0578642302915}}}, "icon": "https://maps.gstatic.com/mapfiles/place_api/icons/generic_business-71.png", "id": "7331c23678f63b58d0fbba9deee33cc277957a29", "name": "Long Island Shelter Clinic", "place_id": "ChIJN260WY9w44kRRw__kYDdMY8", "plus_code": {"compound_code": "9W6V+M9 Boston, Massachusetts, United States", "global_code": "87JC9W6V+M9"}, "reference": "ChIJN260WY9w44kRRw__kYDdMY8", "scope": "GOOGLE", "types": ["health", "point_of_interest", "establishment"], "vicinity": "1 Blackstone Street, Boston"}, "ChIJm2vsW49w44kRXlAWaOW_tMI": {"geometry": {"location": {"lat": 42.3617762, "lng": -71.0567642}, "viewport": {"northeast": {"lat": 42.3631275302915, "lng": -71.05548306970849}, "southwest": {"lat": 42.3604295697085, "lng": -71.05818103029151}}}, "icon": "https://maps.gstatic.com/mapfiles/place_api/icons/shopping-71.png", "id": "31839fcaf2fa7537e92e5ad457ddfaeae2aea2b0", "name": "Adam's Convenience Store", "opening_hours": {"open_now": true}, "place_id": "ChIJm2vsW49w44kRXlAWaOW_tMI", "plus_code": {"compound_code": "9W6V+P7 Boston, Massachusetts, United States", "global_code": "87JC9W6V+P7"}, "rating": 3.4, "reference": "ChIJm2vsW49w44kRXlAWaOW_tMI", "scope": "GOOGLE", "types": ["convenience_store", "store", "point_of_interest", "food", "establishment"], "user_ratings_total": 5, "vicinity": "149 Hanover Street, Boston"}, "ChIJm2vsW49w44kRgZLBwvYyMmY": {"geometry": {"location": {"lat": 42.3617762, "lng": -71.0567642}, "viewport": {"northeast": {"lat": 42.36318103029149, "lng": -71.0553249197085}, "southwest": {"lat": 42.36048306970849, "lng": -71.0580228802915}}}, "icon": "https://maps.gstatic.com/mapfiles/place_api/icons/generic_business-71.png", "id": "4b591e2076a5a011ca7cbd6013d449c342c60cd5", "name": "Air Ticket Sales", "place_id": "ChIJm2vsW49w44kRgZLBwvYyMmY", "plus_code": {"compound_code": "9W6V+P7 Boston, Massachusetts, United States", "global_code": "87JC9W6V+P7"}, "rating": 3, "reference": "ChIJm2vsW49w44kRgZLBwvYyMmY", "scope": "GOOGLE", "types": ["travel_agency", "point_of_interest", "establishment"], "user_ratings_total": 1, "vicinity": "120 Blackstone Street, Boston"}, "ChIJx59PjYBx44kRt8kLOOk_AQI": {"geometry": {"location": {"lat": 42.361878, "lng": -71.05676}, "viewport": {"northeast": {"lat": 42.3632685302915, "lng": -71.0554489697085}, "southwest": {"lat": 42.3605705697085, "lng": -71.0581469302915}}}, "icon": "https://maps.gstatic.com/mapfiles/place_api/icons/restaurant-71.png", "id": "75baf93af419c52625c5c048b6cf69050605e435", "name": "Kala Thai Cookery", "opening_hours": {"open_now": true}, "photos": [{"height": 1960, "html_attributions": ["<a href=\"https://maps.google.com/maps/contrib/111339513313032078987/photos\">wasin wongwilai</a>"], "photo_reference": "CmRaAAAAfeJcL9u2uVwNAKPQOF2GPcwkejzKc3_fcoBppHv8gvP4HUsMiUCsOrT1k4kXAiK7zdjEw_yIscGO7eLvP1Ch_GpayIO8c_zj_YSm7b0T3aLvsr2AY53oAQWjeJnkwIFqEhCqdNOjspYoNCGmgc3-KODeGhSOEx5YOF2hxItz6gYOJblWF_2CYw", "width": 4032}], "place_id": "ChIJx59PjYBx44kRt8kLOOk_AQI", "plus_code": {"compound_code": "9W6V+Q7 Boston, Massachusetts, United States", "global_code": "87JC9W6V+Q7"}, "rating": 4.7, "reference": "ChIJx59PjYBx44kRt8kLOOk_AQI", "scope": "GOOGLE", "types": ["restaurant", "point_of_interest", "food", "establishment"], "user_ratings_total": 59, "vicinity": "151 Hanover Street, Boston"}, "ChIJ7fxgX49w44kRPcU59__EoU0": {"geometry": {"location": {"lat": 42.3617145, "lng": -71.0568536}, "viewport": {"northeast": {"lat": 42.3630641302915, "lng": -71.0555141197085}, "southwest": {"lat": 42.36036616970851, "lng": -71.05821208029151}}}, "icon": "https://maps.gstatic.com/mapfiles/place_api/icons/generic_business-71.png", "id": "26aa8c011eb8efd75cdbf4277653ab23bc45b8e1", "name": "The Boston Stone", "opening_hours": {"open_now": true}, "photos": [{"height": 2448, "html_attributions": ["<a href=\"https://maps.google.com/maps/contrib/100452773715073207277/photos\">Henry Thompson</a>"], "photo_reference": "CmRaAAAAa2nMAwuBChTsh4B3SH0ti6P_f4EV7S12F9TNQTOh7HHEyOrVGEq7O8wjUWm164Vg5mtzknrmlmmchYwpfDUsCJxcS4XhxNzA-HkeBTlCb0PmBDjqRkOCIEUkZ1don169EhBTyxli6m4Dtw1KCywRqhTvGhQVKObEzvoTjfRIO0Omv9X9_xm_pg", "width": 3264}], "place_id": "ChIJ7fxgX49w44kRPcU59__EoU0", "plus_code": {"compound_code": "9W6V+M7 Boston, Massachusetts, United States", "global_code": "87JC9W6V+M7"}, "rating": 4.4, "reference": "ChIJ7fxgX49w44kRPcU59__EoU0", "scope": "GOOGLE", "types": ["point_of_interest", "establishment"], "user_ratings_total": 14, "vicinity": "Marshall Street, Boston"}, "ChIJGzE9DS1l44kRoOhiASS_fHg": {"geometry": {"location": {"lat": 42.3600825, "lng": -71.0588801}, "viewport": {"northeast": {"lat": 42.40081989999999, "lng": -70.749455}, "southwest": {"lat": 42.22788, "lng": -71.191113}}}, "icon": "https://maps.gstatic.com/mapfiles/place_api/icons/geocode-71.png", "id": "06755c25d2b34d13942a4713971756a55b870ced", "name": "Boston", "photos": [{"height": 3024, "html_attributions": ["<a href=\"https://maps.google.com/maps/contrib/104670289779338733432/photos\">Natalia Zalucean</a>"], "photo_reference": "CmRaAAAAFXqcMm_9wtwWFk6VkxB8OSPXhvfgrrRs7QCO4q2ZBG-KZNKmLZd_UcMpD8QfhrYrxrtS738owS46Najq-kUo0e5dUckzDxtdcCWRfZv6XFcE1xiFwLdneuV1vVY3zYSCEhCvbRprYjvXATMaWOpNhHIqGhSniM4TZMPUtcByHD9jc3_dWX4yEw", "width": 4032}], "place_id": "ChIJGzE9DS1l44kRoOhiASS_fHg", "reference": "ChIJGzE9DS1l44kRoOhiASS_fHg", "scope": "GOOGLE", "types": ["locality", "political"], "vicinity": "Boston"}}