{"ChIJw09C5gp644kRmXuFLb86Xyk": {"geometry": {"location": {"lat": 42.3533429, "lng": -71.0752969}, "viewport": {"northeast": {"lat": 42.35469133029151, "lng": -71.07314765000002}, "southwest": {"lat": 42.35199336970851, "lng": -71.07744545}}}, "icon": "https://maps.gstatic.com/mapfiles/place_api/icons/geocode-71.png", "id": "63b55c4681e902d64c54709a5907b04e9563f0c6", "name": "70-88 Public Alley 423", "place_id": "ChIJw09C5gp644kRmXuFLb86Xyk", "reference": "ChIJw09C5gp644kRmXuFLb86Xyk", "scope": "GOOGLE", "types": ["route"], "vicinity": "Boston"}, "ChIJDQnM6Qp644kR6vjAJFZDPvA": {"geometry": {"location": {"lat": 42.35365099999999, "lng": -71.074814}, "viewport": {"northeast": {"lat": 42.3551167802915, "lng": -71.0735226197085}, "southwest": {"lat": 42.3524188197085, "lng": -71.0762205802915}}}, "icon": "https://maps.gstatic.com/mapfiles/place_api/icons/worship_general-71.png", "id": "f96c6c315c0f2aed78202a5185fff4effcd0efcf", "name": "First Church in Boston", "opening_hours": {"open_now": true}, "photos": [{"height": 2000, "html_attributions": ["<a href=\"https://maps.google.com/maps/contrib/118038172123838848041/photos\">First Church in Boston</a>"], "photo_reference": "CmRaAAAACweaTGyl25cTBcvrMNFEV41WFIEKzTU0Ro48B69mJRjSIpVk0w2fnRdgVRToY8Y7NZD6QB815CiSAxkXuwi_wkIS2fhvjIQQD7DDvs5HU4X-oroeF4sI7btgTj8SUKnxEhAi6fkam1VxInMGUUqiTozXGhT3yCx2z-Gd1_Y-DsrAMusjnFHc-Q", "width": 3000}], "place_id": "ChIJDQnM6Qp644kR6vjAJFZDPvA", "plus_code": {"compound_code": "9W3G+F3 Boston, Massachusetts, United States", "global_code": "87JC9W3G+F3"}, "rating": 4.6, "reference": "ChIJDQnM6Qp644kR6vjAJFZDPvA", "scope": "GOOGLE", "types": ["church", "place_of_worship", "point_of_interest", "establishment"], "user_ratings_total": 13, "vicinity": "66 Marlborough Street, Boston"}, "ChIJGzE9DS1l44kRoOhiASS_fHg": {"geometry": {"location": {"lat": 42.3600825, "lng": -71.0588801}, "viewport": {"northeast": {"lat": 42.40081989999999, "lng": -70.749455}, "southwest": {"lat": 42.22788, "lng": -71.191113}}}, "icon": "https://maps.gstatic.com/mapfiles/place_api/icons/geocode-71.png", "id": "06755c25d2b34d13942a4713971756a55b870ced", "name": "Boston", "photos": [{"height": 3024, "html_attributions": ["<a href=\"https://maps.google.com/maps/contrib/104670289779338733432/photos\">Natalia Zalucean</a>"], "photo_reference": "CmRaAAAAmB-BS73eFP9HNgHFqw9XQC_tJs-BAgtob3dsJ9RqYxxayhpW-Cc_6Vdw1hA5AKLcUoFEVjc2xU5BJ3xFb9bfkFj23uleA7bejLIxleGnqDAW6NKn-kH_Y8IaAxshyUAxEhCRInD1ulrB0vHm2htsrOlaGhT5-EXtN7Cg6fIKYE__Qy8pK5CoAw", "width": 4032}], "place_id": "ChIJGzE9DS1l44kRoOhiASS_fHg", "reference": "ChIJGzE9DS1l44kRoOhiASS_fHg", "scope": "GOOGLE", "types": ["locality", "political"], "vicinity": "Boston"}}