{"ChIJtXq-RgV644kRt7UBdjaDIUw": {"geometry": {"location": {"lat": 42.3484898, "lng": -71.08661210000001}, "viewport": {"northeast": {"lat": 42.3498387302915, "lng": -71.08467495000002}, "southwest": {"lat": 42.3471407697085, "lng": -71.08854914999999}}}, "icon": "https://maps.gstatic.com/mapfiles/place_api/icons/geocode-71.png", "id": "7a89a2afe4db1ffead437daceadcc3c95801c40b", "name": "354-320 Newbury St", "place_id": "ChIJtXq-RgV644kRt7UBdjaDIUw", "reference": "ChIJtXq-RgV644kRt7UBdjaDIUw", "scope": "GOOGLE", "types": ["route"], "vicinity": "Boston"}, "ChIJAybIQgV644kRiU0zHxGqzLY": {"geometry": {"location": {"lat": 42.34870480000001, "lng": -71.0861862}, "viewport": {"northeast": {"lat": 42.3500874302915, "lng": -71.0847928697085}, "southwest": {"lat": 42.34738946970851, "lng": -71.0874908302915}}}, "icon": "https://maps.gstatic.com/mapfiles/place_api/icons/restaurant-71.png", "id": "a474570ce64a44d2780d6c008cd9e521563375e5", "name": "Sonsie", "opening_hours": {"open_now": true}, "photos": [{"height": 2808, "html_attributions": ["<a href=\"https://maps.google.com/maps/contrib/116522125032717854012/photos\">Sonsie</a>"], "photo_reference": "CmRaAAAAsK4MeHq9TppVYHP0bErJDq-PeEIG80fX2ypd1ADYfb6_ljLzO2xmmd3n9nskaVRDwA9ll3pOpvr0UKU3GLCkiRO65u9XVuUS64k0Li-jXtPWQSuwNMfd5kx2jQNnx3Z-EhBqiAORxGhoIj9y7KuMtAvEGhTo_vUAv8cur7ugJKlZCTsTAxc8QQ", "width": 4221}], "place_id": "ChIJAybIQgV644kRiU0zHxGqzLY", "plus_code": {"compound_code": "8WX7+FG Boston, Massachusetts, United States", "global_code": "87JC8WX7+FG"}, "price_level": 2, "rating": 4.1, "reference": "ChIJAybIQgV644kRiU0zHxGqzLY", "scope": "GOOGLE", "types": ["cafe", "night_club", "bar", "restaurant", "point_of_interest", "food", "establishment"], "user_ratings_total": 644, "vicinity": "327 Newbury Street, Boston"}, "ChIJ4f_vZgV644kRbMARBxp0tgA": {"geometry": {"location": {"lat": 42.34882169999999, "lng": -71.08585649999999}, "viewport": {"northeast": {"lat": 42.3501918302915, "lng": -71.0844295197085}, "southwest": {"lat": 42.3474938697085, "lng": -71.08712748029151}}}, "icon": "https://maps.gstatic.com/mapfiles/place_api/icons/generic_business-71.png", "id": "174b712d5fea7f8abfcfc08c9e49b4901032cd58", "name": "Greater Boston Real Estate : Juliet Leydon", "place_id": "ChIJ4f_vZgV644kRbMARBxp0tgA", "plus_code": {"compound_code": "8WX7+GM Boston, Massachusetts, United States", "global_code": "87JC8WX7+GM"}, "reference": "ChIJ4f_vZgV644kRbMARBxp0tgA", "scope": "GOOGLE", "types": ["point_of_interest", "establishment"], "vicinity": "53 Hereford Street, Boston"}, "ChIJL1GFZwV644kRecoF5m1s2mw": {"geometry": {"location": {"lat": 42.3487873, "lng": -71.0860344}, "viewport": {"northeast": {"lat": 42.3501316802915, "lng": -71.08470836970848}, "southwest": {"lat": 42.3474337197085, "lng": -71.0874063302915}}}, "icon": "https://maps.gstatic.com/mapfiles/place_api/icons/generic_business-71.png", "id": "a95975796e69dd9c1a2fa3ca102df0c5d361b127", "name": "51 Hereford St Parking", "place_id": "ChIJL1GFZwV644kRecoF5m1s2mw", "plus_code": {"compound_code": "8WX7+GH Boston, Massachusetts, United States", "global_code": "87JC8WX7+GH"}, "reference": "ChIJL1GFZwV644kRecoF5m1s2mw", "scope": "GOOGLE", "types": ["parking", "point_of_interest", "establishment"], "vicinity": "51 Hereford Street, Boston"}, "ChIJeRCXyccH44kRLcMCrH4JFjQ": {"geometry": {"location": {"lat": 42.34874569999999, "lng": -71.08565109999999}, "viewport": {"northeast": {"lat": 42.3500662802915, "lng": -71.0842882197085}, "southwest": {"lat": 42.3473683197085, "lng": -71.0869861802915}}}, "icon": "https://maps.gstatic.com/mapfiles/place_api/icons/generic_business-71.png", "id": "aad41dcdbbec7a7c32d46a99e096d183df2371d6", "name": "Poured Soul Art", "opening_hours": {"open_now": true}, "photos": [{"height": 467, "html_attributions": ["<a href=\"https://maps.google.com/maps/contrib/111972546414721452484/photos\">Poured Soul Art</a>"], "photo_reference": "CmRaAAAAI8MC9KL_gGE1h_h6MIpIR__UjWTykpYH-mYU0NU8_s-djdQEC3c_WLi0Nw-qFhZdzNBz5auVV1cAZDcVs3iCVobi_CNbZLugHne2V38sDkjgXe4IWc__HPKN7jiWkVR-EhAVRWEK-d1bnVrACWO3CewkGhQb_P0X1kR5VniGmZnxuiiuZiDd1A", "width": 467}], "place_id": "ChIJeRCXyccH44kRLcMCrH4JFjQ", "plus_code": {"compound_code": "8WX7+FP Boston, Massachusetts, United States", "global_code": "87JC8WX7+FP"}, "reference": "ChIJeRCXyccH44kRLcMCrH4JFjQ", "scope": "GOOGLE", "types": ["point_of_interest", "establishment"], "vicinity": "Online Shop, Boston"}, "ChIJGzE9DS1l44kRoOhiASS_fHg": {"geometry": {"location": {"lat": 42.3600825, "lng": -71.0588801}, "viewport": {"northeast": {"lat": 42.40081989999999, "lng": -70.749455}, "southwest": {"lat": 42.22788, "lng": -71.191113}}}, "icon": "https://maps.gstatic.com/mapfiles/place_api/icons/geocode-71.png", "id": "06755c25d2b34d13942a4713971756a55b870ced", "name": "Boston", "photos": [{"height": 3024, "html_attributions": ["<a href=\"https://maps.google.com/maps/contrib/104670289779338733432/photos\">Natalia Zalucean</a>"], "photo_reference": "CmRaAAAAOwfbvlNzTLH771EY_45c84AZQEgmhzDjdSnT6--MEHRp5013ZhItyyYa6zmfiC7bLrZvaxCAw7g3xryZSyeVJIIlpDjD2Sp7v2rcBAmXehDw3Qr3iH6GAIThYhdvF6GxEhBEYOGpJGojpaY2KWqdsrIPGhQ9d8ivaWo4LcgZLsiwTT5rgZhzQw", "width": 4032}], "place_id": "ChIJGzE9DS1l44kRoOhiASS_fHg", "reference": "ChIJGzE9DS1l44kRoOhiASS_fHg", "scope": "GOOGLE", "types": ["locality", "political"], "vicinity": "Boston"}}