{"ChIJQzyWAHh644kRebGqDe6zQmg": {"geometry": {"location": {"lat": 42.3528075, "lng": -71.0614241}, "viewport": {"northeast": {"lat": 42.3541566302915, "lng": -71.06006841970849}, "southwest": {"lat": 42.35145866970851, "lng": -71.06276638029149}}}, "icon": "https://maps.gstatic.com/mapfiles/place_api/icons/geocode-71.png", "id": "62083c6ec09516c125e482611394acb430b579f2", "name": "60-28 Harrison Ave Ext", "place_id": "ChIJQzyWAHh644kRebGqDe6zQmg", "reference": "ChIJQzyWAHh644kRebGqDe6zQmg", "scope": "GOOGLE", "types": ["route"], "vicinity": "Boston"}, "ChIJDW9QqIJw44kRTk_oHYppLDw": {"geometry": {"location": {"lat": 42.3529736, "lng": -71.06124129999999}, "viewport": {"northeast": {"lat": 42.35425693029151, "lng": -71.05976181970848}, "southwest": {"lat": 42.35155896970851, "lng": -71.06245978029149}}}, "icon": "https://maps.gstatic.com/mapfiles/place_api/icons/generic_business-71.png", "id": "5449b84e2e00341cb418525db8f01e347f3c2c47", "name": "Massachusetts Community Action", "place_id": "ChIJDW9QqIJw44kRTk_oHYppLDw", "plus_code": {"compound_code": "9W3Q+5G Boston, Massachusetts, United States", "global_code": "87JC9W3Q+5G"}, "reference": "ChIJDW9QqIJw44kRTk_oHYppLDw", "scope": "GOOGLE", "types": ["point_of_interest", "establishment"], "vicinity": "105 Chauncy Street # 10, Boston"}, "ChIJmTFDqIJw44kRMTApkVzLshA": {"geometry": {"location": {"lat": 42.3529736, "lng": -71.06124129999999}, "viewport": {"northeast": {"lat": 42.35425693029151, "lng": -71.05976181970848}, "southwest": {"lat": 42.35155896970851, "lng": -71.06245978029149}}}, "icon": "https://maps.gstatic.com/mapfiles/place_api/icons/generic_business-71.png", "id": "31a2a706a5392059ee2d9a63343c3b2afc08948e", "name": "Massachusetts Alliance On Teen", "place_id": "ChIJmTFDqIJw44kRMTApkVzLshA", "plus_code": {"compound_code": "9W3Q+5G Boston, Massachusetts, United States", "global_code": "87JC9W3Q+5G"}, "reference": "ChIJmTFDqIJw44kRMTApkVzLshA", "scope": "GOOGLE", "types": ["point_of_interest", "establishment"], "vicinity": "105 Chauncy Street, Boston"}, "ChIJmTFDqIJw44kRAxmSQRp5Efw": {"geometry": {"location": {"lat": 42.3529736, "lng": -71.06124129999999}, "viewport": {"northeast": {"lat": 42.35425693029151, "lng": -71.05976181970848}, "southwest": {"lat": 42.35155896970851, "lng": -71.06245978029149}}}, "icon": "https://maps.gstatic.com/mapfiles/place_api/icons/generic_business-71.png", "id": "a4edc02810aafbaa9f2726808ad364bbc2abd7b5", "name": "Mass CAP Directors", "place_id": "ChIJmTFDqIJw44kRAxmSQRp5Efw", "plus_code": {"compound_code": "9W3Q+5G Boston, Massachusetts, United States", "global_code": "87JC9W3Q+5G"}, "reference": "ChIJmTFDqIJw44kRAxmSQRp5Efw", "scope": "GOOGLE", "types": ["point_of_interest", "establishment"], "vicinity": "105 Chauncy Street # 301, Boston"}, "ChIJE_oaqIJw44kRFhQWal1N1tI": {"geometry": {"location": {"lat": 42.3529736, "lng": -71.06124129999999}, "viewport": {"northeast": {"lat": 42.35425693029151, "lng": -71.05976181970848}, "southwest": {"lat": 42.35155896970851, "lng": -71.06245978029149}}}, "icon": "https://maps.gstatic.com/mapfiles/place_api/icons/generic_business-71.png", "id": "ce272d220c44e0e1acb162b5743a402598aa0247", "name": "Welcoming Massachusetts", "place_id": "ChIJE_oaqIJw44kRFhQWal1N1tI", "plus_code": {"compound_code": "9W3Q+5G Boston, Massachusetts, United States", "global_code": "87JC9W3Q+5G"}, "reference": "ChIJE_oaqIJw44kRFhQWal1N1tI", "scope": "GOOGLE", "types": ["point_of_interest", "establishment"], "vicinity": "Welcoming Massachusetts, 105 Chauncy Street, Boston"}, "ChIJXe-_q4Jw44kRmo2ipc6pCbg": {"geometry": {"location": {"lat": 42.35308029999999, "lng": -71.06138779999999}, "viewport": {"northeast": {"lat": 42.3544293302915, "lng": -71.06004401970849}, "southwest": {"lat": 42.3517313697085, "lng": -71.0627419802915}}}, "icon": "https://maps.gstatic.com/mapfiles/place_api/icons/restaurant-71.png", "id": "6a17feeb82267cbffed5fe9fe4d38af28e0972e5", "name": "\u6ce2\u58eb\u987f\u5510\u4eba\u8857\u516c\u5171\u505c\u8f66\u573a", "place_id": "ChIJXe-_q4Jw44kRmo2ipc6pCbg", "plus_code": {"compound_code": "9W3Q+6C Boston, Massachusetts, United States", "global_code": "87JC9W3Q+6C"}, "reference": "ChIJXe-_q4Jw44kRmo2ipc6pCbg", "scope": "GOOGLE", "types": ["restaurant", "point_of_interest", "food", "establishment"], "vicinity": "50 Harrison Avenue Extension, Boston"}, "ChIJmTFDqIJw44kRXTA1GKKc0gU": {"geometry": {"location": {"lat": 42.3529736, "lng": -71.06124129999999}, "viewport": {"northeast": {"lat": 42.35425693029151, "lng": -71.05976181970848}, "southwest": {"lat": 42.35155896970851, "lng": -71.06245978029149}}}, "icon": "https://maps.gstatic.com/mapfiles/place_api/icons/generic_business-71.png", "id": "805b0259021f8c559c575565d21bb25dec35de06", "name": "105 Chauncy St Security", "place_id": "ChIJmTFDqIJw44kRXTA1GKKc0gU", "plus_code": {"compound_code": "9W3Q+5G Boston, Massachusetts, United States", "global_code": "87JC9W3Q+5G"}, "rating": 4.6, "reference": "ChIJmTFDqIJw44kRXTA1GKKc0gU", "scope": "GOOGLE", "types": ["point_of_interest", "establishment"], "user_ratings_total": 7, "vicinity": "105 Chauncy Street, Boston"}, "ChIJy9mcqYJw44kRTNm09XX9tMY": {"geometry": {"location": {"lat": 42.3529736, "lng": -71.06124129999999}, "viewport": {"northeast": {"lat": 42.35425693029151, "lng": -71.05976181970848}, "southwest": {"lat": 42.35155896970851, "lng": -71.06245978029149}}}, "icon": "https://maps.gstatic.com/mapfiles/place_api/icons/generic_business-71.png", "id": "ca8093aa0c031495d444844304f37a0385258f13", "name": "EnVision Leadership", "place_id": "ChIJy9mcqYJw44kRTNm09XX9tMY", "plus_code": {"compound_code": "9W3Q+5G Boston, Massachusetts, United States", "global_code": "87JC9W3Q+5G"}, "reference": "ChIJy9mcqYJw44kRTNm09XX9tMY", "scope": "GOOGLE", "types": ["point_of_interest", "establishment"], "vicinity": "105 Chauncy Street #300, Boston"}, "ChIJ2z5LVXJ644kRT7w7qS5hvkU": {"geometry": {"location": {"lat": 42.3529736, "lng": -71.06124129999999}, "viewport": {"northeast": {"lat": 42.35425693029151, "lng": -71.05976181970848}, "southwest": {"lat": 42.35155896970851, "lng": -71.06245978029149}}}, "icon": "https://maps.gstatic.com/mapfiles/place_api/icons/generic_business-71.png", "id": "a5e2914e5ecdb2e82d23b6f72ff65df862eb7995", "name": "IHR Boston", "opening_hours": {"open_now": true}, "photos": [{"height": 500, "html_attributions": ["<a href=\"https://maps.google.com/maps/contrib/103202146919210903341/photos\">IHR Boston</a>"], "photo_reference": "CmRaAAAA4v5Q0JE2mpvAZuvohKW39Xhoe89vq5fddETM9sLGAnl-_Dd3PH_V-oW0nckvR13p1asEQbS0x7bpc1g34rYiGgaHSFpA3I4zB7n0iyy8yHKSjgmLnuZFXs0xwXtqe8zsEhDnIA0B9nQFeXTQCIuOeA34GhRm7I3OitjHq_wtX78FgOjhdCstkw", "width": 887}], "place_id": "ChIJ2z5LVXJ644kRT7w7qS5hvkU", "plus_code": {"compound_code": "9W3Q+5G Boston, Massachusetts, United States", "global_code": "87JC9W3Q+5G"}, "reference": "ChIJ2z5LVXJ644kRT7w7qS5hvkU", "scope": "GOOGLE", "types": ["health", "point_of_interest", "establishment"], "vicinity": "105 Chauncy Street Suite 602, Boston"}, "ChIJGzE9DS1l44kRoOhiASS_fHg": {"geometry": {"location": {"lat": 42.3600825, "lng": -71.0588801}, "viewport": {"northeast": {"lat": 42.40081989999999, "lng": -70.749455}, "southwest": {"lat": 42.22788, "lng": -71.191113}}}, "icon": "https://maps.gstatic.com/mapfiles/place_api/icons/geocode-71.png", "id": "06755c25d2b34d13942a4713971756a55b870ced", "name": "Boston", "photos": [{"height": 3024, "html_attributions": ["<a href=\"https://maps.google.com/maps/contrib/104670289779338733432/photos\">Natalia Zalucean</a>"], "photo_reference": "CmRaAAAALCTcwlN95GK9sBJRgIN8Czwx6Tpr68hhcekGdykbNZ7zAHUwkWYDgblcQpCU3Sz0WPS7gxVjrDnAgGCjQ453NZjGgjsiiRNdJ7L_jPjavfbL5cj3URmLxdl8m2n4gqWxEhAGK6QLSUKGpnd0ZSElfpdUGhQ1jB5NpUU2cnqIJjzvj_1j8LHs9w", "width": 4032}], "place_id": "ChIJGzE9DS1l44kRoOhiASS_fHg", "reference": "ChIJGzE9DS1l44kRoOhiASS_fHg", "scope": "GOOGLE", "types": ["locality", "political"], "vicinity": "Boston"}}