{"ChIJQQ6Pbgt644kRCl-B9aI4TXw": {"geometry": {"location": {"lat": 42.3513809, "lng": -71.07555359999999}, "viewport": {"northeast": {"lat": 42.35272983029149, "lng": -71.0742046197085}, "southwest": {"lat": 42.3500318697085, "lng": -71.07690258029152}}}, "icon": "https://maps.gstatic.com/mapfiles/place_api/icons/geocode-71.png", "id": "9a83530576965874ed31b2d254f74db793a773aa", "name": "227-229 MA-28", "place_id": "ChIJQQ6Pbgt644kRCl-B9aI4TXw", "reference": "ChIJQQ6Pbgt644kRCl-B9aI4TXw", "scope": "GOOGLE", "types": ["route"], "vicinity": "Boston"}, "ChIJk3aScINw44kRl6W7uI3lxSI": {"geometry": {"location": {"lat": 42.35136370000001, "lng": -71.0753524}, "viewport": {"northeast": {"lat": 42.3527882302915, "lng": -71.0740409697085}, "southwest": {"lat": 42.3500902697085, "lng": -71.07673893029151}}}, "icon": "https://maps.gstatic.com/mapfiles/place_api/icons/shopping-71.png", "id": "d27dc94444b58a84fcd70ef4e995aacffc6fc711", "name": "H&M", "opening_hours": {"open_now": true}, "photos": [{"height": 2448, "html_attributions": ["<a href=\"https://maps.google.com/maps/contrib/101185992399320705963/photos\">Jessica Kirsh</a>"], "photo_reference": "CmRaAAAA4hgWFXZDf7uxu91LSeznZwysw7RctbC0uVjXL9xFSB3bLDWN1PvICcuYt06iQg5okxwWz0oLTsheqf2J-pBYYRFI0FaDs1sqVZXm01Jtkg-QGoZxQbHK5dkSxxm9VK2SEhDku6N4hAoA0NT5TtLUBpKnGhQAxT7r4TmiPq7ev2KmRioq8AdA1A", "width": 3264}], "place_id": "ChIJk3aScINw44kRl6W7uI3lxSI", "plus_code": {"compound_code": "9W2F+GV Boston, Massachusetts, United States", "global_code": "87JC9W2F+GV"}, "price_level": 1, "rating": 4.1, "reference": "ChIJk3aScINw44kRl6W7uI3lxSI", "scope": "GOOGLE", "types": ["clothing_store", "home_goods_store", "store", "point_of_interest", "establishment"], "user_ratings_total": 523, "vicinity": "100 Newbury Street, Boston"}, "ChIJ9-J1gW1644kR1pHW3UKLbNk": {"geometry": {"location": {"lat": 42.351486, "lng": -71.075564}, "viewport": {"northeast": {"lat": 42.3528572302915, "lng": -71.0742261197085}, "southwest": {"lat": 42.3501592697085, "lng": -71.0769240802915}}}, "icon": "https://maps.gstatic.com/mapfiles/place_api/icons/generic_business-71.png", "id": "f36ffb7ca71c77be257badea117b19a3f2a376d2", "name": "Unique Verve", "opening_hours": {"open_now": true}, "photos": [{"height": 2448, "html_attributions": ["<a href=\"https://maps.google.com/maps/contrib/101830770351511284772/photos\">Unique Verve</a>"], "photo_reference": "CmRaAAAA_WAL0rKnbfLjW1cMTwPUovsuEre4tf4TyUi9GxIQpLxSQtcC80LR_xnKv2yr2s0-TXDeprr-dYmaq2QwLhbGy_FdkMjLviwYPvKTQJM-16YuafJJB5G0qmhtlz0cfEtREhDM9Uc9DmtrllqX8IqD5RNLGhTrNpJxafKaspkUo9SR6Vg1Pe2tFg", "width": 3264}], "place_id": "ChIJ9-J1gW1644kR1pHW3UKLbNk", "plus_code": {"compound_code": "9W2F+HQ Boston, Massachusetts, United States", "global_code": "87JC9W2F+HQ"}, "rating": 5, "reference": "ChIJ9-J1gW1644kR1pHW3UKLbNk", "scope": "GOOGLE", "types": ["beauty_salon", "hair_care", "spa", "health", "point_of_interest", "establishment"], "user_ratings_total": 18, "vicinity": "105 Newbury Street, Third Floor, Boston"}, "ChIJC0N1bAt644kRKBkdHOBUwTo": {"geometry": {"location": {"lat": 42.3514716, "lng": -71.0754082}, "viewport": {"northeast": {"lat": 42.35283363029149, "lng": -71.07406571970849}, "southwest": {"lat": 42.35013566970849, "lng": -71.07676368029149}}}, "icon": "https://maps.gstatic.com/mapfiles/place_api/icons/generic_business-71.png", "id": "346fa6f2e4a81dd8d0440b79e92f7ba3aea92dad", "name": "Boston\u2019s Scooter and Motorcycle Parking", "photos": [{"height": 1536, "html_attributions": ["<a href=\"https://maps.google.com/maps/contrib/111472974842582773939/photos\">kP K</a>"], "photo_reference": "CmRaAAAA9bSUZKcRPO12NrZ-co8POQNcxoUVI0AAXBatKwijUNjLybkDGrWyxuoOOFGd9lNzTF242Iti0nQE9YLbqvUXJdpatYIO3tEyx8E9Dx7AtS8g-_pVSdDX0d_PGIG4h-6NEhAZC-pnqJ2MkTLi4lGJCggxGhTqsYJVd6dhsL_qPrbT8sm6Ti56Rg", "width": 2048}], "place_id": "ChIJC0N1bAt644kRKBkdHOBUwTo", "plus_code": {"compound_code": "9W2F+HR Boston, Massachusetts, United States", "global_code": "87JC9W2F+HR"}, "rating": 2, "reference": "ChIJC0N1bAt644kRKBkdHOBUwTo", "scope": "GOOGLE", "types": ["parking", "point_of_interest", "establishment"], "user_ratings_total": 1, "vicinity": "100 Newbury St,, Boston"}, "ChIJcVaTMRp644kR3wTgEludzLI": {"geometry": {"location": {"lat": 42.351276, "lng": -71.0756287}, "viewport": {"northeast": {"lat": 42.35263963029151, "lng": -71.0742240197085}, "southwest": {"lat": 42.34994166970851, "lng": -71.0769219802915}}}, "icon": "https://maps.gstatic.com/mapfiles/place_api/icons/generic_business-71.png", "id": "5450092850a247a7eeb473530c17207386375181", "name": "Symphony Properties", "opening_hours": {"open_now": true}, "photos": [{"height": 1360, "html_attributions": ["<a href=\"https://maps.google.com/maps/contrib/115844896654245547535/photos\">Symphony Properties</a>"], "photo_reference": "CmRaAAAAAWCOsROSgYYXbXTgZ6QTFqcHXGwg7odEwDOKpv3kpotyYT3WS19xVMtkNmUzZTarnO_pTLTpdSw7h395kZGDWsHvpmfJw_ye-pdkjjnL7K8CZfNHnqosgL_Nm_C_VwM-EhAJdxEg4SAqlmhdITfOeAH1GhSCClCJwDRIKXrkFZI-7p0ieFu8uA", "width": 2048}], "place_id": "ChIJcVaTMRp644kR3wTgEludzLI", "plus_code": {"compound_code": "9W2F+GP Boston, Massachusetts, United States", "global_code": "87JC9W2F+GP"}, "reference": "ChIJcVaTMRp644kR3wTgEludzLI", "scope": "GOOGLE", "types": ["real_estate_agency", "point_of_interest", "establishment"], "vicinity": "224 Clarendon Street #52, Boston"}, "ChIJhVq8bwt644kRv-0bxqJK08E": {"geometry": {"location": {"lat": 42.351236, "lng": -71.07559599999999}, "viewport": {"northeast": {"lat": 42.3525982302915, "lng": -71.07419726970849}, "southwest": {"lat": 42.34990026970851, "lng": -71.0768952302915}}}, "icon": "https://maps.gstatic.com/mapfiles/place_api/icons/generic_business-71.png", "id": "f56289aca8484119e1b7769249481dcfb71b61f5", "name": "Boston Video Conference", "place_id": "ChIJhVq8bwt644kRv-0bxqJK08E", "plus_code": {"compound_code": "9W2F+FQ Boston, Massachusetts, United States", "global_code": "87JC9W2F+FQ"}, "reference": "ChIJhVq8bwt644kRv-0bxqJK08E", "scope": "GOOGLE", "types": ["point_of_interest", "establishment"], "vicinity": "224 Clarendon Street, Boston"}, "ChIJGzE9DS1l44kRoOhiASS_fHg": {"geometry": {"location": {"lat": 42.3600825, "lng": -71.0588801}, "viewport": {"northeast": {"lat": 42.40081989999999, "lng": -70.749455}, "southwest": {"lat": 42.22788, "lng": -71.191113}}}, "icon": "https://maps.gstatic.com/mapfiles/place_api/icons/geocode-71.png", "id": "06755c25d2b34d13942a4713971756a55b870ced", "name": "Boston", "photos": [{"height": 3024, "html_attributions": ["<a href=\"https://maps.google.com/maps/contrib/104670289779338733432/photos\">Natalia Zalucean</a>"], "photo_reference": "CmRaAAAAzC5-hmI6kC-gpBCVEDvPI0u3lB_dF7nQAfxNBpUN7cdUkJpzTJxFN5BHWCGOPR03TKg1V78UW_d4WlDNkbvMHDDObsTsAzAM9ksIuqfYp5wffss2bTAkPG-D-sQ94YONEhBnbsLAUIv6TnbXTbnzSPKuGhSCJerOiYGtMstW-Se8OWRv8i_t2A", "width": 4032}], "place_id": "ChIJGzE9DS1l44kRoOhiASS_fHg", "reference": "ChIJGzE9DS1l44kRoOhiASS_fHg", "scope": "GOOGLE", "types": ["locality", "political"], "vicinity": "Boston"}}