{"ChIJ8cWshol644kR75mqr6jh1hI": {"geometry": {"location": {"lat": 42.3364437, "lng": -71.047172}, "viewport": {"northeast": {"lat": 42.3377906802915, "lng": -71.04582536970848}, "southwest": {"lat": 42.3350927197085, "lng": -71.04852333029149}}}, "icon": "https://maps.gstatic.com/mapfiles/place_api/icons/geocode-71.png", "id": "f6eebf08bc6d408f11b0aef395da56d5fff48af9", "name": "417-449 W Broadway", "place_id": "ChIJ8cWshol644kR75mqr6jh1hI", "reference": "ChIJ8cWshol644kR75mqr6jh1hI", "scope": "GOOGLE", "types": ["route"], "vicinity": "Boston"}, "ChIJe3Wng4l644kR2IwS8CjiJtY": {"geometry": {"location": {"lat": 42.33659490000001, "lng": -71.0470492}, "viewport": {"northeast": {"lat": 42.33787918029149, "lng": -71.0457781697085}, "southwest": {"lat": 42.3351812197085, "lng": -71.0484761302915}}}, "icon": "https://maps.gstatic.com/mapfiles/place_api/icons/generic_business-71.png", "id": "7fd5b108e2288d74b289e661d98c254516caa17d", "name": "364 Athens St Parking", "place_id": "ChIJe3Wng4l644kR2IwS8CjiJtY", "plus_code": {"compound_code": "8XP3+J5 Boston, Massachusetts, United States", "global_code": "87JC8XP3+J5"}, "reference": "ChIJe3Wng4l644kR2IwS8CjiJtY", "scope": "GOOGLE", "types": ["parking", "point_of_interest", "establishment"], "vicinity": "364 Athens St, Boston"}, "ChIJGzE9DS1l44kRoOhiASS_fHg": {"geometry": {"location": {"lat": 42.3600825, "lng": -71.0588801}, "viewport": {"northeast": {"lat": 42.40081989999999, "lng": -70.749455}, "southwest": {"lat": 42.22788, "lng": -71.191113}}}, "icon": "https://maps.gstatic.com/mapfiles/place_api/icons/geocode-71.png", "id": "06755c25d2b34d13942a4713971756a55b870ced", "name": "Boston", "photos": [{"height": 3024, "html_attributions": ["<a href=\"https://maps.google.com/maps/contrib/104670289779338733432/photos\">Natalia Zalucean</a>"], "photo_reference": "CmRaAAAA26DzOiViUXEX5RQ4ZfYLccYHHx-BP-CBC06qyqNVp-t21jn0sl1-gS78FOkropsscnCSQKEvXph4XO33El5RSzCstB-1wYvsUJEYsO3fRxevvU5Wml_OuQp4lwYiiG5kEhAGZYwGJtSkUdQAZehKU84AGhTOHDrLX5PObSuU8_8ncc4QyfVnLQ", "width": 4032}], "place_id": "ChIJGzE9DS1l44kRoOhiASS_fHg", "reference": "ChIJGzE9DS1l44kRoOhiASS_fHg", "scope": "GOOGLE", "types": ["locality", "political"], "vicinity": "Boston"}}