{"ChIJsRlYEXN644kRicdiODPqZ7w": {"geometry": {"location": {"lat": 42.3483707, "lng": -71.0716417}, "viewport": {"northeast": {"lat": 42.3497196302915, "lng": -71.07029271970849}, "southwest": {"lat": 42.3470216697085, "lng": -71.0729906802915}}}, "icon": "https://maps.gstatic.com/mapfiles/place_api/icons/geocode-71.png", "id": "801f3cd6e989699b26a18f20e707149b265caae2", "name": "119-123 Berkeley St", "place_id": "ChIJsRlYEXN644kRicdiODPqZ7w", "reference": "ChIJsRlYEXN644kRicdiODPqZ7w", "scope": "GOOGLE", "types": ["route"], "vicinity": "Boston"}, "ChIJYZiEFHN644kRAGYo61Cb4Rw": {"geometry": {"location": {"lat": 42.3483679, "lng": -71.0715197}, "viewport": {"northeast": {"lat": 42.3497040802915, "lng": -71.07022431970849}, "southwest": {"lat": 42.3470061197085, "lng": -71.07292228029151}}}, "icon": "https://maps.gstatic.com/mapfiles/place_api/icons/bus-71.png", "id": "fb25637abac71e2e7c125a759c8bb610cf0e8dfc", "name": "Berkeley St @ Columbus Ave", "place_id": "ChIJYZiEFHN644kRAGYo61Cb4Rw", "plus_code": {"compound_code": "8WXH+89 Boston, Massachusetts, United States", "global_code": "87JC8WXH+89"}, "reference": "ChIJYZiEFHN644kRAGYo61Cb4Rw", "scope": "GOOGLE", "types": ["bus_station", "transit_station", "point_of_interest", "establishment"], "vicinity": "United States"}, "ChIJy2evF3N644kR6ONMoAtrSVs": {"geometry": {"location": {"lat": 42.34823610000001, "lng": -71.07190589999999}, "viewport": {"northeast": {"lat": 42.3495666302915, "lng": -71.07072671970849}, "southwest": {"lat": 42.34686866970851, "lng": -71.0734246802915}}}, "icon": "https://maps.gstatic.com/mapfiles/place_api/icons/generic_business-71.png", "id": "d76a1d83a7a81f27e47d6580a4b36d71c3a4d369", "name": "210 Columbus Street", "place_id": "ChIJy2evF3N644kR6ONMoAtrSVs", "plus_code": {"compound_code": "8WXH+76 Boston, Massachusetts, United States", "global_code": "87JC8WXH+76"}, "reference": "ChIJy2evF3N644kR6ONMoAtrSVs", "scope": "GOOGLE", "types": ["parking", "point_of_interest", "establishment"], "vicinity": "202-242 Columbus Avenue, Boston"}, "ChIJ-4e7F3N644kRMbURYE7lReE": {"geometry": {"location": {"lat": 42.3482209, "lng": -71.07193699999999}, "viewport": {"northeast": {"lat": 42.3496262302915, "lng": -71.07067016970849}, "southwest": {"lat": 42.3469282697085, "lng": -71.0733681302915}}}, "icon": "https://maps.gstatic.com/mapfiles/place_api/icons/generic_business-71.png", "id": "35dd9da5a2d4e3a7ba54dbefb3bba3cd6350b060", "name": "130 Berkeley St Parking", "place_id": "ChIJ-4e7F3N644kRMbURYE7lReE", "plus_code": {"compound_code": "8WXH+76 Boston, Massachusetts, United States", "global_code": "87JC8WXH+76"}, "reference": "ChIJ-4e7F3N644kRMbURYE7lReE", "scope": "GOOGLE", "types": ["parking", "point_of_interest", "establishment"], "vicinity": "130 East Berkeley Street, Boston"}, "ChIJGzE9DS1l44kRoOhiASS_fHg": {"geometry": {"location": {"lat": 42.3600825, "lng": -71.0588801}, "viewport": {"northeast": {"lat": 42.40081989999999, "lng": -70.749455}, "southwest": {"lat": 42.22788, "lng": -71.191113}}}, "icon": "https://maps.gstatic.com/mapfiles/place_api/icons/geocode-71.png", "id": "06755c25d2b34d13942a4713971756a55b870ced", "name": "Boston", "photos": [{"height": 3024, "html_attributions": ["<a href=\"https://maps.google.com/maps/contrib/104670289779338733432/photos\">Natalia Zalucean</a>"], "photo_reference": "CmRaAAAAiil2tIn-bNsHV8-D1yrL7lZMfQcnFYq6ztcuFdS5ar2M7oyi891aEnEbNtM4f8sFUE2ok-vqtPAD2hUYxw4mXwERFocHntTCLbtXRDu6isjbFb8Y7sT89MW83CViUCRqEhA_7ehr0uMp_hzEbh6xwpAVGhRZUWWx437-98vpIFRJ44ju2QvNsg", "width": 4032}], "place_id": "ChIJGzE9DS1l44kRoOhiASS_fHg", "reference": "ChIJGzE9DS1l44kRoOhiASS_fHg", "scope": "GOOGLE", "types": ["locality", "political"], "vicinity": "Boston"}}