{"ChIJq35ZLJlw44kRyyN7EtVmOEE": {"geometry": {"location": {"lat": 42.3592608, "lng": -71.0700725}, "viewport": {"northeast": {"lat": 42.3606097802915, "lng": -71.06872361970849}, "southwest": {"lat": 42.3579118197085, "lng": -71.0714215802915}}}, "icon": "https://maps.gstatic.com/mapfiles/place_api/icons/geocode-71.png", "id": "fa36cbc1e62c094310eaa2cc53da6fbfab93cfe2", "name": "58-44 W Cedar St", "place_id": "ChIJq35ZLJlw44kRyyN7EtVmOEE", "reference": "ChIJq35ZLJlw44kRyyN7EtVmOEE", "scope": "GOOGLE", "types": ["route"], "vicinity": "Boston"}, "ChIJi6_7Kp9w44kRquHWuWPpM48": {"geometry": {"location": {"lat": 42.3590953, "lng": -71.0704872}, "viewport": {"northeast": {"lat": 42.3604395802915, "lng": -71.0692644197085}, "southwest": {"lat": 42.3577416197085, "lng": -71.07196238029151}}}, "icon": "https://maps.gstatic.com/mapfiles/place_api/icons/shopping-71.png", "id": "9020cf92973e7b4f8b5227a0b94e41ec8f38e197", "name": "Vintage Taste", "opening_hours": {"open_now": true}, "photos": [{"height": 2988, "html_attributions": ["<a href=\"https://maps.google.com/maps/contrib/116418254005302142023/photos\">Winnie S</a>"], "photo_reference": "CmRaAAAA-KuRbNmUJ7oDOx7BvS9zevNZxJA6TwAixTFhxqWrJVMaNdNKDrcDc78v9pO2Dz9cqsc3R3nF9vlYMBimigsr8ya6M9fKdyQuqh06uWlSn-XapN5mcHnkOoHxfnx3EZWKEhACuS2XPnchuGere4xRBBkRGhRK21SIP9GS9rx2VHO13XtCaxqJTA", "width": 1681}], "place_id": "ChIJi6_7Kp9w44kRquHWuWPpM48", "plus_code": {"compound_code": "9W5H+JR Boston, Massachusetts, United States", "global_code": "87JC9W5H+JR"}, "rating": 5, "reference": "ChIJi6_7Kp9w44kRquHWuWPpM48", "scope": "GOOGLE", "types": ["clothing_store", "store", "point_of_interest", "establishment"], "user_ratings_total": 1, "vicinity": "103 Charles Street, Boston"}, "ChIJgRn7Kp9w44kRSD5Fk0cZ2lU": {"geometry": {"location": {"lat": 42.3590953, "lng": -71.0704872}, "viewport": {"northeast": {"lat": 42.3604395802915, "lng": -71.0692644197085}, "southwest": {"lat": 42.3577416197085, "lng": -71.07196238029151}}}, "icon": "https://maps.gstatic.com/mapfiles/place_api/icons/shopping-71.png", "id": "d5c68a123ceba7784037a7f0e372efe563900f51", "name": "Tibet Emporium", "opening_hours": {"open_now": true}, "photos": [{"height": 4032, "html_attributions": ["<a href=\"https://maps.google.com/maps/contrib/112601370960760607339/photos\">William Kinnier</a>"], "photo_reference": "CmRaAAAAkWc5OAEj406HCKiMdUGXE77jZe_UdBolep5jBVgfJ71mQhYBxqPeVmBv78fc_XhsUthtc2V5zz0uW9TXY8xNk4ZlNcm1rsABvAv48QHn1-Gn-wliDTsKhLBdrtiGuLi6EhB8qtz6q9p61CUEBjK8R01uGhQvIxp4gJopLpFJOTgdbFVYBZFVwg", "width": 3024}], "place_id": "ChIJgRn7Kp9w44kRSD5Fk0cZ2lU", "plus_code": {"compound_code": "9W5H+JR Boston, Massachusetts, United States", "global_code": "87JC9W5H+JR"}, "rating": 4.3, "reference": "ChIJgRn7Kp9w44kRSD5Fk0cZ2lU", "scope": "GOOGLE", "types": ["store", "point_of_interest", "establishment"], "user_ratings_total": 3, "vicinity": "103 Charles Street, Boston"}, "ChIJGzE9DS1l44kRoOhiASS_fHg": {"geometry": {"location": {"lat": 42.3600825, "lng": -71.0588801}, "viewport": {"northeast": {"lat": 42.40081989999999, "lng": -70.749455}, "southwest": {"lat": 42.22788, "lng": -71.191113}}}, "icon": "https://maps.gstatic.com/mapfiles/place_api/icons/geocode-71.png", "id": "06755c25d2b34d13942a4713971756a55b870ced", "name": "Boston", "photos": [{"height": 3024, "html_attributions": ["<a href=\"https://maps.google.com/maps/contrib/104670289779338733432/photos\">Natalia Zalucean</a>"], "photo_reference": "CmRaAAAAtaCxaYMVX4ZY7im2RKHm_kEK6HNqCiVnNhiXBBDvMadjJ--joz_6AjkSiIG8FG53J0FEIumPZBMuBw5QtM5f13QUcNtCy3PH2kcG1o4bAg0TXNKwRp5D4dip3aO9KdTBEhCYJHj3bXFRT-GtgVOyfuRkGhR2oUTOhFeb0km6mdDFTwu2aYdezQ", "width": 4032}], "place_id": "ChIJGzE9DS1l44kRoOhiASS_fHg", "reference": "ChIJGzE9DS1l44kRoOhiASS_fHg", "scope": "GOOGLE", "types": ["locality", "political"], "vicinity": "Boston"}}