{"ChIJHWxk4BZ644kRYfv6JPbVimM": {"geometry": {"location": {"lat": 42.3409307, "lng": -71.0822895}, "viewport": {"northeast": {"lat": 42.34227773029149, "lng": -71.0809431197085}, "southwest": {"lat": 42.33957976970849, "lng": -71.0836410802915}}}, "icon": "https://maps.gstatic.com/mapfiles/place_api/icons/geocode-71.png", "id": "c42a52072e92187cd7a07727678c8afe257176bb", "name": "419-425 Massachusetts Ave", "place_id": "ChIJHWxk4BZ644kRYfv6JPbVimM", "reference": "ChIJHWxk4BZ644kRYfv6JPbVimM", "scope": "GOOGLE", "types": ["route"], "vicinity": "Boston"}, "ChIJ4dru3RZ644kR2TR8t8qxyNw": {"geometry": {"location": {"lat": 42.3409871, "lng": -71.082044}, "viewport": {"northeast": {"lat": 42.3423019802915, "lng": -71.0807369697085}, "southwest": {"lat": 42.3396040197085, "lng": -71.0834349302915}}}, "icon": "https://maps.gstatic.com/mapfiles/place_api/icons/generic_business-71.png", "id": "4e07a0acc52867af831b08f5ca346e8cc421db27", "name": "Christopher Roche Insurance", "place_id": "ChIJ4dru3RZ644kR2TR8t8qxyNw", "plus_code": {"compound_code": "8WR9+95 Boston, Massachusetts, United States", "global_code": "87JC8WR9+95"}, "rating": 5, "reference": "ChIJ4dru3RZ644kR2TR8t8qxyNw", "scope": "GOOGLE", "types": ["insurance_agency", "point_of_interest", "establishment"], "user_ratings_total": 2, "vicinity": "426 Massachusetts Avenue, Boston"}, "ChIJGzE9DS1l44kRoOhiASS_fHg": {"geometry": {"location": {"lat": 42.3600825, "lng": -71.0588801}, "viewport": {"northeast": {"lat": 42.40081989999999, "lng": -70.749455}, "southwest": {"lat": 42.22788, "lng": -71.191113}}}, "icon": "https://maps.gstatic.com/mapfiles/place_api/icons/geocode-71.png", "id": "06755c25d2b34d13942a4713971756a55b870ced", "name": "Boston", "photos": [{"height": 3024, "html_attributions": ["<a href=\"https://maps.google.com/maps/contrib/104670289779338733432/photos\">Natalia Zalucean</a>"], "photo_reference": "CmRaAAAADGkV8DYDXVdPD2Ghu56PQluqCzfX0Q9yyHkMn8QcrX8-yoAipRvxjZm1u3cvzBoQ_HPE5E63Pugq6OyUOYik1ZXcgt4FIwnulpjrTAxPHOOENgP8O2VGUP7kxBFscw1MEhCRPVUEWYZKzYIsFXeOh76hGhQMTFg8Y2JuWwBj5v-xwfR7O5VMRA", "width": 4032}], "place_id": "ChIJGzE9DS1l44kRoOhiASS_fHg", "reference": "ChIJGzE9DS1l44kRoOhiASS_fHg", "scope": "GOOGLE", "types": ["locality", "political"], "vicinity": "Boston"}}