{"ChIJm2TKr4Fw44kRC7Ttx2Zj1Pk": {"geometry": {"location": {"lat": 42.353505, "lng": -71.0536054}, "viewport": {"northeast": {"lat": 42.35609845000005, "lng": -71.04886200000001}, "southwest": {"lat": 42.35059464999996, "lng": -71.05792079999999}}}, "icon": "https://maps.gstatic.com/mapfiles/place_api/icons/geocode-71.png", "id": "cb76715b3788fcbfeb85fa49d8dae38c204e3015", "name": "John F Fitzgerald Expressway", "place_id": "ChIJm2TKr4Fw44kRC7Ttx2Zj1Pk", "reference": "ChIJm2TKr4Fw44kRC7Ttx2Zj1Pk", "scope": "GOOGLE", "types": ["route"], "vicinity": "Boston"}, "ChIJTWXw_IBw44kRP2E0gASeNCk": {"geometry": {"location": {"lat": 42.3541812, "lng": -71.0524069}, "viewport": {"northeast": {"lat": 42.35556008029149, "lng": -71.05108291970849}, "southwest": {"lat": 42.3528621197085, "lng": -71.0537808802915}}}, "icon": "https://maps.gstatic.com/mapfiles/place_api/icons/generic_business-71.png", "id": "747af129566f87632f3671c55232109610fd57be", "name": "ChargePoint Charging Station", "place_id": "ChIJTWXw_IBw44kRP2E0gASeNCk", "plus_code": {"compound_code": "9W3X+M2 Boston, Massachusetts, United States", "global_code": "87JC9W3X+M2"}, "reference": "ChIJTWXw_IBw44kRP2E0gASeNCk", "scope": "GOOGLE", "types": ["point_of_interest", "establishment"], "vicinity": "510 Atlantic Avenue, Boston"}, "ChIJGzE9DS1l44kRoOhiASS_fHg": {"geometry": {"location": {"lat": 42.3600825, "lng": -71.0588801}, "viewport": {"northeast": {"lat": 42.40081989999999, "lng": -70.749455}, "southwest": {"lat": 42.22788, "lng": -71.191113}}}, "icon": "https://maps.gstatic.com/mapfiles/place_api/icons/geocode-71.png", "id": "06755c25d2b34d13942a4713971756a55b870ced", "name": "Boston", "photos": [{"height": 3024, "html_attributions": ["<a href=\"https://maps.google.com/maps/contrib/104670289779338733432/photos\">Natalia Zalucean</a>"], "photo_reference": "CmRaAAAAYgNsEvHK8_JAuhukt3BFmk5J9XwDnShz0OiLA9gEzw0gdD76qytB1L-FGJWo6flB39c4x5heE9yQPJm7IXZysMvTkgDE698F2GCOcpYjckWUT3UJfjP40Mll7BgyOekREhBXwQV_tRw8p2HGFnvLK1p3GhSduoBkfyqw741LGWbmAwewtk-TcA", "width": 4032}], "place_id": "ChIJGzE9DS1l44kRoOhiASS_fHg", "reference": "ChIJGzE9DS1l44kRoOhiASS_fHg", "scope": "GOOGLE", "types": ["locality", "political"], "vicinity": "Boston"}}