{"ChIJhZirQQB544kRB9LbXEfedZQ": {"geometry": {"location": {"lat": 42.33176419999999, "lng": -71.1211635}, "viewport": {"northeast": {"lat": 42.3518109, "lng": -71.1056969}, "southwest": {"lat": 42.29459689999999, "lng": -71.1789959}}}, "icon": "https://maps.gstatic.com/mapfiles/place_api/icons/geocode-71.png", "id": "92986b2d1f69af2f2a7e29d34ced8adfa8573beb", "name": "Brookline", "photos": [{"height": 651, "html_attributions": ["<a href=\"https://maps.google.com/maps/contrib/114772942214832951419/photos\">Michael Ahn</a>"], "photo_reference": "CmRaAAAA03qR3LEZk9hEM7r3LbX7vTMp9hxAO3Efpn58N4G2hCdOjPR-Uc96vy_R62pV4UTy_TrudqK5qN8ApGvLgWoJR7IavyrqIYl_-MjtKUeSRSLJL88Fu2WyWWHH4tRDX9ghEhAmk-v9Pssc55RdkiVZS2-IGhRWBt4YjFX3oRu6FwogjBQkgeBQhg", "width": 1608}], "place_id": "ChIJhZirQQB544kRB9LbXEfedZQ", "reference": "ChIJhZirQQB544kRB9LbXEfedZQ", "scope": "GOOGLE", "types": ["locality", "political"], "vicinity": "Brookline"}, "ChIJSS_KhL5544kRxWC_Mx4W7d8": {"geometry": {"location": {"lat": 42.34045829999999, "lng": -71.1247344}, "viewport": {"northeast": {"lat": 42.3416663302915, "lng": -71.12337166970849}, "southwest": {"lat": 42.3389683697085, "lng": -71.1260696302915}}}, "icon": "https://maps.gstatic.com/mapfiles/place_api/icons/generic_business-71.png", "id": "88ddad860b8268e1a5412d52a8628f6c88f12466", "name": "Marion Square Apartments", "photos": [{"height": 1620, "html_attributions": ["<a href=\"https://maps.google.com/maps/contrib/101709439285603306613/photos\">Leighton Consolato</a>"], "photo_reference": "CmRaAAAAmqFBN-cG75ufOG0QxnSxlLFr9tPIWQG_0NqgU1OLhSALytjvsNwUpVwwlVE940ejbZL0xaDbH5D3a3hd08OESuEq_cYSkiuSuSfErC2h4ayl9SX8gIOJyxmImjAlDvzIEhDlr8lkQ6gh2lAjaX56NV8mGhSbZjkUa-mO7nF6-VpbTaUrJx9ErQ", "width": 1080}], "place_id": "ChIJSS_KhL5544kRxWC_Mx4W7d8", "plus_code": {"compound_code": "8VRG+54 Brookline, Massachusetts, United States", "global_code": "87JC8VRG+54"}, "rating": 4.5, "reference": "ChIJSS_KhL5544kRxWC_Mx4W7d8", "scope": "GOOGLE", "types": ["point_of_interest", "establishment"], "user_ratings_total": 2, "vicinity": "77 Marion Street, Brookline"}, "ChIJge31j75544kRU6iaVLUhwIs": {"geometry": {"location": {"lat": 42.34049399999999, "lng": -71.124724}, "viewport": {"northeast": {"lat": 42.3416845302915, "lng": -71.1233595697085}, "southwest": {"lat": 42.3389865697085, "lng": -71.12605753029152}}}, "icon": "https://maps.gstatic.com/mapfiles/place_api/icons/generic_business-71.png", "id": "50257f30e8c768e5f34141823f651a0962161662", "name": "Apartment", "place_id": "ChIJge31j75544kRU6iaVLUhwIs", "plus_code": {"compound_code": "8VRG+54 Brookline, Massachusetts, United States", "global_code": "87JC8VRG+54"}, "reference": "ChIJge31j75544kRU6iaVLUhwIs", "scope": "GOOGLE", "types": ["point_of_interest", "establishment"], "vicinity": "51 Centre Street, Brookline"}, "ChIJzc__CpZ544kRwpEhpJGiCaA": {"geometry": {"location": {"lat": 42.3402135, "lng": -71.11959949999999}, "viewport": {"northeast": {"lat": 42.343331, "lng": -71.11258099999999}, "southwest": {"lat": 42.3344871, "lng": -71.1269708}}}, "icon": "https://maps.gstatic.com/mapfiles/place_api/icons/geocode-71.png", "id": "fa822fbb859255568b453f33c73f032e9313b8ea", "name": "Coolidge Corner South Side", "place_id": "ChIJzc__CpZ544kRwpEhpJGiCaA", "reference": "ChIJzc__CpZ544kRwpEhpJGiCaA", "scope": "GOOGLE", "types": ["neighborhood", "political"], "vicinity": "Brookline"}}