{"ChIJR_dUimp644kRWLsN1baRNUI": {"geometry": {"location": {"lat": 42.3364778, "lng": -71.0707532}, "viewport": {"northeast": {"lat": 42.3378267802915, "lng": -71.0694042197085}, "southwest": {"lat": 42.3351288197085, "lng": -71.07210218029151}}}, "icon": "https://maps.gstatic.com/mapfiles/place_api/icons/geocode-71.png", "id": "1d9042ba4394e48901795775b676a30f0cd2b519", "name": "69-89 E Newton St", "place_id": "ChIJR_dUimp644kRWLsN1baRNUI", "reference": "ChIJR_dUimp644kRWLsN1baRNUI", "scope": "GOOGLE", "types": ["route"], "vicinity": "Boston"}, "ChIJLxoOimp644kRExCFM5zVnAU": {"geometry": {"location": {"lat": 42.3364529, "lng": -71.0709013}, "viewport": {"northeast": {"lat": 42.3378344802915, "lng": -71.06950231970849}, "southwest": {"lat": 42.33513651970851, "lng": -71.0722002802915}}}, "icon": "https://maps.gstatic.com/mapfiles/place_api/icons/generic_business-71.png", "id": "be9f9a0b5d83a56439e959d7df04388bb17cc15f", "name": "Boston Medical Center: Lightfoot Orlando B MD", "place_id": "ChIJLxoOimp644kRExCFM5zVnAU", "plus_code": {"compound_code": "8WPH+HJ Boston, Massachusetts, United States", "global_code": "87JC8WPH+HJ"}, "reference": "ChIJLxoOimp644kRExCFM5zVnAU", "scope": "GOOGLE", "types": ["doctor", "health", "point_of_interest", "establishment"], "vicinity": "85 East Newton Street, Boston"}, "ChIJLxoOimp644kRlikP_JYBeBk": {"geometry": {"location": {"lat": 42.33648739999999, "lng": -71.0711227}, "viewport": {"northeast": {"lat": 42.33790203029149, "lng": -71.0696731197085}, "southwest": {"lat": 42.33520406970849, "lng": -71.0723710802915}}}, "icon": "https://maps.gstatic.com/mapfiles/place_api/icons/generic_business-71.png", "id": "9a441bd5a5326b7e7e85ab9ec0b751d6daf47ec0", "name": "Dr. Marco L. Caicedo, MD", "place_id": "ChIJLxoOimp644kRlikP_JYBeBk", "plus_code": {"compound_code": "8WPH+HH Boston, Massachusetts, United States", "global_code": "87JC8WPH+HH"}, "reference": "ChIJLxoOimp644kRlikP_JYBeBk", "scope": "GOOGLE", "types": ["doctor", "health", "point_of_interest", "establishment"], "vicinity": "85 East Newton Street, Boston"}, "ChIJ5f5KjGp644kRi4yYG1LuyWA": {"geometry": {"location": {"lat": 42.33648739999999, "lng": -71.0711227}, "viewport": {"northeast": {"lat": 42.33790203029149, "lng": -71.0696731197085}, "southwest": {"lat": 42.33520406970849, "lng": -71.0723710802915}}}, "icon": "https://maps.gstatic.com/mapfiles/place_api/icons/generic_business-71.png", "id": "6eda2d1b1d6cf0128ed6d1e86d7061db895a1ffb", "name": "Center for Multicultural Training in Psychology", "place_id": "ChIJ5f5KjGp644kRi4yYG1LuyWA", "plus_code": {"compound_code": "8WPH+HH Boston, Massachusetts, United States", "global_code": "87JC8WPH+HH"}, "reference": "ChIJ5f5KjGp644kRi4yYG1LuyWA", "scope": "GOOGLE", "types": ["health", "point_of_interest", "establishment"], "vicinity": "85 East Newton Street, Boston"}, "ChIJ4_5KjGp644kRrSVgKn9AacY": {"geometry": {"location": {"lat": 42.33648739999999, "lng": -71.07112260000001}, "viewport": {"northeast": {"lat": 42.33790203029149, "lng": -71.0696730197085}, "southwest": {"lat": 42.33520406970849, "lng": -71.07237098029151}}}, "icon": "https://maps.gstatic.com/mapfiles/place_api/icons/generic_business-71.png", "id": "9efc8578c38bfc202cf1e02772249d6926caf6ca", "name": "Russell D. Pierce", "place_id": "ChIJ4_5KjGp644kRrSVgKn9AacY", "plus_code": {"compound_code": "8WPH+HH Boston, Massachusetts, United States", "global_code": "87JC8WPH+HH"}, "reference": "ChIJ4_5KjGp644kRrSVgKn9AacY", "scope": "GOOGLE", "types": ["point_of_interest", "establishment"], "vicinity": "85 East Newton Street, Boston"}, "ChIJ_aRbi2p644kRZmKLCSGLdT8": {"geometry": {"location": {"lat": 42.3365954, "lng": -71.0709182}, "viewport": {"northeast": {"lat": 42.3379325302915, "lng": -71.06958736970849}, "southwest": {"lat": 42.3352345697085, "lng": -71.0722853302915}}}, "icon": "https://maps.gstatic.com/mapfiles/place_api/icons/generic_business-71.png", "id": "a3ae6f6f946a65512f19153f52b55bfd14e46785", "name": "Levinsky Norman G MD", "place_id": "ChIJ_aRbi2p644kRZmKLCSGLdT8", "plus_code": {"compound_code": "8WPH+JJ Boston, Massachusetts, United States", "global_code": "87JC8WPH+JJ"}, "reference": "ChIJ_aRbi2p644kRZmKLCSGLdT8", "scope": "GOOGLE", "types": ["doctor", "health", "point_of_interest", "establishment"], "vicinity": "75 East Newton Street, Boston"}, "ChIJGzE9DS1l44kRoOhiASS_fHg": {"geometry": {"location": {"lat": 42.3600825, "lng": -71.0588801}, "viewport": {"northeast": {"lat": 42.40081989999999, "lng": -70.749455}, "southwest": {"lat": 42.22788, "lng": -71.191113}}}, "icon": "https://maps.gstatic.com/mapfiles/place_api/icons/geocode-71.png", "id": "06755c25d2b34d13942a4713971756a55b870ced", "name": "Boston", "photos": [{"height": 3024, "html_attributions": ["<a href=\"https://maps.google.com/maps/contrib/104670289779338733432/photos\">Natalia Zalucean</a>"], "photo_reference": "CmRaAAAA84lliqSRPMrnuXOQnHgnYBs_tpvFX6nyxorc3VErKhVhUTqvXi9fXKRXy0Absbbhd5_AKHLiYkP6JWZjn1TNC3bLlff8q0oZLutUG6TC4XYxPjiBa0opAWKoAdnir_D4EhBEE5bvhUeM8JuPSPNnONhHGhQ9-VnJ6Xi0iU5616MA24SRYQEolQ", "width": 4032}], "place_id": "ChIJGzE9DS1l44kRoOhiASS_fHg", "reference": "ChIJGzE9DS1l44kRoOhiASS_fHg", "scope": "GOOGLE", "types": ["locality", "political"], "vicinity": "Boston"}}