{"ChIJ6817c4Fw44kR_UbvSS9Vb0g": {"geometry": {"location": {"lat": 42.354387, "lng": -71.05438819999999}, "viewport": {"northeast": {"lat": 42.3557380802915, "lng": -71.05303531970848}, "southwest": {"lat": 42.3530401197085, "lng": -71.0557332802915}}}, "icon": "https://maps.gstatic.com/mapfiles/place_api/icons/geocode-71.png", "id": "5ba41dab048bd48039d2c1f964cc70c10033c4c7", "name": "219-247 Congress St", "place_id": "ChIJ6817c4Fw44kR_UbvSS9Vb0g", "reference": "ChIJ6817c4Fw44kR_UbvSS9Vb0g", "scope": "GOOGLE", "types": ["route"], "vicinity": "Boston"}, "ChIJldDY43h644kRI3c2wXBf9Qk": {"geometry": {"location": {"lat": 42.3544188, "lng": -71.0546518}, "viewport": {"northeast": {"lat": 42.3557100302915, "lng": -71.05346321970849}, "southwest": {"lat": 42.3530120697085, "lng": -71.0561611802915}}}, "icon": "https://maps.gstatic.com/mapfiles/place_api/icons/generic_business-71.png", "id": "5f4bd2281a7409170ed17902cbddfe41e5adb1a8", "name": "Zoom Telephonics, Inc", "opening_hours": {"open_now": true}, "place_id": "ChIJldDY43h644kRI3c2wXBf9Qk", "plus_code": {"compound_code": "9W3W+Q4 Boston, Massachusetts, United States", "global_code": "87JC9W3W+Q4"}, "rating": 5, "reference": "ChIJldDY43h644kRI3c2wXBf9Qk", "scope": "GOOGLE", "types": ["point_of_interest", "establishment"], "user_ratings_total": 1, "vicinity": "Keystone Building, 99 High St, Boston"}, "ChIJG9Qn0oZw44kRcJLMePLGyTU": {"geometry": {"location": {"lat": 42.3544188, "lng": -71.0546518}, "viewport": {"northeast": {"lat": 42.3557100302915, "lng": -71.05346321970849}, "southwest": {"lat": 42.3530120697085, "lng": -71.0561611802915}}}, "icon": "https://maps.gstatic.com/mapfiles/place_api/icons/generic_business-71.png", "id": "3435d7f700de301db487b6d4ba39834cdbc1d313", "name": "Keegan Werlin LLP", "opening_hours": {"open_now": true}, "place_id": "ChIJG9Qn0oZw44kRcJLMePLGyTU", "plus_code": {"compound_code": "9W3W+Q4 Boston, Massachusetts, United States", "global_code": "87JC9W3W+Q4"}, "reference": "ChIJG9Qn0oZw44kRcJLMePLGyTU", "scope": "GOOGLE", "types": ["lawyer", "point_of_interest", "establishment"], "vicinity": "99 High Street suite 2900, Boston"}, "ChIJMQC4vX9w44kRESkfuLcw8KU": {"geometry": {"location": {"lat": 42.354419, "lng": -71.05465199999999}, "viewport": {"northeast": {"lat": 42.35571013029149, "lng": -71.05346331970848}, "southwest": {"lat": 42.35301216970849, "lng": -71.0561612802915}}}, "icon": "https://maps.gstatic.com/mapfiles/place_api/icons/generic_business-71.png", "id": "b9d51db336a170142e592054d8ad9a02a29af96d", "name": "Workable Inc", "photos": [{"height": 3456, "html_attributions": ["<a href=\"https://maps.google.com/maps/contrib/108273534370533645127/photos\">Carolyn Martin</a>"], "photo_reference": "CmRaAAAA2vTI3CPFkL6FLjLMHNHz62jeXPpT67RfKGn4Lc20zsO8L2e5V6YyIH7y-bOJLwc1HKRGfAx1GSIc96qzFwip2F2Wc5x8DJkbk2Ur1rXx6cD9tZUNWT6stdpiknOxDugBEhDTueWvWvVJQtGkdrdnrJtYGhQoJbx9oQHanN3DGKWJ3vg1Cl5dXA", "width": 4690}], "place_id": "ChIJMQC4vX9w44kRESkfuLcw8KU", "plus_code": {"compound_code": "9W3W+Q4 Boston, Massachusetts, United States", "global_code": "87JC9W3W+Q4"}, "rating": 4.5, "reference": "ChIJMQC4vX9w44kRESkfuLcw8KU", "scope": "GOOGLE", "types": ["point_of_interest", "establishment"], "user_ratings_total": 2, "vicinity": "99 High Street 26th floor, Boston"}, "ChIJv1J9rnh644kRWaCYsDKQbgE": {"geometry": {"location": {"lat": 42.3544188, "lng": -71.0546518}, "viewport": {"northeast": {"lat": 42.3557100302915, "lng": -71.05346321970849}, "southwest": {"lat": 42.3530120697085, "lng": -71.0561611802915}}}, "icon": "https://maps.gstatic.com/mapfiles/place_api/icons/generic_business-71.png", "id": "b7a9e3067615e89f9113a94adf0dbc7204fe09c6", "name": "HDR", "opening_hours": {"open_now": true}, "photos": [{"height": 3024, "html_attributions": ["<a href=\"https://maps.google.com/maps/contrib/100247685341863279055/photos\">Artie Bonney</a>"], "photo_reference": "CmRaAAAADDqIcaRX9V2RGLISyY8Pg0cHvxzSPqSM3-Of5kIq-deeoK1tf8r0QFuK3i9LewBVu1ehBOFkKAVwmHV66UzFrSWf9BksQ91Qm_qvBufQi1oaHYQ5oXPHhlBAMDFiKId_EhBAqx62iHibob1dbUxBkj9jGhSBau1_O1mvlB-u3wWk8F9iW7IKFA", "width": 4032}], "place_id": "ChIJv1J9rnh644kRWaCYsDKQbgE", "plus_code": {"compound_code": "9W3W+Q4 Boston, Massachusetts, United States", "global_code": "87JC9W3W+Q4"}, "rating": 5, "reference": "ChIJv1J9rnh644kRWaCYsDKQbgE", "scope": "GOOGLE", "types": ["point_of_interest", "establishment"], "user_ratings_total": 1, "vicinity": "99 High Street #2300, Boston"}, "ChIJj-WE_X9w44kRArhL8Ph9ePg": {"geometry": {"location": {"lat": 42.35448569999999, "lng": -71.0542583}, "viewport": {"northeast": {"lat": 42.35579303029149, "lng": -71.05298231970849}, "southwest": {"lat": 42.35309506970849, "lng": -71.05568028029151}}}, "icon": "https://maps.gstatic.com/mapfiles/place_api/icons/generic_business-71.png", "id": "4f636b32c3bb8292caea0c674213a00767f8ea90", "name": "Metro Boston", "place_id": "ChIJj-WE_X9w44kRArhL8Ph9ePg", "plus_code": {"compound_code": "9W3W+Q7 Boston, Massachusetts, United States", "global_code": "87JC9W3W+Q7"}, "rating": 4.7, "reference": "ChIJj-WE_X9w44kRArhL8Ph9ePg", "scope": "GOOGLE", "types": ["point_of_interest", "establishment"], "user_ratings_total": 3, "vicinity": "4, 234 Congress Street, Boston"}, "ChIJVVVFcYFw44kR8-nWtNz082Y": {"geometry": {"location": {"lat": 42.3544188, "lng": -71.0546518}, "viewport": {"northeast": {"lat": 42.3557100302915, "lng": -71.05346321970849}, "southwest": {"lat": 42.3530120697085, "lng": -71.0561611802915}}}, "icon": "https://maps.gstatic.com/mapfiles/place_api/icons/generic_business-71.png", "id": "7a5d9d36bcc4b1b2bff5de43166851e476a35d6f", "name": "James McDonough", "place_id": "ChIJVVVFcYFw44kR8-nWtNz082Y", "reference": "ChIJVVVFcYFw44kR8-nWtNz082Y", "scope": "GOOGLE", "types": ["point_of_interest", "establishment"], "vicinity": "99 High Street, Boston"}, "ChIJVVVFcYFw44kRMT_dK6KDwpw": {"geometry": {"location": {"lat": 42.3544188, "lng": -71.0546518}, "viewport": {"northeast": {"lat": 42.3557100302915, "lng": -71.05346321970849}, "southwest": {"lat": 42.3530120697085, "lng": -71.0561611802915}}}, "icon": "https://maps.gstatic.com/mapfiles/place_api/icons/generic_business-71.png", "id": "f8885bbce2fc4895c552bc1c21d7adf35d75fed1", "name": "AquaBounty Technologies", "place_id": "ChIJVVVFcYFw44kRMT_dK6KDwpw", "reference": "ChIJVVVFcYFw44kRMT_dK6KDwpw", "scope": "GOOGLE", "types": ["point_of_interest", "establishment"], "vicinity": "99 High Street, Boston"}, "ChIJVVVFcYFw44kRzhr5Xk_IMUU": {"geometry": {"location": {"lat": 42.3544188, "lng": -71.0546518}, "viewport": {"northeast": {"lat": 42.3557100302915, "lng": -71.05346321970849}, "southwest": {"lat": 42.3530120697085, "lng": -71.0561611802915}}}, "icon": "https://maps.gstatic.com/mapfiles/place_api/icons/generic_business-71.png", "id": "cf9428c10ec95a79f49ec55c43ce0cf7d0721fb5", "name": "99 High", "place_id": "ChIJVVVFcYFw44kRzhr5Xk_IMUU", "plus_code": {"compound_code": "9W3W+Q4 Boston, Massachusetts, United States", "global_code": "87JC9W3W+Q4"}, "reference": "ChIJVVVFcYFw44kRzhr5Xk_IMUU", "scope": "GOOGLE", "types": ["point_of_interest", "establishment"], "vicinity": "99 High Street, Boston"}, "ChIJtaf5coFw44kRu_mZrsVe_Ts": {"geometry": {"location": {"lat": 42.3545163, "lng": -71.05440469999999}, "viewport": {"northeast": {"lat": 42.3558452302915, "lng": -71.0530930197085}, "southwest": {"lat": 42.35314726970851, "lng": -71.0557909802915}}}, "icon": "https://maps.gstatic.com/mapfiles/place_api/icons/generic_business-71.png", "id": "b0e00b2d848aa352057480d2d8b257b15799345f", "name": "Jll", "place_id": "ChIJtaf5coFw44kRu_mZrsVe_Ts", "plus_code": {"compound_code": "9W3W+R6 Boston, Massachusetts, United States", "global_code": "87JC9W3W+R6"}, "reference": "ChIJtaf5coFw44kRu_mZrsVe_Ts", "scope": "GOOGLE", "types": ["real_estate_agency", "point_of_interest", "establishment"], "vicinity": "218 Congress Street, Boston"}, "ChIJGzE9DS1l44kRoOhiASS_fHg": {"geometry": {"location": {"lat": 42.3600825, "lng": -71.0588801}, "viewport": {"northeast": {"lat": 42.40081989999999, "lng": -70.749455}, "southwest": {"lat": 42.22788, "lng": -71.191113}}}, "icon": "https://maps.gstatic.com/mapfiles/place_api/icons/geocode-71.png", "id": "06755c25d2b34d13942a4713971756a55b870ced", "name": "Boston", "photos": [{"height": 3024, "html_attributions": ["<a href=\"https://maps.google.com/maps/contrib/104670289779338733432/photos\">Natalia Zalucean</a>"], "photo_reference": "CmRaAAAAT6UV90f2S-j2T81FOltBdfnWxCL8tI15bWrEQ219uqWyD9KT273WCrMOSU-JpR95HXZoC94t4e-R62ToSP9f0F1zW5OiCNq-LFwrdB_MDWgAfu5VzMOAmKo6ficWYd98EhDjxbYDWjSHHK6NO7IP-8SrGhS9GhduC4Dm8Vrg2ouAbBnI2y09TA", "width": 4032}], "place_id": "ChIJGzE9DS1l44kRoOhiASS_fHg", "reference": "ChIJGzE9DS1l44kRoOhiASS_fHg", "scope": "GOOGLE", "types": ["locality", "political"], "vicinity": "Boston"}}