{"ChIJGzE9DS1l44kRoOhiASS_fHg": {"geometry": {"location": {"lat": 42.3600825, "lng": -71.0588801}, "viewport": {"northeast": {"lat": 42.40081989999999, "lng": -70.749455}, "southwest": {"lat": 42.22788, "lng": -71.191113}}}, "icon": "https://maps.gstatic.com/mapfiles/place_api/icons/geocode-71.png", "id": "06755c25d2b34d13942a4713971756a55b870ced", "name": "Boston", "photos": [{"height": 3024, "html_attributions": ["<a href=\"https://maps.google.com/maps/contrib/104670289779338733432/photos\">Natalia Zalucean</a>"], "photo_reference": "CmRaAAAAn4tyxEe1UQkoPCkTx-XbanJ7Lu2Pg1hyKLpvVoDUN4SDZFZxW9uvZ8vo0QQUkUsY75UKNi4ZlXEaila79VGlVLu2qPtFDF3VpjVXqV5O8qfsWb7C0GsK_-M5-P1cMdtdEhA1uVips3HhrqPt-JOT9B23GhTOUR3wZKGGd2gBlb1b50yoAJi0Ow", "width": 4032}], "place_id": "ChIJGzE9DS1l44kRoOhiASS_fHg", "reference": "ChIJGzE9DS1l44kRoOhiASS_fHg", "scope": "GOOGLE", "types": ["locality", "political"], "vicinity": "Boston"}, "ChIJ_zGrdPR544kR_ju4nNHoVPg": {"geometry": {"location": {"lat": 42.3444979, "lng": -71.1029023}, "viewport": {"northeast": {"lat": 42.3457874302915, "lng": -71.10176041970848}, "southwest": {"lat": 42.3430894697085, "lng": -71.10445838029149}}}, "icon": "https://maps.gstatic.com/mapfiles/place_api/icons/generic_business-71.png", "id": "cebbd71349abea2afae86b60e05f2df3fb0e18ea", "name": "Landmark Security", "place_id": "ChIJ_zGrdPR544kR_ju4nNHoVPg", "plus_code": {"compound_code": "8VVW+QR Boston, Massachusetts, United States", "global_code": "87JC8VVW+QR"}, "reference": "ChIJ_zGrdPR544kR_ju4nNHoVPg", "scope": "GOOGLE", "types": ["point_of_interest", "establishment"], "vicinity": "401 Park Drive #2, Boston"}, "ChIJD1pVc_R544kR8NGgAzLKcMA": {"geometry": {"location": {"lat": 42.3444979, "lng": -71.1029023}, "viewport": {"northeast": {"lat": 42.3457874302915, "lng": -71.10176041970848}, "southwest": {"lat": 42.3430894697085, "lng": -71.10445838029149}}}, "icon": "https://maps.gstatic.com/mapfiles/place_api/icons/generic_business-71.png", "id": "588c482682acae48109c81e7b1e0fad217c5f40e", "name": "Fitness Forward", "place_id": "ChIJD1pVc_R544kR8NGgAzLKcMA", "plus_code": {"compound_code": "8VVW+QR Boston, Massachusetts, United States", "global_code": "87JC8VVW+QR"}, "reference": "ChIJD1pVc_R544kR8NGgAzLKcMA", "scope": "GOOGLE", "types": ["health", "point_of_interest", "establishment"], "vicinity": "401 Park Drive, Boston"}, "ChIJ_zGrdPR544kRVWV_A5rHA9A": {"geometry": {"location": {"lat": 42.3444979, "lng": -71.1029023}, "viewport": {"northeast": {"lat": 42.3457874302915, "lng": -71.10176041970848}, "southwest": {"lat": 42.3430894697085, "lng": -71.10445838029149}}}, "icon": "https://maps.gstatic.com/mapfiles/place_api/icons/generic_business-71.png", "id": "3a8704f4763e8f3e434523dd9c6e525ba639e343", "name": "Moroney Michael", "place_id": "ChIJ_zGrdPR544kRVWV_A5rHA9A", "plus_code": {"compound_code": "8VVW+QR Boston, Massachusetts, United States", "global_code": "87JC8VVW+QR"}, "reference": "ChIJ_zGrdPR544kRVWV_A5rHA9A", "scope": "GOOGLE", "types": ["insurance_agency", "point_of_interest", "establishment"], "vicinity": "401 Park Drive, Boston"}, "ChIJD1pVc_R544kRfpE9rmHZRb4": {"geometry": {"location": {"lat": 42.34445029999999, "lng": -71.1028281}, "viewport": {"northeast": {"lat": 42.3456686802915, "lng": -71.1016331197085}, "southwest": {"lat": 42.3429707197085, "lng": -71.1043310802915}}}, "icon": "https://maps.gstatic.com/mapfiles/place_api/icons/generic_business-71.png", "id": "a23c44ef985acb6337da3b513bcd07b9d43abfa3", "name": "Eisenberg David M MD", "place_id": "ChIJD1pVc_R544kRfpE9rmHZRb4", "plus_code": {"compound_code": "8VVW+QV Boston, Massachusetts, United States", "global_code": "87JC8VVW+QV"}, "reference": "ChIJD1pVc_R544kRfpE9rmHZRb4", "scope": "GOOGLE", "types": ["doctor", "health", "point_of_interest", "establishment"], "vicinity": "401 Park Drive # 22A, Boston"}, "ChIJD1pVc_R544kREdeaU-DVX9c": {"geometry": {"location": {"lat": 42.3445931, "lng": -71.1025232}, "viewport": {"northeast": {"lat": 42.3457150802915, "lng": -71.10144186970848}, "southwest": {"lat": 42.3430171197085, "lng": -71.10413983029149}}}, "icon": "https://maps.gstatic.com/mapfiles/place_api/icons/school-71.png", "id": "d7d1361f5f24f72a373be12291bc2f2254fae2dd", "name": "Bright Horizons at Brookline Ave / Landmark", "opening_hours": {"open_now": true}, "photos": [{"height": 925, "html_attributions": ["<a href=\"https://maps.google.com/maps/contrib/112229457633872614603/photos\">Pavol Michalec</a>"], "photo_reference": "CmRaAAAAFSYY3-UqFqD6W7b74L6-XlqDyjMhBwBOxsn7wX4XXigv4zMLOoaIdHLRo-FFIYhtX4dw3WRH3K7vTSqONE_IWNamZtjPrppcZfvj7su8zfmezdkdk4WhptVC4dK9kIdNEhAV6_371GOjTlvwIHUT-vBMGhQd_wp0Fc-51xiCNqLZOiCtYsQXyw", "width": 1248}], "place_id": "ChIJD1pVc_R544kREdeaU-DVX9c", "plus_code": {"compound_code": "8VVW+RX Boston, Massachusetts, United States", "global_code": "87JC8VVW+RX"}, "rating": 5, "reference": "ChIJD1pVc_R544kREdeaU-DVX9c", "scope": "GOOGLE", "types": ["point_of_interest", "school", "establishment"], "user_ratings_total": 3, "vicinity": "401 Park Drive 4th Floor West, Boston"}, "ChIJD1pVc_R544kRxW4mKpRnjMM": {"geometry": {"location": {"lat": 42.3444535, "lng": -71.1028255}, "viewport": {"northeast": {"lat": 42.3456704802915, "lng": -71.1016321697085}, "southwest": {"lat": 42.3429725197085, "lng": -71.1043301302915}}}, "icon": "https://maps.gstatic.com/mapfiles/place_api/icons/generic_business-71.png", "id": "5ef994dcac5ca55cde0838d5a1640af87e857b4c", "name": "Ahn Andrew C MD", "place_id": "ChIJD1pVc_R544kRxW4mKpRnjMM", "plus_code": {"compound_code": "8VVW+QV Boston, Massachusetts, United States", "global_code": "87JC8VVW+QV"}, "reference": "ChIJD1pVc_R544kRxW4mKpRnjMM", "scope": "GOOGLE", "types": ["doctor", "health", "point_of_interest", "establishment"], "vicinity": "401 Park Drive # 22A, Boston"}, "ChIJD1pVc_R544kRN1BZVDrsa6U": {"geometry": {"location": {"lat": 42.3444497, "lng": -71.1028287}, "viewport": {"northeast": {"lat": 42.3456683302915, "lng": -71.1016333697085}, "southwest": {"lat": 42.3429703697085, "lng": -71.1043313302915}}}, "icon": "https://maps.gstatic.com/mapfiles/place_api/icons/generic_business-71.png", "id": "e295e2e1463f53b96487feee1f0becf919e79a47", "name": "Nicklas Jacinda M MD", "place_id": "ChIJD1pVc_R544kRN1BZVDrsa6U", "plus_code": {"compound_code": "8VVW+QV Boston, Massachusetts, United States", "global_code": "87JC8VVW+QV"}, "reference": "ChIJD1pVc_R544kRN1BZVDrsa6U", "scope": "GOOGLE", "types": ["doctor", "health", "point_of_interest", "establishment"], "vicinity": "401 Park Drive # 22A, Boston"}, "ChIJD1pVc_R544kRhWB1ReHBRkM": {"geometry": {"location": {"lat": 42.3444939, "lng": -71.10288609999999}, "viewport": {"northeast": {"lat": 42.34578168029149, "lng": -71.1017503697085}, "southwest": {"lat": 42.3430837197085, "lng": -71.1044483302915}}}, "icon": "https://maps.gstatic.com/mapfiles/place_api/icons/generic_business-71.png", "id": "8daac4bb0592f0b8ea3c1b39b00c6df8a4cb75c6", "name": "Dr. Christopher A. Trojanovich, MD", "place_id": "ChIJD1pVc_R544kRhWB1ReHBRkM", "plus_code": {"compound_code": "8VVW+QR Boston, Massachusetts, United States", "global_code": "87JC8VVW+QR"}, "reference": "ChIJD1pVc_R544kRhWB1ReHBRkM", "scope": "GOOGLE", "types": ["doctor", "health", "point_of_interest", "establishment"], "vicinity": "401 Park Drive, Boston"}, "ChIJD1pVc_R544kR53Zyn9xhb8U": {"geometry": {"location": {"lat": 42.3444939, "lng": -71.10288609999999}, "viewport": {"northeast": {"lat": 42.34578168029149, "lng": -71.1017503697085}, "southwest": {"lat": 42.3430837197085, "lng": -71.1044483302915}}}, "icon": "https://maps.gstatic.com/mapfiles/place_api/icons/generic_business-71.png", "id": "1adac22f8087529447ced52c768bf87fedfb8801", "name": "Dr. Gurjeet S. Birdee, MD", "place_id": "ChIJD1pVc_R544kR53Zyn9xhb8U", "plus_code": {"compound_code": "8VVW+QR Boston, Massachusetts, United States", "global_code": "87JC8VVW+QR"}, "reference": "ChIJD1pVc_R544kR53Zyn9xhb8U", "scope": "GOOGLE", "types": ["doctor", "health", "point_of_interest", "establishment"], "vicinity": "401 Park Drive, Boston"}, "ChIJD1pVc_R544kRj1NhIqIwyuI": {"geometry": {"location": {"lat": 42.3444939, "lng": -71.10288609999999}, "viewport": {"northeast": {"lat": 42.34578168029149, "lng": -71.1017503697085}, "southwest": {"lat": 42.3430837197085, "lng": -71.1044483302915}}}, "icon": "https://maps.gstatic.com/mapfiles/place_api/icons/generic_business-71.png", "id": "c2167caf66609a0819ab543877dc74b20fc9817d", "name": "Keshavan Matcheri S MD", "place_id": "ChIJD1pVc_R544kRj1NhIqIwyuI", "plus_code": {"compound_code": "8VVW+QR Boston, Massachusetts, United States", "global_code": "87JC8VVW+QR"}, "reference": "ChIJD1pVc_R544kRj1NhIqIwyuI", "scope": "GOOGLE", "types": ["doctor", "health", "point_of_interest", "establishment"], "vicinity": "401 Park Drive, Boston"}, "ChIJD1pVc_R544kRWFyVtHFslhc": {"geometry": {"location": {"lat": 42.3444939, "lng": -71.10288609999999}, "viewport": {"northeast": {"lat": 42.34578168029149, "lng": -71.1017503697085}, "southwest": {"lat": 42.3430837197085, "lng": -71.1044483302915}}}, "icon": "https://maps.gstatic.com/mapfiles/place_api/icons/generic_business-71.png", "id": "7bf732f7e9bc02201ed6b7d304f8afaa960d3adb", "name": "Dr. Jan L. Cook, MD", "place_id": "ChIJD1pVc_R544kRWFyVtHFslhc", "plus_code": {"compound_code": "8VVW+QR Boston, Massachusetts, United States", "global_code": "87JC8VVW+QR"}, "reference": "ChIJD1pVc_R544kRWFyVtHFslhc", "scope": "GOOGLE", "types": ["doctor", "health", "point_of_interest", "establishment"], "vicinity": "401 Park Drive, Boston"}, "ChIJD1pVc_R544kRAwz-IyJ9ooQ": {"geometry": {"location": {"lat": 42.3444939, "lng": -71.10288609999999}, "viewport": {"northeast": {"lat": 42.34578168029149, "lng": -71.1017503697085}, "southwest": {"lat": 42.3430837197085, "lng": -71.1044483302915}}}, "icon": "https://maps.gstatic.com/mapfiles/place_api/icons/generic_business-71.png", "id": "ee869d1e9bb68953a502bb140869f1f2c891ee50", "name": "Dr. Peter D. Goldbach, MD", "place_id": "ChIJD1pVc_R544kRAwz-IyJ9ooQ", "plus_code": {"compound_code": "8VVW+QR Boston, Massachusetts, United States", "global_code": "87JC8VVW+QR"}, "reference": "ChIJD1pVc_R544kRAwz-IyJ9ooQ", "scope": "GOOGLE", "types": ["doctor", "health", "point_of_interest", "establishment"], "vicinity": "401 Park Drive, Boston"}, "ChIJD1pVc_R544kR6KQqVwxSREQ": {"geometry": {"location": {"lat": 42.3444939, "lng": -71.10288609999999}, "viewport": {"northeast": {"lat": 42.34578168029149, "lng": -71.1017503697085}, "southwest": {"lat": 42.3430837197085, "lng": -71.1044483302915}}}, "icon": "https://maps.gstatic.com/mapfiles/place_api/icons/generic_business-71.png", "id": "3f95a989e3d1443edef82c43b9cd2c36cd446828", "name": "Dr. Barry G. Zallen, MD", "place_id": "ChIJD1pVc_R544kR6KQqVwxSREQ", "plus_code": {"compound_code": "8VVW+QR Boston, Massachusetts, United States", "global_code": "87JC8VVW+QR"}, "reference": "ChIJD1pVc_R544kR6KQqVwxSREQ", "scope": "GOOGLE", "types": ["doctor", "health", "point_of_interest", "establishment"], "vicinity": "401 Park Drive, Boston"}, "ChIJD1pVc_R544kR10bFM7VoKHA": {"geometry": {"location": {"lat": 42.3444939, "lng": -71.10288609999999}, "viewport": {"northeast": {"lat": 42.34578168029149, "lng": -71.1017503697085}, "southwest": {"lat": 42.3430837197085, "lng": -71.1044483302915}}}, "icon": "https://maps.gstatic.com/mapfiles/place_api/icons/generic_business-71.png", "id": "addbc9097c46f37c5c991c29f0723d08e2c14add", "name": "Chopra Sanjiv MD", "place_id": "ChIJD1pVc_R544kR10bFM7VoKHA", "plus_code": {"compound_code": "8VVW+QR Boston, Massachusetts, United States", "global_code": "87JC8VVW+QR"}, "reference": "ChIJD1pVc_R544kR10bFM7VoKHA", "scope": "GOOGLE", "types": ["doctor", "health", "point_of_interest", "establishment"], "vicinity": "401 Park Drive, Boston"}, "ChIJD1pVc_R544kRamSp6RGpKcc": {"geometry": {"location": {"lat": 42.3444939, "lng": -71.10288609999999}, "viewport": {"northeast": {"lat": 42.34578168029149, "lng": -71.1017503697085}, "southwest": {"lat": 42.3430837197085, "lng": -71.1044483302915}}}, "icon": "https://maps.gstatic.com/mapfiles/place_api/icons/generic_business-71.png", "id": "172ce2dc586718fe20ca21b6c738eabce69ca58b", "name": "Dr. Thomas C. Hawkins, MD", "place_id": "ChIJD1pVc_R544kRamSp6RGpKcc", "plus_code": {"compound_code": "8VVW+QR Boston, Massachusetts, United States", "global_code": "87JC8VVW+QR"}, "reference": "ChIJD1pVc_R544kRamSp6RGpKcc", "scope": "GOOGLE", "types": ["doctor", "health", "point_of_interest", "establishment"], "vicinity": "401 Park Drive, Boston"}, "ChIJD1pVc_R544kRAH12u7xX9A4": {"geometry": {"location": {"lat": 42.3444939, "lng": -71.10288609999999}, "viewport": {"northeast": {"lat": 42.34578168029149, "lng": -71.1017503697085}, "southwest": {"lat": 42.3430837197085, "lng": -71.1044483302915}}}, "icon": "https://maps.gstatic.com/mapfiles/place_api/icons/generic_business-71.png", "id": "6655701d2ace4391f75f59938a4904f40e71c33c", "name": "Dr. Edward H. Chin, MD", "place_id": "ChIJD1pVc_R544kRAH12u7xX9A4", "plus_code": {"compound_code": "8VVW+QR Boston, Massachusetts, United States", "global_code": "87JC8VVW+QR"}, "reference": "ChIJD1pVc_R544kRAH12u7xX9A4", "scope": "GOOGLE", "types": ["doctor", "health", "point_of_interest", "establishment"], "vicinity": "401 Park Drive, Boston"}, "ChIJD1pVc_R544kRlFHb5vfx47w": {"geometry": {"location": {"lat": 42.3444939, "lng": -71.10288609999999}, "viewport": {"northeast": {"lat": 42.34578168029149, "lng": -71.1017503697085}, "southwest": {"lat": 42.3430837197085, "lng": -71.1044483302915}}}, "icon": "https://maps.gstatic.com/mapfiles/place_api/icons/generic_business-71.png", "id": "5002ad2d7936b0169ecaf2333691a64c8fcbef1d", "name": "Dr. Gloria Y. Yeh, MD", "place_id": "ChIJD1pVc_R544kRlFHb5vfx47w", "plus_code": {"compound_code": "8VVW+QR Boston, Massachusetts, United States", "global_code": "87JC8VVW+QR"}, "reference": "ChIJD1pVc_R544kRlFHb5vfx47w", "scope": "GOOGLE", "types": ["doctor", "health", "point_of_interest", "establishment"], "vicinity": "401 Park Drive, Boston"}, "ChIJD1pVc_R544kRFFZ5rWLTwD4": {"geometry": {"location": {"lat": 42.3444418, "lng": -71.1028219}, "viewport": {"northeast": {"lat": 42.3456614302915, "lng": -71.10162541970848}, "southwest": {"lat": 42.3429634697085, "lng": -71.10432338029149}}}, "icon": "https://maps.gstatic.com/mapfiles/place_api/icons/generic_business-71.png", "id": "7d08bf86405ae293efb37781dd16c47531646c9d", "name": "Wells Rebecca E MD", "place_id": "ChIJD1pVc_R544kRFFZ5rWLTwD4", "plus_code": {"compound_code": "8VVW+QV Boston, Massachusetts, United States", "global_code": "87JC8VVW+QV"}, "reference": "ChIJD1pVc_R544kRFFZ5rWLTwD4", "scope": "GOOGLE", "types": ["doctor", "health", "point_of_interest", "establishment"], "vicinity": "401 Park Dr # 22A-West, Boston"}, "ChIJAfp8Lh5644kR9PDAZN8nEK8": {"geometry": {"location": {"lat": 42.3428653, "lng": -71.1002881}, "viewport": {"northeast": {"lat": 42.3522779, "lng": -71.0818948}, "southwest": {"lat": 42.332897, "lng": -71.11159599999999}}}, "icon": "https://maps.gstatic.com/mapfiles/place_api/icons/geocode-71.png", "id": "4ca9d423ad416930d3a49da3f2de6540df27b390", "name": "Fenway/Kenmore", "photos": [{"height": 1536, "html_attributions": ["<a href=\"https://maps.google.com/maps/contrib/108749372735406640710/photos\">Joshua Arkin</a>"], "photo_reference": "CmRaAAAAopChCMgs-XGdTcAf4BMhWnxxex-vz_a27f4qnQZBilChi1sf9QGGjnchMM0pS8mant16Kc4R7QF-LpJz3tqNSLyJBoHWAYnYQsV7xbNm4hoXAFLFrep56Cz0jLmodvA9EhDilyuH_CPcQP9y1xU7JwM1GhTFHIvkrdlL7nNMdMHnCLJ918TCtA", "width": 2048}], "place_id": "ChIJAfp8Lh5644kR9PDAZN8nEK8", "reference": "ChIJAfp8Lh5644kR9PDAZN8nEK8", "scope": "GOOGLE", "types": ["neighborhood", "political"], "vicinity": "Boston"}, "ChIJD1pVc_R544kR65uL1Jei1KI": {"geometry": {"location": {"lat": 42.3444939, "lng": -71.10288609999999}, "viewport": {"northeast": {"lat": 42.34578168029149, "lng": -71.1017503697085}, "southwest": {"lat": 42.3430837197085, "lng": -71.1044483302915}}}, "icon": "https://maps.gstatic.com/mapfiles/place_api/icons/generic_business-71.png", "id": "b572a8cacf3322fa30ef51255700ec6ef63f609a", "name": "Dr. Cheng-Yi Lee, MD", "place_id": "ChIJD1pVc_R544kR65uL1Jei1KI", "plus_code": {"compound_code": "8VVW+QR Boston, Massachusetts, United States", "global_code": "87JC8VVW+QR"}, "reference": "ChIJD1pVc_R544kR65uL1Jei1KI", "scope": "GOOGLE", "types": ["doctor", "health", "point_of_interest", "establishment"], "vicinity": "401 Park Drive, Boston"}, "ChIJD1pVc_R544kRgaAdepZglZA": {"geometry": {"location": {"lat": 42.3444939, "lng": -71.10288609999999}, "viewport": {"northeast": {"lat": 42.34578168029149, "lng": -71.1017503697085}, "southwest": {"lat": 42.3430837197085, "lng": -71.1044483302915}}}, "icon": "https://maps.gstatic.com/mapfiles/place_api/icons/generic_business-71.png", "id": "064d3f6ef1ed25b166378c57cafe34647e9b8498", "name": "Dr. John A. Fallon, MD", "place_id": "ChIJD1pVc_R544kRgaAdepZglZA", "plus_code": {"compound_code": "8VVW+QR Boston, Massachusetts, United States", "global_code": "87JC8VVW+QR"}, "reference": "ChIJD1pVc_R544kRgaAdepZglZA", "scope": "GOOGLE", "types": ["doctor", "health", "point_of_interest", "establishment"], "vicinity": "401 Park Drive, Boston"}, "ChIJdcd7DfR544kRe2aLM2htLI8": {"geometry": {"location": {"lat": 42.3445642, "lng": -71.1025475}, "viewport": {"northeast": {"lat": 42.3456988302915, "lng": -71.10145121970848}, "southwest": {"lat": 42.3430008697085, "lng": -71.1041491802915}}}, "icon": "https://maps.gstatic.com/mapfiles/place_api/icons/cafe-71.png", "id": "3096df136eb25772958d01fa6219e2375d9c9761", "name": "King's Row Coffee Kiosk", "opening_hours": {"open_now": true}, "photos": [{"height": 1068, "html_attributions": ["<a href=\"https://maps.google.com/maps/contrib/107713588925670801960/photos\">King&#39;s Row Coffee Kiosk</a>"], "photo_reference": "CmRaAAAAjRF-lcNvZHjF6TJaQErGvWaofvN9GXsY67i-9py83HCILXgsdNYjoaRZZ3Qh_9rD2waNqxzzxdJmLhLcG9Xbgpwwtc_sPG3SAl090atC8g5Y0GTpz2MDlQ0qHLk7lT5jEhAONcTL71aaNscUhp_RShFJGhTClbGhhKOvsDUQNxpd8RFb_ihPNQ", "width": 1535}], "place_id": "ChIJdcd7DfR544kRe2aLM2htLI8", "plus_code": {"compound_code": "8VVW+RX Boston, Massachusetts, United States", "global_code": "87JC8VVW+RX"}, "reference": "ChIJdcd7DfR544kRe2aLM2htLI8", "scope": "GOOGLE", "types": ["cafe", "store", "point_of_interest", "food", "establishment"], "vicinity": "401 Park Drive, Boston"}, "ChIJ_zGrdPR544kRX2IflJ1UavQ": {"geometry": {"location": {"lat": 42.3445515, "lng": -71.1025133}, "viewport": {"northeast": {"lat": 42.34568348029149, "lng": -71.10142016970849}, "southwest": {"lat": 42.3429855197085, "lng": -71.1041181302915}}}, "icon": "https://maps.gstatic.com/mapfiles/place_api/icons/generic_business-71.png", "id": "054b252cfd8385dee795204b37187d4dfc1d8d9f", "name": "Indigo Insurance Services", "place_id": "ChIJ_zGrdPR544kRX2IflJ1UavQ", "plus_code": {"compound_code": "8VVW+RX Boston, Massachusetts, United States", "global_code": "87JC8VVW+RX"}, "reference": "ChIJ_zGrdPR544kRX2IflJ1UavQ", "scope": "GOOGLE", "types": ["insurance_agency", "point_of_interest", "establishment"], "vicinity": "401 Park Drive, Boston"}, "ChIJ_zGrdPR544kR9zLGBGwzDwM": {"geometry": {"location": {"lat": 42.3443913, "lng": -71.1027139}, "viewport": {"northeast": {"lat": 42.34560553029149, "lng": -71.1015238197085}, "southwest": {"lat": 42.3429075697085, "lng": -71.10422178029151}}}, "icon": "https://maps.gstatic.com/mapfiles/place_api/icons/generic_business-71.png", "id": "e45e013fc375b8f2610cb8bcf5869756bef84515", "name": "Blue Benefit Administrators", "opening_hours": {"open_now": true}, "place_id": "ChIJ_zGrdPR544kR9zLGBGwzDwM", "plus_code": {"compound_code": "8VVW+QW Boston, Massachusetts, United States", "global_code": "87JC8VVW+QW"}, "reference": "ChIJ_zGrdPR544kR9zLGBGwzDwM", "scope": "GOOGLE", "types": ["health", "point_of_interest", "establishment"], "vicinity": "401 Park Drive, Boston"}, "ChIJ_zGrdPR544kRwtLUJyk8l68": {"geometry": {"location": {"lat": 42.3444979, "lng": -71.1029023}, "viewport": {"northeast": {"lat": 42.3457874302915, "lng": -71.10176041970848}, "southwest": {"lat": 42.3430894697085, "lng": -71.10445838029149}}}, "icon": "https://maps.gstatic.com/mapfiles/place_api/icons/generic_business-71.png", "id": "cf2f8220dfd79c77cb57eceb388188667a1ca80d", "name": "Walker William A MD", "place_id": "ChIJ_zGrdPR544kRwtLUJyk8l68", "plus_code": {"compound_code": "8VVW+QR Boston, Massachusetts, United States", "global_code": "87JC8VVW+QR"}, "reference": "ChIJ_zGrdPR544kRwtLUJyk8l68", "scope": "GOOGLE", "types": ["doctor", "health", "point_of_interest", "establishment"], "vicinity": "401 Park Drive, Boston"}, "ChIJD1pVc_R544kRp2mRy6KBsV0": {"geometry": {"location": {"lat": 42.3444979, "lng": -71.1029023}, "viewport": {"northeast": {"lat": 42.3457874302915, "lng": -71.10176041970848}, "southwest": {"lat": 42.3430894697085, "lng": -71.10445838029149}}}, "icon": "https://maps.gstatic.com/mapfiles/place_api/icons/generic_business-71.png", "id": "fdc07eff7d73cdbaeba1c6d8b5fe95d6f76d26b4", "name": "Greenhalgh Richard", "place_id": "ChIJD1pVc_R544kRp2mRy6KBsV0", "plus_code": {"compound_code": "8VVW+QR Boston, Massachusetts, United States", "global_code": "87JC8VVW+QR"}, "reference": "ChIJD1pVc_R544kRp2mRy6KBsV0", "scope": "GOOGLE", "types": ["insurance_agency", "point_of_interest", "establishment"], "vicinity": "401 Park Drive, Boston"}}