{"ChIJwYTQR4x544kRIjfruKp0u4k": {"geometry": {"location": {"lat": 42.3379079, "lng": -71.10546459999999}, "viewport": {"northeast": {"lat": 42.3392625302915, "lng": -71.1041110697085}, "southwest": {"lat": 42.3365645697085, "lng": -71.10680903029152}}}, "icon": "https://maps.gstatic.com/mapfiles/place_api/icons/geocode-71.png", "id": "da041020e6eedb40a6bdb125611beab5f7992e06", "name": "330-300 Longwood Ave", "place_id": "ChIJwYTQR4x544kRIjfruKp0u4k", "reference": "ChIJwYTQR4x544kRIjfruKp0u4k", "scope": "GOOGLE", "types": ["route"], "vicinity": "Boston"}, "ChIJ5T8NOox544kRaRzwEpkcYiU": {"geometry": {"location": {"lat": 42.3377916, "lng": -71.1056546}, "viewport": {"northeast": {"lat": 42.3392126802915, "lng": -71.10424526970849}, "southwest": {"lat": 42.3365147197085, "lng": -71.1069432302915}}}, "icon": "https://maps.gstatic.com/mapfiles/place_api/icons/generic_business-71.png", "id": "1d5c152201ba3aa1d278c45b8e150c6e720d8ce3", "name": "Bartley G. Cilento, Jr., MD, MPH", "photos": [{"height": 270, "html_attributions": ["<a href=\"https://maps.google.com/maps/contrib/103907263389469388405/photos\">Bartley G. Cilento, Jr., MD, MPH</a>"], "photo_reference": "CmRaAAAArYVyBwQk4sv70DQhqk8HETNnh7kWxkMvQzFxzKW5qJYFIk89gn5beDNgKfQtstWptIImtauU1Q4gy9sQaGaaJwstRKtWV_og_CbuXKgFM4fXRKxopv7QyatFJ8ybfcflEhAEGeHeMgU-pNdcyTB0iwy1GhTnPHOFurDqwuJLI7XsNJ-HF-gISQ", "width": 480}], "place_id": "ChIJ5T8NOox544kRaRzwEpkcYiU", "plus_code": {"compound_code": "8VQV+4P Boston, Massachusetts, United States", "global_code": "87JC8VQV+4P"}, "reference": "ChIJ5T8NOox544kRaRzwEpkcYiU", "scope": "GOOGLE", "types": ["hospital", "doctor", "health", "point_of_interest", "establishment"], "vicinity": "300 Longwood Avenue Boston Children's Hospital Department of Urology Fax: 617-730-0474, Boston"}, "ChIJ5T8NOox544kRUGywT9l08MY": {"geometry": {"location": {"lat": 42.3379734, "lng": -71.10586719999999}, "viewport": {"northeast": {"lat": 42.3393623302915, "lng": -71.1044743197085}, "southwest": {"lat": 42.3366643697085, "lng": -71.10717228029151}}}, "icon": "https://maps.gstatic.com/mapfiles/place_api/icons/school-71.png", "id": "90b3c3aa76dd46f826770c71f9d448729bcb5f94", "name": "Leonard Zon, MD", "photos": [{"height": 447, "html_attributions": ["<a href=\"https://maps.google.com/maps/contrib/114522603087956808437/photos\">Leonard Zon, MD</a>"], "photo_reference": "CmRaAAAAavuhOAaY9S_RpBmBKeo70B84bEMK20XxrK-Dn34Wzpf3YQAFB2pd124Wuqe5LfS1yQgD0eS92GpP_R9uf5CiB6hLbJnAG3peUISlJrHPxOhxAhQU9t0KkYPOQtYol-gYEhB5LVsPM7gthLeSF93RdUCgGhRfGUTOM17ybIjxHicoIJmW52Grqw", "width": 445}], "place_id": "ChIJ5T8NOox544kRUGywT9l08MY", "plus_code": {"compound_code": "8VQV+5M Boston, Massachusetts, United States", "global_code": "87JC8VQV+5M"}, "reference": "ChIJ5T8NOox544kRUGywT9l08MY", "scope": "GOOGLE", "types": ["university", "doctor", "health", "point_of_interest", "establishment"], "vicinity": "320, Enders Building, Longwood Avenue, Boston"}, "ChIJB08w5I1544kRZZH8PiChgGo": {"geometry": {"location": {"lat": 42.3380818, "lng": -71.10574869999999}, "viewport": {"northeast": {"lat": 42.33942693029149, "lng": -71.10440396970849}, "southwest": {"lat": 42.3367289697085, "lng": -71.10710193029149}}}, "icon": "https://maps.gstatic.com/mapfiles/place_api/icons/generic_business-71.png", "id": "4e7fdaef586e1d4e95b7c6a7a1ef987551efae82", "name": "Sarah A. Pitts, MD", "photos": [{"height": 523, "html_attributions": ["<a href=\"https://maps.google.com/maps/contrib/112010214778402788189/photos\">Sarah A. Pitts, MD</a>"], "photo_reference": "CmRaAAAAtQDXs3btBi_xM_hrSctJkhX1nm1mkaUQRGgHNNHsj3y6a00sg6UoPF0fbkR6b2NUkOqE8oIElIjTIZbjA-A8XepowNx9wU2eEfndNNWwJwnHo8E2SsTnN97URsrB2cnCEhDOU08U_ShDEnoaNhpnsoPaGhRhOfy_J38KC89YNGL-ugHIgjQ3uA", "width": 930}], "place_id": "ChIJB08w5I1544kRZZH8PiChgGo", "plus_code": {"compound_code": "8VQV+6P Boston, Massachusetts, United States", "global_code": "87JC8VQV+6P"}, "reference": "ChIJB08w5I1544kRZZH8PiChgGo", "scope": "GOOGLE", "types": ["doctor", "health", "point_of_interest", "establishment"], "vicinity": "333 Longwood Avenue Boston Children's Hospital Division of Adolescent Medicine, Boston"}, "ChIJvdyQWox544kRX8tB2umfoGw": {"geometry": {"location": {"lat": 42.3379761, "lng": -71.1054826}, "viewport": {"northeast": {"lat": 42.3393057302915, "lng": -71.1041479197085}, "southwest": {"lat": 42.3366077697085, "lng": -71.1068458802915}}}, "icon": "https://maps.gstatic.com/mapfiles/place_api/icons/generic_business-71.png", "id": "9dff8ef33c85839e01d29f0678ddaad9b7d0427e", "name": "Division of Adolescent Medicine", "opening_hours": {"open_now": true}, "photos": [{"height": 523, "html_attributions": ["<a href=\"https://maps.google.com/maps/contrib/112510654924896904333/photos\">Division of Adolescent Medicine</a>"], "photo_reference": "CmRaAAAAnAHw90UB8VgpRPYBWQxiBzKrFlhv-Rqvvrib98Tuwht4bb7UWmYJkymTXanqW8lFY-qA2xxIGlicFu9I13zlqv1M-gkrGrSD4JuswCYgWUzVsLblsjvB7FTjWUVGx_uMEhAAwfx3zyK5iWU7L_RbDVaCGhTSDgwwCCPejfJVx19qPl6ZruHtYg", "width": 930}], "place_id": "ChIJvdyQWox544kRX8tB2umfoGw", "plus_code": {"compound_code": "8VQV+5R Boston, Massachusetts, United States", "global_code": "87JC8VQV+5R"}, "rating": 5, "reference": "ChIJvdyQWox544kRX8tB2umfoGw", "scope": "GOOGLE", "types": ["doctor", "health", "point_of_interest", "establishment"], "user_ratings_total": 1, "vicinity": "333 Longwood Avenue, 5th Floor Boston Children's Hospital Fax: 617-355-7181, Boston"}, "ChIJ5Yd3Nox544kRRLyqF57aYZI": {"geometry": {"location": {"lat": 42.3377603, "lng": -71.1058499}, "viewport": {"northeast": {"lat": 42.3390190302915, "lng": -71.10448316970849}, "southwest": {"lat": 42.3363210697085, "lng": -71.10718113029151}}}, "icon": "https://maps.gstatic.com/mapfiles/place_api/icons/school-71.png", "id": "9b3f385188bd4a00e2575e900bcfe1d5fd0fcb8c", "name": "HDDC", "place_id": "ChIJ5Yd3Nox544kRRLyqF57aYZI", "plus_code": {"compound_code": "8VQV+4M Boston, Massachusetts, United States", "global_code": "87JC8VQV+4M"}, "reference": "ChIJ5Yd3Nox544kRRLyqF57aYZI", "scope": "GOOGLE", "types": ["point_of_interest", "establishment"], "vicinity": "320 Longwood Avenue, Boston"}, "ChIJ-VUkSox544kRyibbD2-RDLM": {"geometry": {"location": {"lat": 42.33797999999999, "lng": -71.10589350000001}, "viewport": {"northeast": {"lat": 42.33937168029149, "lng": -71.10449756970849}, "southwest": {"lat": 42.33667371970849, "lng": -71.10719553029149}}}, "icon": "https://maps.gstatic.com/mapfiles/place_api/icons/generic_business-71.png", "id": "6badc7dfa2ccdb4a0daa12496359c1316c0123da", "name": "John E. Enders Pediatric Research Laboratories", "place_id": "ChIJ-VUkSox544kRyibbD2-RDLM", "plus_code": {"compound_code": "8VQV+5J Boston, Massachusetts, United States", "global_code": "87JC8VQV+5J"}, "reference": "ChIJ-VUkSox544kRyibbD2-RDLM", "scope": "GOOGLE", "types": ["point_of_interest", "establishment"], "vicinity": "320 Longwood Avenue, Boston"}, "ChIJ4y7aR4x544kRaM050DgAO5E": {"geometry": {"location": {"lat": 42.33790929999999, "lng": -71.10546219999999}, "viewport": {"northeast": {"lat": 42.3392841302915, "lng": -71.10409421970849}, "southwest": {"lat": 42.3365861697085, "lng": -71.1067921802915}}}, "icon": "https://maps.gstatic.com/mapfiles/place_api/icons/shopping-71.png", "id": "1abef60a050a750b2c09f8a5d7542c4a50762596", "name": "Longwood Ave. @ The Longwood Galleria", "place_id": "ChIJ4y7aR4x544kRaM050DgAO5E", "plus_code": {"compound_code": "8VQV+5R Boston, Massachusetts, United States", "global_code": "87JC8VQV+5R"}, "rating": 3.5, "reference": "ChIJ4y7aR4x544kRaM050DgAO5E", "scope": "GOOGLE", "types": ["shopping_mall", "point_of_interest", "establishment"], "user_ratings_total": 4, "vicinity": "Longwood Avenue, Boston"}, "ChIJfawASIx544kRDEVHpLyHjTA": {"geometry": {"location": {"lat": 42.33783859999999, "lng": -71.1059027}, "viewport": {"northeast": {"lat": 42.3392838802915, "lng": -71.10447111970849}, "southwest": {"lat": 42.3365859197085, "lng": -71.10716908029151}}}, "icon": "https://maps.gstatic.com/mapfiles/place_api/icons/generic_business-71.png", "id": "6c3497c5ae0eb0f70e25cb09348745e137c952bd", "name": "Oren Ganor, MD", "photos": [{"height": 3018, "html_attributions": ["<a href=\"https://maps.google.com/maps/contrib/109216322051866826199/photos\">Oren Ganor, MD</a>"], "photo_reference": "CmRaAAAA5pHqenG_fraOFfi9hmMu_pqM3Vmf62JQXVeOHVNaBwffKa2EztwN2nkhD5jKlkisyRJMsyQBIJlkOalVMQQddaMkM05Htm0XaD4LRj2tRx_9VXb_YuofZSEMCKIS3_w5EhCrHh4MixVvhTDcBAzqid6LGhSuRKqVD2zlXhb96Luci9D_pIa1iw", "width": 3016}], "place_id": "ChIJfawASIx544kRDEVHpLyHjTA", "plus_code": {"compound_code": "8VQV+4J Boston, Massachusetts, United States", "global_code": "87JC8VQV+4J"}, "rating": 4.5, "reference": "ChIJfawASIx544kRDEVHpLyHjTA", "scope": "GOOGLE", "types": ["doctor", "health", "point_of_interest", "establishment"], "user_ratings_total": 4, "vicinity": "300 Longwood Ave, Enders 1st floor, Boston"}, "ChIJGzE9DS1l44kRoOhiASS_fHg": {"geometry": {"location": {"lat": 42.3600825, "lng": -71.0588801}, "viewport": {"northeast": {"lat": 42.40081989999999, "lng": -70.749455}, "southwest": {"lat": 42.22788, "lng": -71.191113}}}, "icon": "https://maps.gstatic.com/mapfiles/place_api/icons/geocode-71.png", "id": "06755c25d2b34d13942a4713971756a55b870ced", "name": "Boston", "photos": [{"height": 3024, "html_attributions": ["<a href=\"https://maps.google.com/maps/contrib/104670289779338733432/photos\">Natalia Zalucean</a>"], "photo_reference": "CmRaAAAAROBMchSwEnlSh3Q2tMn5dKuVnso8ZBXQfktEOG7ZzYcAayefHNK4nxuP1Vnu1rd0yGDcSw1QEhOA3ZBzhGxU9Ni74mLG-NJQuFBf9Pl-1pDJj6UpF23S9yYdgqub5P-0EhBJpmcLBkQHXDtoa-UgDLdBGhRdNg9FFc7rg10OySKVb9TogF-ylg", "width": 4032}], "place_id": "ChIJGzE9DS1l44kRoOhiASS_fHg", "reference": "ChIJGzE9DS1l44kRoOhiASS_fHg", "scope": "GOOGLE", "types": ["locality", "political"], "vicinity": "Boston"}}