{"ChIJOcwMnAt644kRQKJciH6b2wE": {"geometry": {"location": {"lat": 42.3515677, "lng": -71.07685}, "viewport": {"northeast": {"lat": 42.35291668029149, "lng": -71.0747186}, "southwest": {"lat": 42.3502187197085, "lng": -71.07898139999999}}}, "icon": "https://maps.gstatic.com/mapfiles/place_api/icons/geocode-71.png", "id": "29241973ea0dc003cf7bf674fe16f85c2981ad22", "name": "118-148 Public Alley 435", "place_id": "ChIJOcwMnAt644kRQKJciH6b2wE", "reference": "ChIJOcwMnAt644kRQKJciH6b2wE", "scope": "GOOGLE", "types": ["route"], "vicinity": "Boston"}, "ChIJ-56rCwt644kRiajD7QXEXIg": {"geometry": {"location": {"lat": 42.35190679999999, "lng": -71.0762403}, "viewport": {"northeast": {"lat": 42.35339323029149, "lng": -71.07495956970848}, "southwest": {"lat": 42.35069526970849, "lng": -71.07765753029149}}}, "icon": "https://maps.gstatic.com/mapfiles/place_api/icons/generic_business-71.png", "id": "ab80f7a2981b52945f961e23621cc37483a6604e", "name": "First Baptist Church of Boston", "photos": [{"height": 607, "html_attributions": ["<a href=\"https://maps.google.com/maps/contrib/113240986615492513717/photos\">First Baptist Church of Boston</a>"], "photo_reference": "CmRaAAAAfABOOcon3AZen5Gf1fKeHBXa2nlj8TLnR6e4WEKzNjnNKU96ILLVYL2lUlNKiUpVoJ2jQGME-ZLYJP9dy9ZfIgVx6-NtJtGW5EGgzcCfpwJzbJQhndo0jN3VFHtXoterEhBkB8Bw-OKroSiUk5dfgv1lGhS-uXxWuX0J5-0fDwfclOAZB5hBPQ", "width": 1080}], "place_id": "ChIJ-56rCwt644kRiajD7QXEXIg", "plus_code": {"compound_code": "9W2F+QG Boston, Massachusetts, United States", "global_code": "87JC9W2F+QG"}, "rating": 4.6, "reference": "ChIJ-56rCwt644kRiajD7QXEXIg", "scope": "GOOGLE", "types": ["place_of_worship", "church", "point_of_interest", "establishment"], "user_ratings_total": 8, "vicinity": "110 Commonwealth Avenue, Boston"}, "ChIJGzE9DS1l44kRoOhiASS_fHg": {"geometry": {"location": {"lat": 42.3600825, "lng": -71.0588801}, "viewport": {"northeast": {"lat": 42.40081989999999, "lng": -70.749455}, "southwest": {"lat": 42.22788, "lng": -71.191113}}}, "icon": "https://maps.gstatic.com/mapfiles/place_api/icons/geocode-71.png", "id": "06755c25d2b34d13942a4713971756a55b870ced", "name": "Boston", "photos": [{"height": 3024, "html_attributions": ["<a href=\"https://maps.google.com/maps/contrib/104670289779338733432/photos\">Natalia Zalucean</a>"], "photo_reference": "CmRaAAAAAxigQWxDUTnyTQpZdKdwxN7U4bw8OUDtPNAL3vB7VCwmXOYj41zrnzwQGgA4rrbPNYKRxZ6-V122POauGdZtu1sEdDNA9SDEQROpWKuLFEQ92nIN9W3uXulu7lCXX27cEhDEjYUajXDuvLH9vK2-C6QLGhQSFCj4RcdP9G07d_fBVCtD8tMk4g", "width": 4032}], "place_id": "ChIJGzE9DS1l44kRoOhiASS_fHg", "reference": "ChIJGzE9DS1l44kRoOhiASS_fHg", "scope": "GOOGLE", "types": ["locality", "political"], "vicinity": "Boston"}}