{"ChIJTd_jVml644kR4ykpX8X_Sac": {"geometry": {"location": {"lat": 42.3391894, "lng": -71.0673499}, "viewport": {"northeast": {"lat": 42.34060420000004, "lng": -71.0656453}, "southwest": {"lat": 42.33777459999996, "lng": -71.06905450000001}}}, "icon": "https://maps.gstatic.com/mapfiles/place_api/icons/geocode-71.png", "id": "b32e200f728f71b636bffc349a5d87c9dff2287b", "name": "13-99 Wareham St", "place_id": "ChIJTd_jVml644kR4ykpX8X_Sac", "reference": "ChIJTd_jVml644kR4ykpX8X_Sac", "scope": "GOOGLE", "types": ["route"], "vicinity": "Boston"}, "ChIJbT7jwEZ644kRr6NSvZApI30": {"geometry": {"location": {"lat": 42.33862949999999, "lng": -71.0665178}, "viewport": {"northeast": {"lat": 42.33993708029149, "lng": -71.0651140197085}, "southwest": {"lat": 42.33723911970849, "lng": -71.06781198029151}}}, "icon": "https://maps.gstatic.com/mapfiles/place_api/icons/shopping-71.png", "id": "56f48892b69aff1fcc2e862717aef4f09fb50c79", "name": "Ecologic Entomology LLC", "opening_hours": {"open_now": false}, "photos": [{"height": 1536, "html_attributions": ["<a href=\"https://maps.google.com/maps/contrib/113249747421263413569/photos\">Ecologic Entomology LLC</a>"], "photo_reference": "CmRaAAAANOPFQXWbnH8ufDwn6iB85dIemxmy4hAz0jcBqxaLy6osNO_nKcKg2UwsAeqpEsTY6YKUUecDQ6Xypc9ZS0xx5qOG9EIpfyjfcNHQSrIen1ZSw0YigmFuxE0tYU1JTzEhEhB337f4pxIHRRGjBjg2WnKeGhTsx5mgEBG_1ybQuxOQOklk1cZwhQ", "width": 2048}], "place_id": "ChIJbT7jwEZ644kRr6NSvZApI30", "plus_code": {"compound_code": "8WQM+F9 Boston, Massachusetts, United States", "global_code": "87JC8WQM+F9"}, "rating": 4.6, "reference": "ChIJbT7jwEZ644kRr6NSvZApI30", "scope": "GOOGLE", "types": ["home_goods_store", "store", "point_of_interest", "establishment"], "user_ratings_total": 5, "vicinity": "527 Albany Street, Boston"}, "ChIJreT1RGl644kR75mcPGk_nFY": {"geometry": {"location": {"lat": 42.33871610000001, "lng": -71.0666318}, "viewport": {"northeast": {"lat": 42.3400379302915, "lng": -71.06532406970848}, "southwest": {"lat": 42.3373399697085, "lng": -71.0680220302915}}}, "icon": "https://maps.gstatic.com/mapfiles/place_api/icons/generic_business-71.png", "id": "0bc5f79cb9056a869cb01a3c6445ae22614472f9", "name": "Tactical-Moves Inc", "opening_hours": {"open_now": true}, "photos": [{"height": 562, "html_attributions": ["<a href=\"https://maps.google.com/maps/contrib/116870581330540185012/photos\">Tactical-Moves Inc</a>"], "photo_reference": "CmRaAAAAab-ihk-hSuwlMHtFnRK1cuCkK-JShwg49i8LzbrC_wpymJacga8rX4583EnwQRJSIA6uBm2RpRD14TGiUo67TqGfv69mDUOa-2-fEsFIr6sTll-JjlRGvwhC5XTBKhV2EhBjqiseesLnmEzFeL-qXJEDGhSrjS_YFf7Lpq7Y8EqNoDrWBM6PlQ", "width": 1000}], "place_id": "ChIJreT1RGl644kR75mcPGk_nFY", "plus_code": {"compound_code": "8WQM+F8 Boston, Massachusetts, United States", "global_code": "87JC8WQM+F8"}, "rating": 5, "reference": "ChIJreT1RGl644kR75mcPGk_nFY", "scope": "GOOGLE", "types": ["point_of_interest", "establishment"], "user_ratings_total": 17, "vicinity": "90 Wareham Street, Boston"}, "ChIJu7ZaRGl644kRuQ-gmkxktGY": {"geometry": {"location": {"lat": 42.33871610000001, "lng": -71.0666317}, "viewport": {"northeast": {"lat": 42.3400379302915, "lng": -71.06532396970849}, "southwest": {"lat": 42.3373399697085, "lng": -71.0680219302915}}}, "icon": "https://maps.gstatic.com/mapfiles/place_api/icons/generic_business-71.png", "id": "e5e9d56c221da00b6bd83d7e052020fa7399ae02", "name": "LedgePoint", "place_id": "ChIJu7ZaRGl644kRuQ-gmkxktGY", "plus_code": {"compound_code": "8WQM+F8 Boston, Massachusetts, United States", "global_code": "87JC8WQM+F8"}, "reference": "ChIJu7ZaRGl644kRuQ-gmkxktGY", "scope": "GOOGLE", "types": ["point_of_interest", "establishment"], "vicinity": "90 Wareham Street, Boston"}, "ChIJubZaRGl644kRpH9QqEJBDy0": {"geometry": {"location": {"lat": 42.33871610000001, "lng": -71.0666318}, "viewport": {"northeast": {"lat": 42.3400379302915, "lng": -71.06532406970848}, "southwest": {"lat": 42.3373399697085, "lng": -71.0680220302915}}}, "icon": "https://maps.gstatic.com/mapfiles/place_api/icons/generic_business-71.png", "id": "7f6a75b9511d3e0870fea578f032bf155d05dd37", "name": "The 1850 Lofts", "photos": [{"height": 545, "html_attributions": ["<a href=\"https://maps.google.com/maps/contrib/110417044691073598182/photos\">Highrise Condos</a>"], "photo_reference": "CmRaAAAABYqH-GgScPiED7-oo7i-ikh0P_GyNb5URoYDdr7KngqBLTFBuOALfs41SwlbOH4rnJR-hrb28k-KxB7pTlLjuzH1wmaGDOK9skplEJoABly4kAO2gUFxZ277R_9l-zbnEhCb0bVxPyEXdR1PqPTJDgtKGhS-FO3AmqGZ-wZ743y-8X5RZJ2mKQ", "width": 800}], "place_id": "ChIJubZaRGl644kRpH9QqEJBDy0", "plus_code": {"compound_code": "8WQM+F8 Boston, Massachusetts, United States", "global_code": "87JC8WQM+F8"}, "rating": 4.8, "reference": "ChIJubZaRGl644kRpH9QqEJBDy0", "scope": "GOOGLE", "types": ["point_of_interest", "establishment"], "user_ratings_total": 4, "vicinity": "90 Wareham Street, Boston"}, "ChIJpS60CuyBt4cRwkd4AnKP_7Y": {"geometry": {"location": {"lat": 42.33871610000001, "lng": -71.0666318}, "viewport": {"northeast": {"lat": 42.3400379302915, "lng": -71.06532406970848}, "southwest": {"lat": 42.3373399697085, "lng": -71.0680220302915}}}, "icon": "https://maps.gstatic.com/mapfiles/place_api/icons/generic_business-71.png", "id": "0c5702e62a49b3342cae62ad614d7a9d25e9be7e", "name": "Affordable Websites", "place_id": "ChIJpS60CuyBt4cRwkd4AnKP_7Y", "plus_code": {"compound_code": "8WQM+F8 Boston, Massachusetts, United States", "global_code": "87JC8WQM+F8"}, "reference": "ChIJpS60CuyBt4cRwkd4AnKP_7Y", "scope": "GOOGLE", "types": ["point_of_interest", "establishment"], "vicinity": "90 Wareham Street, Boston"}, "ChIJubZaRGl644kROVCcHMFJtts": {"geometry": {"location": {"lat": 42.338708, "lng": -71.066679}, "viewport": {"northeast": {"lat": 42.3400445302915, "lng": -71.06534886970849}, "southwest": {"lat": 42.3373465697085, "lng": -71.0680468302915}}}, "icon": "https://maps.gstatic.com/mapfiles/place_api/icons/generic_business-71.png", "id": "eca6f02aab39dc7a68b57c730d06e902107768cd", "name": "Contractor Arena", "place_id": "ChIJubZaRGl644kROVCcHMFJtts", "plus_code": {"compound_code": "8WQM+F8 Boston, Massachusetts, United States", "global_code": "87JC8WQM+F8"}, "reference": "ChIJubZaRGl644kROVCcHMFJtts", "scope": "GOOGLE", "types": ["point_of_interest", "establishment"], "vicinity": "90 Wareham Street, Boston"}, "ChIJkWlmSGl644kRpFdPdakfMm8": {"geometry": {"location": {"lat": 42.338824, "lng": -71.06643199999999}, "viewport": {"northeast": {"lat": 42.3400977302915, "lng": -71.0649834197085}, "southwest": {"lat": 42.3373997697085, "lng": -71.0676813802915}}}, "icon": "https://maps.gstatic.com/mapfiles/place_api/icons/shopping-71.png", "id": "c7edc262bc131c0d6ddad9f0c7c72b23cd07198c", "name": "boston bed bug authority", "place_id": "ChIJkWlmSGl644kRpFdPdakfMm8", "plus_code": {"compound_code": "8WQM+GC Boston, Massachusetts, United States", "global_code": "87JC8WQM+GC"}, "reference": "ChIJkWlmSGl644kRpFdPdakfMm8", "scope": "GOOGLE", "types": ["home_goods_store", "store", "point_of_interest", "establishment"], "vicinity": "527 Albany Street, Boston"}, "ChIJWw9bQ2l644kRKTZCL_CRisw": {"geometry": {"location": {"lat": 42.33860809999999, "lng": -71.06680109999999}, "viewport": {"northeast": {"lat": 42.33986873029149, "lng": -71.06533536970849}, "southwest": {"lat": 42.33717076970849, "lng": -71.0680333302915}}}, "icon": "https://maps.gstatic.com/mapfiles/place_api/icons/generic_business-71.png", "id": "21b99247be11a3bafa5f3591f43924ab91fb6c14", "name": "Nerraw Advertising", "opening_hours": {"open_now": false}, "place_id": "ChIJWw9bQ2l644kRKTZCL_CRisw", "plus_code": {"compound_code": "8WQM+C7 Boston, Massachusetts, United States", "global_code": "87JC8WQM+C7"}, "reference": "ChIJWw9bQ2l644kRKTZCL_CRisw", "scope": "GOOGLE", "types": ["point_of_interest", "establishment"], "vicinity": "535 Albany Street, Boston"}, "ChIJGzE9DS1l44kRoOhiASS_fHg": {"geometry": {"location": {"lat": 42.3600825, "lng": -71.0588801}, "viewport": {"northeast": {"lat": 42.40081989999999, "lng": -70.749455}, "southwest": {"lat": 42.22788, "lng": -71.191113}}}, "icon": "https://maps.gstatic.com/mapfiles/place_api/icons/geocode-71.png", "id": "06755c25d2b34d13942a4713971756a55b870ced", "name": "Boston", "photos": [{"height": 3024, "html_attributions": ["<a href=\"https://maps.google.com/maps/contrib/104670289779338733432/photos\">Natalia Zalucean</a>"], "photo_reference": "CmRaAAAAJF3WYk8KvTZzOQR_FgiWi9GUsY2imFxttF0FFfGau5pvhYnuzX2aEWkTl2IuEG9JTrHU-kjYv201hnnaV51U0_NbihF63ztQC9W-lo7JpLfnMMvajq_6dFlmgZtAwQ9iEhDLr7GQpiq10ytAuK_J8qEnGhSZNzlj7n8RIYFtQ9jHLy40a1Blxw", "width": 4032}], "place_id": "ChIJGzE9DS1l44kRoOhiASS_fHg", "reference": "ChIJGzE9DS1l44kRoOhiASS_fHg", "scope": "GOOGLE", "types": ["locality", "political"], "vicinity": "Boston"}}