{"ChIJWyqL5Yt544kRMc24yA5uCDQ": {"geometry": {"location": {"lat": 42.33666830000001, "lng": -71.1022574}, "viewport": {"northeast": {"lat": 42.3380172302915, "lng": -71.1009084697085}, "southwest": {"lat": 42.3353192697085, "lng": -71.1036064302915}}}, "icon": "https://maps.gstatic.com/mapfiles/place_api/icons/geocode-71.png", "id": "dee63e924c6d1d0428bd4b949f3753bc1a17aafc", "name": "196-192 Longwood Ave", "place_id": "ChIJWyqL5Yt544kRMc24yA5uCDQ", "reference": "ChIJWyqL5Yt544kRMc24yA5uCDQ", "scope": "GOOGLE", "types": ["route"], "vicinity": "Boston"}, "ChIJ9zj27It544kRDIRDQFCJ308": {"geometry": {"location": {"lat": 42.3368176, "lng": -71.1024807}, "viewport": {"northeast": {"lat": 42.33814383029149, "lng": -71.10114716970848}, "southwest": {"lat": 42.33544586970849, "lng": -71.10384513029149}}}, "icon": "https://maps.gstatic.com/mapfiles/place_api/icons/generic_business-71.png", "id": "ee543ad210e0452a726aeb2558497f5b63d37853", "name": "Clinical Immunology Laboratory", "place_id": "ChIJ9zj27It544kRDIRDQFCJ308", "plus_code": {"compound_code": "8VPX+P2 Boston, Massachusetts, United States", "global_code": "87JC8VPX+P2"}, "reference": "ChIJ9zj27It544kRDIRDQFCJ308", "scope": "GOOGLE", "types": ["health", "point_of_interest", "establishment"], "vicinity": "221 Longwood Avenue, Boston"}, "ChIJGzE9DS1l44kRoOhiASS_fHg": {"geometry": {"location": {"lat": 42.3600825, "lng": -71.0588801}, "viewport": {"northeast": {"lat": 42.40081989999999, "lng": -70.749455}, "southwest": {"lat": 42.22788, "lng": -71.191113}}}, "icon": "https://maps.gstatic.com/mapfiles/place_api/icons/geocode-71.png", "id": "06755c25d2b34d13942a4713971756a55b870ced", "name": "Boston", "photos": [{"height": 3024, "html_attributions": ["<a href=\"https://maps.google.com/maps/contrib/104670289779338733432/photos\">Natalia Zalucean</a>"], "photo_reference": "CmRaAAAAw_NgV6qPPaK8KNoA5c9641ffAAZ8Oj0jCV5SvJmjw4z0N4k5OxMO_GTyB49QORmzef4R5qN45TKN8PoIkH4xZzlC9-dsVPpufXVd_4BGVs6bEx61oA_eX6LA73buPdAYEhB6g4Hurc4acpltLZ8-39x9GhR0Ffaa6nvms8Amywdz46kGqQgWBg", "width": 4032}], "place_id": "ChIJGzE9DS1l44kRoOhiASS_fHg", "reference": "ChIJGzE9DS1l44kRoOhiASS_fHg", "scope": "GOOGLE", "types": ["locality", "political"], "vicinity": "Boston"}}