{"ChIJGzE9DS1l44kRoOhiASS_fHg": {"geometry": {"location": {"lat": 42.3600825, "lng": -71.0588801}, "viewport": {"northeast": {"lat": 42.40081989999999, "lng": -70.749455}, "southwest": {"lat": 42.22788, "lng": -71.191113}}}, "icon": "https://maps.gstatic.com/mapfiles/place_api/icons/geocode-71.png", "id": "06755c25d2b34d13942a4713971756a55b870ced", "name": "Boston", "photos": [{"height": 3024, "html_attributions": ["<a href=\"https://maps.google.com/maps/contrib/104670289779338733432/photos\">Natalia Zalucean</a>"], "photo_reference": "CmRaAAAAjKf9cMfXGNK3kDO8kYd0d2z2_VMfuv0pqf9nnevv1YW2OyjGWWcd--M_b-XmDnWGrm-I9nGFo3gU2Ntk3PkLQ6HO-k53iZ7N43rnrB1PQYb729uf9OdS2_eErkLtZRV9EhD9VubJMRQiDh0x05sjH4OYGhRBJUspLQryK___NKdX2pd6r3TgOA", "width": 4032}], "place_id": "ChIJGzE9DS1l44kRoOhiASS_fHg", "reference": "ChIJGzE9DS1l44kRoOhiASS_fHg", "scope": "GOOGLE", "types": ["locality", "political"], "vicinity": "Boston"}, "ChIJJy8l-oFw44kRfQXB8UXfIKY": {"geometry": {"location": {"lat": 42.3519246, "lng": -71.0550717}, "viewport": {"northeast": {"lat": 42.3537217302915, "lng": -71.05406526970849}, "southwest": {"lat": 42.3510237697085, "lng": -71.05676323029151}}}, "icon": "https://maps.gstatic.com/mapfiles/place_api/icons/generic_business-71.png", "id": "f0e62bf523ad7f63124b03ff6c14b99761629c4f", "name": "Bus Terminal - South Station", "photos": [{"height": 2112, "html_attributions": ["<a href=\"https://maps.google.com/maps/contrib/103533919706279161327/photos\">Kordian Witek</a>"], "photo_reference": "CmRaAAAA0OqKzE1LqtkrfGW0JdIwT68h4Wxuc60at0poy26gbZPuOaImczmBsA8H4DRbCukFL7-hThy0ZX1ePb5jnkcdz4LTyqOhngSChptr2oxZKkQ0TygErJChmU4AB7px1AZ6EhCkbVC5Ih0vNJow453nz9vrGhSQ3v1rpw4kt_j8t0Ja6ncfCq2yAg", "width": 2816}], "place_id": "ChIJJy8l-oFw44kRfQXB8UXfIKY", "plus_code": {"compound_code": "9W2V+QX Boston, Massachusetts, United States", "global_code": "87JC9W2V+QX"}, "rating": 4.2, "reference": "ChIJJy8l-oFw44kRfQXB8UXfIKY", "scope": "GOOGLE", "types": ["transit_station", "train_station", "bus_station", "subway_station", "point_of_interest", "establishment"], "user_ratings_total": 391, "vicinity": "700 Atlantic Avenue #2, Boston"}, "ChIJt_egCoJw44kRYEIobrG0VYM": {"geometry": {"location": {"lat": 42.3518427, "lng": -71.0550013}, "viewport": {"northeast": {"lat": 42.3532974302915, "lng": -71.0532751697085}, "southwest": {"lat": 42.35059946970851, "lng": -71.0559731302915}}}, "icon": "https://maps.gstatic.com/mapfiles/place_api/icons/generic_business-71.png", "id": "e84bde59c4e72f52da4e420b2634d38f6da808bf", "name": "General Shoe Repair Store", "opening_hours": {"open_now": true}, "place_id": "ChIJt_egCoJw44kRYEIobrG0VYM", "plus_code": {"compound_code": "9W2V+PX Boston, Massachusetts, United States", "global_code": "87JC9W2V+PX"}, "rating": 1, "reference": "ChIJt_egCoJw44kRYEIobrG0VYM", "scope": "GOOGLE", "types": ["point_of_interest", "establishment"], "user_ratings_total": 1, "vicinity": "2 South Sta # 23, Boston"}, "ChIJe645PYNw44kRoRr8XiXajtA": {"geometry": {"location": {"lat": 42.3519036, "lng": -71.0551078}, "viewport": {"northeast": {"lat": 42.3533150802915, "lng": -71.0533368197085}, "southwest": {"lat": 42.3506171197085, "lng": -71.05603478029151}}}, "icon": "https://maps.gstatic.com/mapfiles/place_api/icons/restaurant-71.png", "id": "d388ebacdeb01b3aa9aa79251b50396ff11b756d", "name": "McDonald's", "opening_hours": {"open_now": true}, "photos": [{"height": 768, "html_attributions": ["<a href=\"https://maps.google.com/maps/contrib/117201291069496221774/photos\">McDonald&#39;s</a>"], "photo_reference": "CmRaAAAAQvC8m-V0aHFwTBHvx-RpzVKIx2YTMZPFQW3LdJvZ-KNslxylif2LwKQMko6TWIzBZMrICPFU92B_iw9Ht7Ww54rVmhyJbOkH3983MmYMJR1AFwsxyUFpH2DeEoTpoapTEhAjrdf04HZuzfcKob_6IMXRGhTzQ1JYpU7vQnv1krnqHUg96lvNMg", "width": 1025}], "place_id": "ChIJe645PYNw44kRoRr8XiXajtA", "plus_code": {"compound_code": "9W2V+QX Boston, Massachusetts, United States", "global_code": "87JC9W2V+QX"}, "price_level": 1, "rating": 2.7, "reference": "ChIJe645PYNw44kRoRr8XiXajtA", "scope": "GOOGLE", "types": ["cafe", "store", "restaurant", "point_of_interest", "food", "establishment"], "user_ratings_total": 134, "vicinity": "2 S Station, Boston"}, "ChIJt3hH9qVw44kR7nCINEcYMxM": {"geometry": {"location": {"lat": 42.351854, "lng": -71.0551404}, "viewport": {"northeast": {"lat": 42.3533030802915, "lng": -71.0533447197085}, "southwest": {"lat": 42.3506051197085, "lng": -71.05604268029151}}}, "icon": "https://maps.gstatic.com/mapfiles/place_api/icons/generic_business-71.png", "id": "31864eb4c20e26a19585d0379f63be3f2b7c73bb", "name": "Rakuten USA", "place_id": "ChIJt3hH9qVw44kR7nCINEcYMxM", "plus_code": {"compound_code": "9W2V+PW Boston, Massachusetts, United States", "global_code": "87JC9W2V+PW"}, "rating": 1, "reference": "ChIJt3hH9qVw44kR7nCINEcYMxM", "scope": "GOOGLE", "types": ["point_of_interest", "establishment"], "user_ratings_total": 1, "vicinity": "700 Atlantic Avenue, Boston"}, "ChIJrSfS4oFw44kRUeouxd2Ezb0": {"geometry": {"location": {"lat": 42.3518786, "lng": -71.0549542}, "viewport": {"northeast": {"lat": 42.3533150802915, "lng": -71.0532516197085}, "southwest": {"lat": 42.3506171197085, "lng": -71.05594958029151}}}, "icon": "https://maps.gstatic.com/mapfiles/place_api/icons/cafe-71.png", "id": "5488d6b66e67280a26db72b98d62623ab643a715", "name": "Dunkin' Donuts", "opening_hours": {"open_now": true}, "photos": [{"height": 3024, "html_attributions": ["<a href=\"https://maps.google.com/maps/contrib/103329981615310456833/photos\">Gia B\u00ecnh</a>"], "photo_reference": "CmRaAAAAMZjTDroGYNtAELrSPvRdyDpaiwVBkR71hTk5FJrS19qN4bGaTR64rQU6FCpXsfjPpUsFER0J_fJz5FNVhx0sexeI31gOmzYRjJy1LCclaCN5oLkcCxSErh7GmFnd2z-EEhAnIfdVyBQdMTUG9R4esF5xGhRPgVV_6LnlsjTCi0aCqsCBAO47rQ", "width": 4032}], "place_id": "ChIJrSfS4oFw44kRUeouxd2Ezb0", "plus_code": {"compound_code": "9W2W+Q2 Boston, Massachusetts, United States", "global_code": "87JC9W2W+Q2"}, "price_level": 1, "rating": 3.5, "reference": "ChIJrSfS4oFw44kRUeouxd2Ezb0", "scope": "GOOGLE", "types": ["cafe", "store", "point_of_interest", "food", "establishment"], "user_ratings_total": 10, "vicinity": "1, South Station Connector, Boston"}, "ChIJySxu94Fw44kRwi0GIvie498": {"geometry": {"location": {"lat": 42.3518496, "lng": -71.0551644}, "viewport": {"northeast": {"lat": 42.3533008802915, "lng": -71.0533567197085}, "southwest": {"lat": 42.35060291970851, "lng": -71.05605468029151}}}, "icon": "https://maps.gstatic.com/mapfiles/place_api/icons/restaurant-71.png", "id": "c4775aa04e07c884fe696195cc02b97085b32430", "name": "Tavern in the Square South Station", "opening_hours": {"open_now": true}, "photos": [{"height": 3456, "html_attributions": ["<a href=\"https://maps.google.com/maps/contrib/101956344681473056835/photos\">Tavern in the Square South Station</a>"], "photo_reference": "CmRaAAAA7UhfujTQqf2bAq5MhDTEX-Kex-UhtPvEqulmndyD9AbhTJTaB5Pc9grP4z-RLfa8FV4ZdqOJpOMjhvibnnCqo4lfRI9AEBg_nHwHyxjVWLT8eiuIWUJTxm3A32QLDRmrEhCG3IYi4pV_X9lgt9nHA9kxGhRxmwpiYqmxI5be8qFrOqDY7qNTVA", "width": 5184}], "place_id": "ChIJySxu94Fw44kRwi0GIvie498", "plus_code": {"compound_code": "9W2V+PW Boston, Massachusetts, United States", "global_code": "87JC9W2V+PW"}, "price_level": 2, "rating": 4.2, "reference": "ChIJySxu94Fw44kRwi0GIvie498", "scope": "GOOGLE", "types": ["bar", "restaurant", "point_of_interest", "food", "establishment"], "user_ratings_total": 86, "vicinity": "Train Terminal, 640 Atlantic Avenue, Boston"}, "ChIJO9MT_YFw44kRXBK1FWNwssY": {"geometry": {"location": {"lat": 42.3518711, "lng": -71.05509239999999}, "viewport": {"northeast": {"lat": 42.35304258029149, "lng": -71.0542108197085}, "southwest": {"lat": 42.35034461970849, "lng": -71.05690878029151}}}, "icon": "https://maps.gstatic.com/mapfiles/place_api/icons/generic_business-71.png", "id": "44f3e41b2f956c73155e98e8830a750a08fc3f02", "name": "South Station", "photos": [{"height": 2992, "html_attributions": ["<a href=\"https://maps.google.com/maps/contrib/112533618553419755592/photos\">rajesh sharma</a>"], "photo_reference": "CmRaAAAAfVDI8k8QSqqDwlNoGQFGGTXwPYljN1yGGenuckrNC0_l87fpk1v95WoTLcG3ZnPpZ8T3nH5RBNsBFQmu9LGt9aFo0r8JF9o3LcgvKFYvDWbR8sVL4YYA_19YXReGiVmMEhCeA-cAlj9XA__IiFYULuDsGhRUl5e_0UIZBtFdF7w8G-c-0w1TbQ", "width": 5312}], "place_id": "ChIJO9MT_YFw44kRXBK1FWNwssY", "plus_code": {"compound_code": "9W2V+PX Boston, Massachusetts, United States", "global_code": "87JC9W2V+PX"}, "rating": 3.4, "reference": "ChIJO9MT_YFw44kRXBK1FWNwssY", "scope": "GOOGLE", "types": ["transit_station", "point_of_interest", "establishment"], "user_ratings_total": 25, "vicinity": "Boston"}, "ChIJszT_3IFw44kRhWaQTpXIG5E": {"geometry": {"location": {"lat": 42.351906, "lng": -71.05506679999999}, "viewport": {"northeast": {"lat": 42.3533150802915, "lng": -71.0533079197085}, "southwest": {"lat": 42.3506171197085, "lng": -71.05600588029151}}}, "icon": "https://maps.gstatic.com/mapfiles/place_api/icons/atm-71.png", "id": "2da30e1027a29a4a9f8e2c433fb6270875dd544f", "name": "Citizens Bank ATM", "place_id": "ChIJszT_3IFw44kRhWaQTpXIG5E", "plus_code": {"compound_code": "9W2V+QX Boston, Massachusetts, United States", "global_code": "87JC9W2V+QX"}, "reference": "ChIJszT_3IFw44kRhWaQTpXIG5E", "scope": "GOOGLE", "types": ["atm", "finance", "point_of_interest", "establishment"], "vicinity": "194-198 Summer Street, Boston"}, "ChIJNdN-_YFw44kR0ep0qF9y4I8": {"geometry": {"location": {"lat": 42.3518126, "lng": -71.055149}, "viewport": {"northeast": {"lat": 42.3532823802915, "lng": -71.05334901970849}, "southwest": {"lat": 42.3505844197085, "lng": -71.0560469802915}}}, "icon": "https://maps.gstatic.com/mapfiles/place_api/icons/restaurant-71.png", "id": "ae0c4d8e594411fa6041bb7d8f56bbce4a9ffddb", "name": "Crepe&More", "opening_hours": {"open_now": true}, "photos": [{"height": 1080, "html_attributions": ["<a href=\"https://maps.google.com/maps/contrib/107902436357371273369/photos\">Crepe&amp;More</a>"], "photo_reference": "CmRaAAAAIId5du8f_wdJsVUC9DmbSKxYv4BR4Jce0IwVdk8xEZ_WFSmF7PbYCnrhbFvc_y3yAGOTNRhkCcETy-6y0u7O4pYXOZT3HG-HflnUSXFwTkDd_jbiznnS4A3reGBCaSxlEhDTYRT49lHuiRlrkm-O8wU0GhTXL0mdoX3N-o9nxEVsuPuFnV074g", "width": 1920}], "place_id": "ChIJNdN-_YFw44kR0ep0qF9y4I8", "plus_code": {"compound_code": "9W2V+PW Boston, Massachusetts, United States", "global_code": "87JC9W2V+PW"}, "rating": 3.2, "reference": "ChIJNdN-_YFw44kR0ep0qF9y4I8", "scope": "GOOGLE", "types": ["restaurant", "point_of_interest", "food", "establishment"], "user_ratings_total": 11, "vicinity": "700, South Station, Atlantic Avenue, Boston"}, "ChIJNdN-_YFw44kRWx64VbNgWKs": {"geometry": {"location": {"lat": 42.3518126, "lng": -71.055149}, "viewport": {"northeast": {"lat": 42.3532823802915, "lng": -71.05334901970849}, "southwest": {"lat": 42.3505844197085, "lng": -71.0560469802915}}}, "icon": "https://maps.gstatic.com/mapfiles/place_api/icons/shopping-71.png", "id": "4e19dcc24256a6aca26874a83a6a24fdf6f2210d", "name": "Barbara's Bestsellers", "opening_hours": {"open_now": true}, "photos": [{"height": 3264, "html_attributions": ["<a href=\"https://maps.google.com/maps/contrib/100367513729292469020/photos\">M. Rimbach</a>"], "photo_reference": "CmRaAAAAieT6gMwJa8o4bQSoG31VNnJNT4AS0RnrMdqviLS3uyUWJe-ngoFK1DdZMCQYqYkftErkbrbBNg4nRE1ewyM9JFyztyevK6Pl4dp-IZQAeX0Rlb0wTy2Z_sZ40Wu5Wf4nEhDc5yi7G2lvnpskiaOg0Uy0GhSvrrHKagbixR_6kpy3mg5BkEzTmQ", "width": 2448}], "place_id": "ChIJNdN-_YFw44kRWx64VbNgWKs", "plus_code": {"compound_code": "9W2V+PW Boston, Massachusetts, United States", "global_code": "87JC9W2V+PW"}, "rating": 5, "reference": "ChIJNdN-_YFw44kRWx64VbNgWKs", "scope": "GOOGLE", "types": ["book_store", "store", "point_of_interest", "establishment"], "user_ratings_total": 1, "vicinity": "South Station Main Concourse, 700 Atlantic Avenue, Boston"}, "ChIJ8SM0sXh644kRDkXs13zQLqQ": {"geometry": {"location": {"lat": 42.3518287, "lng": -71.0551656}, "viewport": {"northeast": {"lat": 42.3532904302915, "lng": -71.0533573197085}, "southwest": {"lat": 42.3505924697085, "lng": -71.0560552802915}}}, "icon": "https://maps.gstatic.com/mapfiles/place_api/icons/atm-71.png", "id": "6bd1b0e164f06e83610fe9a3e947f9d5b549f7da", "name": "Citizens Bank ATM", "place_id": "ChIJ8SM0sXh644kRDkXs13zQLqQ", "plus_code": {"compound_code": "9W2V+PW Boston, Massachusetts, United States", "global_code": "87JC9W2V+PW"}, "reference": "ChIJ8SM0sXh644kRDkXs13zQLqQ", "scope": "GOOGLE", "types": ["atm", "finance", "point_of_interest", "establishment"], "vicinity": "700 Atlantic Avenue, Boston"}, "ChIJM__g_IFw44kRlJBQ6Dhk3OQ": {"geometry": {"location": {"lat": 42.3519404, "lng": -71.0550798}, "viewport": {"northeast": {"lat": 42.3533150802915, "lng": -71.0533144197085}, "southwest": {"lat": 42.3506171197085, "lng": -71.0560123802915}}}, "icon": "https://maps.gstatic.com/mapfiles/place_api/icons/shopping-71.png", "id": "0ba9de1e4a7e0d0abda01aa13101f675681e43c9", "name": "Carvel Express", "photos": [{"height": 1000, "html_attributions": ["<a href=\"https://maps.google.com/maps/contrib/104411910445889402724/photos\">Carvel Express</a>"], "photo_reference": "CmRaAAAANsk4cBxIJ6E4mRMq5AHPfNtSwexvZLW6RR5FDdp8kGhBXKIZ6Zy2tEILzw6bFK7gZkR89a2Pyp-oZlW2j8P3c0Mr6n7L_37Zvpau6Qcf2bmSW1nQ3ubw41LL-YCZQS9gEhCrAoiukdliHIp1P6H-3zEWGhRHIfhYu_LWddI5Mnk6VfzejGRRvQ", "width": 1000}], "place_id": "ChIJM__g_IFw44kRlJBQ6Dhk3OQ", "plus_code": {"compound_code": "9W2V+QX Boston, Massachusetts, United States", "global_code": "87JC9W2V+QX"}, "price_level": 1, "rating": 3, "reference": "ChIJM__g_IFw44kRlJBQ6Dhk3OQ", "scope": "GOOGLE", "types": ["bakery", "store", "point_of_interest", "food", "establishment"], "user_ratings_total": 2, "vicinity": "2, South Station, Boston"}, "ChIJh60L_YFw44kRyuCKkphVZ-g": {"geometry": {"location": {"lat": 42.35188, "lng": -71.05515}, "viewport": {"northeast": {"lat": 42.3533150802915, "lng": -71.0533495197085}, "southwest": {"lat": 42.3506171197085, "lng": -71.05604748029151}}}, "icon": "https://maps.gstatic.com/mapfiles/place_api/icons/cafe-71.png", "id": "906682b469ef79aa52fd9a1f62d664c9a52f7749", "name": "Starbucks", "opening_hours": {"open_now": true}, "photos": [{"height": 3024, "html_attributions": ["<a href=\"https://maps.google.com/maps/contrib/103329981615310456833/photos\">Gia B\u00ecnh</a>"], "photo_reference": "CmRaAAAAhRw9RYe9uOwZNAglAKS0aZ7cayCdd4vWlzOYooKRzhGkyj6pOMCHNPEirlCq2JB-ehXMNsOjiriFdM3abNQSQIqXaxBBr3uyXnQZo16Fg2ABTH8P8aueltEHrk7_cjxaEhA8Ymj4ePcr20zyWwnxB3SHGhT6ciM-grObrF1l1iPbRGFXyIpmgw", "width": 4032}], "place_id": "ChIJh60L_YFw44kRyuCKkphVZ-g", "plus_code": {"compound_code": "9W2V+QW Boston, Massachusetts, United States", "global_code": "87JC9W2V+QW"}, "price_level": 2, "rating": 1.8, "reference": "ChIJh60L_YFw44kRyuCKkphVZ-g", "scope": "GOOGLE", "types": ["cafe", "store", "point_of_interest", "food", "establishment"], "user_ratings_total": 5, "vicinity": "1 South Station, Boston"}, "ChIJW60DJYNw44kRmL2Ehm4t0Bg": {"geometry": {"location": {"lat": 42.3557089, "lng": -71.05720529999999}, "viewport": {"northeast": {"lat": 42.36839699999999, "lng": -71.04779599999999}, "southwest": {"lat": 42.342797, "lng": -71.072996}}}, "icon": "https://maps.gstatic.com/mapfiles/place_api/icons/geocode-71.png", "id": "bc27dcccb31ae90e36c262f557a1c09193ec777d", "name": "Downtown", "photos": [{"height": 629, "html_attributions": ["<a href=\"https://maps.google.com/maps/contrib/111777007894721839306/photos\">verona mantova</a>"], "photo_reference": "CmRaAAAAnIz2JeAl3CFyUoXP9voPz916nCsiH91_1fU10FFUs_DukZaSeskmzuGqYuo7K_kTAN2SGe_QQ50_cbBYfjRh3LleiXU4-rDbCeydyEdZveypURPK3SlkNV3tX1Ka6YPWEhC0K8tUAOywBWl-4-g07047GhSO38-ULfB5Kfzn-R9IcF4wyIDTLQ", "width": 1000}], "place_id": "ChIJW60DJYNw44kRmL2Ehm4t0Bg", "reference": "ChIJW60DJYNw44kRmL2Ehm4t0Bg", "scope": "GOOGLE", "types": ["neighborhood", "political"], "vicinity": "Boston"}}