{"ChIJGzE9DS1l44kRoOhiASS_fHg": {"geometry": {"location": {"lat": 42.3600825, "lng": -71.0588801}, "viewport": {"northeast": {"lat": 42.40081989999999, "lng": -70.749455}, "southwest": {"lat": 42.22788, "lng": -71.191113}}}, "icon": "https://maps.gstatic.com/mapfiles/place_api/icons/geocode-71.png", "id": "06755c25d2b34d13942a4713971756a55b870ced", "name": "Boston", "photos": [{"height": 3024, "html_attributions": ["<a href=\"https://maps.google.com/maps/contrib/104670289779338733432/photos\">Natalia Zalucean</a>"], "photo_reference": "CmRaAAAACRIK2a27W7vmnZ8xvMEILaeY7NTvqlhTsbUH6gt_ywcu88ubnqtbUImrJ_v5_8MkwlqF7U1vHmfurlkDyoSE6YSuVgMtkAWtmz54FPfVql_XO0Z394QF0sxgOagxJhq9EhCj3ByqjOO4G6sr3ok7B_y8GhS7zIaSfRd6LKjAwD4GHvoP4ooN4Q", "width": 4032}], "place_id": "ChIJGzE9DS1l44kRoOhiASS_fHg", "reference": "ChIJGzE9DS1l44kRoOhiASS_fHg", "scope": "GOOGLE", "types": ["locality", "political"], "vicinity": "Boston"}, "ChIJDVKqXoRw44kRymz059u3R1s": {"geometry": {"location": {"lat": 42.3583722, "lng": -71.05836219999999}, "viewport": {"northeast": {"lat": 42.3597211802915, "lng": -71.05701321970848}, "southwest": {"lat": 42.3570232197085, "lng": -71.0597111802915}}}, "icon": "https://maps.gstatic.com/mapfiles/place_api/icons/generic_business-71.png", "id": "cc84d15841e92d0590f9fa91d0294eb256d455e8", "name": "Calabrese Law Associates", "opening_hours": {"open_now": true}, "photos": [{"height": 1192, "html_attributions": ["<a href=\"https://maps.google.com/maps/contrib/104974610708877663681/photos\">Calabrese Law Associates</a>"], "photo_reference": "CmRaAAAAeRNclQ9-I9t-2jwlUMXPDoB1ZBJq5DvXjzBimBAlm_1oz2tLC2swU6Zfjkuu5oLKlCq_fbwk5hO8SZxKbIGbCQ8BPNhyCPAIwzf_bPNqOtq2JntJyPjekboork0uuUqpEhA44VTSlS7_8oxfpQeFieZWGhSA2XRq_tV7__TICr35EDkX2eXBzQ", "width": 2119}], "place_id": "ChIJDVKqXoRw44kRymz059u3R1s", "plus_code": {"compound_code": "9W5R+8M Boston, Massachusetts, United States", "global_code": "87JC9W5R+8M"}, "rating": 4.8, "reference": "ChIJDVKqXoRw44kRymz059u3R1s", "scope": "GOOGLE", "types": ["lawyer", "point_of_interest", "establishment"], "user_ratings_total": 16, "vicinity": "1 BOSTON PLACE Suite 2600, Boston"}, "ChIJO4NnaIRw44kRFhe3_AJ09Gc": {"geometry": {"location": {"lat": 42.3584425, "lng": -71.0582778}, "viewport": {"northeast": {"lat": 42.35978778029151, "lng": -71.05671266970849}, "southwest": {"lat": 42.35708981970851, "lng": -71.05941063029151}}}, "icon": "https://maps.gstatic.com/mapfiles/place_api/icons/generic_business-71.png", "id": "e84b41089e93b28c0cd08875726ec6270f967c30", "name": "Translation Services Boston | Localization", "opening_hours": {"open_now": true}, "photos": [{"height": 467, "html_attributions": ["<a href=\"https://maps.google.com/maps/contrib/112999044209383023922/photos\">Translation Services Boston | Localization LLC</a>"], "photo_reference": "CmRaAAAAr6BD06EFF-Kgi7iStFHCLhVuvw3CSXJsy9E7ceYUV4iHc8RC4pZ4WMlCsLihQRd4oQtGLKdH2wL7AcSl8_Oa6O20a55qA-1PENU1TbW0852xvpW6fL0CFmuqDYhNO6W5EhD60DVOIWo5pxCvDkezP2bqGhQsBGOp5t3Dxq_dW2XAp_1g_P_s4w", "width": 609}], "place_id": "ChIJO4NnaIRw44kRFhe3_AJ09Gc", "plus_code": {"compound_code": "9W5R+9M Boston, Massachusetts, United States", "global_code": "87JC9W5R+9M"}, "rating": 4.2, "reference": "ChIJO4NnaIRw44kRFhe3_AJ09Gc", "scope": "GOOGLE", "types": ["electronics_store", "home_goods_store", "store", "health", "point_of_interest", "establishment"], "user_ratings_total": 5, "vicinity": "201 Washington Street Ste 2600, Boston"}, "ChIJDVKqXoRw44kRrza4gCdhGcg": {"geometry": {"location": {"lat": 42.3584031, "lng": -71.058172}, "viewport": {"northeast": {"lat": 42.3597463802915, "lng": -71.0566608697085}, "southwest": {"lat": 42.3570484197085, "lng": -71.05935883029152}}}, "icon": "https://maps.gstatic.com/mapfiles/place_api/icons/generic_business-71.png", "id": "9fbd1945c03088a87d85d4665d232502098cc8b1", "name": "Davis, Malm & D'Agostine, P.C.", "opening_hours": {"open_now": true}, "photos": [{"height": 626, "html_attributions": ["<a href=\"https://maps.google.com/maps/contrib/112999734431802362220/photos\">Davis, Malm &amp; D&#39;Agostine, P.C.</a>"], "photo_reference": "CmRaAAAAN167JXtNFY8di4RilpHdvsl6JQhBzetmq9H_bWzJgD3ZpJxELke4KVVwlT33b3O2X2jqREOnDcsnRdVHfBT9S-bvlHp_64A5tccNPw_DPv-UB0gkLupMQqZk1xrf0gqqEhAecihFtlpmQ6t_af_MC-sbGhS-Dm51Bx1RKNz95CFDJ2x_-SfRWQ", "width": 1252}], "place_id": "ChIJDVKqXoRw44kRrza4gCdhGcg", "plus_code": {"compound_code": "9W5R+9P Boston, Massachusetts, United States", "global_code": "87JC9W5R+9P"}, "reference": "ChIJDVKqXoRw44kRrza4gCdhGcg", "scope": "GOOGLE", "types": ["point_of_interest", "establishment"], "vicinity": "1 Boston Place, 37th Floor, Boston"}, "ChIJheItZYRw44kRA_WJ5XOhQnM": {"geometry": {"location": {"lat": 42.358147, "lng": -71.058067}, "viewport": {"northeast": {"lat": 42.35951713029149, "lng": -71.0566051197085}, "southwest": {"lat": 42.3568191697085, "lng": -71.0593030802915}}}, "icon": "https://maps.gstatic.com/mapfiles/place_api/icons/generic_business-71.png", "id": "d6ae67b3ddf966eb0ceda061e7a20f77102af8f6", "name": "Pi Alley Parking Garage", "opening_hours": {"open_now": true}, "photos": [{"height": 3024, "html_attributions": ["<a href=\"https://maps.google.com/maps/contrib/109030242897475716996/photos\">Pegeman 1</a>"], "photo_reference": "CmRaAAAAw1aVEUswxhEDT-KvvXDdCTLLd30fP0BPvG7lb5tAhLoGbNV6YFyfroLewwoflymxM5WXVyQ6pZ6LuzKe5BFj86B-ZA_onisQSGOcK7Uj2KaBPlNqXsaSGp-095byvI4sEhAlL7NlfF67q9Vo-xrxrsMPGhQlP5xTsvZQkSU4iP0xMkWRSCiSGw", "width": 4032}], "place_id": "ChIJheItZYRw44kRA_WJ5XOhQnM", "plus_code": {"compound_code": "9W5R+7Q Boston, Massachusetts, United States", "global_code": "87JC9W5R+7Q"}, "rating": 3.3, "reference": "ChIJheItZYRw44kRA_WJ5XOhQnM", "scope": "GOOGLE", "types": ["parking", "point_of_interest", "establishment"], "user_ratings_total": 88, "vicinity": "275 Washington Street, Boston"}, "ChIJDVKqXoRw44kRlCuBwg1sgJc": {"geometry": {"location": {"lat": 42.3584241, "lng": -71.05825759999999}, "viewport": {"northeast": {"lat": 42.35976583029149, "lng": -71.05670306970849}, "southwest": {"lat": 42.35706786970849, "lng": -71.05940103029151}}}, "icon": "https://maps.gstatic.com/mapfiles/place_api/icons/generic_business-71.png", "id": "f8578d279075713fb1a3174962231cc79f546243", "name": "Phillipes Peter M", "place_id": "ChIJDVKqXoRw44kRlCuBwg1sgJc", "plus_code": {"compound_code": "9W5R+9M Boston, Massachusetts, United States", "global_code": "87JC9W5R+9M"}, "reference": "ChIJDVKqXoRw44kRlCuBwg1sgJc", "scope": "GOOGLE", "types": ["lawyer", "point_of_interest", "establishment"], "vicinity": "1 Boston Pl, Boston"}, "ChIJE8N6pYNw44kRmhTuKQYaUks": {"geometry": {"location": {"lat": 42.358528, "lng": -71.058236}, "viewport": {"northeast": {"lat": 42.3598736302915, "lng": -71.05669041970849}, "southwest": {"lat": 42.3571756697085, "lng": -71.0593883802915}}}, "icon": "https://maps.gstatic.com/mapfiles/place_api/icons/generic_business-71.png", "id": "03559ebd84980d156c1f117ab181be1b584c7d6c", "name": "Bostonian Legal Group, LLC", "opening_hours": {"open_now": true}, "photos": [{"height": 550, "html_attributions": ["<a href=\"https://maps.google.com/maps/contrib/110363014574825600809/photos\">Bostonian Legal Group, LLC</a>"], "photo_reference": "CmRaAAAAGXndHlVXovPIGYgSgsJfZ_q3jkPURPNA6kkdvQ4eoOFOzJDqZuIOK_fOqZGX8tMz8BcMlleBJkVUu969j1Hj8h_4FAni58OnjUM6nENU4NhgS2YuTRgsH1RytBXuslWnEhDzdatwDkXEs1jaLgQWJC1lGhSOXJxt1zZ8WvFUOsBB9PA3YeAjcA", "width": 828}], "place_id": "ChIJE8N6pYNw44kRmhTuKQYaUks", "plus_code": {"compound_code": "9W5R+CP Boston, Massachusetts, United States", "global_code": "87JC9W5R+CP"}, "reference": "ChIJE8N6pYNw44kRmhTuKQYaUks", "scope": "GOOGLE", "types": ["lawyer", "point_of_interest", "establishment"], "vicinity": "201 Washington Street, Boston"}, "ChIJ5aEk7Qx644kRdYTaN6IX3es": {"geometry": {"location": {"lat": 42.35844040000001, "lng": -71.0584093}, "viewport": {"northeast": {"lat": 42.3597845802915, "lng": -71.05677846970849}, "southwest": {"lat": 42.3570866197085, "lng": -71.0594764302915}}}, "icon": "https://maps.gstatic.com/mapfiles/place_api/icons/generic_business-71.png", "id": "03dc80d725a679b911e52f082982d7c8f44ec67b", "name": "TM Capital Corp.", "photos": [{"height": 552, "html_attributions": ["<a href=\"https://maps.google.com/maps/contrib/113478226141252128422/photos\">TM Capital Corp.</a>"], "photo_reference": "CmRaAAAA8__NsOH24ZjQsMO2wJRhxJUPKfmWWiKZTP6l1nl_gXF1vLjGj9vfUNO8vYQzky6a9-y77St3Yog6F0pqP9255wNsipFOPlSAg0a3eYL6ydE_LMlJ2KmjqrET8nJEH44eEhAuZxsQvMi16fplkwSSoPKYGhSHPe1OKcbEMfiMnXDnHsT_7g6GbQ", "width": 720}], "place_id": "ChIJ5aEk7Qx644kRdYTaN6IX3es", "plus_code": {"compound_code": "9W5R+9J Boston, Massachusetts, United States", "global_code": "87JC9W5R+9J"}, "reference": "ChIJ5aEk7Qx644kRdYTaN6IX3es", "scope": "GOOGLE", "types": ["finance", "point_of_interest", "establishment"], "vicinity": "32, 201 Washington Street, Boston"}, "ChIJPRSasoRw44kRMkHKh6-tpt0": {"geometry": {"location": {"lat": 42.3584567, "lng": -71.058315}, "viewport": {"northeast": {"lat": 42.3598016802915, "lng": -71.05673106970849}, "southwest": {"lat": 42.3571037197085, "lng": -71.0594290302915}}}, "icon": "https://maps.gstatic.com/mapfiles/place_api/icons/generic_business-71.png", "id": "b8b3a1b896c56e7283c2e3bd499c35b60bbc82ff", "name": "Law Offices of Trupti N Patel & Associates", "opening_hours": {"open_now": true}, "photos": [{"height": 1006, "html_attributions": ["<a href=\"https://maps.google.com/maps/contrib/105724107084081504704/photos\">Law Offices of Trupti N Patel &amp; Associates</a>"], "photo_reference": "CmRaAAAAmrnjzFnmMIsDeQt_hyt4MQ1fARABHa-Du-i61OZIkNXw6GmrjGkwLzon_cvMsk077Vh1N12E-w4IT3CNk5yf4v1IppnVvzd1P6lM1M-KSxMbneEB042EW6wPb6trJP7oEhCKjEardo34qZLGCDGta3l9GhSCuj-DoquYJ69MfHCjR3PPbAvRHA", "width": 1500}], "place_id": "ChIJPRSasoRw44kRMkHKh6-tpt0", "plus_code": {"compound_code": "9W5R+9M Boston, Massachusetts, United States", "global_code": "87JC9W5R+9M"}, "rating": 4.7, "reference": "ChIJPRSasoRw44kRMkHKh6-tpt0", "scope": "GOOGLE", "types": ["lawyer", "point_of_interest", "establishment"], "user_ratings_total": 15, "vicinity": "One Boston Place, 201 Washington Street #2600, Boston"}, "ChIJF3wABkB644kR-tME3W3aSwk": {"geometry": {"location": {"lat": 42.358394, "lng": -71.058307}, "viewport": {"northeast": {"lat": 42.35974298029149, "lng": -71.0569580197085}, "southwest": {"lat": 42.3570450197085, "lng": -71.05965598029151}}}, "icon": "https://maps.gstatic.com/mapfiles/place_api/icons/generic_business-71.png", "id": "551e82af7c6d724b887c8c9d9d51916d74a78253", "name": "Musimony-US", "place_id": "ChIJF3wABkB644kR-tME3W3aSwk", "plus_code": {"compound_code": "9W5R+9M Boston, Massachusetts, United States", "global_code": "87JC9W5R+9M"}, "reference": "ChIJF3wABkB644kR-tME3W3aSwk", "scope": "GOOGLE", "types": ["point_of_interest", "establishment"], "vicinity": "1 Boston Place #2600, Boston"}, "ChIJG-kpXIRw44kRuU-Xb7DQPO0": {"geometry": {"location": {"lat": 42.358445, "lng": -71.0583158}, "viewport": {"northeast": {"lat": 42.3597899802915, "lng": -71.05673161970849}, "southwest": {"lat": 42.3570920197085, "lng": -71.0594295802915}}}, "icon": "https://maps.gstatic.com/mapfiles/place_api/icons/generic_business-71.png", "id": "27cc4b4864650baf7b36d03a215d7e3a0bf3c46b", "name": "The Law Offices of Cortney B. Nadolney, LLC", "opening_hours": {"open_now": true}, "place_id": "ChIJG-kpXIRw44kRuU-Xb7DQPO0", "plus_code": {"compound_code": "9W5R+9M Boston, Massachusetts, United States", "global_code": "87JC9W5R+9M"}, "reference": "ChIJG-kpXIRw44kRuU-Xb7DQPO0", "scope": "GOOGLE", "types": ["point_of_interest", "establishment"], "vicinity": "1 Boston Place #2600, Boston"}, "ChIJ2cAnXIRw44kRj76dtIBLaKM": {"geometry": {"location": {"lat": 42.35846319999999, "lng": -71.0583125}, "viewport": {"northeast": {"lat": 42.35980818029149, "lng": -71.0567297197085}, "southwest": {"lat": 42.3571102197085, "lng": -71.0594276802915}}}, "icon": "https://maps.gstatic.com/mapfiles/place_api/icons/generic_business-71.png", "id": "23ce4771dfb85c3eadc03ffbaafa7d03cb088b6c", "name": "CohnReznick LLP", "opening_hours": {"open_now": true}, "photos": [{"height": 450, "html_attributions": ["<a href=\"https://maps.google.com/maps/contrib/112700322990364731743/photos\">CohnReznick LLP</a>"], "photo_reference": "CmRaAAAAnNRXiH9buH60w5Ware9iR4lF20ZlktYt5Etdud4QxsipafUMfbQi_y-oer2j8HLLPrTKiLtln8mtw9Cea0BHjzY7Rf49ern3nmzQlcQ6LwKUJK3_j3h01zB-bFPKBM5qEhCMlGjH4xlJeExdhmGX4CwmGhRkRmeIkh1oYalK5Uj2lp3imwmsdg", "width": 450}], "place_id": "ChIJ2cAnXIRw44kRj76dtIBLaKM", "plus_code": {"compound_code": "9W5R+9M Boston, Massachusetts, United States", "global_code": "87JC9W5R+9M"}, "reference": "ChIJ2cAnXIRw44kRj76dtIBLaKM", "scope": "GOOGLE", "types": ["accounting", "finance", "point_of_interest", "establishment"], "vicinity": "1 Boston Place #500, Boston"}, "ChIJDVKqXoRw44kRn73Ztq_7uZA": {"geometry": {"location": {"lat": 42.3584696, "lng": -71.0582828}, "viewport": {"northeast": {"lat": 42.3598148302915, "lng": -71.05671476970849}, "southwest": {"lat": 42.3571168697085, "lng": -71.05941273029151}}}, "icon": "https://maps.gstatic.com/mapfiles/place_api/icons/generic_business-71.png", "id": "d06834504e717f1014819e9ab6af7becdc9ab2cd", "name": "The Boston Company Asset Management", "place_id": "ChIJDVKqXoRw44kRn73Ztq_7uZA", "plus_code": {"compound_code": "9W5R+9M Boston, Massachusetts, United States", "global_code": "87JC9W5R+9M"}, "rating": 5, "reference": "ChIJDVKqXoRw44kRn73Ztq_7uZA", "scope": "GOOGLE", "types": ["finance", "point_of_interest", "establishment"], "user_ratings_total": 1, "vicinity": "BNY Mellon Center, 1 Boston Place, Boston"}, "ChIJuZ8mupVw44kRLOMN1fEB0GM": {"geometry": {"location": {"lat": 42.3584714, "lng": -71.0583205}, "viewport": {"northeast": {"lat": 42.35981633029149, "lng": -71.05673356970848}, "southwest": {"lat": 42.3571183697085, "lng": -71.0594315302915}}}, "icon": "https://maps.gstatic.com/mapfiles/place_api/icons/generic_business-71.png", "id": "c8397c0eae3421999aec9a40b8f0fc6b529d6137", "name": "Amin Consulting LLC", "opening_hours": {"open_now": true}, "photos": [{"height": 720, "html_attributions": ["<a href=\"https://maps.google.com/maps/contrib/107970265561358530056/photos\">Beens Imran</a>"], "photo_reference": "CmRaAAAA0Vr5XZochLa6YLzSyr-WGGGH-w06QIQnLeUt03apP09kpkXoUQaCNL4MDX_a_FImX9ROseVdVGoSzZkJbz8FVCJz5YEoFLKFRve56g4oFdniAsUI9xFH2KrGnQbpdKgsEhCgbWCfsyB8SXnvgmZvv9ocGhRIxFe_heiFHg0g9TQ8WWmtUGdEnA", "width": 1083}], "place_id": "ChIJuZ8mupVw44kRLOMN1fEB0GM", "plus_code": {"compound_code": "9W5R+9M Boston, Massachusetts, United States", "global_code": "87JC9W5R+9M"}, "reference": "ChIJuZ8mupVw44kRLOMN1fEB0GM", "scope": "GOOGLE", "types": ["lawyer", "point_of_interest", "establishment"], "vicinity": "1 Washington Street #2626, Boston"}, "ChIJpYdmaIRw44kRUGS4exavOmk": {"geometry": {"location": {"lat": 42.3585014, "lng": -71.05829609999999}, "viewport": {"northeast": {"lat": 42.35984653029151, "lng": -71.0567209197085}, "southwest": {"lat": 42.35714856970851, "lng": -71.0594188802915}}}, "icon": "https://maps.gstatic.com/mapfiles/place_api/icons/generic_business-71.png", "id": "739a4ac3f2d1797c9a77fdfd51dbbd47568379f9", "name": "BNY Mellon Wealth Management Boston", "opening_hours": {"open_now": true}, "photos": [{"height": 2913, "html_attributions": ["<a href=\"https://maps.google.com/maps/contrib/101364005149177221887/photos\">Patrick Peeters</a>"], "photo_reference": "CmRaAAAAzPFMKVErKc4qaiFyIaffttI06fJDcVtjrAg8vjxWEd6KqUjzMSXIBfpPEZHyZZvfSFaC2cwMewQfoLsMZvBk8tQ8CEfneHe_-tjC-T1zBztyYzh-QLOsFh0j4jtMrdp0EhB8RgzAQYWLMapJNutfeNzpGhS4Fw6RYuZKIDaHIx915Q6mb7DhvA", "width": 1733}], "place_id": "ChIJpYdmaIRw44kRUGS4exavOmk", "plus_code": {"compound_code": "9W5R+CM Boston, Massachusetts, United States", "global_code": "87JC9W5R+CM"}, "rating": 5, "reference": "ChIJpYdmaIRw44kRUGS4exavOmk", "scope": "GOOGLE", "types": ["finance", "point_of_interest", "establishment"], "user_ratings_total": 1, "vicinity": "201 Washington Street, Boston"}, "ChIJD4dmaIRw44kRZpUQihXaqaw": {"geometry": {"location": {"lat": 42.3585175, "lng": -71.0582956}, "viewport": {"northeast": {"lat": 42.3598626302915, "lng": -71.0567204197085}, "southwest": {"lat": 42.3571646697085, "lng": -71.0594183802915}}}, "icon": "https://maps.gstatic.com/mapfiles/place_api/icons/generic_business-71.png", "id": "0a251838c587abbbf7d7b006647fe5e205391c8b", "name": "Pearlman Legal Enterprises", "place_id": "ChIJD4dmaIRw44kRZpUQihXaqaw", "plus_code": {"compound_code": "9W5R+CM Boston, Massachusetts, United States", "global_code": "87JC9W5R+CM"}, "reference": "ChIJD4dmaIRw44kRZpUQihXaqaw", "scope": "GOOGLE", "types": ["point_of_interest", "establishment"], "vicinity": "One, Boston Place, Boston"}, "ChIJHQ74XoRw44kRYkZSDRTkzOo": {"geometry": {"location": {"lat": 42.35845, "lng": -71.058463}, "viewport": {"northeast": {"lat": 42.3598531302915, "lng": -71.05730826970849}, "southwest": {"lat": 42.3571551697085, "lng": -71.0600062302915}}}, "icon": "https://maps.gstatic.com/mapfiles/place_api/icons/generic_business-71.png", "id": "08a99dfda2fcaa8c403795ce26826d9138a2364d", "name": "Andrew P. Hanson, Esq.", "opening_hours": {"open_now": true}, "place_id": "ChIJHQ74XoRw44kRYkZSDRTkzOo", "plus_code": {"compound_code": "9W5R+9J Boston, Massachusetts, United States", "global_code": "87JC9W5R+9J"}, "reference": "ChIJHQ74XoRw44kRYkZSDRTkzOo", "scope": "GOOGLE", "types": ["lawyer", "point_of_interest", "establishment"], "vicinity": "1 Boston Street #2600, Boston"}, "ChIJsXmBXoRw44kREA2f0hb4aEw": {"geometry": {"location": {"lat": 42.358442, "lng": -71.058332}, "viewport": {"northeast": {"lat": 42.3597868302915, "lng": -71.0567398197085}, "southwest": {"lat": 42.35708886970851, "lng": -71.0594377802915}}}, "icon": "https://maps.gstatic.com/mapfiles/place_api/icons/generic_business-71.png", "id": "49d152c911f98a3d1f56041835f9c8ae237887fb", "name": "Lore Digital Marketing", "opening_hours": {"open_now": true}, "photos": [{"height": 800, "html_attributions": ["<a href=\"https://maps.google.com/maps/contrib/116080251557601297425/photos\">Lore Digital Marketing</a>"], "photo_reference": "CmRaAAAAzgfOHcYW_v7huhu56x7ma7P7EIthC6tMfzBwUFjbyqpftoyqSvb1KAfL3m093v5pYehND7u2EFNZeYqLfpsHrbUDYB1IKwMWI77RJUoZG36tUyZtYvmEeZ-57pbT1eSfEhBb4Z0W4StA84wRd6_JY3PcGhT_w5RkdlvdhxS0-5q6WW0dzJfSIA", "width": 800}], "place_id": "ChIJsXmBXoRw44kREA2f0hb4aEw", "plus_code": {"compound_code": "9W5R+9M Boston, Massachusetts, United States", "global_code": "87JC9W5R+9M"}, "reference": "ChIJsXmBXoRw44kREA2f0hb4aEw", "scope": "GOOGLE", "types": ["point_of_interest", "establishment"], "vicinity": "Boston Place,, 1 Washington Street #2601, Boston"}, "ChIJW60DJYNw44kRmL2Ehm4t0Bg": {"geometry": {"location": {"lat": 42.3557089, "lng": -71.05720529999999}, "viewport": {"northeast": {"lat": 42.36839699999999, "lng": -71.04779599999999}, "southwest": {"lat": 42.342797, "lng": -71.072996}}}, "icon": "https://maps.gstatic.com/mapfiles/place_api/icons/geocode-71.png", "id": "bc27dcccb31ae90e36c262f557a1c09193ec777d", "name": "Downtown", "photos": [{"height": 629, "html_attributions": ["<a href=\"https://maps.google.com/maps/contrib/111777007894721839306/photos\">verona mantova</a>"], "photo_reference": "CmRaAAAAp8q9ySf7MxKqRIyZVke64vAnq7pGi7Thlk-tco3Ak1QI8MHvxKMU1irRMYPLYqizRVLWOPLLl4T6CU34E8CD4oEXq4FUe7jYRHensYitSKdEqDIxDVy9NX-qmpZY_5IDEhAopvrLQVbtHuXCD5Jwikm1GhTBZVBAsVRHnrXboLwiTnakRsfqkA", "width": 1000}], "place_id": "ChIJW60DJYNw44kRmL2Ehm4t0Bg", "reference": "ChIJW60DJYNw44kRmL2Ehm4t0Bg", "scope": "GOOGLE", "types": ["neighborhood", "political"], "vicinity": "Boston"}}