{"ChIJ323lOHN644kR1zmmTdqsUOw": {"geometry": {"location": {"lat": 42.3487071, "lng": -71.07255040000001}, "viewport": {"northeast": {"lat": 42.3500560302915, "lng": -71.07120136970849}, "southwest": {"lat": 42.3473580697085, "lng": -71.0738993302915}}}, "icon": "https://maps.gstatic.com/mapfiles/place_api/icons/geocode-71.png", "id": "0d5b9b39297b4040b6acd900d713250856041108", "name": "40-16 Stanhope St", "place_id": "ChIJ323lOHN644kR1zmmTdqsUOw", "reference": "ChIJ323lOHN644kR1zmmTdqsUOw", "scope": "GOOGLE", "types": ["route"], "vicinity": "Boston"}, "ChIJ4eE7N3N644kRJed9MUuKyjk": {"geometry": {"location": {"lat": 42.34861830000001, "lng": -71.072923}, "viewport": {"northeast": {"lat": 42.3500243802915, "lng": -71.07160061970849}, "southwest": {"lat": 42.3473264197085, "lng": -71.07429858029151}}}, "icon": "https://maps.gstatic.com/mapfiles/place_api/icons/shopping-71.png", "id": "6049f644201855f86d0cc12d18f46bee956318b1", "name": "Community Pharmacy", "opening_hours": {"open_now": true}, "photos": [{"height": 4048, "html_attributions": ["<a href=\"https://maps.google.com/maps/contrib/112674407599194425320/photos\">siddhartha singh</a>"], "photo_reference": "CmRaAAAA67cXUulW6tS6toorS2mp1g5VXwFDxdJx9CFFn8gGdIKpDMD8QCOuhCOKCbClYSy68yDF31goEexEurpcZ3YBMt9fiadLiYVT0Lo3OCCirbTKzdSC1ZpAL_xY2SgOu63wEhD-AgFZJ82S_zp1noPF5TaCGhQZkKOuHs8JJ6f365WW_k6RyvPv2w", "width": 3036}], "place_id": "ChIJ4eE7N3N644kRJed9MUuKyjk", "plus_code": {"compound_code": "8WXG+CR Boston, Massachusetts, United States", "global_code": "87JC8WXG+CR"}, "price_level": 2, "rating": 3.3, "reference": "ChIJ4eE7N3N644kRJed9MUuKyjk", "scope": "GOOGLE", "types": ["pharmacy", "store", "health", "point_of_interest", "establishment"], "user_ratings_total": 11, "vicinity": "21-23 Stanhope Street, Boston"}, "ChIJZc8GOnN644kR6KjftF69HHg": {"geometry": {"location": {"lat": 42.3486173, "lng": -71.07285340000001}, "viewport": {"northeast": {"lat": 42.3499305802915, "lng": -71.07145046970851}, "southwest": {"lat": 42.3472326197085, "lng": -71.07414843029152}}}, "icon": "https://maps.gstatic.com/mapfiles/place_api/icons/generic_business-71.png", "id": "4f40bb8a5957fc9783423089d068c6c1d5d245d4", "name": "AIDS Housing Corporation", "place_id": "ChIJZc8GOnN644kR6KjftF69HHg", "plus_code": {"compound_code": "8WXG+CV Boston, Massachusetts, United States", "global_code": "87JC8WXG+CV"}, "reference": "ChIJZc8GOnN644kR6KjftF69HHg", "scope": "GOOGLE", "types": ["point_of_interest", "establishment"], "vicinity": "21 Stanhope Street, Boston"}, "ChIJvwgLNap744kROumICrzMdz8": {"geometry": {"location": {"lat": 42.34861830000001, "lng": -71.072923}, "viewport": {"northeast": {"lat": 42.3500243802915, "lng": -71.07160061970849}, "southwest": {"lat": 42.3473264197085, "lng": -71.07429858029151}}}, "icon": "https://maps.gstatic.com/mapfiles/place_api/icons/shopping-71.png", "id": "7895b8af8a16291b92f32cbffedc407be634a308", "name": "Community Pharmacy", "opening_hours": {"open_now": true}, "photos": [{"height": 421, "html_attributions": ["<a href=\"https://maps.google.com/maps/contrib/107326035966652601646/photos\">Walgreens Pharmacy</a>"], "photo_reference": "CmRaAAAAnQpOQ8N8qyWYB2S2RzLiL6ek_65YqdRucuYg6WxI75c0FYMkMCQ1eVAX_xpYAR0rrM0Wb5VyyIi9uwPhP9tu5eRrWJEir8LaPvwQ4g6axXBIII0If8wf3lnj0ektaCZKEhAGUy2tp3iaUiaclhSWRGNmGhRneppL80cmhHrqC90C16fDMSEr5g", "width": 750}], "place_id": "ChIJvwgLNap744kROumICrzMdz8", "plus_code": {"compound_code": "8WXG+CR Boston, Massachusetts, United States", "global_code": "87JC8WXG+CR"}, "price_level": 2, "reference": "ChIJvwgLNap744kROumICrzMdz8", "scope": "GOOGLE", "types": ["pharmacy", "store", "health", "point_of_interest", "establishment"], "vicinity": "21-23 Stanhope Street, Boston"}, "ChIJGzE9DS1l44kRoOhiASS_fHg": {"geometry": {"location": {"lat": 42.3600825, "lng": -71.0588801}, "viewport": {"northeast": {"lat": 42.40081989999999, "lng": -70.749455}, "southwest": {"lat": 42.22788, "lng": -71.191113}}}, "icon": "https://maps.gstatic.com/mapfiles/place_api/icons/geocode-71.png", "id": "06755c25d2b34d13942a4713971756a55b870ced", "name": "Boston", "photos": [{"height": 3024, "html_attributions": ["<a href=\"https://maps.google.com/maps/contrib/104670289779338733432/photos\">Natalia Zalucean</a>"], "photo_reference": "CmRaAAAAtuMIB1mCPn-TxOWjxlREbdnsMVbSpIaVC6fjqqH_MqulM-kKD0NoDMQHAYArdz1hcggBkWfcYqjfx8gi5u_lTupTWM2RzTaNtKS9BXgaljjqN445-vAxEbBH4UXvTWFYEhAWP9zkH8y2tgD027iiEgFkGhQTpKv8PEiHAeZ-MKvBwxsBJjx14A", "width": 4032}], "place_id": "ChIJGzE9DS1l44kRoOhiASS_fHg", "reference": "ChIJGzE9DS1l44kRoOhiASS_fHg", "scope": "GOOGLE", "types": ["locality", "political"], "vicinity": "Boston"}}