{"ChIJZ8AuoDV444kRfsBp7eOraaA": {"geometry": {"location": {"lat": 42.34983949999999, "lng": -71.1479341}, "viewport": {"northeast": {"lat": 42.35118848029149, "lng": -71.1465850697085}, "southwest": {"lat": 42.3484905197085, "lng": -71.1492830302915}}}, "icon": "https://maps.gstatic.com/mapfiles/place_api/icons/geocode-71.png", "id": "672f8e17ea8aae3914886cb50e8332bf0734cae0", "name": "736-730 Cambridge St", "place_id": "ChIJZ8AuoDV444kRfsBp7eOraaA", "reference": "ChIJZ8AuoDV444kRfsBp7eOraaA", "scope": "GOOGLE", "types": ["route"], "vicinity": "Boston"}, "ChIJc7FBnzV444kRokS2M-pVtSo": {"geometry": {"location": {"lat": 42.349671, "lng": -71.14805009999999}, "viewport": {"northeast": {"lat": 42.3510691802915, "lng": -71.14673636970849}, "southwest": {"lat": 42.3483712197085, "lng": -71.1494343302915}}}, "icon": "https://maps.gstatic.com/mapfiles/place_api/icons/generic_business-71.png", "id": "6844c48d683c1a6f5301d36e57d10be653eafeb3", "name": "Caritas Pathology Associates", "place_id": "ChIJc7FBnzV444kRokS2M-pVtSo", "plus_code": {"compound_code": "8VX2+VQ Boston, Massachusetts, United States", "global_code": "87JC8VX2+VQ"}, "reference": "ChIJc7FBnzV444kRokS2M-pVtSo", "scope": "GOOGLE", "types": ["doctor", "health", "point_of_interest", "establishment"], "vicinity": "736 Cambridge Street # 1, Brighton"}, "ChIJc7FBnzV444kRCKoB3xchL8g": {"geometry": {"location": {"lat": 42.349671, "lng": -71.14805009999999}, "viewport": {"northeast": {"lat": 42.3510691802915, "lng": -71.14673636970849}, "southwest": {"lat": 42.3483712197085, "lng": -71.1494343302915}}}, "icon": "https://maps.gstatic.com/mapfiles/place_api/icons/generic_business-71.png", "id": "0a39da7a66d10925892df8b9dadfa4b828bce9a3", "name": "Giambanco Deborah A", "place_id": "ChIJc7FBnzV444kRCKoB3xchL8g", "plus_code": {"compound_code": "8VX2+VQ Boston, Massachusetts, United States", "global_code": "87JC8VX2+VQ"}, "reference": "ChIJc7FBnzV444kRCKoB3xchL8g", "scope": "GOOGLE", "types": ["doctor", "health", "point_of_interest", "establishment"], "vicinity": "736 Cambridge Street, Brighton"}, "ChIJc7FBnzV444kRPo47WeQm-dg": {"geometry": {"location": {"lat": 42.349671, "lng": -71.14805009999999}, "viewport": {"northeast": {"lat": 42.3510691802915, "lng": -71.14673636970849}, "southwest": {"lat": 42.3483712197085, "lng": -71.1494343302915}}}, "icon": "https://maps.gstatic.com/mapfiles/place_api/icons/generic_business-71.png", "id": "7db12901643812dec1fd86e3ba2e2fd25ee4074e", "name": "Kourtz Katharine M", "place_id": "ChIJc7FBnzV444kRPo47WeQm-dg", "plus_code": {"compound_code": "8VX2+VQ Boston, Massachusetts, United States", "global_code": "87JC8VX2+VQ"}, "reference": "ChIJc7FBnzV444kRPo47WeQm-dg", "scope": "GOOGLE", "types": ["doctor", "health", "point_of_interest", "establishment"], "vicinity": "736 Cambridge Street, Brighton"}, "ChIJc7FBnzV444kR8Gq0rvo6Zjg": {"geometry": {"location": {"lat": 42.349671, "lng": -71.14805009999999}, "viewport": {"northeast": {"lat": 42.3510691802915, "lng": -71.14673636970849}, "southwest": {"lat": 42.3483712197085, "lng": -71.1494343302915}}}, "icon": "https://maps.gstatic.com/mapfiles/place_api/icons/generic_business-71.png", "id": "aa085aaf115627f01f2d82c87fa379d3bfe336be", "name": "Jones Kathryn G", "place_id": "ChIJc7FBnzV444kR8Gq0rvo6Zjg", "plus_code": {"compound_code": "8VX2+VQ Boston, Massachusetts, United States", "global_code": "87JC8VX2+VQ"}, "reference": "ChIJc7FBnzV444kR8Gq0rvo6Zjg", "scope": "GOOGLE", "types": ["doctor", "health", "point_of_interest", "establishment"], "vicinity": "736 Cambridge Street # 133, Brighton"}, "ChIJc7FBnzV444kR5s_KM0ZQ-08": {"geometry": {"location": {"lat": 42.349671, "lng": -71.14805009999999}, "viewport": {"northeast": {"lat": 42.3510691802915, "lng": -71.14673636970849}, "southwest": {"lat": 42.3483712197085, "lng": -71.1494343302915}}}, "icon": "https://maps.gstatic.com/mapfiles/place_api/icons/generic_business-71.png", "id": "a6d6660ffa04a8be0a312405ef68d8f6a2cb0b29", "name": "Waldron Cristine", "place_id": "ChIJc7FBnzV444kR5s_KM0ZQ-08", "plus_code": {"compound_code": "8VX2+VQ Boston, Massachusetts, United States", "global_code": "87JC8VX2+VQ"}, "reference": "ChIJc7FBnzV444kR5s_KM0ZQ-08", "scope": "GOOGLE", "types": ["doctor", "health", "point_of_interest", "establishment"], "vicinity": "736 Cambridge Street, Brighton"}, "ChIJc7FBnzV444kRKuJxuE-M66E": {"geometry": {"location": {"lat": 42.349671, "lng": -71.14805009999999}, "viewport": {"northeast": {"lat": 42.3510691802915, "lng": -71.14673636970849}, "southwest": {"lat": 42.3483712197085, "lng": -71.1494343302915}}}, "icon": "https://maps.gstatic.com/mapfiles/place_api/icons/generic_business-71.png", "id": "4c95b0307c02b86f3209e464fc5ec28ef590f22a", "name": "Roche Diane E", "place_id": "ChIJc7FBnzV444kRKuJxuE-M66E", "plus_code": {"compound_code": "8VX2+VQ Boston, Massachusetts, United States", "global_code": "87JC8VX2+VQ"}, "reference": "ChIJc7FBnzV444kRKuJxuE-M66E", "scope": "GOOGLE", "types": ["doctor", "health", "point_of_interest", "establishment"], "vicinity": "736 Cambridge Street, Brighton"}, "ChIJc7FBnzV444kRmmbTmP5vA58": {"geometry": {"location": {"lat": 42.349671, "lng": -71.14805009999999}, "viewport": {"northeast": {"lat": 42.3510691802915, "lng": -71.14673636970849}, "southwest": {"lat": 42.3483712197085, "lng": -71.1494343302915}}}, "icon": "https://maps.gstatic.com/mapfiles/place_api/icons/generic_business-71.png", "id": "46c58f0e8aaa5aafbb8e79564a154cddc666863d", "name": "Kelly Andrea C", "place_id": "ChIJc7FBnzV444kRmmbTmP5vA58", "plus_code": {"compound_code": "8VX2+VQ Boston, Massachusetts, United States", "global_code": "87JC8VX2+VQ"}, "reference": "ChIJc7FBnzV444kRmmbTmP5vA58", "scope": "GOOGLE", "types": ["doctor", "health", "point_of_interest", "establishment"], "vicinity": "736 Cambridge Street, Brighton"}, "ChIJc7FBnzV444kRFE0uE-x7Llc": {"geometry": {"location": {"lat": 42.349671, "lng": -71.14805009999999}, "viewport": {"northeast": {"lat": 42.3510691802915, "lng": -71.14673636970849}, "southwest": {"lat": 42.3483712197085, "lng": -71.1494343302915}}}, "icon": "https://maps.gstatic.com/mapfiles/place_api/icons/generic_business-71.png", "id": "800f0f70bfc3170a6033c1a73f2d74091ee85bec", "name": "Saber Walid MD", "place_id": "ChIJc7FBnzV444kRFE0uE-x7Llc", "plus_code": {"compound_code": "8VX2+VQ Boston, Massachusetts, United States", "global_code": "87JC8VX2+VQ"}, "reference": "ChIJc7FBnzV444kRFE0uE-x7Llc", "scope": "GOOGLE", "types": ["doctor", "health", "point_of_interest", "establishment"], "vicinity": "736 Cambridge Street, Brighton"}, "ChIJc7FBnzV444kR8yuxqPMcLKE": {"geometry": {"location": {"lat": 42.349671, "lng": -71.14805009999999}, "viewport": {"northeast": {"lat": 42.3510691802915, "lng": -71.14673636970849}, "southwest": {"lat": 42.3483712197085, "lng": -71.1494343302915}}}, "icon": "https://maps.gstatic.com/mapfiles/place_api/icons/generic_business-71.png", "id": "2738cea22a26e7d1935900140a2b2a195aac1691", "name": "Kelley Jr Edward C MD", "place_id": "ChIJc7FBnzV444kR8yuxqPMcLKE", "plus_code": {"compound_code": "8VX2+VQ Boston, Massachusetts, United States", "global_code": "87JC8VX2+VQ"}, "reference": "ChIJc7FBnzV444kR8yuxqPMcLKE", "scope": "GOOGLE", "types": ["doctor", "health", "point_of_interest", "establishment"], "vicinity": "736 Cambridge Street, Brighton"}, "ChIJc7FBnzV444kR8delToMI_XA": {"geometry": {"location": {"lat": 42.349671, "lng": -71.14805009999999}, "viewport": {"northeast": {"lat": 42.3510691802915, "lng": -71.14673636970849}, "southwest": {"lat": 42.3483712197085, "lng": -71.1494343302915}}}, "icon": "https://maps.gstatic.com/mapfiles/place_api/icons/generic_business-71.png", "id": "78a39a54b35e3b423c3c89ad084bb970a83d8dae", "name": "Brodka Marlene K", "place_id": "ChIJc7FBnzV444kR8delToMI_XA", "plus_code": {"compound_code": "8VX2+VQ Boston, Massachusetts, United States", "global_code": "87JC8VX2+VQ"}, "reference": "ChIJc7FBnzV444kR8delToMI_XA", "scope": "GOOGLE", "types": ["point_of_interest", "establishment"], "vicinity": "736 Cambridge Street, Brighton"}, "ChIJc7FBnzV444kR0w1hfDVTtBE": {"geometry": {"location": {"lat": 42.349671, "lng": -71.14805009999999}, "viewport": {"northeast": {"lat": 42.3510691802915, "lng": -71.14673636970849}, "southwest": {"lat": 42.3483712197085, "lng": -71.1494343302915}}}, "icon": "https://maps.gstatic.com/mapfiles/place_api/icons/generic_business-71.png", "id": "2bd86799cf054866924f7b4975f6dd30ff3851cb", "name": "Lambert Jennifer L", "place_id": "ChIJc7FBnzV444kR0w1hfDVTtBE", "plus_code": {"compound_code": "8VX2+VQ Boston, Massachusetts, United States", "global_code": "87JC8VX2+VQ"}, "reference": "ChIJc7FBnzV444kR0w1hfDVTtBE", "scope": "GOOGLE", "types": ["doctor", "health", "point_of_interest", "establishment"], "vicinity": "736 Cambridge Street, Brighton"}, "ChIJMSN5CTV444kRkC6xokFZJ7g": {"geometry": {"location": {"lat": 42.3501239, "lng": -71.1477295}, "viewport": {"northeast": {"lat": 42.3513957302915, "lng": -71.1462699697085}, "southwest": {"lat": 42.3486977697085, "lng": -71.1489679302915}}}, "icon": "https://maps.gstatic.com/mapfiles/place_api/icons/generic_recreational-71.png", "id": "67da2a7081b1c9defa567c45e891870b313848d4", "name": "Cunningham Park", "photos": [{"height": 2432, "html_attributions": ["<a href=\"https://maps.google.com/maps/contrib/109713582254843459492/photos\">Jules Long</a>"], "photo_reference": "CmRaAAAAetYt_jkx2le33I5AYAL4PKoan2Tw5pZgo8geWViK56I3Mw0v2LggraN8a9Q5m-MsAqlNRBQUL3c1WkA5fdhVmDKWI7K0h6GmaAamIt_-6w5sFOrFa3dVgnTKrRcu0g8OEhCXNOwl8joyVGpRX9VGxMPJGhQGxzZm95hJSc2Ip3hj8j8NSNufrA", "width": 3648}], "place_id": "ChIJMSN5CTV444kRkC6xokFZJ7g", "reference": "ChIJMSN5CTV444kRkC6xokFZJ7g", "scope": "GOOGLE", "types": ["park", "premise", "point_of_interest", "establishment"], "vicinity": "Boston"}, "ChIJGzE9DS1l44kRoOhiASS_fHg": {"geometry": {"location": {"lat": 42.3600825, "lng": -71.0588801}, "viewport": {"northeast": {"lat": 42.40081989999999, "lng": -70.749455}, "southwest": {"lat": 42.22788, "lng": -71.191113}}}, "icon": "https://maps.gstatic.com/mapfiles/place_api/icons/geocode-71.png", "id": "06755c25d2b34d13942a4713971756a55b870ced", "name": "Boston", "photos": [{"height": 3024, "html_attributions": ["<a href=\"https://maps.google.com/maps/contrib/104670289779338733432/photos\">Natalia Zalucean</a>"], "photo_reference": "CmRaAAAAVhov0ZhmT6_TD5roPxljsNZ1DNn5902Jrqhwu85PjDCxmmZtkucygmDXZB2j-CrePemmGHyC6pxBrvPal2LeQWIPhuUhGTO-eDks0B1-NAwinhiSBDEXzrBJld-3cTrdEhDGMlxnb89BvqN5QKefhAk2GhQ-KdpTabikXuEVls1HSXq2Ixt2zw", "width": 4032}], "place_id": "ChIJGzE9DS1l44kRoOhiASS_fHg", "reference": "ChIJGzE9DS1l44kRoOhiASS_fHg", "scope": "GOOGLE", "types": ["locality", "political"], "vicinity": "Boston"}}