{"ChIJ678tEoRw44kR8CiBxJoc0MM": {"geometry": {"location": {"lat": 42.3575652, "lng": -71.05687379999999}, "viewport": {"northeast": {"lat": 42.35891528029151, "lng": -71.0555247697085}, "southwest": {"lat": 42.35621731970851, "lng": -71.0582227302915}}}, "icon": "https://maps.gstatic.com/mapfiles/place_api/icons/geocode-71.png", "id": "ddb1d700ae37910d74bcedb9557b21b96b0b4426", "name": "19-59 Water St", "place_id": "ChIJ678tEoRw44kR8CiBxJoc0MM", "reference": "ChIJ678tEoRw44kR8CiBxJoc0MM", "scope": "GOOGLE", "types": ["route"], "vicinity": "Boston"}, "ChIJAUQAEw1644kR2oMo2SzPqxI": {"geometry": {"location": {"lat": 42.3576883, "lng": -71.0568698}, "viewport": {"northeast": {"lat": 42.3590372802915, "lng": -71.05552081970849}, "southwest": {"lat": 42.3563393197085, "lng": -71.05821878029151}}}, "icon": "https://maps.gstatic.com/mapfiles/place_api/icons/generic_business-71.png", "id": "760cfb8231682d65847c61f4c55343c9d307c8c9", "name": "Publicis Sapient - Boston", "opening_hours": {"open_now": true}, "photos": [{"height": 900, "html_attributions": ["<a href=\"https://maps.google.com/maps/contrib/109988574211564223687/photos\">Publicis Sapient - Boston</a>"], "photo_reference": "CmRaAAAATHc7U2y2qC2DtR3uzhcVUhkXEHMMZU5k680LUrZOylIXs1YgcNyyy4ocSxb9I5dAOcOpXktqjOhMgW_d64aOrgjYxzH2H1j5kNiknNY4YMjv7BzkHFhCrZ58wIrKp_-xEhCOirahK0ne-LeY15CKOagMGhTMPQjQghX9Jz4093uqbU-WBbilpA", "width": 900}], "place_id": "ChIJAUQAEw1644kR2oMo2SzPqxI", "plus_code": {"compound_code": "8WWF+QW Boston, Massachusetts, United States", "global_code": "87JC8WWF+QW"}, "rating": 4.9, "reference": "ChIJAUQAEw1644kR2oMo2SzPqxI", "scope": "GOOGLE", "types": ["point_of_interest", "establishment"], "user_ratings_total": 13, "vicinity": "40 Water Street, Boston"}, "ChIJ1WOPl4Nw44kRMpcNv61DVKo": {"geometry": {"location": {"lat": 42.3576535, "lng": -71.0568821}, "viewport": {"northeast": {"lat": 42.35895833029149, "lng": -71.05553291970848}, "southwest": {"lat": 42.35626036970849, "lng": -71.05823088029149}}}, "icon": "https://maps.gstatic.com/mapfiles/place_api/icons/generic_business-71.png", "id": "8927b595ad7d218238e6eb5d2473f70ebbd4059c", "name": "Digitas", "opening_hours": {"open_now": true}, "photos": [{"height": 540, "html_attributions": ["<a href=\"https://maps.google.com/maps/contrib/109839431922109882998/photos\">DigitasLBi</a>"], "photo_reference": "CmRaAAAAOI9LfPOEXjbwtwiwOBnb3VAJ7XomCN0XwhHR0UjEQkFv2L4Lxzfe-ph_nx9r3NYJ7jU3VEpt4YA8GoFu9zkputEcI-y0ixOUiKbahBc7n_nv-ccLmhxlrt3rhJ-RHv9mEhBdTQgzrnyhJkkDJplSAwxnGhQvZExIcGCwOjAe6YjgEAt8Ym7uaw", "width": 720}], "place_id": "ChIJ1WOPl4Nw44kRMpcNv61DVKo", "plus_code": {"compound_code": "9W5V+36 Boston, Massachusetts, United States", "global_code": "87JC9W5V+36"}, "rating": 4.8, "reference": "ChIJ1WOPl4Nw44kRMpcNv61DVKo", "scope": "GOOGLE", "types": ["point_of_interest", "establishment"], "user_ratings_total": 8, "vicinity": "40 Water Street, Boston"}, "ChIJMae9cPRx44kRgIYm1lidc0g": {"geometry": {"location": {"lat": 42.3576883, "lng": -71.0568698}, "viewport": {"northeast": {"lat": 42.3589757302915, "lng": -71.0555205197085}, "southwest": {"lat": 42.3562777697085, "lng": -71.0582184802915}}}, "icon": "https://maps.gstatic.com/mapfiles/place_api/icons/generic_business-71.png", "id": "3c50265b1cf515ab4a406836625d6b9578a051b6", "name": "Digitas", "opening_hours": {"open_now": true}, "photos": [{"height": 1919, "html_attributions": ["<a href=\"https://maps.google.com/maps/contrib/107632684406941916115/photos\">dwr phlip</a>"], "photo_reference": "CmRaAAAAY5W5HKyQWv3jprNsEIa_crbVY7GB5zTL7swshsG83D4ZmpGAq8jqKAiIvqzH_sz4s3u3wQSWt5Kez_RtiT-2G5_znZkCW1syRS9MQ0bEmnOBa_rlw4TLY03FwtYqbVbdEhAC54kRxCS1TLl6fzHnPu1PGhSu3gE4fFezdJHJGCPjdq1mxicq3A", "width": 2526}], "place_id": "ChIJMae9cPRx44kRgIYm1lidc0g", "plus_code": {"compound_code": "9W5V+37 Boston, Massachusetts, United States", "global_code": "87JC9W5V+37"}, "rating": 5, "reference": "ChIJMae9cPRx44kRgIYm1lidc0g", "scope": "GOOGLE", "types": ["point_of_interest", "establishment"], "user_ratings_total": 1, "vicinity": "40 Water Street, Boston"}, "ChIJGzE9DS1l44kRoOhiASS_fHg": {"geometry": {"location": {"lat": 42.3600825, "lng": -71.0588801}, "viewport": {"northeast": {"lat": 42.40081989999999, "lng": -70.749455}, "southwest": {"lat": 42.22788, "lng": -71.191113}}}, "icon": "https://maps.gstatic.com/mapfiles/place_api/icons/geocode-71.png", "id": "06755c25d2b34d13942a4713971756a55b870ced", "name": "Boston", "photos": [{"height": 3024, "html_attributions": ["<a href=\"https://maps.google.com/maps/contrib/104670289779338733432/photos\">Natalia Zalucean</a>"], "photo_reference": "CmRaAAAAf5RALGjxamCdD6atJa4rIiPTFqAfDYtHXschexmorlFYMzaBmwQ-1_1B7Kwxc_wvtGfRAjnjSAhZvqK62adwr77QDYz461qWc8zTO4O1FmNF6dE7qU5BIGkeycE4wtspEhD9VBZTOalC7A5FllrI9uglGhQBsOZRy_ausFf114CF5ZWz7CAQsg", "width": 4032}], "place_id": "ChIJGzE9DS1l44kRoOhiASS_fHg", "reference": "ChIJGzE9DS1l44kRoOhiASS_fHg", "scope": "GOOGLE", "types": ["locality", "political"], "vicinity": "Boston"}}