{"ChIJva-eR2l644kRYLvPfZ0j_oo": {"geometry": {"location": {"lat": 42.33871119999999, "lng": -71.0661807}, "viewport": {"northeast": {"lat": 42.3400593302915, "lng": -71.0648305197085}, "southwest": {"lat": 42.3373613697085, "lng": -71.0675284802915}}}, "icon": "https://maps.gstatic.com/mapfiles/place_api/icons/geocode-71.png", "id": "13064293cfd243b3927b1c2895dce45900427f78", "name": "511-527 Albany St", "place_id": "ChIJva-eR2l644kRYLvPfZ0j_oo", "reference": "ChIJva-eR2l644kRYLvPfZ0j_oo", "scope": "GOOGLE", "types": ["route"], "vicinity": "Boston"}, "ChIJz3ADeGl644kR2_KiOCZF6m8": {"geometry": {"location": {"lat": 42.3382095, "lng": -71.06616369999999}, "viewport": {"northeast": {"lat": 42.3396091302915, "lng": -71.06488611970849}, "southwest": {"lat": 42.3369111697085, "lng": -71.0675840802915}}}, "icon": "https://maps.gstatic.com/mapfiles/place_api/icons/generic_business-71.png", "id": "d5e8c8a9c19b129193955e69ff279dfe0b8f4fc7", "name": "Quinlan-Wasserman Inc", "opening_hours": {"open_now": false}, "place_id": "ChIJz3ADeGl644kR2_KiOCZF6m8", "plus_code": {"compound_code": "8WQM+7G Boston, Massachusetts, United States", "global_code": "87JC8WQM+7G"}, "rating": 5, "reference": "ChIJz3ADeGl644kR2_KiOCZF6m8", "scope": "GOOGLE", "types": ["point_of_interest", "establishment"], "user_ratings_total": 2, "vicinity": "500 Albany Street, Boston"}, "ChIJCQYWQml644kRILaBfEQcIvI": {"geometry": {"location": {"lat": 42.33837200000001, "lng": -71.06655599999999}, "viewport": {"northeast": {"lat": 42.3397331302915, "lng": -71.06522316970849}, "southwest": {"lat": 42.3370351697085, "lng": -71.06792113029151}}}, "icon": "https://maps.gstatic.com/mapfiles/place_api/icons/bus-71.png", "id": "7960a01674bcb4c5d60f30b4098e2f528c2ad0dc", "name": "540 Albany St opp Wareham St", "place_id": "ChIJCQYWQml644kRILaBfEQcIvI", "plus_code": {"compound_code": "8WQM+89 Boston, Massachusetts, United States", "global_code": "87JC8WQM+89"}, "reference": "ChIJCQYWQml644kRILaBfEQcIvI", "scope": "GOOGLE", "types": ["bus_station", "transit_station", "point_of_interest", "establishment"], "vicinity": "United States"}, "ChIJGzE9DS1l44kRoOhiASS_fHg": {"geometry": {"location": {"lat": 42.3600825, "lng": -71.0588801}, "viewport": {"northeast": {"lat": 42.40081989999999, "lng": -70.749455}, "southwest": {"lat": 42.22788, "lng": -71.191113}}}, "icon": "https://maps.gstatic.com/mapfiles/place_api/icons/geocode-71.png", "id": "06755c25d2b34d13942a4713971756a55b870ced", "name": "Boston", "photos": [{"height": 3024, "html_attributions": ["<a href=\"https://maps.google.com/maps/contrib/104670289779338733432/photos\">Natalia Zalucean</a>"], "photo_reference": "CmRaAAAAhAa3uHVfq72A42Vx87CbzhWMW37Ab3KvAs514GZq2o27VQAa9votUf1KUJFH4MnNWsJpAmUMnslfhp-3TykCmMYzgbIMqdFPbWUkGRDxOfOJd1MLDjIP1wWbr-Tvb2TfEhBn2sEIqfA0W3xaY-9nl9HCGhRdOFVX_H8pi87-OaqvOhEdjgC9Mw", "width": 4032}], "place_id": "ChIJGzE9DS1l44kRoOhiASS_fHg", "reference": "ChIJGzE9DS1l44kRoOhiASS_fHg", "scope": "GOOGLE", "types": ["locality", "political"], "vicinity": "Boston"}}