{"ChIJ0-qddIRw44kR-PgJiA_-7P8": {"geometry": {"location": {"lat": 42.35721059999999, "lng": -71.0573275}, "viewport": {"northeast": {"lat": 42.3585595802915, "lng": -71.05597851970849}, "southwest": {"lat": 42.3558616197085, "lng": -71.05867648029151}}}, "icon": "https://maps.gstatic.com/mapfiles/place_api/icons/geocode-71.png", "id": "4e3029366adf682b5ee93d71ddb9b23256f9fd0c", "name": "103-125 Devonshire St", "place_id": "ChIJ0-qddIRw44kR-PgJiA_-7P8", "reference": "ChIJ0-qddIRw44kR-PgJiA_-7P8", "scope": "GOOGLE", "types": ["route"], "vicinity": "Boston"}, "ChIJ_VbNKZBw44kRX7LA7nsuP8g": {"geometry": {"location": {"lat": 42.3570122, "lng": -71.0574245}, "viewport": {"northeast": {"lat": 42.3582186302915, "lng": -71.05607871970851}, "southwest": {"lat": 42.3555206697085, "lng": -71.05877668029152}}}, "icon": "https://maps.gstatic.com/mapfiles/place_api/icons/generic_business-71.png", "id": "346f00a67c4cc7cba6ec9da3ec6083459cf81920", "name": "Rightpoint", "opening_hours": {"open_now": true}, "photos": [{"height": 3024, "html_attributions": ["<a href=\"https://maps.google.com/maps/contrib/105451786017911995052/photos\">Steve Sobenko</a>"], "photo_reference": "CmRaAAAAIaUd7JJ_qNfrQkNnesNfJFf2ZXc-cNMvzh-QLp-0i0EWj7vwRW964b8D3_AXnUr6GE79Obcy8gfAEJhKwZQzXBURjvv2TpQEAXkX2NkWPMkBAi14Lr_KSMXLAmusxwGTEhABXjwdGH4oCKWSjKPKOpARGhSuHiIF5jpM6acgLK7cxsd78OWE8A", "width": 4032}], "place_id": "ChIJ_VbNKZBw44kRX7LA7nsuP8g", "plus_code": {"compound_code": "9W4V+R2 Boston, Massachusetts, United States", "global_code": "87JC9W4V+R2"}, "rating": 4.8, "reference": "ChIJ_VbNKZBw44kRX7LA7nsuP8g", "scope": "GOOGLE", "types": ["point_of_interest", "establishment"], "user_ratings_total": 4, "vicinity": "50 Milk Street, Boston"}, "ChIJlVGyfYRw44kRjiOUm_57RPQ": {"geometry": {"location": {"lat": 42.3570205, "lng": -71.057422}, "viewport": {"northeast": {"lat": 42.3582229302915, "lng": -71.0560630197085}, "southwest": {"lat": 42.3555249697085, "lng": -71.05876098029151}}}, "icon": "https://maps.gstatic.com/mapfiles/place_api/icons/generic_business-71.png", "id": "240983b0b50a4315b39d3a7a73f1b0cf4e5cdf2d", "name": "The Ripples Group", "photos": [{"height": 399, "html_attributions": ["<a href=\"https://maps.google.com/maps/contrib/104158194073755930044/photos\">The Ripples Group</a>"], "photo_reference": "CmRaAAAAMiNyGpsVxmCmmP5oiKdFoo6hyof-AffkJv_TiPSoNZeGofxLY7Ml_AZkO4D_JulTWE__630GtsUjIJLLIZo0qwlGpozMWXPnoy5bSPILsVwuqTbSyLhtPA3D4VVrXpZrEhAr4Rp4xzGvqukxk55Rn07wGhQ3n6ZCddTowHNHGwhCOY8MFnrllg", "width": 396}], "place_id": "ChIJlVGyfYRw44kRjiOUm_57RPQ", "plus_code": {"compound_code": "9W4V+R2 Boston, Massachusetts, United States", "global_code": "87JC9W4V+R2"}, "reference": "ChIJlVGyfYRw44kRjiOUm_57RPQ", "scope": "GOOGLE", "types": ["point_of_interest", "establishment"], "vicinity": "50 Milk Street, Boston"}, "ChIJA97hdIRw44kRzt_p5xV0wcs": {"geometry": {"location": {"lat": 42.3571228, "lng": -71.0574024}, "viewport": {"northeast": {"lat": 42.35847308029149, "lng": -71.05601591970849}, "southwest": {"lat": 42.35577511970849, "lng": -71.0587138802915}}}, "icon": "https://maps.gstatic.com/mapfiles/place_api/icons/cafe-71.png", "id": "3b4613288d2c931ee114a1ed9bbcb1ae656d590c", "name": "Render Coffee", "opening_hours": {"open_now": true}, "photos": [{"height": 3036, "html_attributions": ["<a href=\"https://maps.google.com/maps/contrib/112769940104181705780/photos\">Jared Vargason</a>"], "photo_reference": "CmRZAAAAgjBudDJCq3td-eLiP9YTOEQRztqEcYfxZsiBZw3XuFDVRbGkcPqVGv4khj33UiSandPdZnQOtYRHw0M6vH9Dwi5EfO7mD7UdN8uZ6KMkfdexM4g4MWzfplcnnzUT60IBEhCuhvcPV3q5TnGLL8FUxv7BGhS3Q5_C9ClVPe6Qt2OiddSR7MW_dQ", "width": 4048}], "place_id": "ChIJA97hdIRw44kRzt_p5xV0wcs", "plus_code": {"compound_code": "9W4V+R2 Boston, Massachusetts, United States", "global_code": "87JC9W4V+R2"}, "price_level": 1, "rating": 4.4, "reference": "ChIJA97hdIRw44kRzt_p5xV0wcs", "scope": "GOOGLE", "types": ["cafe", "store", "point_of_interest", "food", "establishment"], "user_ratings_total": 136, "vicinity": "121 Devonshire Street, Boston"}, "ChIJB1NncYRw44kRz221ww5MQRg": {"geometry": {"location": {"lat": 42.3572587, "lng": -71.0574189}, "viewport": {"northeast": {"lat": 42.3586091302915, "lng": -71.0560257697085}, "southwest": {"lat": 42.3559111697085, "lng": -71.0587237302915}}}, "icon": "https://maps.gstatic.com/mapfiles/place_api/icons/generic_business-71.png", "id": "f5c815d3722edfa1893d1f0cf41419e23c2ec11f", "name": "Gibson Financial Group", "place_id": "ChIJB1NncYRw44kRz221ww5MQRg", "plus_code": {"compound_code": "9W4V+W2 Boston, Massachusetts, United States", "global_code": "87JC9W4V+W2"}, "reference": "ChIJB1NncYRw44kRz221ww5MQRg", "scope": "GOOGLE", "types": ["finance", "point_of_interest", "establishment"], "vicinity": "111 Devonshire Street, Boston"}, "ChIJE-zyXL5544kRIoRNnsxpZ9M": {"geometry": {"location": {"lat": 42.3572587, "lng": -71.0574189}, "viewport": {"northeast": {"lat": 42.3586091302915, "lng": -71.0560257697085}, "southwest": {"lat": 42.3559111697085, "lng": -71.0587237302915}}}, "icon": "https://maps.gstatic.com/mapfiles/place_api/icons/generic_business-71.png", "id": "ee875fae7c3b9ad3fef941868e93f6ce2b60f9d0", "name": "Lauren Adler Dear", "place_id": "ChIJE-zyXL5544kRIoRNnsxpZ9M", "plus_code": {"compound_code": "9W4V+W2 Boston, Massachusetts, United States", "global_code": "87JC9W4V+W2"}, "reference": "ChIJE-zyXL5544kRIoRNnsxpZ9M", "scope": "GOOGLE", "types": ["health", "point_of_interest", "establishment"], "vicinity": "111 Devonshire Street, Boston"}, "ChIJB1NncYRw44kR4Z-nIhZpkdI": {"geometry": {"location": {"lat": 42.3572587, "lng": -71.0574189}, "viewport": {"northeast": {"lat": 42.3586091302915, "lng": -71.0560257697085}, "southwest": {"lat": 42.3559111697085, "lng": -71.0587237302915}}}, "icon": "https://maps.gstatic.com/mapfiles/place_api/icons/generic_business-71.png", "id": "c965f5b65cb2f61bddf197bb1bf77db82342b6f9", "name": "Massmunis.com", "opening_hours": {"open_now": true}, "place_id": "ChIJB1NncYRw44kR4Z-nIhZpkdI", "plus_code": {"compound_code": "9W4V+W2 Boston, Massachusetts, United States", "global_code": "87JC9W4V+W2"}, "reference": "ChIJB1NncYRw44kR4Z-nIhZpkdI", "scope": "GOOGLE", "types": ["finance", "point_of_interest", "establishment"], "vicinity": "111 Devonshire Street, Boston"}, "ChIJKbC7dYRw44kRZvZo493bRVo": {"geometry": {"location": {"lat": 42.357039, "lng": -71.057452}, "viewport": {"northeast": {"lat": 42.3582321802915, "lng": -71.0561065197085}, "southwest": {"lat": 42.3555342197085, "lng": -71.0588044802915}}}, "icon": "https://maps.gstatic.com/mapfiles/place_api/icons/generic_business-71.png", "id": "6170a4c433d0ba8ad61bcef46e5c325fe740d17e", "name": "beco", "opening_hours": {"open_now": true}, "photos": [{"height": 612, "html_attributions": ["<a href=\"https://maps.google.com/maps/contrib/118398432835194489600/photos\">beco</a>"], "photo_reference": "CmRaAAAAA37gS2AHibVGNZMfrxlA6hTgv9kNXn9E0uEfZi4UbeBnd_efmKt03YR-ipRxRhlxstvmDEWiOfQJKO95TLu-3_CakmO9tbJ35lO91AxG2MKZzW3YycOv0Gbv4fJnUQ0iEhD1Yaev-HhpNXpw5WNtU5D-GhQbMC00cil-1O0px0LE9RgjbUqiiA", "width": 1900}], "place_id": "ChIJKbC7dYRw44kRZvZo493bRVo", "plus_code": {"compound_code": "9W4V+R2 Boston, Massachusetts, United States", "global_code": "87JC9W4V+R2"}, "reference": "ChIJKbC7dYRw44kRZvZo493bRVo", "scope": "GOOGLE", "types": ["point_of_interest", "establishment"], "vicinity": "Floor 16, 50 Milk Street, Boston"}, "ChIJiyzdHodw44kRT_8k__E75v4": {"geometry": {"location": {"lat": 42.3570185, "lng": -71.0574839}, "viewport": {"northeast": {"lat": 42.3582221302915, "lng": -71.0561381697085}, "southwest": {"lat": 42.3555241697085, "lng": -71.05883613029151}}}, "icon": "https://maps.gstatic.com/mapfiles/place_api/icons/generic_business-71.png", "id": "cbac20c26dd2dd22533d76e13adcc280ad4db304", "name": "Partnership for Excellence in Jewish Education Inc", "place_id": "ChIJiyzdHodw44kRT_8k__E75v4", "plus_code": {"compound_code": "9W4V+R2 Boston, Massachusetts, United States", "global_code": "87JC9W4V+R2"}, "reference": "ChIJiyzdHodw44kRT_8k__E75v4", "scope": "GOOGLE", "types": ["point_of_interest", "establishment"], "vicinity": "50 Milk Street, Boston"}, "ChIJq6qqapxw44kRADVzzNqiUcc": {"geometry": {"location": {"lat": 42.3570185, "lng": -71.0574839}, "viewport": {"northeast": {"lat": 42.3582221302915, "lng": -71.0561381697085}, "southwest": {"lat": 42.3555241697085, "lng": -71.05883613029151}}}, "icon": "https://maps.gstatic.com/mapfiles/place_api/icons/generic_business-71.png", "id": "a5d07a02a971f20b87f94da77e940a6ed50c4c91", "name": "Mark Associates PC", "place_id": "ChIJq6qqapxw44kRADVzzNqiUcc", "plus_code": {"compound_code": "9W4V+R2 Boston, Massachusetts, United States", "global_code": "87JC9W4V+R2"}, "reference": "ChIJq6qqapxw44kRADVzzNqiUcc", "scope": "GOOGLE", "types": ["lawyer", "point_of_interest", "establishment"], "vicinity": "50 Milk Street, Boston"}, "ChIJLY0Ddl1344kRqDtRMtEU-ZE": {"geometry": {"location": {"lat": 42.3570185, "lng": -71.0574839}, "viewport": {"northeast": {"lat": 42.3582221302915, "lng": -71.0561381697085}, "southwest": {"lat": 42.3555241697085, "lng": -71.05883613029151}}}, "icon": "https://maps.gstatic.com/mapfiles/place_api/icons/generic_business-71.png", "id": "b10911fc7982112655d7a6db51ff4689370f7e51", "name": "Ecodocx LLC", "opening_hours": {"open_now": true}, "place_id": "ChIJLY0Ddl1344kRqDtRMtEU-ZE", "plus_code": {"compound_code": "9W4V+R2 Boston, Massachusetts, United States", "global_code": "87JC9W4V+R2"}, "rating": 5, "reference": "ChIJLY0Ddl1344kRqDtRMtEU-ZE", "scope": "GOOGLE", "types": ["point_of_interest", "establishment"], "user_ratings_total": 1, "vicinity": "50 Milk Street, Boston"}, "ChIJD0gp66Vw44kR3--IH4vtYAM": {"geometry": {"location": {"lat": 42.35704899999999, "lng": -71.057546}, "viewport": {"northeast": {"lat": 42.3582377802915, "lng": -71.05620061970849}, "southwest": {"lat": 42.3555398197085, "lng": -71.0588985802915}}}, "icon": "https://maps.gstatic.com/mapfiles/place_api/icons/generic_business-71.png", "id": "10b9bbc8ca45cac755f4de3c412b1f01259e2d5e", "name": "Plus 3 Interactive, LLC", "opening_hours": {"open_now": true}, "photos": [{"height": 1356, "html_attributions": ["<a href=\"https://maps.google.com/maps/contrib/114861241851977018654/photos\">Plus 3 Interactive, LLC</a>"], "photo_reference": "CmRaAAAAaYa6DTD0FpmCg5xVv6pOGz3vzMzxV_W8HqDJx69mPuK-aBseLbgy7kZ378gCWACiA9Dop1EXBavvL-sveRTgWIYDz-0hTXyhN4drfgv8CMNd2T9Gq5Fr4ranZbCz9lIdEhASLSF7bNLejdGjH7z9CW2GGhSqf7D_e2CGN2ENyfsA0JB8e4572g", "width": 2048}], "place_id": "ChIJD0gp66Vw44kR3--IH4vtYAM", "plus_code": {"compound_code": "9W4R+RX Boston, Massachusetts, United States", "global_code": "87JC9W4R+RX"}, "reference": "ChIJD0gp66Vw44kR3--IH4vtYAM", "scope": "GOOGLE", "types": ["point_of_interest", "establishment"], "vicinity": "16th Floor, 50 Milk Street, Boston"}, "ChIJqVXcdYRw44kRkH3XPt2pmV4": {"geometry": {"location": {"lat": 42.3570265, "lng": -71.0575344}, "viewport": {"northeast": {"lat": 42.3582264302915, "lng": -71.0561887697085}, "southwest": {"lat": 42.3555284697085, "lng": -71.0588867302915}}}, "icon": "https://maps.gstatic.com/mapfiles/place_api/icons/generic_business-71.png", "id": "f585bd188978521fc9aa164d47b5f53fd92279ba", "name": "Backupify", "place_id": "ChIJqVXcdYRw44kRkH3XPt2pmV4", "plus_code": {"compound_code": "9W4R+RX Boston, Massachusetts, United States", "global_code": "87JC9W4R+RX"}, "rating": 3, "reference": "ChIJqVXcdYRw44kRkH3XPt2pmV4", "scope": "GOOGLE", "types": ["point_of_interest", "establishment"], "user_ratings_total": 2, "vicinity": "50 Milk Street, Boston"}, "ChIJcSMtzL9544kRPhf8QMGKGzQ": {"geometry": {"location": {"lat": 42.3570345, "lng": -71.0575497}, "viewport": {"northeast": {"lat": 42.35838733029149, "lng": -71.05608451970848}, "southwest": {"lat": 42.3556893697085, "lng": -71.0587824802915}}}, "icon": "https://maps.gstatic.com/mapfiles/place_api/icons/generic_business-71.png", "id": "3d8ec039fe8d1cf4ebbd0b4d613db795164f997e", "name": "Raizlabs", "opening_hours": {"open_now": true}, "photos": [{"height": 3280, "html_attributions": ["<a href=\"https://maps.google.com/maps/contrib/112912668397193855322/photos\">Raizlabs</a>"], "photo_reference": "CmRaAAAAa6SwWk7XDRVchF2HtQAEO2tVIFegBA1Vyw7qox0qI2fuPjcHAan0CVMnN6l9pMzxrmj-1cYvX3T86jphrtF-05hkhNTB__aMPYkmo5FoEa_m_oOkwTEX9MxLcHP6hRz9EhDx7Um8bALWcRVn_01G1lYwGhQkscI4egFQiRMQAxd5aD2ilwKVJw", "width": 4928}], "place_id": "ChIJcSMtzL9544kRPhf8QMGKGzQ", "plus_code": {"compound_code": "9W4R+RX Boston, Massachusetts, United States", "global_code": "87JC9W4R+RX"}, "rating": 4.5, "reference": "ChIJcSMtzL9544kRPhf8QMGKGzQ", "scope": "GOOGLE", "types": ["point_of_interest", "establishment"], "user_ratings_total": 12, "vicinity": "50 Milk St, 19th Floor, Boston"}, "ChIJweZPdIRw44kRD6lNHz93eM0": {"geometry": {"location": {"lat": 42.3571184, "lng": -71.05743919999999}, "viewport": {"northeast": {"lat": 42.3584693302915, "lng": -71.05603166970849}, "southwest": {"lat": 42.3557713697085, "lng": -71.0587296302915}}}, "icon": "https://maps.gstatic.com/mapfiles/place_api/icons/generic_business-71.png", "id": "888df95727fb351ab648402a3693c8caf3389b56", "name": "Fab@CIC", "opening_hours": {"open_now": true}, "photos": [{"height": 572, "html_attributions": ["<a href=\"https://maps.google.com/maps/contrib/100288532523148654368/photos\">Fab@CIC</a>"], "photo_reference": "CmRaAAAAfT_v_H4egyFejijOmUpX8hxX3FM97GPQtA1syaS2doU12PtweNCGL3JWQX0OuQS1YgmVOrr7TOVuM9zuur7zwFyUPY7qkb-mzf1_T3e1HtF4HVFBviN9SsAaGIJVCmCKEhDKgh9JEAVo5YFrJwU-njRzGhTDMQi7lJMhoM6LaJE7McQTMb6jaA", "width": 1000}], "place_id": "ChIJweZPdIRw44kRD6lNHz93eM0", "plus_code": {"compound_code": "9W4V+R2 Boston, Massachusetts, United States", "global_code": "87JC9W4V+R2"}, "rating": 5, "reference": "ChIJweZPdIRw44kRD6lNHz93eM0", "scope": "GOOGLE", "types": ["point_of_interest", "establishment"], "user_ratings_total": 2, "vicinity": "121 Devonshire Street, Boston"}, "ChIJB1NncYRw44kRoyezKHIca5Q": {"geometry": {"location": {"lat": 42.3572587, "lng": -71.0574189}, "viewport": {"northeast": {"lat": 42.3586091302915, "lng": -71.0560257697085}, "southwest": {"lat": 42.3559111697085, "lng": -71.0587237302915}}}, "icon": "https://maps.gstatic.com/mapfiles/place_api/icons/generic_business-71.png", "id": "8ba83aaa683c21e8a12aee988d5f1f9096bcb4d9", "name": "Alan W. Sharpe", "place_id": "ChIJB1NncYRw44kRoyezKHIca5Q", "plus_code": {"compound_code": "9W4V+W2 Boston, Massachusetts, United States", "global_code": "87JC9W4V+W2"}, "reference": "ChIJB1NncYRw44kRoyezKHIca5Q", "scope": "GOOGLE", "types": ["insurance_agency", "point_of_interest", "establishment"], "vicinity": "111 Devonshire Street, Boston"}, "ChIJ21gFdoRw44kRFCZTtgIYqZw": {"geometry": {"location": {"lat": 42.3570289, "lng": -71.0573763}, "viewport": {"northeast": {"lat": 42.35837848029149, "lng": -71.05601021970848}, "southwest": {"lat": 42.3556805197085, "lng": -71.0587081802915}}}, "icon": "https://maps.gstatic.com/mapfiles/place_api/icons/generic_business-71.png", "id": "ff276bbdd0d7d0ec2a39feab743568a068993188", "name": "Cloud FastPath", "photos": [{"height": 480, "html_attributions": ["<a href=\"https://maps.google.com/maps/contrib/111356049576235152902/photos\">Cloud FastPath</a>"], "photo_reference": "CmRaAAAAmwDWTMU8WeWWVy38kRUL5-dqlxklktCZ-cGaW3MmjTFi_5hBzhILm_bwcFeucjTMzlwPrCv2e6WJq3Coz1Kk6dfduVhX7W6fLG9XVRMwsP5_PVSmyFrUb6TiffEu9d_hEhAe69eyPA2ZWDfj-ij5OVmXGhT0w6s01nnSedb-qNSn-14v0nnFIQ", "width": 640}], "place_id": "ChIJ21gFdoRw44kRFCZTtgIYqZw", "plus_code": {"compound_code": "9W4V+R2 Boston, Massachusetts, United States", "global_code": "87JC9W4V+R2"}, "reference": "ChIJ21gFdoRw44kRFCZTtgIYqZw", "scope": "GOOGLE", "types": ["point_of_interest", "establishment"], "vicinity": "50 Milk Street, Boston"}, "ChIJGzE9DS1l44kRoOhiASS_fHg": {"geometry": {"location": {"lat": 42.3600825, "lng": -71.0588801}, "viewport": {"northeast": {"lat": 42.40081989999999, "lng": -70.749455}, "southwest": {"lat": 42.22788, "lng": -71.191113}}}, "icon": "https://maps.gstatic.com/mapfiles/place_api/icons/geocode-71.png", "id": "06755c25d2b34d13942a4713971756a55b870ced", "name": "Boston", "photos": [{"height": 3024, "html_attributions": ["<a href=\"https://maps.google.com/maps/contrib/104670289779338733432/photos\">Natalia Zalucean</a>"], "photo_reference": "CmRaAAAAuBxOE4GX6xodI5TduQJGw2mhqDFhcwSdmrzQPO27nL1cFs_v9oEEwhwxzeA-A-6pRoJrJql9S2gE34QINZp4WnkB1B5TSaASyc6Pzg9q6eLGR20BML3UwbhW8s2HmVGzEhAoiOlO47ctdhz8DCNi8LB9GhRjvOf0qF0GQRinxZwktwim6CTIsA", "width": 4032}], "place_id": "ChIJGzE9DS1l44kRoOhiASS_fHg", "reference": "ChIJGzE9DS1l44kRoOhiASS_fHg", "scope": "GOOGLE", "types": ["locality", "political"], "vicinity": "Boston"}}