{"ChIJSb0RMJh544kR60AFnsvVJzU": {"geometry": {"location": {"lat": 42.3335155, "lng": -71.1188081}, "viewport": {"northeast": {"lat": 42.3348644802915, "lng": -71.11745911970849}, "southwest": {"lat": 42.3321665197085, "lng": -71.1201570802915}}}, "icon": "https://maps.gstatic.com/mapfiles/place_api/icons/geocode-71.png", "id": "d1b51bd41f323dfddec25b3d25aa747f6bb7a2e5", "name": "18-2 Harvard St", "place_id": "ChIJSb0RMJh544kR60AFnsvVJzU", "reference": "ChIJSb0RMJh544kR60AFnsvVJzU", "scope": "GOOGLE", "types": ["route"], "vicinity": "Brookline"}, "ChIJsXcQL5h544kR-L5hTLx0bQs": {"geometry": {"location": {"lat": 42.333718, "lng": -71.118714}, "viewport": {"northeast": {"lat": 42.3350574802915, "lng": -71.11743491970849}, "southwest": {"lat": 42.3323595197085, "lng": -71.1201328802915}}}, "icon": "https://maps.gstatic.com/mapfiles/place_api/icons/cafe-71.png", "id": "f6559f46647a622e417173c4e31056abac81c1af", "name": "Starbucks", "opening_hours": {"open_now": true}, "photos": [{"height": 664, "html_attributions": ["<a href=\"https://maps.google.com/maps/contrib/105222036402084912652/photos\">Starbucks</a>"], "photo_reference": "CmRaAAAAKPTjDQFeTMUUkT_0SzjSE5Wj0r6ShIlhs820XtD93rCizIb93u5W4yU-FAnqeZ7_AcqQ5pnxeLnfWF2dFfPrNxOG9TGrNTEwiz4hjsbOuRmGf1HioeYqWdMklf03NGGoEhCigfPCePla3Hwp2pC9qEtVGhQeOsqgt7svCjwZhaZRXw6Duf9pOA", "width": 732}], "place_id": "ChIJsXcQL5h544kR-L5hTLx0bQs", "plus_code": {"compound_code": "8VMJ+FG Brookline, Massachusetts, United States", "global_code": "87JC8VMJ+FG"}, "price_level": 2, "rating": 4.2, "reference": "ChIJsXcQL5h544kR-L5hTLx0bQs", "scope": "GOOGLE", "types": ["cafe", "store", "point_of_interest", "food", "establishment"], "user_ratings_total": 132, "vicinity": "15 Harvard Street, Brookline"}, "ChIJNbMvMJh544kRX7-i8Apoqec": {"geometry": {"location": {"lat": 42.333609, "lng": -71.11856159999999}, "viewport": {"northeast": {"lat": 42.33497223029149, "lng": -71.1170924197085}, "southwest": {"lat": 42.33227426970849, "lng": -71.1197903802915}}}, "icon": "https://maps.gstatic.com/mapfiles/place_api/icons/generic_business-71.png", "id": "efdad194051c2fdfa5a6411d7585d76c14c3c306", "name": "Freeman & Freeman", "opening_hours": {"open_now": false}, "place_id": "ChIJNbMvMJh544kRX7-i8Apoqec", "plus_code": {"compound_code": "8VMJ+CH Brookline, Massachusetts, United States", "global_code": "87JC8VMJ+CH"}, "rating": 5, "reference": "ChIJNbMvMJh544kRX7-i8Apoqec", "scope": "GOOGLE", "types": ["lawyer", "point_of_interest", "establishment"], "user_ratings_total": 6, "vicinity": "7 Harvard Street, Brookline"}, "ChIJleyjL5h544kRKiKcPNvkJjk": {"geometry": {"location": {"lat": 42.33367250000001, "lng": -71.1187253}, "viewport": {"northeast": {"lat": 42.3350134302915, "lng": -71.1174352697085}, "southwest": {"lat": 42.3323154697085, "lng": -71.1201332302915}}}, "icon": "https://maps.gstatic.com/mapfiles/place_api/icons/shopping-71.png", "id": "298bb92ef054c7b70a8d6da08a1dcd8dfe9ea60d", "name": "Vizio Optic Eyeglasses & Sunglasses", "opening_hours": {"open_now": true}, "photos": [{"height": 2592, "html_attributions": ["<a href=\"https://maps.google.com/maps/contrib/117778545043758912380/photos\">Vizio Optic Eyeglasses &amp; Sunglasses</a>"], "photo_reference": "CmRaAAAAC2lz-GoSG5lmruX6RNQKTyclGXFQGT6Lb9WvZ1kzvASLrrXrbktEljAd7QOLXOOOBBa3TVrHYQ4h3kJlCQg88GFK6zOeA0cTPdh2i0wnb_mnPC6cYH6NGh3ug53F42wxEhC4mOdV5bo35PTf5oB7ls3RGhQO_2luvN2PLOlpgZbvCBU0IkqL6g", "width": 3888}], "place_id": "ChIJleyjL5h544kRKiKcPNvkJjk", "plus_code": {"compound_code": "8VMJ+FG Brookline, Massachusetts, United States", "global_code": "87JC8VMJ+FG"}, "rating": 4.8, "reference": "ChIJleyjL5h544kRKiKcPNvkJjk", "scope": "GOOGLE", "types": ["store", "health", "point_of_interest", "establishment"], "user_ratings_total": 45, "vicinity": "11 Harvard Street, Brookline"}, "ChIJc-2jL5h544kRt1zQk6DAEoU": {"geometry": {"location": {"lat": 42.3336774, "lng": -71.1185667}, "viewport": {"northeast": {"lat": 42.3350078302915, "lng": -71.1173539697085}, "southwest": {"lat": 42.3323098697085, "lng": -71.12005193029151}}}, "icon": "https://maps.gstatic.com/mapfiles/place_api/icons/generic_business-71.png", "id": "dc35ecffe3279c9e23ddfb979af786d55538a9f2", "name": "Eye Care Boston", "place_id": "ChIJc-2jL5h544kRt1zQk6DAEoU", "plus_code": {"compound_code": "8VMJ+FH Brookline, Massachusetts, United States", "global_code": "87JC8VMJ+FH"}, "rating": 5, "reference": "ChIJc-2jL5h544kRt1zQk6DAEoU", "scope": "GOOGLE", "types": ["health", "point_of_interest", "establishment"], "user_ratings_total": 2, "vicinity": "11 Harvard Street, Brookline"}, "ChIJleyjL5h544kROxl_5QAbIl4": {"geometry": {"location": {"lat": 42.3336785, "lng": -71.1185299}, "viewport": {"northeast": {"lat": 42.3350390302915, "lng": -71.11708351970849}, "southwest": {"lat": 42.33234106970851, "lng": -71.1197814802915}}}, "icon": "https://maps.gstatic.com/mapfiles/place_api/icons/generic_business-71.png", "id": "902f9ade3fee6fbc3b4cc3ef21b3be0e2c1bc8d0", "name": "Galina Rabkin, OD", "place_id": "ChIJleyjL5h544kROxl_5QAbIl4", "plus_code": {"compound_code": "8VMJ+FH Brookline, Massachusetts, United States", "global_code": "87JC8VMJ+FH"}, "reference": "ChIJleyjL5h544kROxl_5QAbIl4", "scope": "GOOGLE", "types": ["doctor", "health", "point_of_interest", "establishment"], "vicinity": "11 Harvard Street, Brookline"}, "ChIJNbMvMJh544kRZ6FV_vFzDZQ": {"geometry": {"location": {"lat": 42.333609, "lng": -71.11856159999999}, "viewport": {"northeast": {"lat": 42.33497223029149, "lng": -71.1170924197085}, "southwest": {"lat": 42.33227426970849, "lng": -71.1197903802915}}}, "icon": "https://maps.gstatic.com/mapfiles/place_api/icons/generic_business-71.png", "id": "f25321b46cd464b98bdf738effd0ab7d33a1a7d3", "name": "Mackin Group Inc", "place_id": "ChIJNbMvMJh544kRZ6FV_vFzDZQ", "plus_code": {"compound_code": "8VMJ+CH Brookline, Massachusetts, United States", "global_code": "87JC8VMJ+CH"}, "rating": 2.3, "reference": "ChIJNbMvMJh544kRZ6FV_vFzDZQ", "scope": "GOOGLE", "types": ["point_of_interest", "establishment"], "user_ratings_total": 6, "vicinity": "7 Harvard Street # 210, Brookline"}, "ChIJc38lfSOC44kRsgthBXRzsEo": {"geometry": {"location": {"lat": 42.33359, "lng": -71.118664}, "viewport": {"northeast": {"lat": 42.3349282802915, "lng": -71.11739366970849}, "southwest": {"lat": 42.3322303197085, "lng": -71.1200916302915}}}, "icon": "https://maps.gstatic.com/mapfiles/place_api/icons/generic_business-71.png", "id": "ab30a481e6a7c5534f44de859768bdf8680725c6", "name": "Harvard Carpets & Air Ducts Care", "opening_hours": {"open_now": true}, "photos": [{"height": 555, "html_attributions": ["<a href=\"https://maps.google.com/maps/contrib/101275634650474377045/photos\">Harvard Carpets &amp; Air Ducts Care</a>"], "photo_reference": "CmRaAAAAkSNwvf5l3O4gxciAp2ulQ8z4l7XszPdk2j6eqmgB6sHH_140uvzLDca8qFShMBlmFRIi37VygcaGK79VFV1bnyMJiaIu-p3gX3s3Trxg8gT_xrbmqwfjh5pc6kF0JhV5EhAwZdqdvHIlOFf-4d-l5LlkGhSyS_Qm1WO1bO1rdjZTmZfWyUcK0Q", "width": 865}], "place_id": "ChIJc38lfSOC44kRsgthBXRzsEo", "plus_code": {"compound_code": "8VMJ+CG Brookline, Massachusetts, United States", "global_code": "87JC8VMJ+CG"}, "rating": 5, "reference": "ChIJc38lfSOC44kRsgthBXRzsEo", "scope": "GOOGLE", "types": ["point_of_interest", "establishment"], "user_ratings_total": 6, "vicinity": "9 Harvard Street, Brookline"}, "ChIJ7VCFLph544kRjHURdb4Mc8Q": {"geometry": {"location": {"lat": 42.3336785, "lng": -71.1185299}, "viewport": {"northeast": {"lat": 42.3350390302915, "lng": -71.11708351970849}, "southwest": {"lat": 42.33234106970851, "lng": -71.1197814802915}}}, "icon": "https://maps.gstatic.com/mapfiles/place_api/icons/generic_business-71.png", "id": "2e8ecfa4594f6b0772df9b87439a8aad7c7fdef6", "name": "Brookline Optometrists by Vizio Optic", "place_id": "ChIJ7VCFLph544kRjHURdb4Mc8Q", "plus_code": {"compound_code": "8VMJ+FH Brookline, Massachusetts, United States", "global_code": "87JC8VMJ+FH"}, "reference": "ChIJ7VCFLph544kRjHURdb4Mc8Q", "scope": "GOOGLE", "types": ["health", "point_of_interest", "establishment"], "vicinity": "11R Harvard Street, Brookline"}, "ChIJ7VCFLph544kRe_0N_2KCtBA": {"geometry": {"location": {"lat": 42.3336785, "lng": -71.1185299}, "viewport": {"northeast": {"lat": 42.3350390302915, "lng": -71.11708351970849}, "southwest": {"lat": 42.33234106970851, "lng": -71.1197814802915}}}, "icon": "https://maps.gstatic.com/mapfiles/place_api/icons/generic_business-71.png", "id": "e32cc2ef44e428ffbf31b40f4527309af5517d72", "name": "Brookline Eye Doctor", "opening_hours": {"open_now": true}, "place_id": "ChIJ7VCFLph544kRe_0N_2KCtBA", "plus_code": {"compound_code": "8VMJ+FH Brookline, Massachusetts, United States", "global_code": "87JC8VMJ+FH"}, "reference": "ChIJ7VCFLph544kRe_0N_2KCtBA", "scope": "GOOGLE", "types": ["health", "point_of_interest", "establishment"], "vicinity": "11B Harvard Street, Brookline"}, "ChIJP5doLph544kRIwOP8A7gwMY": {"geometry": {"location": {"lat": 42.333609, "lng": -71.11856200000001}, "viewport": {"northeast": {"lat": 42.33497223029149, "lng": -71.11709261970849}, "southwest": {"lat": 42.33227426970849, "lng": -71.11979058029151}}}, "icon": "https://maps.gstatic.com/mapfiles/place_api/icons/generic_business-71.png", "id": "50d7e6c674a0e52059025a4df9bbeb5cf5e8b791", "name": "Mandla Nkosi Optimum Performance", "opening_hours": {"open_now": true}, "photos": [{"height": 1347, "html_attributions": ["<a href=\"https://maps.google.com/maps/contrib/109053788757760463487/photos\">Mandla Nkosi Optimum Performance</a>"], "photo_reference": "CmRaAAAAy4KokHIH0C84RIHDteRUmDnl2ER97W-Wn0M7PjyjN7J9p-V1pOnyYPNf2pjRiz-GNllOa0s3fd5c7steZlUR6t7IYLobU9WeTVjGRhbPk_Dz5PZYR-GyC5AqwkcCKpgzEhDAvzLIg8MDnU_lAhfPb4j6GhRelhs6RiGPiKLcn2dA3GbaWXzbgw", "width": 1336}], "place_id": "ChIJP5doLph544kRIwOP8A7gwMY", "plus_code": {"compound_code": "8VMJ+CH Brookline, Massachusetts, United States", "global_code": "87JC8VMJ+CH"}, "reference": "ChIJP5doLph544kRIwOP8A7gwMY", "scope": "GOOGLE", "types": ["gym", "health", "point_of_interest", "establishment"], "vicinity": "7 Harvard Street Suite 204, Brookline"}, "ChIJn5doLph544kR_a6tDA9TEZQ": {"geometry": {"location": {"lat": 42.333609, "lng": -71.11856159999999}, "viewport": {"northeast": {"lat": 42.33497223029149, "lng": -71.1170924197085}, "southwest": {"lat": 42.33227426970849, "lng": -71.1197903802915}}}, "icon": "https://maps.gstatic.com/mapfiles/place_api/icons/generic_business-71.png", "id": "f661edeba449f32bb0b49ad71241016cb00f1a33", "name": "Pediatria HealthCare for Kids", "opening_hours": {"open_now": false}, "photos": [{"height": 2025, "html_attributions": ["<a href=\"https://maps.google.com/maps/contrib/101391921679954846609/photos\">Pediatria HealthCare for Kids</a>"], "photo_reference": "CmRaAAAAx3ByaUYKsEUAClIk2vXLdijWytz34BUlGrh59CHuG3b-lqUZOgeBTl0BFKSEfEjBa77uzYGbSvffwb8NJOFB_MV8XPw8uqm60ojKROhijdMlUkx56VyLyTxS5ChdQidtEhCIy3Sg5aiAmTgUFxUT1C78GhTH8eT-QmlJ8tVqfiLOu6FUjJ0bjA", "width": 2025}], "place_id": "ChIJn5doLph544kR_a6tDA9TEZQ", "plus_code": {"compound_code": "8VMJ+CH Brookline, Massachusetts, United States", "global_code": "87JC8VMJ+CH"}, "reference": "ChIJn5doLph544kR_a6tDA9TEZQ", "scope": "GOOGLE", "types": ["health", "point_of_interest", "establishment"], "vicinity": "7 Harvard Street #220, Brookline"}, "ChIJixRsqRh544kRt8FlHgiXFQs": {"geometry": {"location": {"lat": 42.33361319999999, "lng": -71.1185282}, "viewport": {"northeast": {"lat": 42.3349248802915, "lng": -71.1173653697085}, "southwest": {"lat": 42.3322269197085, "lng": -71.1200633302915}}}, "icon": "https://maps.gstatic.com/mapfiles/place_api/icons/restaurant-71.png", "id": "57782f031d4db847b9b128260ae6dea3e58b230f", "name": "Pok\u00e9 Garden Brookline", "opening_hours": {"open_now": true}, "photos": [{"height": 3264, "html_attributions": ["<a href=\"https://maps.google.com/maps/contrib/103651589880734365698/photos\">Mei Wei</a>"], "photo_reference": "CmRaAAAAIaLqgMd3GwJ_kbOPdJEMi_8HXojX6JikY_B_Z7c1ZQqN2PndyxCFCXwuRe53tXhqcLdC0a9h3XbRs9zYxWD945VEr_ST3O-2-ng_1XF2ETfZwk4D0OjqHbOPX-w6hIwwEhCV6ebdwF3n0iqC40TddyrnGhQ2Hw-I9SoQ44Iw1tyVye8I2unoTg", "width": 2448}], "place_id": "ChIJixRsqRh544kRt8FlHgiXFQs", "plus_code": {"compound_code": "8VMJ+CH Brookline, Massachusetts, United States", "global_code": "87JC8VMJ+CH"}, "rating": 5, "reference": "ChIJixRsqRh544kRt8FlHgiXFQs", "scope": "GOOGLE", "types": ["meal_takeaway", "restaurant", "point_of_interest", "food", "establishment"], "user_ratings_total": 4, "vicinity": "7 Harvard Street, Brookline"}, "ChIJhZirQQB544kRB9LbXEfedZQ": {"geometry": {"location": {"lat": 42.33176419999999, "lng": -71.1211635}, "viewport": {"northeast": {"lat": 42.3518109, "lng": -71.1056969}, "southwest": {"lat": 42.29459689999999, "lng": -71.1789959}}}, "icon": "https://maps.gstatic.com/mapfiles/place_api/icons/geocode-71.png", "id": "92986b2d1f69af2f2a7e29d34ced8adfa8573beb", "name": "Brookline", "photos": [{"height": 651, "html_attributions": ["<a href=\"https://maps.google.com/maps/contrib/114772942214832951419/photos\">Michael Ahn</a>"], "photo_reference": "CmRaAAAAdAXTdEmA9lqDnjOJOIgqoQ0PW2GnwtMM5GqFbnaTZIhn12EUpLGuyiYOz12qsBCDZwh4vslpGg1hHTBorlBGatFFrVbvzcqjXp4NlZ5gwQuZ86KmDCdakuuZFW_ed4-0EhBzT06NjKDGd3x8G6DslomgGhR0W1VcfOXKWi8bePJT0t0z_-LL4Q", "width": 1608}], "place_id": "ChIJhZirQQB544kRB9LbXEfedZQ", "reference": "ChIJhZirQQB544kRB9LbXEfedZQ", "scope": "GOOGLE", "types": ["locality", "political"], "vicinity": "Brookline"}}