{"ChIJIUvItIdw44kRNhsQpvrTzvc": {"geometry": {"location": {"lat": 42.3594745, "lng": -71.052712}, "viewport": {"northeast": {"lat": 42.3608234302915, "lng": -71.05136296970849}, "southwest": {"lat": 42.3581254697085, "lng": -71.0540609302915}}}, "icon": "https://maps.gstatic.com/mapfiles/place_api/icons/geocode-71.png", "id": "a52f25018854d00db355e8a4f0b6f8ef6a3b8b08", "name": "200 State St", "place_id": "ChIJIUvItIdw44kRNhsQpvrTzvc", "reference": "ChIJIUvItIdw44kRNhsQpvrTzvc", "scope": "GOOGLE", "types": ["route"], "vicinity": "Boston"}, "ChIJ67CvEGh344kRz_Pf9n1Y8BI": {"geometry": {"location": {"lat": 42.3596038, "lng": -71.0528661}, "viewport": {"northeast": {"lat": 42.3608509302915, "lng": -71.0516755697085}, "southwest": {"lat": 42.3581529697085, "lng": -71.0543735302915}}}, "icon": "https://maps.gstatic.com/mapfiles/place_api/icons/generic_business-71.png", "id": "ee8b38d4713aeca662d4dea5851ee531c7b148da", "name": "Lexecon Inc", "place_id": "ChIJ67CvEGh344kRz_Pf9n1Y8BI", "plus_code": {"compound_code": "9W5W+RV Boston, Massachusetts, United States", "global_code": "87JC9W5W+RV"}, "reference": "ChIJ67CvEGh344kRz_Pf9n1Y8BI", "scope": "GOOGLE", "types": ["point_of_interest", "establishment"], "vicinity": "200 State Street # 9, Boston"}, "ChIJV-19NYZw44kRLs-2eP2WMgo": {"geometry": {"location": {"lat": 42.3596038, "lng": -71.0528661}, "viewport": {"northeast": {"lat": 42.3608509302915, "lng": -71.0516755697085}, "southwest": {"lat": 42.3581529697085, "lng": -71.0543735302915}}}, "icon": "https://maps.gstatic.com/mapfiles/place_api/icons/generic_business-71.png", "id": "68d62ddf09152b68d4488b39260dedbdc1942488", "name": "Morgan Brown & Joy: Kaplan Alan I", "place_id": "ChIJV-19NYZw44kRLs-2eP2WMgo", "plus_code": {"compound_code": "9W5W+RV Boston, Massachusetts, United States", "global_code": "87JC9W5W+RV"}, "reference": "ChIJV-19NYZw44kRLs-2eP2WMgo", "scope": "GOOGLE", "types": ["lawyer", "point_of_interest", "establishment"], "vicinity": "200 State Street, Boston"}, "ChIJV-19NYZw44kRMZpTzgjHp6Q": {"geometry": {"location": {"lat": 42.3596038, "lng": -71.0528661}, "viewport": {"northeast": {"lat": 42.3608509302915, "lng": -71.0516755697085}, "southwest": {"lat": 42.3581529697085, "lng": -71.0543735302915}}}, "icon": "https://maps.gstatic.com/mapfiles/place_api/icons/generic_business-71.png", "id": "bc52ee4323c5c78cb93dc69ce4307e5e03d4a043", "name": "Morgan Brown & Joy: Mack Harold N", "place_id": "ChIJV-19NYZw44kRMZpTzgjHp6Q", "plus_code": {"compound_code": "9W5W+RV Boston, Massachusetts, United States", "global_code": "87JC9W5W+RV"}, "reference": "ChIJV-19NYZw44kRMZpTzgjHp6Q", "scope": "GOOGLE", "types": ["lawyer", "point_of_interest", "establishment"], "vicinity": "200 State Street, Boston"}, "ChIJV-19NYZw44kRcG_bfJCVghk": {"geometry": {"location": {"lat": 42.3596038, "lng": -71.0528661}, "viewport": {"northeast": {"lat": 42.3608509302915, "lng": -71.0516755697085}, "southwest": {"lat": 42.3581529697085, "lng": -71.0543735302915}}}, "icon": "https://maps.gstatic.com/mapfiles/place_api/icons/generic_business-71.png", "id": "bf6aa3910beeac089fa41753cf70e6524d77b478", "name": "Morgan Brown & Joy: Rozak Kimberly A", "place_id": "ChIJV-19NYZw44kRcG_bfJCVghk", "plus_code": {"compound_code": "9W5W+RV Boston, Massachusetts, United States", "global_code": "87JC9W5W+RV"}, "reference": "ChIJV-19NYZw44kRcG_bfJCVghk", "scope": "GOOGLE", "types": ["lawyer", "point_of_interest", "establishment"], "vicinity": "200 State Street, Boston"}, "ChIJV-19NYZw44kR75bg2J25BDg": {"geometry": {"location": {"lat": 42.3596038, "lng": -71.0528661}, "viewport": {"northeast": {"lat": 42.3608509302915, "lng": -71.0516755697085}, "southwest": {"lat": 42.3581529697085, "lng": -71.0543735302915}}}, "icon": "https://maps.gstatic.com/mapfiles/place_api/icons/generic_business-71.png", "id": "660a1ad0ee6710b422f259aee9dfb653af32b1f1", "name": "Morgan Brown & Joy: Smith Benjamin", "place_id": "ChIJV-19NYZw44kR75bg2J25BDg", "plus_code": {"compound_code": "9W5W+RV Boston, Massachusetts, United States", "global_code": "87JC9W5W+RV"}, "reference": "ChIJV-19NYZw44kR75bg2J25BDg", "scope": "GOOGLE", "types": ["lawyer", "point_of_interest", "establishment"], "vicinity": "200 State Street, Boston"}, "ChIJV-19NYZw44kRFASuoCovytw": {"geometry": {"location": {"lat": 42.3596038, "lng": -71.0528661}, "viewport": {"northeast": {"lat": 42.3608509302915, "lng": -71.0516755697085}, "southwest": {"lat": 42.3581529697085, "lng": -71.0543735302915}}}, "icon": "https://maps.gstatic.com/mapfiles/place_api/icons/generic_business-71.png", "id": "9f3bc0c14d2abe24376113bb08d7b71405ce3f87", "name": "Morgan Brown & Joy: Locke Steven", "place_id": "ChIJV-19NYZw44kRFASuoCovytw", "plus_code": {"compound_code": "9W5W+RV Boston, Massachusetts, United States", "global_code": "87JC9W5W+RV"}, "reference": "ChIJV-19NYZw44kRFASuoCovytw", "scope": "GOOGLE", "types": ["lawyer", "point_of_interest", "establishment"], "vicinity": "200 State Street, Boston"}, "ChIJV-19NYZw44kRa9uhZfk9MVE": {"geometry": {"location": {"lat": 42.359632, "lng": -71.052874}, "viewport": {"northeast": {"lat": 42.3608650302915, "lng": -71.05167951970849}, "southwest": {"lat": 42.3581670697085, "lng": -71.0543774802915}}}, "icon": "https://maps.gstatic.com/mapfiles/place_api/icons/generic_business-71.png", "id": "744b31744ca24558fccb9c8d4124222e6dec6e00", "name": "FTI Consulting", "place_id": "ChIJV-19NYZw44kRa9uhZfk9MVE", "plus_code": {"compound_code": "9W5W+VV Boston, Massachusetts, United States", "global_code": "87JC9W5W+VV"}, "reference": "ChIJV-19NYZw44kRa9uhZfk9MVE", "scope": "GOOGLE", "types": ["point_of_interest", "establishment"], "vicinity": "200 State St, 9th Floor, Boston"}, "ChIJV-19NYZw44kRklPg9i0EEjU": {"geometry": {"location": {"lat": 42.3596038, "lng": -71.0528661}, "viewport": {"northeast": {"lat": 42.3608509302915, "lng": -71.0516755697085}, "southwest": {"lat": 42.3581529697085, "lng": -71.0543735302915}}}, "icon": "https://maps.gstatic.com/mapfiles/place_api/icons/generic_business-71.png", "id": "a6888f683a04a48e1aef9ef2140c5005447953a1", "name": "Naxos Avondale Insurance Inc", "place_id": "ChIJV-19NYZw44kRklPg9i0EEjU", "plus_code": {"compound_code": "9W5W+RV Boston, Massachusetts, United States", "global_code": "87JC9W5W+RV"}, "rating": 4, "reference": "ChIJV-19NYZw44kRklPg9i0EEjU", "scope": "GOOGLE", "types": ["insurance_agency", "point_of_interest", "establishment"], "user_ratings_total": 1, "vicinity": "200 State Street # 400, Boston"}, "ChIJucnZpINw44kREZWElGRrYiM": {"geometry": {"location": {"lat": 42.3595, "lng": -71.05277099999999}, "viewport": {"northeast": {"lat": 42.3607595802915, "lng": -71.0515690197085}, "southwest": {"lat": 42.3580616197085, "lng": -71.05426698029152}}}, "icon": "https://maps.gstatic.com/mapfiles/place_api/icons/generic_business-71.png", "id": "7773d938378022192cdf2a4ce511579ac743682b", "name": "Tempus Fugit Law, LLC", "opening_hours": {"open_now": true}, "photos": [{"height": 388, "html_attributions": ["<a href=\"https://maps.google.com/maps/contrib/109098045497591579149/photos\">Tempus Fugit Law, LLC</a>"], "photo_reference": "CmRaAAAAbxnr-gXBoSzPxHgCBqKn5kUPU4gGRD0bvnYa_cEY_7M07aEa4OQ9GIcDtBLwzpHiNQYO4HDsQp-PST0fERtCCKPDqu5_eQ6w4ZsjN-XfUOkUqNxkhPh-PeDxCQj4BPsvEhCik6wUZq31mUpNAHlEgAAoGhQPy_CqT61FApCKFFA-Ah3_BuIX9w", "width": 690}], "place_id": "ChIJucnZpINw44kREZWElGRrYiM", "plus_code": {"compound_code": "9W5W+QV Boston, Massachusetts, United States", "global_code": "87JC9W5W+QV"}, "rating": 4.9, "reference": "ChIJucnZpINw44kREZWElGRrYiM", "scope": "GOOGLE", "types": ["lawyer", "point_of_interest", "establishment"], "user_ratings_total": 86, "vicinity": "183 State Street floor 2, Boston"}, "ChIJn9iimYZw44kR0r1ulSPe6T0": {"geometry": {"location": {"lat": 42.3595935, "lng": -71.0530113}, "viewport": {"northeast": {"lat": 42.36086948029149, "lng": -71.0515948697085}, "southwest": {"lat": 42.35817151970849, "lng": -71.0542928302915}}}, "icon": "https://maps.gstatic.com/mapfiles/place_api/icons/generic_business-71.png", "id": "13c951c7392b560a87fa524e35cf27f6c30b796d", "name": "Rose Park Advisors", "photos": [{"height": 3156, "html_attributions": ["<a href=\"https://maps.google.com/maps/contrib/116255082793108230816/photos\">Maurizio Giove</a>"], "photo_reference": "CmRaAAAAkQ2cNbbrLqy_AD133hREwf1ZtP0kT6a5kU3ZdaEMLYFoqzEz2FtWN9ZLi1VeNXOAZ1rnAKkFaIqc7ac7u4wgXwKH0WNcaOOjz4LIBTgI-_GGCap6-gJK9vTfKVsC0n6eEhBcqk20vSdxzjuffQ8QnrnMGhSRF0kkF1jghLJ6mQ7W8rAV3NLwGw", "width": 4256}], "place_id": "ChIJn9iimYZw44kR0r1ulSPe6T0", "plus_code": {"compound_code": "9W5W+RQ Boston, Massachusetts, United States", "global_code": "87JC9W5W+RQ"}, "reference": "ChIJn9iimYZw44kR0r1ulSPe6T0", "scope": "GOOGLE", "types": ["finance", "point_of_interest", "establishment"], "vicinity": "200 State Street, Boston"}, "ChIJAQZaSoZw44kRSPJzTubMpkU": {"geometry": {"location": {"lat": 42.359624, "lng": -71.05296}, "viewport": {"northeast": {"lat": 42.3608610302915, "lng": -71.05172251970849}, "southwest": {"lat": 42.3581630697085, "lng": -71.0544204802915}}}, "icon": "https://maps.gstatic.com/mapfiles/place_api/icons/generic_business-71.png", "id": "cb09faa79c01df46e1f21b5588165945737ec3c0", "name": "Ashcroft Sullivan Law Firm", "opening_hours": {"open_now": true}, "place_id": "ChIJAQZaSoZw44kRSPJzTubMpkU", "plus_code": {"compound_code": "9W5W+RR Boston, Massachusetts, United States", "global_code": "87JC9W5W+RR"}, "reference": "ChIJAQZaSoZw44kRSPJzTubMpkU", "scope": "GOOGLE", "types": ["point_of_interest", "establishment"], "vicinity": "200 State Street, 7th Floor, Boston"}, "ChIJY8wzs4dw44kRGXDK0ScL1C4": {"geometry": {"location": {"lat": 42.3592922, "lng": -71.052739}, "viewport": {"northeast": {"lat": 42.36072533029149, "lng": -71.0514167197085}, "southwest": {"lat": 42.3580273697085, "lng": -71.0541146802915}}}, "icon": "https://maps.gstatic.com/mapfiles/place_api/icons/generic_business-71.png", "id": "65ac13e84bb4bab6354e690e8c23b575a321c9bb", "name": "Access Love", "place_id": "ChIJY8wzs4dw44kRGXDK0ScL1C4", "plus_code": {"compound_code": "9W5W+PW Boston, Massachusetts, United States", "global_code": "87JC9W5W+PW"}, "reference": "ChIJY8wzs4dw44kRGXDK0ScL1C4", "scope": "GOOGLE", "types": ["point_of_interest", "establishment"], "vicinity": "189 State Street, Boston"}, "ChIJY8wzs4dw44kReo27ai-Y2oc": {"geometry": {"location": {"lat": 42.3592922, "lng": -71.052739}, "viewport": {"northeast": {"lat": 42.36072533029149, "lng": -71.0514167197085}, "southwest": {"lat": 42.3580273697085, "lng": -71.0541146802915}}}, "icon": "https://maps.gstatic.com/mapfiles/place_api/icons/generic_business-71.png", "id": "4a8b4163366bc4116db0933bf6f83cc494450b42", "name": "Investor Group", "place_id": "ChIJY8wzs4dw44kReo27ai-Y2oc", "plus_code": {"compound_code": "9W5W+PW Boston, Massachusetts, United States", "global_code": "87JC9W5W+PW"}, "reference": "ChIJY8wzs4dw44kReo27ai-Y2oc", "scope": "GOOGLE", "types": ["finance", "point_of_interest", "establishment"], "vicinity": "189 State Street, Boston"}, "ChIJ41-RNoZw44kR-9u088omClQ": {"geometry": {"location": {"lat": 42.3596722, "lng": -71.0528928}, "viewport": {"northeast": {"lat": 42.3608851302915, "lng": -71.0516889197085}, "southwest": {"lat": 42.3581871697085, "lng": -71.0543868802915}}}, "icon": "https://maps.gstatic.com/mapfiles/place_api/icons/generic_business-71.png", "id": "c449826716663d5299b8f5ce42e1f0359ab33378", "name": "Demeo LLP", "place_id": "ChIJ41-RNoZw44kR-9u088omClQ", "plus_code": {"compound_code": "9W5W+VR Boston, Massachusetts, United States", "global_code": "87JC9W5W+VR"}, "reference": "ChIJ41-RNoZw44kR-9u088omClQ", "scope": "GOOGLE", "types": ["lawyer", "point_of_interest", "establishment"], "vicinity": "200 State Street, Boston"}, "ChIJQ-D2TIZw44kR-eddQxq-Na4": {"geometry": {"location": {"lat": 42.3593283, "lng": -71.0529169}, "viewport": {"northeast": {"lat": 42.36075393029151, "lng": -71.0516359697085}, "southwest": {"lat": 42.35805596970851, "lng": -71.0543339302915}}}, "icon": "https://maps.gstatic.com/mapfiles/place_api/icons/generic_business-71.png", "id": "471044e6060be9d77bad250f3825c44e68d61e7e", "name": "Boston DUI Lawyer", "place_id": "ChIJQ-D2TIZw44kR-eddQxq-Na4", "plus_code": {"compound_code": "9W5W+PR Boston, Massachusetts, United States", "global_code": "87JC9W5W+PR"}, "reference": "ChIJQ-D2TIZw44kR-eddQxq-Na4", "scope": "GOOGLE", "types": ["point_of_interest", "establishment"], "vicinity": "183 State Street, Boston"}, "ChIJidjkaRldXEARxhu3ML-KK9U": {"geometry": {"location": {"lat": 42.3596757, "lng": -71.0529184}, "viewport": {"northeast": {"lat": 42.3608868802915, "lng": -71.05170171970849}, "southwest": {"lat": 42.3581889197085, "lng": -71.0543996802915}}}, "icon": "https://maps.gstatic.com/mapfiles/place_api/icons/generic_business-71.png", "id": "cc328aa2827b1411ea6f8d2ca9e08a9ed7e78e8f", "name": "Ironwood Investment Management", "opening_hours": {"open_now": true}, "place_id": "ChIJidjkaRldXEARxhu3ML-KK9U", "plus_code": {"compound_code": "9W5W+VR Boston, Massachusetts, United States", "global_code": "87JC9W5W+VR"}, "reference": "ChIJidjkaRldXEARxhu3ML-KK9U", "scope": "GOOGLE", "types": ["finance", "point_of_interest", "establishment"], "vicinity": "67 Batterymarch Street, Boston"}, "ChIJY8wzs4dw44kRve_RtH-T_aU": {"geometry": {"location": {"lat": 42.3592922, "lng": -71.052739}, "viewport": {"northeast": {"lat": 42.36072533029149, "lng": -71.0514167197085}, "southwest": {"lat": 42.3580273697085, "lng": -71.0541146802915}}}, "icon": "https://maps.gstatic.com/mapfiles/place_api/icons/generic_business-71.png", "id": "ada4606ae6f4232d3327070293a2d61b06114675", "name": "Xtra Inc North-South American", "place_id": "ChIJY8wzs4dw44kRve_RtH-T_aU", "plus_code": {"compound_code": "9W5W+PW Boston, Massachusetts, United States", "global_code": "87JC9W5W+PW"}, "reference": "ChIJY8wzs4dw44kRve_RtH-T_aU", "scope": "GOOGLE", "types": ["point_of_interest", "establishment"], "vicinity": "189 State Street, Boston"}, "ChIJGzE9DS1l44kRoOhiASS_fHg": {"geometry": {"location": {"lat": 42.3600825, "lng": -71.0588801}, "viewport": {"northeast": {"lat": 42.40081989999999, "lng": -70.749455}, "southwest": {"lat": 42.22788, "lng": -71.191113}}}, "icon": "https://maps.gstatic.com/mapfiles/place_api/icons/geocode-71.png", "id": "06755c25d2b34d13942a4713971756a55b870ced", "name": "Boston", "photos": [{"height": 3024, "html_attributions": ["<a href=\"https://maps.google.com/maps/contrib/104670289779338733432/photos\">Natalia Zalucean</a>"], "photo_reference": "CmRaAAAAob-ibE_2Nqkz3poCOiPuccIRuR3SsBUqCjuTi-ZsdPJzB7XJAQxkKjm7XZFsfw8byBsJf4_j-qpdM32Vf2p7F47ScGZc87pQn2oipKEvTN4rbB58VWekM3Ugnab6Rv27EhDyAu_teATh7jQpHozQfFTsGhTJjorIjc0CfcFRR7y4tta84_u7hA", "width": 4032}], "place_id": "ChIJGzE9DS1l44kRoOhiASS_fHg", "reference": "ChIJGzE9DS1l44kRoOhiASS_fHg", "scope": "GOOGLE", "types": ["locality", "political"], "vicinity": "Boston"}}