{"ChIJf6mdZXh644kRSIV5cnlbYsg": {"geometry": {"location": {"lat": 42.3517628, "lng": -71.05936609999999}, "viewport": {"northeast": {"lat": 42.3531117302915, "lng": -71.0580170697085}, "southwest": {"lat": 42.3504137697085, "lng": -71.0607150302915}}}, "icon": "https://maps.gstatic.com/mapfiles/place_api/icons/geocode-71.png", "id": "0f3c426263376f6b19bcedf9a557f554d7a3c34b", "name": "138 Kingston St", "place_id": "ChIJf6mdZXh644kRSIV5cnlbYsg", "reference": "ChIJf6mdZXh644kRSIV5cnlbYsg", "scope": "GOOGLE", "types": ["route"], "vicinity": "Boston"}, "ChIJ82DMenh644kR427EgkieMAU": {"geometry": {"location": {"lat": 42.3519045, "lng": -71.05952409999999}, "viewport": {"northeast": {"lat": 42.3532525302915, "lng": -71.0580610197085}, "southwest": {"lat": 42.3505545697085, "lng": -71.06075898029151}}}, "icon": "https://maps.gstatic.com/mapfiles/place_api/icons/generic_business-71.png", "id": "ab940144933b3f62eaf3fed1379e41e9f6609274", "name": "Community Opportunities Group", "place_id": "ChIJ82DMenh644kR427EgkieMAU", "plus_code": {"compound_code": "9W2R+Q5 Boston, Massachusetts, United States", "global_code": "87JC9W2R+Q5"}, "reference": "ChIJ82DMenh644kR427EgkieMAU", "scope": "GOOGLE", "types": ["point_of_interest", "establishment"], "vicinity": "129 Kingston Street, Boston"}, "ChIJuyTob3h644kRcUYlfH-Uq1E": {"geometry": {"location": {"lat": 42.3519046, "lng": -71.059524}, "viewport": {"northeast": {"lat": 42.35325263029149, "lng": -71.05806096970849}, "southwest": {"lat": 42.3505546697085, "lng": -71.06075893029151}}}, "icon": "https://maps.gstatic.com/mapfiles/place_api/icons/generic_business-71.png", "id": "68fbdc2e79d0cd4bc04b7bf66b4f37fd7c705e65", "name": "Robert Shields, MS, CCC-SLP", "place_id": "ChIJuyTob3h644kRcUYlfH-Uq1E", "plus_code": {"compound_code": "9W2R+Q5 Boston, Massachusetts, United States", "global_code": "87JC9W2R+Q5"}, "reference": "ChIJuyTob3h644kRcUYlfH-Uq1E", "scope": "GOOGLE", "types": ["point_of_interest", "establishment"], "vicinity": "129 Kingston Street, Boston"}, "ChIJvyTob3h644kRpvnDiWelSZ0": {"geometry": {"location": {"lat": 42.3519045, "lng": -71.05952409999999}, "viewport": {"northeast": {"lat": 42.3532525302915, "lng": -71.0580610197085}, "southwest": {"lat": 42.3505545697085, "lng": -71.06075898029151}}}, "icon": "https://maps.gstatic.com/mapfiles/place_api/icons/generic_business-71.png", "id": "9c4215309abfc01b744911c222530efec52de11a", "name": "Alphabetica", "place_id": "ChIJvyTob3h644kRpvnDiWelSZ0", "plus_code": {"compound_code": "9W2R+Q5 Boston, Massachusetts, United States", "global_code": "87JC9W2R+Q5"}, "reference": "ChIJvyTob3h644kRpvnDiWelSZ0", "scope": "GOOGLE", "types": ["point_of_interest", "establishment"], "vicinity": "129 Kingston Street, Boston"}, "ChIJqyRnZXh644kRkO1ygktS2MM": {"geometry": {"location": {"lat": 42.3519045, "lng": -71.05952409999999}, "viewport": {"northeast": {"lat": 42.3532525302915, "lng": -71.0580610197085}, "southwest": {"lat": 42.3505545697085, "lng": -71.06075898029151}}}, "icon": "https://maps.gstatic.com/mapfiles/place_api/icons/generic_business-71.png", "id": "33d75bf00b56ebdb212da75615ed4c51cad57f49", "name": "MGa Architects", "opening_hours": {"open_now": true}, "photos": [{"height": 1309, "html_attributions": ["<a href=\"https://maps.google.com/maps/contrib/115809874969040315596/photos\">MGa Architects</a>"], "photo_reference": "CmRaAAAAnEzRdX6ue7RG2362MiBYTxeC1KiyYijc4TH8i0Fjou-n-BYZr4ovqzOC8F1fiC-rzB7N95mI9pjrQN3g0sLott_2AQptfgTvH5OBZ90m8KFNFGADGJq3ID07cCTuvT5iEhAVyMUGuxNy0YMH9jP1lxjKGhTMqt1kSyINQHKNobr877N0Vm7oCQ", "width": 870}], "place_id": "ChIJqyRnZXh644kRkO1ygktS2MM", "plus_code": {"compound_code": "9W2R+Q5 Boston, Massachusetts, United States", "global_code": "87JC9W2R+Q5"}, "reference": "ChIJqyRnZXh644kRkO1ygktS2MM", "scope": "GOOGLE", "types": ["point_of_interest", "establishment"], "vicinity": "2137, 129 Kingston Street, Boston"}, "ChIJHz7Penh644kR3U5xdXchjqs": {"geometry": {"location": {"lat": 42.351943, "lng": -71.05931199999999}, "viewport": {"northeast": {"lat": 42.35328998029149, "lng": -71.05799011970849}, "southwest": {"lat": 42.3505920197085, "lng": -71.0606880802915}}}, "icon": "https://maps.gstatic.com/mapfiles/place_api/icons/generic_business-71.png", "id": "9bc5b8e693eb0e536a9e05886b1945fd8b4c95f8", "name": "125 Kingston St Parking", "place_id": "ChIJHz7Penh644kR3U5xdXchjqs", "plus_code": {"compound_code": "9W2R+Q7 Boston, Massachusetts, United States", "global_code": "87JC9W2R+Q7"}, "reference": "ChIJHz7Penh644kR3U5xdXchjqs", "scope": "GOOGLE", "types": ["parking", "point_of_interest", "establishment"], "vicinity": "125 Kingston St, Boston"}, "ChIJvyTob3h644kRSASAXeOfhmw": {"geometry": {"location": {"lat": 42.3519045, "lng": -71.05952409999999}, "viewport": {"northeast": {"lat": 42.3532525302915, "lng": -71.0580610197085}, "southwest": {"lat": 42.3505545697085, "lng": -71.06075898029151}}}, "icon": "https://maps.gstatic.com/mapfiles/place_api/icons/generic_business-71.png", "id": "4e735a4a9b6e67cd19314241ff8d7bdc4a6af4e7", "name": "DumontJanks", "place_id": "ChIJvyTob3h644kRSASAXeOfhmw", "plus_code": {"compound_code": "9W2R+Q5 Boston, Massachusetts, United States", "global_code": "87JC9W2R+Q5"}, "reference": "ChIJvyTob3h644kRSASAXeOfhmw", "scope": "GOOGLE", "types": ["general_contractor", "point_of_interest", "establishment"], "vicinity": "129 Kingston Street, Boston"}, "ChIJvyTob3h644kRHTCKLbG2JtI": {"geometry": {"location": {"lat": 42.351905, "lng": -71.059524}, "viewport": {"northeast": {"lat": 42.3532530302915, "lng": -71.05806096970849}, "southwest": {"lat": 42.35055506970851, "lng": -71.06075893029151}}}, "icon": "https://maps.gstatic.com/mapfiles/place_api/icons/generic_business-71.png", "id": "0b391a41ed60f5c27e9da501a631ebe4b4e60bf2", "name": "Andre Guillemin Copywriting", "place_id": "ChIJvyTob3h644kRHTCKLbG2JtI", "plus_code": {"compound_code": "9W2R+Q5 Boston, Massachusetts, United States", "global_code": "87JC9W2R+Q5"}, "reference": "ChIJvyTob3h644kRHTCKLbG2JtI", "scope": "GOOGLE", "types": ["point_of_interest", "establishment"], "vicinity": "129 Kingston Street, Boston"}, "ChIJGzE9DS1l44kRoOhiASS_fHg": {"geometry": {"location": {"lat": 42.3600825, "lng": -71.0588801}, "viewport": {"northeast": {"lat": 42.40081989999999, "lng": -70.749455}, "southwest": {"lat": 42.22788, "lng": -71.191113}}}, "icon": "https://maps.gstatic.com/mapfiles/place_api/icons/geocode-71.png", "id": "06755c25d2b34d13942a4713971756a55b870ced", "name": "Boston", "photos": [{"height": 3024, "html_attributions": ["<a href=\"https://maps.google.com/maps/contrib/104670289779338733432/photos\">Natalia Zalucean</a>"], "photo_reference": "CmRaAAAAQORqnqk60evfB1yZVFwICLeohMQXflYUlIq2PI_b4UdRvqq26m1hlh-wgjqobl2CQ1awDXFyg7CJTSSeo8_Cli7qCMXga57Wwkpf0mewWl3M_tnKWwq4XBEbi9sg2eDzEhAvklYJwxdlvSF7q-IVw3VUGhSRaW9ttTfcFU6KREuI_ekJ8CRsQg", "width": 4032}], "place_id": "ChIJGzE9DS1l44kRoOhiASS_fHg", "reference": "ChIJGzE9DS1l44kRoOhiASS_fHg", "scope": "GOOGLE", "types": ["locality", "political"], "vicinity": "Boston"}}