{"ChIJGzE9DS1l44kRoOhiASS_fHg": {"geometry": {"location": {"lat": 42.3600825, "lng": -71.0588801}, "viewport": {"northeast": {"lat": 42.40081989999999, "lng": -70.749455}, "southwest": {"lat": 42.22788, "lng": -71.191113}}}, "icon": "https://maps.gstatic.com/mapfiles/place_api/icons/geocode-71.png", "id": "06755c25d2b34d13942a4713971756a55b870ced", "name": "Boston", "photos": [{"height": 3024, "html_attributions": ["<a href=\"https://maps.google.com/maps/contrib/104670289779338733432/photos\">Natalia Zalucean</a>"], "photo_reference": "CmRaAAAAvsywFTbqOwZx4yd_KnoDjQrkSeixSNRUdO91Ph3_q2mx255fCChYphrAXE2XaV4t7dMwaRGlvotAVxZUWvQRKJe0DV5LXK9Izo9ngiz5hnm82b2oLLYJS9IdcHBMVILjEhBhCUTkCAhbe3zqFWVNaN_uGhTvlwnL_NAUCbyTrzoJcV4-W8K0KQ", "width": 4032}], "place_id": "ChIJGzE9DS1l44kRoOhiASS_fHg", "reference": "ChIJGzE9DS1l44kRoOhiASS_fHg", "scope": "GOOGLE", "types": ["locality", "political"], "vicinity": "Boston"}, "ChIJ_RiwNIVw44kRZkjlKHSp2E8": {"geometry": {"location": {"lat": 42.3603611, "lng": -71.0623296}, "viewport": {"northeast": {"lat": 42.3620778302915, "lng": -71.06083741970849}, "southwest": {"lat": 42.3593798697085, "lng": -71.06353538029151}}}, "icon": "https://maps.gstatic.com/mapfiles/place_api/icons/generic_business-71.png", "id": "c93dffbe8f821d398ac13e9a2e1e7c63121b15ea", "name": "100 Cambridge Street Parking Facility", "photos": [{"height": 2404, "html_attributions": ["<a href=\"https://maps.google.com/maps/contrib/116204889564141904571/photos\">iSantoS Stha</a>"], "photo_reference": "CmRaAAAAmpT69W5Otxsb-bzx2mKfPGrzOJTine1RI_kIQ2MhG6oyKyQ6KGwAcghNWfFDllVnMY-uTkZiO_GlIFKqt2MFPXoikjRP-CrVwQBil0KiPKoqAXnCqFBSFoTbwwTFh_b2EhBDbAGAM9t37018p3JuWGRTGhSyUqj_Tf_62hFY2c99GOQ5L6AuYw", "width": 4032}], "place_id": "ChIJ_RiwNIVw44kRZkjlKHSp2E8", "plus_code": {"compound_code": "9W6Q+43 Boston, Massachusetts, United States", "global_code": "87JC9W6Q+43"}, "rating": 3.8, "reference": "ChIJ_RiwNIVw44kRZkjlKHSp2E8", "scope": "GOOGLE", "types": ["parking", "point_of_interest", "establishment"], "user_ratings_total": 12, "vicinity": "100 Cambridge Street, Boston"}, "ChIJT84qgp5w44kR2MRBT4FBDq0": {"geometry": {"location": {"lat": 42.3587999, "lng": -71.0707389}, "viewport": {"northeast": {"lat": 42.3611918, "lng": -71.0604501}, "southwest": {"lat": 42.3554044, "lng": -71.0730243}}}, "icon": "https://maps.gstatic.com/mapfiles/place_api/icons/geocode-71.png", "id": "fac7126b486af397364666a201134b34436961e1", "name": "Beacon Hill", "photos": [{"height": 533, "html_attributions": ["<a href=\"https://maps.google.com/maps/contrib/107493965504695166609/photos\">Alan Pembshaw</a>"], "photo_reference": "CmRaAAAAzsBOxlZUgFPVVhNyViHhkpgKp9D1qiXEBD1ywVRhSaG4C4TwispUiFc5W7liV_wVjHwcKULe7Y8D7o2B2YC348ibYou_yLHgpDPgJKAwKnvQtnglRZVwOFsrdDDrGaHyEhBIRwYJNOJNFNWj0qdPpJorGhTc6c90W5ixHmiRP4sZmLF0MDDeHA", "width": 799}], "place_id": "ChIJT84qgp5w44kR2MRBT4FBDq0", "reference": "ChIJT84qgp5w44kR2MRBT4FBDq0", "scope": "GOOGLE", "types": ["neighborhood", "political"], "vicinity": "Boston"}}