{"ChIJl43jww1644kR7bs9NIoIK2A": {"geometry": {"location": {"lat": 42.3476937, "lng": -71.0783964}, "viewport": {"northeast": {"lat": 42.3490442802915, "lng": -71.07655410000001}, "southwest": {"lat": 42.3463463197085, "lng": -71.08023889999998}}}, "icon": "https://maps.gstatic.com/mapfiles/place_api/icons/geocode-71.png", "id": "08dccddb6c15171c2940419ac9db7d41eca39d72", "name": "Prudential Tunnel", "place_id": "ChIJl43jww1644kR7bs9NIoIK2A", "reference": "ChIJl43jww1644kR7bs9NIoIK2A", "scope": "GOOGLE", "types": ["route"], "vicinity": "Boston"}, "ChIJS3rn5w1644kRXmT3NhdzNZ0": {"geometry": {"location": {"lat": 42.347451, "lng": -71.07878199999999}, "viewport": {"northeast": {"lat": 42.3487596302915, "lng": -71.0773137197085}, "southwest": {"lat": 42.3460616697085, "lng": -71.0800116802915}}}, "icon": "https://maps.gstatic.com/mapfiles/place_api/icons/shopping-71.png", "id": "9c6a822f1910451a9483010ca33b62030490de4f", "name": "Tiffany & Co.", "opening_hours": {"open_now": true}, "photos": [{"height": 3036, "html_attributions": ["<a href=\"https://maps.google.com/maps/contrib/109723535287713898735/photos\">Skyler Gleue</a>"], "photo_reference": "CmRaAAAA2G707bMOZ17rd5SfiDXSgNn5tbG6kgBGl7ShFKM0q2_GfUuvoD4ycwc8PMapOvJBdVIaQRmVM8PHhG8_9U6kqArvQXU7dIXO1ZeewbrlLDnc1dSen4WZkmQm6bX8IL87EhCg2wsHPt5P36gBryKW9J4xGhQWZy0aG0s1VjdmbRsAnsSNNwbLyQ", "width": 4048}], "place_id": "ChIJS3rn5w1644kRXmT3NhdzNZ0", "plus_code": {"compound_code": "8WWC+XF Boston, Massachusetts, United States", "global_code": "87JC8WWC+XF"}, "price_level": 4, "rating": 4.1, "reference": "ChIJS3rn5w1644kRXmT3NhdzNZ0", "scope": "GOOGLE", "types": ["jewelry_store", "store", "point_of_interest", "establishment"], "user_ratings_total": 55, "vicinity": "100 Huntington Avenue, Boston"}, "ChIJS3rn5w1644kRlTcHNYD5hdQ": {"geometry": {"location": {"lat": 42.3473958, "lng": -71.0786312}, "viewport": {"northeast": {"lat": 42.3487447802915, "lng": -71.07728221970851}, "southwest": {"lat": 42.3460468197085, "lng": -71.07998018029151}}}, "icon": "https://maps.gstatic.com/mapfiles/place_api/icons/shopping-71.png", "id": "3895c1c24bb2505e6d9dd9026df58629659fb33d", "name": "Vince", "opening_hours": {"open_now": true}, "place_id": "ChIJS3rn5w1644kRlTcHNYD5hdQ", "plus_code": {"compound_code": "8WWC+XG Boston, Massachusetts, United States", "global_code": "87JC8WWC+XG"}, "price_level": 3, "rating": 3.5, "reference": "ChIJS3rn5w1644kRlTcHNYD5hdQ", "scope": "GOOGLE", "types": ["clothing_store", "store", "point_of_interest", "establishment"], "user_ratings_total": 2, "vicinity": "100 Huntington Avenue, Boston"}, "ChIJS3rn5w1644kR3nGtzsluMQ4": {"geometry": {"location": {"lat": 42.3475123, "lng": -71.0784879}, "viewport": {"northeast": {"lat": 42.34886128029149, "lng": -71.07713891970849}, "southwest": {"lat": 42.3461633197085, "lng": -71.0798368802915}}}, "icon": "https://maps.gstatic.com/mapfiles/place_api/icons/shopping-71.png", "id": "b25a99e0d15e3fb7f28fabc287a448f5024b6f3c", "name": "Victoria's Secret & PINK", "opening_hours": {"open_now": true}, "photos": [{"height": 2992, "html_attributions": ["<a href=\"https://maps.google.com/maps/contrib/113865231197476749592/photos\">Greg Allen</a>"], "photo_reference": "CmRaAAAAPKuU30MZ4P5ifgt3vUdW7XVPqEapMAwZLbo7y7yHFGed350hFDRvLegkrRACkCxwd4kUqTQ6RzYWSFnjBfErPuKG10Z9dyGCAhy8ee2WBFXcx2Hhmj8xlXx342ABD99EEhDnrlb7jcj2NlLNO14VakIKGhRibqO1WbQpiMVFNo3UvJLNB9TGow", "width": 4000}], "place_id": "ChIJS3rn5w1644kR3nGtzsluMQ4", "plus_code": {"compound_code": "8WXC+2J Boston, Massachusetts, United States", "global_code": "87JC8WXC+2J"}, "price_level": 2, "rating": 4.2, "reference": "ChIJS3rn5w1644kR3nGtzsluMQ4", "scope": "GOOGLE", "types": ["clothing_store", "store", "point_of_interest", "establishment"], "user_ratings_total": 86, "vicinity": "100 Huntington Avenue, Boston"}, "ChIJS3rn5w1644kRBa5XAhHC_T8": {"geometry": {"location": {"lat": 42.3474497, "lng": -71.07860529999999}, "viewport": {"northeast": {"lat": 42.3488066802915, "lng": -71.0772282697085}, "southwest": {"lat": 42.3461087197085, "lng": -71.0799262302915}}}, "icon": "https://maps.gstatic.com/mapfiles/place_api/icons/generic_business-71.png", "id": "4be01335f6a2e4a1d0618fcdc806c9d529ac8db4", "name": "Advantis", "place_id": "ChIJS3rn5w1644kRBa5XAhHC_T8", "plus_code": {"compound_code": "8WWC+XH Boston, Massachusetts, United States", "global_code": "87JC8WWC+XH"}, "reference": "ChIJS3rn5w1644kRBa5XAhHC_T8", "scope": "GOOGLE", "types": ["point_of_interest", "establishment"], "vicinity": "100 Huntington Avenue, Boston"}, "ChIJ6wy05w1644kR6ZggVyIMKjQ": {"geometry": {"location": {"lat": 42.3473937, "lng": -71.0788615}, "viewport": {"northeast": {"lat": 42.3487712302915, "lng": -71.0775548697085}, "southwest": {"lat": 42.3460732697085, "lng": -71.08025283029151}}}, "icon": "https://maps.gstatic.com/mapfiles/place_api/icons/generic_business-71.png", "id": "ae26812a3d6a6d9d0cd9ead8883e03bc0b4a6c4c", "name": "Realty Capital Securities", "place_id": "ChIJ6wy05w1644kR6ZggVyIMKjQ", "plus_code": {"compound_code": "8WWC+XF Boston, Massachusetts, United States", "global_code": "87JC8WWC+XF"}, "reference": "ChIJ6wy05w1644kR6ZggVyIMKjQ", "scope": "GOOGLE", "types": ["finance", "point_of_interest", "establishment"], "vicinity": "3 Copley Place, Boston"}, "ChIJS3rn5w1644kRl8HtdpMffH8": {"geometry": {"location": {"lat": 42.34741129999999, "lng": -71.0785794}, "viewport": {"northeast": {"lat": 42.3487668802915, "lng": -71.0772074697085}, "southwest": {"lat": 42.3460689197085, "lng": -71.0799054302915}}}, "icon": "https://maps.gstatic.com/mapfiles/place_api/icons/generic_business-71.png", "id": "44f0a32eda0ecca3fc2a1084e7759657d067562b", "name": "Emperial House Inc", "place_id": "ChIJS3rn5w1644kRl8HtdpMffH8", "plus_code": {"compound_code": "8WWC+XH Boston, Massachusetts, United States", "global_code": "87JC8WWC+XH"}, "rating": 5, "reference": "ChIJS3rn5w1644kRl8HtdpMffH8", "scope": "GOOGLE", "types": ["point_of_interest", "establishment"], "user_ratings_total": 1, "vicinity": "100 Huntington Avenue # 140, Boston"}, "ChIJ6wy05w1644kREbUPIM_jWpM": {"geometry": {"location": {"lat": 42.3473937, "lng": -71.0788615}, "viewport": {"northeast": {"lat": 42.3487712302915, "lng": -71.0775548697085}, "southwest": {"lat": 42.3460732697085, "lng": -71.08025283029151}}}, "icon": "https://maps.gstatic.com/mapfiles/place_api/icons/civic_building-71.png", "id": "e5a4ea0b364a00fcc80653a4a162d02b3d8ba9db", "name": "Consulate General of Canada", "opening_hours": {"open_now": true}, "photos": [{"height": 1334, "html_attributions": ["<a href=\"https://maps.google.com/maps/contrib/101504961226572651322/photos\">Hazem Barkache</a>"], "photo_reference": "CmRaAAAAHOStmS00XbtlIlmCetooMCb8BxsNQy33YoRA-z5YxjHRLzFMn463UfXzjZBSRXutrrqk1PjSRF2O0Jug8vnqjqZuKn7giCqSptUJ6mkAXZ0CqPeoFJJttREAVlNcQXw5EhDC3MGgpCDVllUY8BN1ibv9GhRvZFdtdb8nmgZSVc80p6sHPvXq7g", "width": 750}], "place_id": "ChIJ6wy05w1644kREbUPIM_jWpM", "plus_code": {"compound_code": "8WWC+XF Boston, Massachusetts, United States", "global_code": "87JC8WWC+XF"}, "rating": 5, "reference": "ChIJ6wy05w1644kREbUPIM_jWpM", "scope": "GOOGLE", "types": ["embassy", "point_of_interest", "establishment"], "user_ratings_total": 3, "vicinity": "3 Copley Place, Boston"}, "ChIJa8Nt6Q1644kR1Jpt9YXANYA": {"geometry": {"location": {"lat": 42.34743, "lng": -71.07844829999999}, "viewport": {"northeast": {"lat": 42.34877323029149, "lng": -71.0771193697085}, "southwest": {"lat": 42.34607526970849, "lng": -71.0798173302915}}}, "icon": "https://maps.gstatic.com/mapfiles/place_api/icons/generic_business-71.png", "id": "6d99c0867f8e8adb10d7319e2b5f4736c958d7e2", "name": "PDI Ninth House", "place_id": "ChIJa8Nt6Q1644kR1Jpt9YXANYA", "plus_code": {"compound_code": "8WWC+XJ Boston, Massachusetts, United States", "global_code": "87JC8WWC+XJ"}, "reference": "ChIJa8Nt6Q1644kR1Jpt9YXANYA", "scope": "GOOGLE", "types": ["point_of_interest", "establishment"], "vicinity": "3 Copley Place # 401, Boston"}, "ChIJBbtNSgx644kRKVjeNuG0-3g": {"geometry": {"location": {"lat": 42.3475521, "lng": -71.07861059999999}, "viewport": {"northeast": {"lat": 42.3489010802915, "lng": -71.0772616197085}, "southwest": {"lat": 42.3462031197085, "lng": -71.0799595802915}}}, "icon": "https://maps.gstatic.com/mapfiles/place_api/icons/bank_dollar-71.png", "id": "c7249c847f85ce756dee575ac28333ff3007fcb1", "name": "Nova Scotia Office-New England", "place_id": "ChIJBbtNSgx644kRKVjeNuG0-3g", "plus_code": {"compound_code": "8WXC+2H Boston, Massachusetts, United States", "global_code": "87JC8WXC+2H"}, "reference": "ChIJBbtNSgx644kRKVjeNuG0-3g", "scope": "GOOGLE", "types": ["bank", "finance", "point_of_interest", "establishment"], "vicinity": "100 Copley Place, Boston"}, "ChIJrzsb6A1644kR03LJVyU43yg": {"geometry": {"location": {"lat": 42.347475, "lng": -71.07869699999999}, "viewport": {"northeast": {"lat": 42.34884828029149, "lng": -71.0773911197085}, "southwest": {"lat": 42.3461503197085, "lng": -71.0800890802915}}}, "icon": "https://maps.gstatic.com/mapfiles/place_api/icons/generic_business-71.png", "id": "9f20263f4f8ee26791ebbb5ddabbf2a75a1b85a9", "name": "Copley Place Parking", "place_id": "ChIJrzsb6A1644kR03LJVyU43yg", "plus_code": {"compound_code": "8WWC+XG Boston, Massachusetts, United States", "global_code": "87JC8WWC+XG"}, "reference": "ChIJrzsb6A1644kR03LJVyU43yg", "scope": "GOOGLE", "types": ["point_of_interest", "establishment"], "vicinity": "Boston"}, "ChIJMyuH5w1644kRdKO_2KgcuVM": {"geometry": {"location": {"lat": 42.3475276, "lng": -71.0789097}, "viewport": {"northeast": {"lat": 42.3488763802915, "lng": -71.07756041970849}, "southwest": {"lat": 42.3461784197085, "lng": -71.0802583802915}}}, "icon": "https://maps.gstatic.com/mapfiles/place_api/icons/generic_business-71.png", "id": "2d617f89b93b5662b2f4b7984315ffd7d6b297fc", "name": "100 Parking", "place_id": "ChIJMyuH5w1644kRdKO_2KgcuVM", "plus_code": {"compound_code": "8WXC+2C Boston, Massachusetts, United States", "global_code": "87JC8WXC+2C"}, "rating": 4, "reference": "ChIJMyuH5w1644kRdKO_2KgcuVM", "scope": "GOOGLE", "types": ["parking", "point_of_interest", "establishment"], "user_ratings_total": 2, "vicinity": "100, Boston"}, "ChIJBb5B6Q1644kRioRg0FglimM": {"geometry": {"location": {"lat": 42.3473937, "lng": -71.0788615}, "viewport": {"northeast": {"lat": 42.3487712302915, "lng": -71.0775548697085}, "southwest": {"lat": 42.3460732697085, "lng": -71.08025283029151}}}, "icon": "https://maps.gstatic.com/mapfiles/place_api/icons/generic_business-71.png", "id": "f2a6fbae227467c874287640cbd207458a5c69ba", "name": "Boston 2004", "place_id": "ChIJBb5B6Q1644kRioRg0FglimM", "plus_code": {"compound_code": "8WWC+XF Boston, Massachusetts, United States", "global_code": "87JC8WWC+XF"}, "reference": "ChIJBb5B6Q1644kRioRg0FglimM", "scope": "GOOGLE", "types": ["point_of_interest", "establishment"], "vicinity": "3 Copley Place, Boston"}, "ChIJ6wy05w1644kRKTPpJ_8aDYE": {"geometry": {"location": {"lat": 42.3473937, "lng": -71.0788615}, "viewport": {"northeast": {"lat": 42.3487712302915, "lng": -71.0775548697085}, "southwest": {"lat": 42.3460732697085, "lng": -71.08025283029151}}}, "icon": "https://maps.gstatic.com/mapfiles/place_api/icons/civic_building-71.png", "id": "92e557d3d68c8c7f05c8aab9a351d518bfed477c", "name": "Ausl\u00e4ndishces Konsulat", "place_id": "ChIJ6wy05w1644kRKTPpJ_8aDYE", "plus_code": {"compound_code": "8WWC+XF Boston, Massachusetts, United States", "global_code": "87JC8WWC+XF"}, "reference": "ChIJ6wy05w1644kRKTPpJ_8aDYE", "scope": "GOOGLE", "types": ["embassy", "point_of_interest", "establishment"], "vicinity": "Three Copley Place #500, Boston"}, "ChIJGzE9DS1l44kRoOhiASS_fHg": {"geometry": {"location": {"lat": 42.3600825, "lng": -71.0588801}, "viewport": {"northeast": {"lat": 42.40081989999999, "lng": -70.749455}, "southwest": {"lat": 42.22788, "lng": -71.191113}}}, "icon": "https://maps.gstatic.com/mapfiles/place_api/icons/geocode-71.png", "id": "06755c25d2b34d13942a4713971756a55b870ced", "name": "Boston", "photos": [{"height": 3024, "html_attributions": ["<a href=\"https://maps.google.com/maps/contrib/104670289779338733432/photos\">Natalia Zalucean</a>"], "photo_reference": "CmRaAAAATSQ1pK6oY3IqkvuOtbIcZe-cl9ncLyVJVgXV4C8EAcq8r3IqxWuJ8AKmTP7-NDQTnNuB-Nbka1TUDu0WhxxSiH1nTZJ9iEDwTFACigrlggA1aPWYnjxHiJ1cr6svDAcJEhDwhDHgKPYTe73caZXNZijUGhTmR-VmXu3J5nIUmFBeS0Skm0FhRA", "width": 4032}], "place_id": "ChIJGzE9DS1l44kRoOhiASS_fHg", "reference": "ChIJGzE9DS1l44kRoOhiASS_fHg", "scope": "GOOGLE", "types": ["locality", "political"], "vicinity": "Boston"}}