{"ChIJGzE9DS1l44kRoOhiASS_fHg": {"geometry": {"location": {"lat": 42.3600825, "lng": -71.0588801}, "viewport": {"northeast": {"lat": 42.40081989999999, "lng": -70.749455}, "southwest": {"lat": 42.22788, "lng": -71.191113}}}, "icon": "https://maps.gstatic.com/mapfiles/place_api/icons/geocode-71.png", "id": "06755c25d2b34d13942a4713971756a55b870ced", "name": "Boston", "photos": [{"height": 3024, "html_attributions": ["<a href=\"https://maps.google.com/maps/contrib/104670289779338733432/photos\">Natalia Zalucean</a>"], "photo_reference": "CmRaAAAApJrYNcZkR-IPxXq-4HNeKGPgT_Fm_mRNGtlSs3_3x-eIXi23lW-RCspri48CM0pqcCOLxSOP4wOw6yNGctoFFSVsSyOkztDI3U4j9Cm5BTzgO1uvSDxcqGWiha6pVMXQEhDb-Hd3mjn7ki7GkfKm0RiZGhTxDHig2UekFNZ_bFn4IMabhrH3NA", "width": 4032}], "place_id": "ChIJGzE9DS1l44kRoOhiASS_fHg", "reference": "ChIJGzE9DS1l44kRoOhiASS_fHg", "scope": "GOOGLE", "types": ["locality", "political"], "vicinity": "Boston"}, "ChIJ1ZsDqW9644kRGuZSXh42bZQ": {"geometry": {"location": {"lat": 42.3417682, "lng": -71.0642623}, "viewport": {"northeast": {"lat": 42.3429662802915, "lng": -71.0627464197085}, "southwest": {"lat": 42.3402683197085, "lng": -71.06544438029151}}}, "icon": "https://maps.gstatic.com/mapfiles/place_api/icons/generic_recreational-71.png", "id": "78f18e020773a88203c1def7985206817ae3452b", "name": "Rotch Playground", "photos": [{"height": 3024, "html_attributions": ["<a href=\"https://maps.google.com/maps/contrib/112410583493956248539/photos\">Matt Ulrich</a>"], "photo_reference": "CmRaAAAAU9PWremOZDVQR7dmwGXevJkc6Kwnw1HnXOiOy9j2tm9kxvOWulx0YRzCt8BTUz8Dgzrdv7UKHClNHC62U-OB55kXJP_s1uzgkrPKa7hXX7gBIuuZtV0Vd2V5Iwf1zG00EhDqHmpjCqefAD-2pWAfB9OrGhRoHNXbx-Z2gj9KCGl8qiBD6iypdA", "width": 4032}], "place_id": "ChIJ1ZsDqW9644kRGuZSXh42bZQ", "reference": "ChIJ1ZsDqW9644kRGuZSXh42bZQ", "scope": "GOOGLE", "types": ["park", "premise", "point_of_interest", "establishment"], "vicinity": "Boston"}, "ChIJ28p2uBR644kRGOnQAcK4Txc": {"geometry": {"location": {"lat": 42.3388111, "lng": -71.0765188}, "viewport": {"northeast": {"lat": 42.347756, "lng": -71.0607948}, "southwest": {"lat": 42.331455, "lng": -71.09079799999999}}}, "icon": "https://maps.gstatic.com/mapfiles/place_api/icons/geocode-71.png", "id": "bf793a5ca0b5e36b87cfa6836ddba9f86f2af360", "name": "South End", "photos": [{"height": 2736, "html_attributions": ["<a href=\"https://maps.google.com/maps/contrib/110185226650349094791/photos\">Alex Harm</a>"], "photo_reference": "CmRaAAAABQwYhgotrZoT-a0pNXBDIaBGl1egkz5OzAQo17Uk8cOfkqCXeStPeOuSDH5ncXNeTJtTBZbcebf1B7oB7pnIRoFHhMBUS9e8CE4mGdFhQ9AH5zavMyNqUrkK6OHOUbu3EhCckMsCZ509J4OpA06t7UUQGhRhjj6aIzIC0GmRN6zj0RQCFyiT9Q", "width": 3648}], "place_id": "ChIJ28p2uBR644kRGOnQAcK4Txc", "reference": "ChIJ28p2uBR644kRGOnQAcK4Txc", "scope": "GOOGLE", "types": ["neighborhood", "political"], "vicinity": "Boston"}}