{"ChIJLer6qXh644kRwN6bt2_m6a0": {"geometry": {"location": {"lat": 42.3519332, "lng": -71.0561136}, "viewport": {"northeast": {"lat": 42.3532821302915, "lng": -71.05476461970851}, "southwest": {"lat": 42.3505841697085, "lng": -71.05746258029151}}}, "icon": "https://maps.gstatic.com/mapfiles/place_api/icons/geocode-71.png", "id": "2e00009fa19624d14e670b3b2eed521a6370f00a", "name": "174-226 Essex St", "place_id": "ChIJLer6qXh644kRwN6bt2_m6a0", "reference": "ChIJLer6qXh644kRwN6bt2_m6a0", "scope": "GOOGLE", "types": ["route"], "vicinity": "Boston"}, "ChIJv1J9rnh644kRpU98kgmjsjk": {"geometry": {"location": {"lat": 42.3516594, "lng": -71.0561446}, "viewport": {"northeast": {"lat": 42.3529894302915, "lng": -71.0547116197085}, "southwest": {"lat": 42.3502914697085, "lng": -71.0574095802915}}}, "icon": "https://maps.gstatic.com/mapfiles/place_api/icons/generic_business-71.png", "id": "74c5d30cc0026aa4f54d05c015d58a764c09245f", "name": "Boston Sports Clubs", "opening_hours": {"open_now": true}, "photos": [{"height": 1668, "html_attributions": ["<a href=\"https://maps.google.com/maps/contrib/115121093100201351214/photos\">Boston Sports Clubs</a>"], "photo_reference": "CmRaAAAAI6coAj1yaANUwoZ0GhxjxbP0lyEjgqSudRt_7pPG4JCrvuRIm7pQrAdzhlTIA23HV633e8TI5RhmUgvFIarZ1Bsl7OMh-zvMqt87nCP-9xRsK2SRiCBUtX7sqXNHh3n6EhDG-7NMmmZ8b-8qtG7ln0ASGhSrZuFUIhcsPYzlY5JWm06vWzimgw", "width": 2500}], "place_id": "ChIJv1J9rnh644kRpU98kgmjsjk", "plus_code": {"compound_code": "9W2V+MG Boston, Massachusetts, United States", "global_code": "87JC9W2V+MG"}, "rating": 3.5, "reference": "ChIJv1J9rnh644kRpU98kgmjsjk", "scope": "GOOGLE", "types": ["gym", "health", "point_of_interest", "establishment"], "user_ratings_total": 65, "vicinity": "695 Atlantic Avenue, Boston"}, "ChIJv1J9rnh644kRlZ1BbhfHeVE": {"geometry": {"location": {"lat": 42.3515837, "lng": -71.0562695}, "viewport": {"northeast": {"lat": 42.3528979302915, "lng": -71.0548016697085}, "southwest": {"lat": 42.3501999697085, "lng": -71.0574996302915}}}, "icon": "https://maps.gstatic.com/mapfiles/place_api/icons/generic_business-71.png", "id": "b6cf7e33a8b51b36655bb95096a0e67b021fb076", "name": "Bunker Hill Insurance", "opening_hours": {"open_now": true}, "photos": [{"height": 360, "html_attributions": ["<a href=\"https://maps.google.com/maps/contrib/118114696360437841233/photos\">Bunker Hill Insurance</a>"], "photo_reference": "CmRaAAAAIfgIZ8X3lMCSr4C7gYzNiuH2cQFshTG3cN9BfRyx6ANyapmErSaSTMEZ_ZY39UeGdrMmNIthZeOrfXNOkC7GoqnVVW0teqX6VzhgyRMGoLiPfGtdGDKGailTHrqOWedhEhDd8B01lShHlpkFMHD0Uuk2GhTksaVIG2Z4Hm5VtnPOCdosqSuVJQ", "width": 360}], "place_id": "ChIJv1J9rnh644kRlZ1BbhfHeVE", "plus_code": {"compound_code": "9W2V+JF Boston, Massachusetts, United States", "global_code": "87JC9W2V+JF"}, "rating": 1.4, "reference": "ChIJv1J9rnh644kRlZ1BbhfHeVE", "scope": "GOOGLE", "types": ["point_of_interest", "establishment"], "user_ratings_total": 9, "vicinity": "695 Atlantic Avenue, Boston"}, "ChIJgbfFrnh644kRfhdq_4qWqiw": {"geometry": {"location": {"lat": 42.3516349, "lng": -71.05621359999999}, "viewport": {"northeast": {"lat": 42.35295273029151, "lng": -71.05475806970848}, "southwest": {"lat": 42.35025476970851, "lng": -71.0574560302915}}}, "icon": "https://maps.gstatic.com/mapfiles/place_api/icons/generic_business-71.png", "id": "d44ab16ced437a7f146812a239ab31f7f58bf190", "name": "DCU FinTech Innovation Center", "photos": [{"height": 658, "html_attributions": ["<a href=\"https://maps.google.com/maps/contrib/118291181219493594662/photos\">DCU FinTech Innovation Center</a>"], "photo_reference": "CmRaAAAA2F96W0GKsFpVt4yx2wV-MbysJ7AVqE8Qlt-DMY9TIlNQAM6AJ6npjD1r-fxO39kX-85oj7f2UiA_bWEZaGDcYcSvFcY9RKDhAg7uhRKTcUP-Djp9d_LKmKWPwNcDb7PPEhDNICxttfKu06_x9LbgkSMaGhR32BcQcgv1bjhTdexvbnBdiyubXQ", "width": 960}], "place_id": "ChIJgbfFrnh644kRfhdq_4qWqiw", "plus_code": {"compound_code": "9W2V+MG Boston, Massachusetts, United States", "global_code": "87JC9W2V+MG"}, "rating": 4.7, "reference": "ChIJgbfFrnh644kRfhdq_4qWqiw", "scope": "GOOGLE", "types": ["point_of_interest", "establishment"], "user_ratings_total": 3, "vicinity": "695 Atlantic Ave, Boston, MA 02111, 9th Floor, Boston"}, "ChIJgbfFrnh644kRXLdnOyKi2vE": {"geometry": {"location": {"lat": 42.3516349, "lng": -71.05621359999999}, "viewport": {"northeast": {"lat": 42.35295273029151, "lng": -71.05475806970848}, "southwest": {"lat": 42.35025476970851, "lng": -71.0574560302915}}}, "icon": "https://maps.gstatic.com/mapfiles/place_api/icons/generic_business-71.png", "id": "ed4a328f561fbf414b2fb174f6fa5ff88dadc5fe", "name": "Anthony M. Campo", "place_id": "ChIJgbfFrnh644kRXLdnOyKi2vE", "plus_code": {"compound_code": "9W2V+MG Boston, Massachusetts, United States", "global_code": "87JC9W2V+MG"}, "rating": 5, "reference": "ChIJgbfFrnh644kRXLdnOyKi2vE", "scope": "GOOGLE", "types": ["lawyer", "point_of_interest", "establishment"], "user_ratings_total": 1, "vicinity": "695 Atlantic Avenue #11, Boston"}, "ChIJv1J9rnh644kRP9OZHuwb0HM": {"geometry": {"location": {"lat": 42.351835, "lng": -71.0564022}, "viewport": {"northeast": {"lat": 42.3532605802915, "lng": -71.05501771970849}, "southwest": {"lat": 42.3505626197085, "lng": -71.05771568029151}}}, "icon": "https://maps.gstatic.com/mapfiles/place_api/icons/shopping-71.png", "id": "4cbfbe060a195e3339b1430df4ef3dd651046ba4", "name": "Susan's Deli of Course", "opening_hours": {"open_now": true}, "photos": [{"height": 2448, "html_attributions": ["<a href=\"https://maps.google.com/maps/contrib/103500286197389355923/photos\">Russ Vanderpool</a>"], "photo_reference": "CmRaAAAAcKYyPWELwstKvWoDXeS9b7hiA7fQbphqVVZKyjwYlJNIwmahy5a0z6z53x0QDmrPTaCBGSiaGMCNXCBBDSOjTZyG99HjmRzvSlyRGFUiZIITVOvHknkU4cj09qSFAnOqEhDi_zGU8DawNCUet17P2vmRGhRwaACKDmLFGH-3-QLc3wFjQfwEXA", "width": 3264}], "place_id": "ChIJv1J9rnh644kRP9OZHuwb0HM", "plus_code": {"compound_code": "9W2V+PC Boston, Massachusetts, United States", "global_code": "87JC9W2V+PC"}, "price_level": 1, "rating": 4.3, "reference": "ChIJv1J9rnh644kRP9OZHuwb0HM", "scope": "GOOGLE", "types": ["meal_takeaway", "store", "restaurant", "point_of_interest", "food", "establishment"], "user_ratings_total": 27, "vicinity": "215 Essex Street, Boston"}, "ChIJv1J9rnh644kRM1B0Y8xYrUI": {"geometry": {"location": {"lat": 42.3515837, "lng": -71.0562695}, "viewport": {"northeast": {"lat": 42.3528979302915, "lng": -71.0548016697085}, "southwest": {"lat": 42.3501999697085, "lng": -71.0574996302915}}}, "icon": "https://maps.gstatic.com/mapfiles/place_api/icons/generic_business-71.png", "id": "e6c37e94c87344f94ad410ff5979fc247ed3a2ba", "name": "Thomas Johnson Law Office", "place_id": "ChIJv1J9rnh644kRM1B0Y8xYrUI", "plus_code": {"compound_code": "9W2V+JF Boston, Massachusetts, United States", "global_code": "87JC9W2V+JF"}, "reference": "ChIJv1J9rnh644kRM1B0Y8xYrUI", "scope": "GOOGLE", "types": ["lawyer", "point_of_interest", "establishment"], "vicinity": "695 Atlantic Avenue # 3, Boston"}, "ChIJv1J9rnh644kR_bER3BHoLSI": {"geometry": {"location": {"lat": 42.3515837, "lng": -71.0562695}, "viewport": {"northeast": {"lat": 42.3528979302915, "lng": -71.0548016697085}, "southwest": {"lat": 42.3501999697085, "lng": -71.0574996302915}}}, "icon": "https://maps.gstatic.com/mapfiles/place_api/icons/generic_business-71.png", "id": "6de916e06f904b5315531f94d9018b8e395f7a3c", "name": "Exchange Marketing Group LLC", "place_id": "ChIJv1J9rnh644kR_bER3BHoLSI", "plus_code": {"compound_code": "9W2V+JF Boston, Massachusetts, United States", "global_code": "87JC9W2V+JF"}, "reference": "ChIJv1J9rnh644kR_bER3BHoLSI", "scope": "GOOGLE", "types": ["point_of_interest", "establishment"], "vicinity": "695 Atlantic Avenue, Boston"}, "ChIJRZhirnh644kRbOFpQQteUjk": {"geometry": {"location": {"lat": 42.3515837, "lng": -71.0562695}, "viewport": {"northeast": {"lat": 42.3528979302915, "lng": -71.0548016697085}, "southwest": {"lat": 42.3501999697085, "lng": -71.0574996302915}}}, "icon": "https://maps.gstatic.com/mapfiles/place_api/icons/generic_business-71.png", "id": "557ccc45c7c036fbd9ee8d7a9e39b7673146a396", "name": "Boyle | Shaughnessy Law", "place_id": "ChIJRZhirnh644kRbOFpQQteUjk", "plus_code": {"compound_code": "9W2V+JF Boston, Massachusetts, United States", "global_code": "87JC9W2V+JF"}, "reference": "ChIJRZhirnh644kRbOFpQQteUjk", "scope": "GOOGLE", "types": ["point_of_interest", "establishment"], "vicinity": "695 Atlantic Avenue 11th floor, Boston"}, "ChIJYb7m2J5w44kRNTcIFEfjIwY": {"geometry": {"location": {"lat": 42.3515837, "lng": -71.0562695}, "viewport": {"northeast": {"lat": 42.3528979302915, "lng": -71.0548016697085}, "southwest": {"lat": 42.3501999697085, "lng": -71.0574996302915}}}, "icon": "https://maps.gstatic.com/mapfiles/place_api/icons/generic_business-71.png", "id": "a41021153464de0c66e3472f2956d1d857395154", "name": "Keel", "opening_hours": {"open_now": true}, "photos": [{"height": 430, "html_attributions": ["<a href=\"https://maps.google.com/maps/contrib/114313270134634013013/photos\">Keel</a>"], "photo_reference": "CmRaAAAAgYDfRgBXrloUCJ_ugAN5d2KCpMcmLECmcaT4iiJD0iMybLAWTAMLFmy3nlTgWaA0kiZs60e3ZqdJnKDfkPq20stVrll1oN0tGgsbFp3h1nfczXW1yU7sSiMfqQ0X3wEDEhAghVbTY-avebdbpI6AkaoYGhQfKExMKBPXWGazTHzfazaxiKUDJA", "width": 430}], "place_id": "ChIJYb7m2J5w44kRNTcIFEfjIwY", "plus_code": {"compound_code": "9W2V+JF Boston, Massachusetts, United States", "global_code": "87JC9W2V+JF"}, "rating": 5, "reference": "ChIJYb7m2J5w44kRNTcIFEfjIwY", "scope": "GOOGLE", "types": ["finance", "point_of_interest", "establishment"], "user_ratings_total": 4, "vicinity": "695 Atlantic Ave, 9th Floor, Boston"}, "ChIJv1J9rnh644kR4hc29XVaEFg": {"geometry": {"location": {"lat": 42.3515837, "lng": -71.0562695}, "viewport": {"northeast": {"lat": 42.3528979302915, "lng": -71.0548016697085}, "southwest": {"lat": 42.3501999697085, "lng": -71.0574996302915}}}, "icon": "https://maps.gstatic.com/mapfiles/place_api/icons/generic_business-71.png", "id": "43b34d96ef2916aec58b667ada65ccf0acb2a6b6", "name": "Request Health Corporation", "opening_hours": {"open_now": true}, "place_id": "ChIJv1J9rnh644kR4hc29XVaEFg", "plus_code": {"compound_code": "9W2V+JF Boston, Massachusetts, United States", "global_code": "87JC9W2V+JF"}, "reference": "ChIJv1J9rnh644kR4hc29XVaEFg", "scope": "GOOGLE", "types": ["accounting", "finance", "point_of_interest", "establishment"], "vicinity": "695 Atlantic Avenue, Boston"}, "ChIJudz5qnh644kRELllDPfAKsY": {"geometry": {"location": {"lat": 42.3518319, "lng": -71.0562108}, "viewport": {"northeast": {"lat": 42.3532371802915, "lng": -71.05483571970849}, "southwest": {"lat": 42.3505392197085, "lng": -71.05753368029151}}}, "icon": "https://maps.gstatic.com/mapfiles/place_api/icons/bus-71.png", "id": "fa6f766709c61f48f482334512ffa57a7601e196", "name": "Essex St @ Atlantic Ave", "place_id": "ChIJudz5qnh644kRELllDPfAKsY", "plus_code": {"compound_code": "9W2V+PG Boston, Massachusetts, United States", "global_code": "87JC9W2V+PG"}, "rating": 5, "reference": "ChIJudz5qnh644kRELllDPfAKsY", "scope": "GOOGLE", "types": ["bus_station", "transit_station", "point_of_interest", "establishment"], "user_ratings_total": 1, "vicinity": "United States"}, "ChIJv1J9rnh644kR5kkK_GQ8UBo": {"geometry": {"location": {"lat": 42.3515837, "lng": -71.0562695}, "viewport": {"northeast": {"lat": 42.3528979302915, "lng": -71.0548016697085}, "southwest": {"lat": 42.3501999697085, "lng": -71.0574996302915}}}, "icon": "https://maps.gstatic.com/mapfiles/place_api/icons/generic_business-71.png", "id": "6cb780b5b3a1b4d0825f7507718fd4794095ce95", "name": "Spaulding & Slye Management", "place_id": "ChIJv1J9rnh644kR5kkK_GQ8UBo", "plus_code": {"compound_code": "9W2V+JF Boston, Massachusetts, United States", "global_code": "87JC9W2V+JF"}, "reference": "ChIJv1J9rnh644kR5kkK_GQ8UBo", "scope": "GOOGLE", "types": ["real_estate_agency", "point_of_interest", "establishment"], "vicinity": "695 Atlantic Avenue, Boston"}, "ChIJGzE9DS1l44kRoOhiASS_fHg": {"geometry": {"location": {"lat": 42.3600825, "lng": -71.0588801}, "viewport": {"northeast": {"lat": 42.40081989999999, "lng": -70.749455}, "southwest": {"lat": 42.22788, "lng": -71.191113}}}, "icon": "https://maps.gstatic.com/mapfiles/place_api/icons/geocode-71.png", "id": "06755c25d2b34d13942a4713971756a55b870ced", "name": "Boston", "photos": [{"height": 3024, "html_attributions": ["<a href=\"https://maps.google.com/maps/contrib/104670289779338733432/photos\">Natalia Zalucean</a>"], "photo_reference": "CmRaAAAAaOXHC4-Uv5RtSD6VywvlW9pk2B-w6ChvSXAk_vx4O-fJx2BBORWrvYpq58H4bjaPuU0yzgqSzbLc4ktL7pxjsWK0HF4N4pD5FrI65UkU6U7MOOKDCux0jzkKjFTKRGRLEhBzCxjq-pBfBj8DujHTKpNnGhRreNwhMq_T1Mrosb3R2q_g9mWgcA", "width": 4032}], "place_id": "ChIJGzE9DS1l44kRoOhiASS_fHg", "reference": "ChIJGzE9DS1l44kRoOhiASS_fHg", "scope": "GOOGLE", "types": ["locality", "political"], "vicinity": "Boston"}}