{"ChIJGzE9DS1l44kRoOhiASS_fHg": {"geometry": {"location": {"lat": 42.3600825, "lng": -71.0588801}, "viewport": {"northeast": {"lat": 42.40081989999999, "lng": -70.749455}, "southwest": {"lat": 42.22788, "lng": -71.191113}}}, "icon": "https://maps.gstatic.com/mapfiles/place_api/icons/geocode-71.png", "id": "06755c25d2b34d13942a4713971756a55b870ced", "name": "Boston", "photos": [{"height": 3024, "html_attributions": ["<a href=\"https://maps.google.com/maps/contrib/104670289779338733432/photos\">Natalia Zalucean</a>"], "photo_reference": "CmRaAAAAWCo5i1U5OCQ92vYcuokq9iH4FS4KOp2Uob_lrKwrJAq_BW_F4MM0DnUkLZfr1B9gxLYslqFikcrum0SjZ9uFZI__kZZBsGMyT5v2KP4e07-9NHQkq3SON22QdxqmGZD9EhAwudomkQcRpMe1g7c1v-CmGhTn_qEGpg6iHcrCJ45MEvb9UJmNtA", "width": 4032}], "place_id": "ChIJGzE9DS1l44kRoOhiASS_fHg", "reference": "ChIJGzE9DS1l44kRoOhiASS_fHg", "scope": "GOOGLE", "types": ["locality", "political"], "vicinity": "Boston"}, "ChIJJ11ptnV644kRfrE5ONoG5zQ": {"geometry": {"location": {"lat": 42.351883, "lng": -71.06935829999999}, "viewport": {"northeast": {"lat": 42.3533594302915, "lng": -71.06805896970849}, "southwest": {"lat": 42.3506614697085, "lng": -71.0707569302915}}}, "icon": "https://maps.gstatic.com/mapfiles/place_api/icons/shopping-71.png", "id": "60252f6ba4377540977a9e37136cd70465cdb5f6", "name": "La Perla", "opening_hours": {"open_now": true}, "photos": [{"height": 2988, "html_attributions": ["<a href=\"https://maps.google.com/maps/contrib/112188989730004645614/photos\">Mo Alghool</a>"], "photo_reference": "CmRaAAAAuj7Szmq0_tOTsBo7zenSq5TlupbcV3sqBwrTADyNa_zLGlsz54W02341-CE-D7SZpQvJKzcBdCfDjbDS2MKXNPjUandZH-3NNX71tsSQC_T9b3FC8LRQCG5MF_FfNa9_EhDmbE1m2FXhnhaxCrC--zgfGhSY9WMRD8hDMzSPodgETMl2KS37_Q", "width": 5312}], "place_id": "ChIJJ11ptnV644kRfrE5ONoG5zQ", "plus_code": {"compound_code": "9W2J+Q7 Boston, Massachusetts, United States", "global_code": "87JC9W2J+Q7"}, "price_level": 3, "rating": 3, "reference": "ChIJJ11ptnV644kRfrE5ONoG5zQ", "scope": "GOOGLE", "types": ["clothing_store", "store", "point_of_interest", "establishment"], "user_ratings_total": 6, "vicinity": "250 Boylston Street, Boston"}, "ChIJQ5POT3R644kRr36_kbIIZN0": {"geometry": {"location": {"lat": 42.3517044, "lng": -71.0696945}, "viewport": {"northeast": {"lat": 42.35293653029149, "lng": -71.0683092697085}, "southwest": {"lat": 42.35023856970849, "lng": -71.0710072302915}}}, "icon": "https://maps.gstatic.com/mapfiles/place_api/icons/generic_business-71.png", "id": "3969ac3b84ef56920ed9bad7913a68ea5b8180b7", "name": "Skinner Auctioneers & Appraisers", "opening_hours": {"open_now": true}, "photos": [{"height": 3024, "html_attributions": ["<a href=\"https://maps.google.com/maps/contrib/101246096479190019761/photos\">Alina Sikacheva</a>"], "photo_reference": "CmRaAAAAhrtul81-h0Im59dWXp7RNzgjhx4AiXEyzZ-0ZbjssOOwiCkWmVTD6d8Woau_wdnB8k2awk_EYu6OkxXS2Hoghuwi94i5Bp4HQXziM6NNAgoHldljrAhRkltdBg0MDFo4EhB-RcaY_epw6xflvyh2TEmPGhSQnkGRRR7ZiUSoSqp6wADLdb2Xow", "width": 4032}], "place_id": "ChIJQ5POT3R644kRr36_kbIIZN0", "plus_code": {"compound_code": "9W2J+M4 Boston, Massachusetts, United States", "global_code": "87JC9W2J+M4"}, "rating": 2.6, "reference": "ChIJQ5POT3R644kRr36_kbIIZN0", "scope": "GOOGLE", "types": ["finance", "home_goods_store", "store", "point_of_interest", "establishment"], "user_ratings_total": 10, "vicinity": "63 Park Plaza, Boston"}, "ChIJJ11ptnV644kRZPDgOYt6bdQ": {"geometry": {"location": {"lat": 42.351883, "lng": -71.06935829999999}, "viewport": {"northeast": {"lat": 42.3533594302915, "lng": -71.06805896970849}, "southwest": {"lat": 42.3506614697085, "lng": -71.0707569302915}}}, "icon": "https://maps.gstatic.com/mapfiles/place_api/icons/generic_business-71.png", "id": "117021601bd7315702045b9e748e7115ff72a1f4", "name": "Camp Miracles & Magic", "place_id": "ChIJJ11ptnV644kRZPDgOYt6bdQ", "plus_code": {"compound_code": "9W2J+Q7 Boston, Massachusetts, United States", "global_code": "87JC9W2J+Q7"}, "reference": "ChIJJ11ptnV644kRZPDgOYt6bdQ", "scope": "GOOGLE", "types": ["point_of_interest", "establishment"], "vicinity": "250 Boylston Street # 7, Boston"}, "ChIJJ11ptnV644kRJUISWlCBZUs": {"geometry": {"location": {"lat": 42.351883, "lng": -71.06935829999999}, "viewport": {"northeast": {"lat": 42.3533594302915, "lng": -71.06805896970849}, "southwest": {"lat": 42.3506614697085, "lng": -71.0707569302915}}}, "icon": "https://maps.gstatic.com/mapfiles/place_api/icons/generic_business-71.png", "id": "7c31cabe16509c7439567efb9551b8f2bdbdc903", "name": "Fallon John T", "place_id": "ChIJJ11ptnV644kRJUISWlCBZUs", "plus_code": {"compound_code": "9W2J+Q7 Boston, Massachusetts, United States", "global_code": "87JC9W2J+Q7"}, "reference": "ChIJJ11ptnV644kRJUISWlCBZUs", "scope": "GOOGLE", "types": ["real_estate_agency", "point_of_interest", "establishment"], "vicinity": "250 Boylston Street, Boston"}, "ChIJJ11ptnV644kRysa5DcDi4lg": {"geometry": {"location": {"lat": 42.351883, "lng": -71.06935829999999}, "viewport": {"northeast": {"lat": 42.3533594302915, "lng": -71.06805896970849}, "southwest": {"lat": 42.3506614697085, "lng": -71.0707569302915}}}, "icon": "https://maps.gstatic.com/mapfiles/place_api/icons/generic_business-71.png", "id": "47bf34d8f101424c5dea10fd8c4409c42653358e", "name": "Le Jardin Condominium", "place_id": "ChIJJ11ptnV644kRysa5DcDi4lg", "plus_code": {"compound_code": "9W2J+Q7 Boston, Massachusetts, United States", "global_code": "87JC9W2J+Q7"}, "reference": "ChIJJ11ptnV644kRysa5DcDi4lg", "scope": "GOOGLE", "types": ["point_of_interest", "establishment"], "vicinity": "250 Boylston Street, Boston"}, "ChIJC0KEtHV644kR9rAI55kswps": {"geometry": {"location": {"lat": 42.35198219999999, "lng": -71.069433}, "viewport": {"northeast": {"lat": 42.35340548029149, "lng": -71.0681129697085}, "southwest": {"lat": 42.35070751970849, "lng": -71.07081093029151}}}, "icon": "https://maps.gstatic.com/mapfiles/place_api/icons/generic_business-71.png", "id": "4729877aef503f535202430013053afa6a3a7a97", "name": "75 Park Plaza Parking", "place_id": "ChIJC0KEtHV644kR9rAI55kswps", "plus_code": {"compound_code": "9W2J+Q6 Boston, Massachusetts, United States", "global_code": "87JC9W2J+Q6"}, "rating": 4, "reference": "ChIJC0KEtHV644kR9rAI55kswps", "scope": "GOOGLE", "types": ["parking", "point_of_interest", "establishment"], "user_ratings_total": 1, "vicinity": "75 Park Plaza, Boston"}, "ChIJL0cWs3V644kR1_IqkuhqY7Q": {"geometry": {"location": {"lat": 42.3519637, "lng": -71.0695855}, "viewport": {"northeast": {"lat": 42.35338058029149, "lng": -71.06826296970851}, "southwest": {"lat": 42.35068261970849, "lng": -71.07096093029152}}}, "icon": "https://maps.gstatic.com/mapfiles/place_api/icons/doctor-71.png", "id": "a4fe0cd5f7349801171facf038ee0ff137c6b9bd", "name": "kalaigue", "place_id": "ChIJL0cWs3V644kR1_IqkuhqY7Q", "plus_code": {"compound_code": "9W2J+Q5 Boston, Massachusetts, United States", "global_code": "87JC9W2J+Q5"}, "reference": "ChIJL0cWs3V644kR1_IqkuhqY7Q", "scope": "GOOGLE", "types": ["hospital", "point_of_interest", "establishment"], "vicinity": "280 Boylston Street, Boston"}, "ChIJW60DJYNw44kRmL2Ehm4t0Bg": {"geometry": {"location": {"lat": 42.3557089, "lng": -71.05720529999999}, "viewport": {"northeast": {"lat": 42.36839699999999, "lng": -71.04779599999999}, "southwest": {"lat": 42.342797, "lng": -71.072996}}}, "icon": "https://maps.gstatic.com/mapfiles/place_api/icons/geocode-71.png", "id": "bc27dcccb31ae90e36c262f557a1c09193ec777d", "name": "Downtown", "photos": [{"height": 629, "html_attributions": ["<a href=\"https://maps.google.com/maps/contrib/111777007894721839306/photos\">verona mantova</a>"], "photo_reference": "CmRaAAAA6flxHqWBiK2vIhkvA8cuebTRG0-QEfPhnzOfDcS5s-tkeGmWsydR8mH9_mxC1BEBBBbt6RJ1_Q1TB4i1KS1DE5EMOfJMdlWQ9GvRWF-k2oB-6RcYVxjrZ5sTMkfUNSOlEhDP3RC9qEp8KOQTRYqn9BEXGhSsevVJpQq6ezLGuJWvxwMZDm03nQ", "width": 1000}], "place_id": "ChIJW60DJYNw44kRmL2Ehm4t0Bg", "reference": "ChIJW60DJYNw44kRmL2Ehm4t0Bg", "scope": "GOOGLE", "types": ["neighborhood", "political"], "vicinity": "Boston"}}