{"ChIJ-Tp9MoNw44kRlCuSxsMGQho": {"geometry": {"location": {"lat": 42.3558908, "lng": -71.0614618}, "viewport": {"northeast": {"lat": 42.35723928029149, "lng": -71.0601132697085}, "southwest": {"lat": 42.3545413197085, "lng": -71.0628112302915}}}, "icon": "https://maps.gstatic.com/mapfiles/place_api/icons/geocode-71.png", "id": "b0f45b60acf2e762c594912bd7e5827bc032d033", "name": "17-19 Winter St", "place_id": "ChIJ-Tp9MoNw44kRlCuSxsMGQho", "reference": "ChIJ-Tp9MoNw44kRlCuSxsMGQho", "scope": "GOOGLE", "types": ["route"], "vicinity": "Boston"}, "ChIJVabUMoNw44kRNVxU5uwyqjo": {"geometry": {"location": {"lat": 42.3560062, "lng": -71.0613889}, "viewport": {"northeast": {"lat": 42.3572601802915, "lng": -71.0599932197085}, "southwest": {"lat": 42.3545622197085, "lng": -71.06269118029151}}}, "icon": "https://maps.gstatic.com/mapfiles/place_api/icons/shopping-71.png", "id": "3b922c71e2efa3ce0fe7290a4ff6e445e7028f16", "name": "CVS", "opening_hours": {"open_now": true}, "photos": [{"height": 4032, "html_attributions": ["<a href=\"https://maps.google.com/maps/contrib/103958928818504016871/photos\">Paul Fox</a>"], "photo_reference": "CmRaAAAAqMvTClU1FSv2qLnJ2aJk5447slX4UNblZDBh8XA3bt7KVQbO7-_ZqpKOK7sU8VQ-qHG_xkY2MF-H6WPi_CSAWby4J2HQdplLx_LwJcV_PfQO_5rKo-iJGmXeflBvC5d6EhBl4URsepyenvEcuB0_8BoWGhTLQwoS6_2o9pSoQYR-Nf_OF42BxA", "width": 3024}], "place_id": "ChIJVabUMoNw44kRNVxU5uwyqjo", "plus_code": {"compound_code": "9W4Q+CC Boston, Massachusetts, United States", "global_code": "87JC9W4Q+CC"}, "rating": 3.5, "reference": "ChIJVabUMoNw44kRNVxU5uwyqjo", "scope": "GOOGLE", "types": ["convenience_store", "store", "health", "point_of_interest", "food", "establishment"], "user_ratings_total": 16, "vicinity": "25 Winter Place, Boston"}, "ChIJ1aDfzJxw44kRn0yR3G-fSAw": {"geometry": {"location": {"lat": 42.3560952, "lng": -71.0615703}, "viewport": {"northeast": {"lat": 42.35738798029151, "lng": -71.0602700697085}, "southwest": {"lat": 42.35469001970851, "lng": -71.0629680302915}}}, "icon": "https://maps.gstatic.com/mapfiles/place_api/icons/shopping-71.png", "id": "3dbbb9b7379752245109f1f45a8f76142f8d5501", "name": "Sprint Store", "opening_hours": {"open_now": true}, "photos": [{"height": 3024, "html_attributions": ["<a href=\"https://maps.google.com/maps/contrib/101537413117963436386/photos\">Brendan Perry</a>"], "photo_reference": "CmRaAAAA-Ew2oFRzbhjJlU6hmVKIzI3sLmf655uEn6iKBisSPR0Qbub-z2NZRzHyUuRdDEkAhvljM-d5TA6P7PgkvDcw9t7dU-MZ9_Kkm8dqls8RfU9O413hOFOd6txnq4T8qyHoEhDqNYvdtOL2oTRYzJj_1w7VGhQs3v-ehwhluNL851Vb3STjyHqCXw", "width": 4032}], "place_id": "ChIJ1aDfzJxw44kRn0yR3G-fSAw", "plus_code": {"compound_code": "9W4Q+C9 Boston, Massachusetts, United States", "global_code": "87JC9W4Q+C9"}, "price_level": 2, "rating": 3.4, "reference": "ChIJ1aDfzJxw44kRn0yR3G-fSAw", "scope": "GOOGLE", "types": ["electronics_store", "store", "point_of_interest", "establishment"], "user_ratings_total": 54, "vicinity": "39 Winter Street, Boston"}, "ChIJA_c0BIJw44kRoOsbmYL2NTs": {"geometry": {"location": {"lat": 42.3560643, "lng": -71.06156059999999}, "viewport": {"northeast": {"lat": 42.3572892302915, "lng": -71.06007906970848}, "southwest": {"lat": 42.3545912697085, "lng": -71.0627770302915}}}, "icon": "https://maps.gstatic.com/mapfiles/place_api/icons/generic_business-71.png", "id": "4691cca8c1fba604b8170eb82cb02e1db506166e", "name": "Liberty Travel", "opening_hours": {"open_now": true}, "photos": [{"height": 480, "html_attributions": ["<a href=\"https://maps.google.com/maps/contrib/108165674060157750423/photos\">Liberty Travel</a>"], "photo_reference": "CmRaAAAAkIUp0NWGH0KuoWloD0Xe5NTFaqFh-RUXjJsSrs-Cymt9d9aVEutsWcJPiIyJIFDr8J4Uqr1WJlhbIvcfqQ6UvTu32FY1tVeVAEXZco0s1lkn6Ar2BMP7jRP4L85J_UYeEhC1pCK68l5U8O1htduH1ahMGhTAosnKzl7PpwOQnjykJ2TLyFw89w", "width": 640}], "place_id": "ChIJA_c0BIJw44kRoOsbmYL2NTs", "plus_code": {"compound_code": "9W4Q+C9 Boston, Massachusetts, United States", "global_code": "87JC9W4Q+C9"}, "rating": 3.9, "reference": "ChIJA_c0BIJw44kRoOsbmYL2NTs", "scope": "GOOGLE", "types": ["travel_agency", "point_of_interest", "establishment"], "user_ratings_total": 14, "vicinity": "35 Winter Place, Boston"}, "ChIJU9iSMoNw44kRrqcTRfdAmIQ": {"geometry": {"location": {"lat": 42.3561567, "lng": -71.0616337}, "viewport": {"northeast": {"lat": 42.3574383302915, "lng": -71.06034316970849}, "southwest": {"lat": 42.3547403697085, "lng": -71.0630411302915}}}, "icon": "https://maps.gstatic.com/mapfiles/place_api/icons/generic_business-71.png", "id": "c51f6ac4fd9a3f31abc87cdbdbd8dc7d45bf17f9", "name": "thoughtbot", "opening_hours": {"open_now": true}, "photos": [{"height": 1188, "html_attributions": ["<a href=\"https://maps.google.com/maps/contrib/113708330548443025791/photos\">thoughtbot, inc</a>"], "photo_reference": "CmRaAAAAVnvf0Du5hGD7V2u6ZSqIxYYGbdBeSG3QNAMqh6z4K6CPEyzj5PonyUOVd6k4jJFTWIyh8jonJ4C48nhmsqbcRqit9YEt2mQXih-3-HW2v6vwwT2gOMR262re7b-q1AghEhBSHVOE1tLlebQPyqYMFoWOGhT_1pRvqLVVINxpaRQURhEOe6xdlQ", "width": 1792}], "place_id": "ChIJU9iSMoNw44kRrqcTRfdAmIQ", "plus_code": {"compound_code": "9W4Q+F8 Boston, Massachusetts, United States", "global_code": "87JC9W4Q+F8"}, "rating": 5, "reference": "ChIJU9iSMoNw44kRrqcTRfdAmIQ", "scope": "GOOGLE", "types": ["point_of_interest", "establishment"], "user_ratings_total": 6, "vicinity": "41 Winter Street 7th Floor, Boston"}, "ChIJ1Q7SMoNw44kRLzGQuL8wK9g": {"geometry": {"location": {"lat": 42.3559006, "lng": -71.0616953}, "viewport": {"northeast": {"lat": 42.3571717302915, "lng": -71.06017626970848}, "southwest": {"lat": 42.35447376970851, "lng": -71.0628742302915}}}, "icon": "https://maps.gstatic.com/mapfiles/place_api/icons/shopping-71.png", "id": "6753466b56f7bffbf703f169fba98f0a45528289", "name": "GameStop", "opening_hours": {"open_now": true}, "photos": [{"height": 4048, "html_attributions": ["<a href=\"https://maps.google.com/maps/contrib/100729495824491728187/photos\">David Heller</a>"], "photo_reference": "CmRaAAAAsXvX7W25tsy_y1U_pbGjwrBn4el6bsTIGAYVwUunDKZoHtjt692mCqbgiiVeY6zh71LJen5mTzVxokNkzpGvicNwZ2SaDkks3iATE_87EBNdDIOdKLMhOFpu2AZUWGQTEhAFLE93xJSKtOrZ17HORRRSGhQo_7-8kP_J0okPs-9l0X_BABnpkQ", "width": 3036}], "place_id": "ChIJ1Q7SMoNw44kRLzGQuL8wK9g", "plus_code": {"compound_code": "9W4Q+98 Boston, Massachusetts, United States", "global_code": "87JC9W4Q+98"}, "price_level": 2, "rating": 4, "reference": "ChIJ1Q7SMoNw44kRLzGQuL8wK9g", "scope": "GOOGLE", "types": ["electronics_store", "store", "point_of_interest", "establishment"], "user_ratings_total": 199, "vicinity": "4710, 40 Winter Place, Boston"}, "ChIJlRbhzJxw44kRzDsop2rMbyc": {"geometry": {"location": {"lat": 42.3561567, "lng": -71.0616337}, "viewport": {"northeast": {"lat": 42.3574383302915, "lng": -71.06034316970849}, "southwest": {"lat": 42.3547403697085, "lng": -71.0630411302915}}}, "icon": "https://maps.gstatic.com/mapfiles/place_api/icons/generic_business-71.png", "id": "6f492899907f2d2f1e93c990fac49edffafd4e1f", "name": "Family Pride Coalition", "opening_hours": {"open_now": true}, "place_id": "ChIJlRbhzJxw44kRzDsop2rMbyc", "plus_code": {"compound_code": "9W4Q+F8 Boston, Massachusetts, United States", "global_code": "87JC9W4Q+F8"}, "reference": "ChIJlRbhzJxw44kRzDsop2rMbyc", "scope": "GOOGLE", "types": ["point_of_interest", "establishment"], "vicinity": "41 Winter Street # 41, Boston"}, "ChIJkR3ZM4Nw44kRJ3AElOgpPOA": {"geometry": {"location": {"lat": 42.3560002, "lng": -71.0613792}, "viewport": {"northeast": {"lat": 42.3572571802915, "lng": -71.0599883697085}, "southwest": {"lat": 42.3545592197085, "lng": -71.06268633029151}}}, "icon": "https://maps.gstatic.com/mapfiles/place_api/icons/generic_business-71.png", "id": "f351d04dbf948251a6d95e14f8a2197bd5c2f6da", "name": "CVS Photo", "opening_hours": {"open_now": true}, "photos": [{"height": 666, "html_attributions": ["<a href=\"https://maps.google.com/maps/contrib/114560562140137020440/photos\">CVS Photo</a>"], "photo_reference": "CmRaAAAAUYQmaHl5tI7jJQDIw-KrrP04yZkXYWbubJHlsDG35Y1ethr9T2S5_LCS38AffRI9gKPl0Vx4TAMLGZl-W_U3zxBAdQEK7-PsbRyYqczKm60Seju-BaaPNWvhApEP_PrNEhDZqNtiQbnkWI_sN66PDm1lGhSr3ZBBfbh40dUOZwAsytmJoynBLg", "width": 1000}], "place_id": "ChIJkR3ZM4Nw44kRJ3AElOgpPOA", "plus_code": {"compound_code": "9W4Q+CC Boston, Massachusetts, United States", "global_code": "87JC9W4Q+CC"}, "reference": "ChIJkR3ZM4Nw44kRJ3AElOgpPOA", "scope": "GOOGLE", "types": ["electronics_store", "home_goods_store", "store", "point_of_interest", "establishment"], "vicinity": "25 Winter Place, Boston"}, "ChIJS9IqzZxw44kRX5-GtAdPHzs": {"geometry": {"location": {"lat": 42.35606800000001, "lng": -71.061493}, "viewport": {"northeast": {"lat": 42.35735663029151, "lng": -71.06019261970849}, "southwest": {"lat": 42.35465866970851, "lng": -71.0628905802915}}}, "icon": "https://maps.gstatic.com/mapfiles/place_api/icons/generic_business-71.png", "id": "c98ba6fe290fb08acc385abd4c433529f1285bb9", "name": "Western Union", "opening_hours": {"open_now": true}, "photos": [{"height": 1000, "html_attributions": ["<a href=\"https://maps.google.com/maps/contrib/100419690511189043409/photos\">Western Union</a>"], "photo_reference": "CmRaAAAAUiDFW_WO-wK8Rf3uGM_B5KcMcyowWr8FmWAKqiUWoslyHQpJHTJCTZqFEYEAi7sLH3C2X5dsni8-IUpbD3nUpMLLR-wJbutAeYZ15lT6jvwZ4NPC_7daRr9ygWcpT5bTEhBvKUWWJKJqqkfFgGdGsCLmGhTxON7gI6Ha5xSgsyTRacfg-x0nzg", "width": 1000}], "place_id": "ChIJS9IqzZxw44kRX5-GtAdPHzs", "plus_code": {"compound_code": "9W4Q+CC Boston, Massachusetts, United States", "global_code": "87JC9W4Q+CC"}, "rating": 2.1, "reference": "ChIJS9IqzZxw44kRX5-GtAdPHzs", "scope": "GOOGLE", "types": ["finance", "point_of_interest", "establishment"], "user_ratings_total": 7, "vicinity": "31 Winter Street, Boston"}, "ChIJnc_WMoNw44kRuDipIGvhA1g": {"geometry": {"location": {"lat": 42.3560845, "lng": -71.061314}, "viewport": {"northeast": {"lat": 42.3573379802915, "lng": -71.0600419697085}, "southwest": {"lat": 42.3546400197085, "lng": -71.0627399302915}}}, "icon": "https://maps.gstatic.com/mapfiles/place_api/icons/generic_business-71.png", "id": "a1dd3407697ec2f3d676af25bfcce2fe4435ae09", "name": "MoneyGram", "opening_hours": {"open_now": true}, "photos": [{"height": 300, "html_attributions": ["<a href=\"https://maps.google.com/maps/contrib/100861576735444065920/photos\">MoneyGram</a>"], "photo_reference": "CmRaAAAAgm2Kd6NsRxoHSp-NtsO_0XXMe60533Sk1UAiWrqwO4Sql0MhPXmHZN-FqyMvBu7Xe-S9tDjaX-qClNCf0lW3HxubNuiGtbvyaFoXOfNVzmcX5mscZRXTR-O2eJHSa_Y8EhCsSM_RS0SvrVWhRdWtuYHIGhRMBe0yWJ_PRa3E7ZI7jnwPSd1I1A", "width": 300}], "place_id": "ChIJnc_WMoNw44kRuDipIGvhA1g", "plus_code": {"compound_code": "9W4Q+CF Boston, Massachusetts, United States", "global_code": "87JC9W4Q+CF"}, "reference": "ChIJnc_WMoNw44kRuDipIGvhA1g", "scope": "GOOGLE", "types": ["finance", "point_of_interest", "establishment"], "vicinity": "25 Winter Street, Boston"}, "ChIJT6sxU3Z644kR0mDSsbfGVsg": {"geometry": {"location": {"lat": 42.35611180000001, "lng": -71.0615698}, "viewport": {"northeast": {"lat": 42.3573986302915, "lng": -71.06027476970849}, "southwest": {"lat": 42.3547006697085, "lng": -71.0629727302915}}}, "icon": "https://maps.gstatic.com/mapfiles/place_api/icons/generic_business-71.png", "id": "216f191d11053ce4fce7d7456e54e6de33d8aa6d", "name": "MoneyGram", "opening_hours": {"open_now": true}, "photos": [{"height": 300, "html_attributions": ["<a href=\"https://maps.google.com/maps/contrib/103275183743506053046/photos\">MoneyGram</a>"], "photo_reference": "CmRaAAAA4tMUfdAmlsQJQy1z_JPZn-HMcNbNK1kmLpvviEiaoUEF0wo3-D1axQha2CviV92904qfrx9iGjFm8uFqyDL1ef3u0rLp_Du5dMBZr6hjv1kbVYr5St1S8-hDSfZITkl4EhAr3JLBKATbcB_ALX7OxkrfGhSr_LMYw00vxAHiKm1Y4zch6qPKIQ", "width": 300}], "place_id": "ChIJT6sxU3Z644kR0mDSsbfGVsg", "plus_code": {"compound_code": "9W4Q+C9 Boston, Massachusetts, United States", "global_code": "87JC9W4Q+C9"}, "reference": "ChIJT6sxU3Z644kR0mDSsbfGVsg", "scope": "GOOGLE", "types": ["finance", "point_of_interest", "establishment"], "vicinity": "31 Winter Street, Boston"}, "ChIJGTLOMoNw44kRpSz0iEC3YQM": {"geometry": {"location": {"lat": 42.35615720000001, "lng": -71.06160590000002}, "viewport": {"northeast": {"lat": 42.3574339802915, "lng": -71.06031956970851}, "southwest": {"lat": 42.3547360197085, "lng": -71.06301753029152}}}, "icon": "https://maps.gstatic.com/mapfiles/place_api/icons/generic_business-71.png", "id": "f87b71556cfac83e1d1a784a29779b3f2869d8e7", "name": "MOAR- Massachusetts Organization for Addiction Recovery", "opening_hours": {"open_now": false}, "photos": [{"height": 481, "html_attributions": ["<a href=\"https://maps.google.com/maps/contrib/108603265461090772931/photos\">MOAR- Massachusetts Organization for Addiction Recovery</a>"], "photo_reference": "CmRaAAAADxh80NC7Q-txtwUs5C5AR8D2aommchch6Qk0VEqpkH95rphfDrW_7ZDNC8rbh76gTtZY4wM9NwfuCkjpC0rTCVfESYcGhv6jw8LqKEwyp6QG-GZSI0t60MMajS4qTcjIEhBEPMHTnl-4sHhTCcvaLGbXGhRnQckUIVlVmGoLaLR4Z8d4S4P2vg", "width": 480}], "place_id": "ChIJGTLOMoNw44kRpSz0iEC3YQM", "plus_code": {"compound_code": "9W4Q+F9 Boston, Massachusetts, United States", "global_code": "87JC9W4Q+F9"}, "rating": 5, "reference": "ChIJGTLOMoNw44kRpSz0iEC3YQM", "scope": "GOOGLE", "types": ["health", "point_of_interest", "establishment"], "user_ratings_total": 3, "vicinity": "29 Winter Street, Boston"}, "ChIJ2fD7zJxw44kR3ftoUsR5G0E": {"geometry": {"location": {"lat": 42.35615720000001, "lng": -71.06160590000002}, "viewport": {"northeast": {"lat": 42.3574339802915, "lng": -71.06031956970851}, "southwest": {"lat": 42.3547360197085, "lng": -71.06301753029152}}}, "icon": "https://maps.gstatic.com/mapfiles/place_api/icons/generic_business-71.png", "id": "f99e4f9980f0426e31894e6d52c0cdac6e93834c", "name": "The Threading Place ( Boston@Winter Street)", "opening_hours": {"open_now": true}, "photos": [{"height": 2448, "html_attributions": ["<a href=\"https://maps.google.com/maps/contrib/117686682378183837138/photos\">The Threading Place ( Boston@Winter Street)</a>"], "photo_reference": "CmRaAAAAl8oxWARMQX85h7ruK8su90HeiSL53Lp2l4nX592LdOqd9XFWyXSJwxi-QeEaDBg6eCJL1AVCnu4VkDs5cZ4fjVMFGpklmAC2HqwiyLuSy3XVoQJBh2I7qsSlFFvciW5BEhBCHoLNEyzhABv6ubsAFKp_GhRB3bONv5xH5ZOpbo2XNJ-fUaqJ7Q", "width": 3264}], "place_id": "ChIJ2fD7zJxw44kR3ftoUsR5G0E", "plus_code": {"compound_code": "9W4Q+F9 Boston, Massachusetts, United States", "global_code": "87JC9W4Q+F9"}, "rating": 3.4, "reference": "ChIJ2fD7zJxw44kR3ftoUsR5G0E", "scope": "GOOGLE", "types": ["beauty_salon", "point_of_interest", "establishment"], "user_ratings_total": 13, "vicinity": "45 Winter Street, Boston"}, "ChIJUxv4MYNw44kRFblw-UNmDhI": {"geometry": {"location": {"lat": 42.35591030000001, "lng": -71.0612313}, "viewport": {"northeast": {"lat": 42.3569728802915, "lng": -71.05844314999999}, "southwest": {"lat": 42.3542749197085, "lng": -71.06352215}}}, "icon": "https://maps.gstatic.com/mapfiles/place_api/icons/generic_business-71.png", "id": "a17e0974f6a712e0cd6d318f895f2da350d025c7", "name": "Planet Fitness", "opening_hours": {"open_now": true}, "photos": [{"height": 4016, "html_attributions": ["<a href=\"https://maps.google.com/maps/contrib/117511488454297151009/photos\">Planet Fitness</a>"], "photo_reference": "CmRaAAAAWk82sEZ9VzoSrBV6870fttdVZmlQOq0azWdc0g-EDMZtox0vOV31s0l5GYbXuJDY7ZvOwTcnlw30VkRdQDY4HbxpI2dXj6_TJij9QQeRdwDqSkzE_Ek8a8NpBdJmWXfaEhCRWSdO9Yb1qPk6ZZYX4fpJGhQZlE07hVmkD6qm6wwuq7pJ_5hXcw", "width": 6016}], "place_id": "ChIJUxv4MYNw44kRFblw-UNmDhI", "plus_code": {"compound_code": "9W4Q+9G Boston, Massachusetts, United States", "global_code": "87JC9W4Q+9G"}, "rating": 3.9, "reference": "ChIJUxv4MYNw44kRFblw-UNmDhI", "scope": "GOOGLE", "types": ["gym", "health", "point_of_interest", "establishment"], "user_ratings_total": 324, "vicinity": "17 Winter Street, Boston"}, "ChIJlRbhzJxw44kREZv31Nypdaw": {"geometry": {"location": {"lat": 42.3561567, "lng": -71.0616337}, "viewport": {"northeast": {"lat": 42.3574383302915, "lng": -71.06034316970849}, "southwest": {"lat": 42.3547403697085, "lng": -71.0630411302915}}}, "icon": "https://maps.gstatic.com/mapfiles/place_api/icons/generic_recreational-71.png", "id": "02c06614e220e40cc77015206a6e1fba4ef012dd", "name": "National Parks & Conservation", "photos": [{"height": 2322, "html_attributions": ["<a href=\"https://maps.google.com/maps/contrib/106948768551873850318/photos\">Laurent DAMION</a>"], "photo_reference": "CmRaAAAAjWJXXeVJHsFrc25RYe7Y87uqbaHEezczMG1FiDXxkJTWXpDL6_sstPTJ178Q_TnvfSENWz5vZ5JJviNqOGfrcEsN9ZCKL2930TN6VKotdQBlU0CZ3G4IAhsLBw5G0pnjEhBsx9zcv8rSG4MgmpMr-67cGhTdi3zv2W3zdsxZvCPWN_r0GgaBKA", "width": 4128}], "place_id": "ChIJlRbhzJxw44kREZv31Nypdaw", "plus_code": {"compound_code": "9W4Q+F8 Boston, Massachusetts, United States", "global_code": "87JC9W4Q+F8"}, "reference": "ChIJlRbhzJxw44kREZv31Nypdaw", "scope": "GOOGLE", "types": ["park", "point_of_interest", "establishment"], "vicinity": "41 Winter Street, Boston"}, "ChIJdaBzzZxw44kR1xbcIpDPmoo": {"geometry": {"location": {"lat": 42.3559506, "lng": -71.0612861}, "viewport": {"northeast": {"lat": 42.35724928029149, "lng": -71.05997901970849}, "southwest": {"lat": 42.3545513197085, "lng": -71.06267698029151}}}, "icon": "https://maps.gstatic.com/mapfiles/place_api/icons/generic_business-71.png", "id": "8a279ec40b58f279a5c37a19fceeab4cff754603", "name": "Escape Nails & Spa", "opening_hours": {"open_now": true}, "photos": [{"height": 4048, "html_attributions": ["<a href=\"https://maps.google.com/maps/contrib/100729495824491728187/photos\">David Heller</a>"], "photo_reference": "CmRaAAAAwcoBmRVsRoNtEu6cWylmOHeNg0bYf-8F_GR0qEdnrYkjnaPlHNc8XRqDIVZYgBE9Fr8PRiL3SgqBicibAo_KmoHhu2zoJCT8TjPl6PW0qxzyg7gDOC84Cctxwfj-1k4UEhBpd2jWkM7yQvamuTRVfGfsGhSbsuDLI8qbUf7VF7pJXwItHN4S5A", "width": 3036}], "place_id": "ChIJdaBzzZxw44kR1xbcIpDPmoo", "plus_code": {"compound_code": "9W4Q+9F Boston, Massachusetts, United States", "global_code": "87JC9W4Q+9F"}, "rating": 3.2, "reference": "ChIJdaBzzZxw44kR1xbcIpDPmoo", "scope": "GOOGLE", "types": ["beauty_salon", "point_of_interest", "establishment"], "user_ratings_total": 70, "vicinity": "21 Winter Street, Boston"}, "ChIJlRbhzJxw44kRLT9iDh9UL6g": {"geometry": {"location": {"lat": 42.3561567, "lng": -71.0616337}, "viewport": {"northeast": {"lat": 42.3574383302915, "lng": -71.06034316970849}, "southwest": {"lat": 42.3547403697085, "lng": -71.0630411302915}}}, "icon": "https://maps.gstatic.com/mapfiles/place_api/icons/generic_business-71.png", "id": "26664165e1a7a39cafa81c1497d154bdd04be99c", "name": "Magazine", "place_id": "ChIJlRbhzJxw44kRLT9iDh9UL6g", "plus_code": {"compound_code": "9W4Q+F8 Boston, Massachusetts, United States", "global_code": "87JC9W4Q+F8"}, "reference": "ChIJlRbhzJxw44kRLT9iDh9UL6g", "scope": "GOOGLE", "types": ["point_of_interest", "establishment"], "vicinity": "41 Winter Street, Boston"}, "ChIJq5eL14Jw44kRhFjliOYwW44": {"geometry": {"location": {"lat": 42.3561567, "lng": -71.0616337}, "viewport": {"northeast": {"lat": 42.3574383302915, "lng": -71.06034316970849}, "southwest": {"lat": 42.3547403697085, "lng": -71.0630411302915}}}, "icon": "https://maps.gstatic.com/mapfiles/place_api/icons/generic_business-71.png", "id": "ad7c7916ae9fb136031a441d2456b71be2709633", "name": "Corporate Traveler", "opening_hours": {"open_now": false}, "place_id": "ChIJq5eL14Jw44kRhFjliOYwW44", "plus_code": {"compound_code": "9W4Q+F8 Boston, Massachusetts, United States", "global_code": "87JC9W4Q+F8"}, "reference": "ChIJq5eL14Jw44kRhFjliOYwW44", "scope": "GOOGLE", "types": ["travel_agency", "point_of_interest", "establishment"], "vicinity": "41 Winter Street, Boston"}, "ChIJfcv_wDZx44kRQ6MNN_s2buo": {"geometry": {"location": {"lat": 42.3560477, "lng": -71.0615114}, "viewport": {"northeast": {"lat": 42.35728093029149, "lng": -71.0600544697085}, "southwest": {"lat": 42.3545829697085, "lng": -71.06275243029151}}}, "icon": "https://maps.gstatic.com/mapfiles/place_api/icons/generic_business-71.png", "id": "3793d5e7d54704b9e5aaf4a4c2c468324d564782", "name": "Luggage Storage (reserve on app) - Powered By StoreMe", "opening_hours": {"open_now": true}, "photos": [{"height": 453, "html_attributions": ["<a href=\"https://maps.google.com/maps/contrib/105811299140360160136/photos\">Powered by StoreMe - Luggage Storage (reserve on app)</a>"], "photo_reference": "CmRaAAAAd_o87nSwwV8bbWdMsvSl-ZuL5Zd-Bt1z_dkH-GC6ozIOj-_SR3PBXEHfIkiH3lh1TulCN3mZQHSrtj7Zud1Sv34v69f-d1tGd3tvOsoPSUxOebLaIBxqefPAkSHGkr8iEhBoj_xvs8xN4FsB0NVndYQ7GhSL7hMPdYN_8GIWoM939bS-wYXRBg", "width": 512}], "place_id": "ChIJfcv_wDZx44kRQ6MNN_s2buo", "plus_code": {"compound_code": "9W4Q+C9 Boston, Massachusetts, United States", "global_code": "87JC9W4Q+C9"}, "reference": "ChIJfcv_wDZx44kRQ6MNN_s2buo", "scope": "GOOGLE", "types": ["storage", "point_of_interest", "establishment"], "vicinity": "31 Winter Place, Boston"}, "ChIJGzE9DS1l44kRoOhiASS_fHg": {"geometry": {"location": {"lat": 42.3600825, "lng": -71.0588801}, "viewport": {"northeast": {"lat": 42.40081989999999, "lng": -70.749455}, "southwest": {"lat": 42.22788, "lng": -71.191113}}}, "icon": "https://maps.gstatic.com/mapfiles/place_api/icons/geocode-71.png", "id": "06755c25d2b34d13942a4713971756a55b870ced", "name": "Boston", "photos": [{"height": 3024, "html_attributions": ["<a href=\"https://maps.google.com/maps/contrib/104670289779338733432/photos\">Natalia Zalucean</a>"], "photo_reference": "CmRaAAAAZXq9d8UcqiJ2zdd0SRPCE0cncgmdTs3w6lCCv7IXx5MHOxlKRZzBlGYxqjwbvVG9mjPha3iamxScRD6boG_9ZMPRvVxSy73H0zu2C5oU4hw31bcqCPuDdqOp8UG7-Q5yEhDABV8hBVGi8ireaRocmFRwGhTHdh6CWGL1SzY2SxGO7VWp_hCvDA", "width": 4032}], "place_id": "ChIJGzE9DS1l44kRoOhiASS_fHg", "reference": "ChIJGzE9DS1l44kRoOhiASS_fHg", "scope": "GOOGLE", "types": ["locality", "political"], "vicinity": "Boston"}, "ChIJqxsLM4Nw44kRXy2AwoG1qRU": {"geometry": {"location": {"lat": 42.3560635, "lng": -71.0614904}, "viewport": {"northeast": {"lat": 42.3573533802915, "lng": -71.06018901970849}, "southwest": {"lat": 42.3546554197085, "lng": -71.0628869802915}}}, "icon": "https://maps.gstatic.com/mapfiles/place_api/icons/shopping-71.png", "id": "a4baa898d2b147a1a7e859b78e5dbab505039b72", "name": "underground express", "opening_hours": {"open_now": true}, "photos": [{"height": 3024, "html_attributions": ["<a href=\"https://maps.google.com/maps/contrib/117052686069478431621/photos\">underground express</a>"], "photo_reference": "CmRaAAAAoXV-5kky-PyDd31NeayRiy9Oeb2xLacvkIaRsU-RwMJab-Zyw3979k7VafkeaVriRy6TPo9QkItxP9rr7FdU8Kwm9An-yTii6omY1EqclXXw4k3kcps9sXYNUyz6XHZAEhDV_X2a61Lb7g83hJSxmLQKGhSQOyziH6bYIaz6BsqxCyMP6vNAYA", "width": 4032}], "place_id": "ChIJqxsLM4Nw44kRXy2AwoG1qRU", "plus_code": {"compound_code": "9W4Q+CC Boston, Massachusetts, United States", "global_code": "87JC9W4Q+CC"}, "rating": 4.3, "reference": "ChIJqxsLM4Nw44kRXy2AwoG1qRU", "scope": "GOOGLE", "types": ["clothing_store", "store", "point_of_interest", "establishment"], "user_ratings_total": 19, "vicinity": "31 Winter Street, Boston"}, "ChIJr85EO1Jx44kR_eBrSZqCi6w": {"geometry": {"location": {"lat": 42.35606440000001, "lng": -71.0614938}, "viewport": {"northeast": {"lat": 42.3573545302915, "lng": -71.0601922697085}, "southwest": {"lat": 42.3546565697085, "lng": -71.0628902302915}}}, "icon": "https://maps.gstatic.com/mapfiles/place_api/icons/generic_business-71.png", "id": "c1ddbda5d2963ded4ef9fbc5d376ba666d50823b", "name": "Luggage Storage Knock Knock City", "opening_hours": {"open_now": true}, "place_id": "ChIJr85EO1Jx44kR_eBrSZqCi6w", "plus_code": {"compound_code": "9W4Q+CC Boston, Massachusetts, United States", "global_code": "87JC9W4Q+CC"}, "rating": 4, "reference": "ChIJr85EO1Jx44kR_eBrSZqCi6w", "scope": "GOOGLE", "types": ["storage", "point_of_interest", "establishment"], "user_ratings_total": 1, "vicinity": "31 Winter Street, Boston"}, "ChIJlRbhzJxw44kRoYSt2IuGDrA": {"geometry": {"location": {"lat": 42.3561567, "lng": -71.0616337}, "viewport": {"northeast": {"lat": 42.3574383302915, "lng": -71.06034316970849}, "southwest": {"lat": 42.3547403697085, "lng": -71.0630411302915}}}, "icon": "https://maps.gstatic.com/mapfiles/place_api/icons/generic_business-71.png", "id": "b11acbb2d720fdad0faabca8bbc37de7e18ac97f", "name": "Sidebar Software", "place_id": "ChIJlRbhzJxw44kRoYSt2IuGDrA", "plus_code": {"compound_code": "9W4Q+F8 Boston, Massachusetts, United States", "global_code": "87JC9W4Q+F8"}, "reference": "ChIJlRbhzJxw44kRoYSt2IuGDrA", "scope": "GOOGLE", "types": ["point_of_interest", "establishment"], "vicinity": "41 Winter Street, Boston"}, "ChIJQ_ukTfhx44kRq45aC_eTWTE": {"geometry": {"location": {"lat": 42.3561567, "lng": -71.0616337}, "viewport": {"northeast": {"lat": 42.3574383302915, "lng": -71.06034316970849}, "southwest": {"lat": 42.3547403697085, "lng": -71.0630411302915}}}, "icon": "https://maps.gstatic.com/mapfiles/place_api/icons/generic_business-71.png", "id": "2450f5e1b4bc7f6f2920b07f15338602ba3c6750", "name": "Citadel Martial Arts", "opening_hours": {"open_now": true}, "place_id": "ChIJQ_ukTfhx44kRq45aC_eTWTE", "plus_code": {"compound_code": "9W4Q+F8 Boston, Massachusetts, United States", "global_code": "87JC9W4Q+F8"}, "rating": 4.2, "reference": "ChIJQ_ukTfhx44kRq45aC_eTWTE", "scope": "GOOGLE", "types": ["gym", "health", "point_of_interest", "establishment"], "user_ratings_total": 5, "vicinity": "41 Winter Street, Boston"}}