{"ChIJmyf6ggt644kR5N4KViWj1IU": {"geometry": {"location": {"lat": 42.3511759, "lng": -71.0766611}, "viewport": {"northeast": {"lat": 42.3525261302915, "lng": -71.07453025}, "southwest": {"lat": 42.3498281697085, "lng": -71.07879324999999}}}, "icon": "https://maps.gstatic.com/mapfiles/place_api/icons/geocode-71.png", "id": "54d824f31431e66b5bb5b8c3029b09ca3f294955", "name": "148-102 Newbury St", "place_id": "ChIJmyf6ggt644kR5N4KViWj1IU", "reference": "ChIJmyf6ggt644kR5N4KViWj1IU", "scope": "GOOGLE", "types": ["route"], "vicinity": "Boston"}, "ChIJCXZCnQt644kRUldqpB6o2YY": {"geometry": {"location": {"lat": 42.35151260000001, "lng": -71.07611159999999}, "viewport": {"northeast": {"lat": 42.35277928029151, "lng": -71.07472156970849}, "southwest": {"lat": 42.35008131970851, "lng": -71.0774195302915}}}, "icon": "https://maps.gstatic.com/mapfiles/place_api/icons/shopping-71.png", "id": "4810f8806b4bcd60e0402dd0f325de3d01111ddc", "name": "SEE", "opening_hours": {"open_now": true}, "photos": [{"height": 3024, "html_attributions": ["<a href=\"https://maps.google.com/maps/contrib/103456838038763303645/photos\">Julius Thorolfsson</a>"], "photo_reference": "CmRaAAAA6wkoE5rlX-3mnTUBuUdgsLOm56S7k2nu6j4HX3E_1Y0NQWNTy48WeQT2O7h3Tkg5wyM8u1Wq5HpKfGUhy4Ad9tuBKF21QFMqg8DzfWFraRDNvE7F-KV1r6wv6j-3SM3gEhCHSeWsH5g4-wEUsL60ZXw0GhQR7JpNbrHIRSsNTBgDVElXVyFsSQ", "width": 4032}], "place_id": "ChIJCXZCnQt644kRUldqpB6o2YY", "plus_code": {"compound_code": "9W2F+JH Boston, Massachusetts, United States", "global_code": "87JC9W2F+JH"}, "price_level": 2, "rating": 3.4, "reference": "ChIJCXZCnQt644kRUldqpB6o2YY", "scope": "GOOGLE", "types": ["store", "health", "point_of_interest", "establishment"], "user_ratings_total": 11, "vicinity": "115 Newbury Street, Boston"}, "ChIJ6w4ydwt644kRjjwC4WYxJLI": {"geometry": {"location": {"lat": 42.35157939999999, "lng": -71.076195}, "viewport": {"northeast": {"lat": 42.35280668029149, "lng": -71.07478531970848}, "southwest": {"lat": 42.35010871970849, "lng": -71.0774832802915}}}, "icon": "https://maps.gstatic.com/mapfiles/place_api/icons/shopping-71.png", "id": "42cb7c7996bfba7df4a98dc43caab925157102d2", "name": "ALEX AND ANI", "opening_hours": {"open_now": true}, "photos": [{"height": 1370, "html_attributions": ["<a href=\"https://maps.google.com/maps/contrib/117795711628252629069/photos\">ALEX AND ANI</a>"], "photo_reference": "CmRaAAAArGAFn1UVMc3Db1J0xOVm6852E0esh4e3LAEAnQkwlUNnLADEnCFkq51pmA592BBJeOvi7-c5GWaUU8zzkgbUs0ElsPnqFR1xYgrlbW3oxQN_HWcmPTeycmMfdQ7kG33nEhCnXypd8vXWnsGy5_XgcK-pGhRvoPgYutuT0H1OREkdzahePleKag", "width": 2048}], "place_id": "ChIJ6w4ydwt644kRjjwC4WYxJLI", "plus_code": {"compound_code": "9W2F+JG Boston, Massachusetts, United States", "global_code": "87JC9W2F+JG"}, "rating": 3.7, "reference": "ChIJ6w4ydwt644kRjjwC4WYxJLI", "scope": "GOOGLE", "types": ["jewelry_store", "store", "point_of_interest", "establishment"], "user_ratings_total": 25, "vicinity": "115 Newbury Street, Boston"}, "ChIJx3SEdgt644kR-ej7mzIINkk": {"geometry": {"location": {"lat": 42.35152100000001, "lng": -71.0762635}, "viewport": {"northeast": {"lat": 42.3527657802915, "lng": -71.07486251970849}, "southwest": {"lat": 42.35006781970851, "lng": -71.07756048029151}}}, "icon": "https://maps.gstatic.com/mapfiles/place_api/icons/shopping-71.png", "id": "450157a1b963d42426cea251b6a765ed1c5156f1", "name": "kate spade new york", "opening_hours": {"open_now": true}, "photos": [{"height": 4608, "html_attributions": ["<a href=\"https://maps.google.com/maps/contrib/104526375074748876934/photos\">1958 Jazz</a>"], "photo_reference": "CmRaAAAAmyvZgIZLwLlFg1BAoFokOWDoiN_yduCuQ24lBOcWfuWT12Gv_0l4SB8Ft-jRvgWzj7vpa1Bo9j8e3bbuKnZlIDtFnNuZ3ejmfZf5ov2PofkZ_7BJH3mcbAy_WsRUxSpuEhBrnH9XrBRZY_P5adkSaZQTGhRVjjjzq-n8m9xJ0DYIvW4L4NP3Kg", "width": 2592}], "place_id": "ChIJx3SEdgt644kR-ej7mzIINkk", "plus_code": {"compound_code": "9W2F+JF Boston, Massachusetts, United States", "global_code": "87JC9W2F+JF"}, "rating": 3.6, "reference": "ChIJx3SEdgt644kR-ej7mzIINkk", "scope": "GOOGLE", "types": ["store", "point_of_interest", "establishment"], "user_ratings_total": 11, "vicinity": "117 Newbury Street, Boston"}, "ChIJfbPPcAt644kRcsqFXBLg_7g": {"geometry": {"location": {"lat": 42.3512582, "lng": -71.07610609999999}, "viewport": {"northeast": {"lat": 42.3526375302915, "lng": -71.07477226970849}, "southwest": {"lat": 42.3499395697085, "lng": -71.0774702302915}}}, "icon": "https://maps.gstatic.com/mapfiles/place_api/icons/shopping-71.png", "id": "a270d27257314a3f297e88b19ec1f553851e7258", "name": "The Shade Store", "opening_hours": {"open_now": true}, "photos": [{"height": 2782, "html_attributions": ["<a href=\"https://maps.google.com/maps/contrib/103834934915284409065/photos\">The Shade Store</a>"], "photo_reference": "CmRaAAAAlCrpcQPrWsQs5QVLGMCDmAFmAqVsPcotXe8H0HPxn1Tp75SYBe7hXYFRZCh-ofj7jv6jveGY-4YGKQwag5TAh0R15gtVvKEjh4JdcqtNvea3VSwGJDrrOeUcHYLt5Hk7EhDL__I4Mf0HIVwIeFSrRH1nGhQpiLq_7KiqeFkwlV3s-8KJhhEjww", "width": 4844}], "place_id": "ChIJfbPPcAt644kRcsqFXBLg_7g", "plus_code": {"compound_code": "9W2F+GH Boston, Massachusetts, United States", "global_code": "87JC9W2F+GH"}, "rating": 3.6, "reference": "ChIJfbPPcAt644kRcsqFXBLg_7g", "scope": "GOOGLE", "types": ["home_goods_store", "store", "point_of_interest", "establishment"], "user_ratings_total": 7, "vicinity": "116 Newbury Street, Boston"}, "ChIJvau6HnV644kRq_qoeme--6Q": {"geometry": {"location": {"lat": 42.35151260000001, "lng": -71.07611159999999}, "viewport": {"northeast": {"lat": 42.35277928029151, "lng": -71.07472156970849}, "southwest": {"lat": 42.35008131970851, "lng": -71.0774195302915}}}, "icon": "https://maps.gstatic.com/mapfiles/place_api/icons/generic_business-71.png", "id": "dbf47ea98c939897a1a49fa4e8da6cecd4a43adf", "name": "Jayme Kilroy", "opening_hours": {"open_now": true}, "place_id": "ChIJvau6HnV644kRq_qoeme--6Q", "plus_code": {"compound_code": "9W2F+JH Boston, Massachusetts, United States", "global_code": "87JC9W2F+JH"}, "reference": "ChIJvau6HnV644kRq_qoeme--6Q", "scope": "GOOGLE", "types": ["beauty_salon", "hair_care", "point_of_interest", "establishment"], "vicinity": "115 Newbury Street, Boston"}, "ChIJ08yUcQt644kRIUv8V_KILZg": {"geometry": {"location": {"lat": 42.3515668, "lng": -71.0758981}, "viewport": {"northeast": {"lat": 42.3528359302915, "lng": -71.0745079197085}, "southwest": {"lat": 42.3501379697085, "lng": -71.0772058802915}}}, "icon": "https://maps.gstatic.com/mapfiles/place_api/icons/shopping-71.png", "id": "2ab1ea746fd6099f6b3e2cb9afcc0ad8adffad95", "name": "Cole Haan", "opening_hours": {"open_now": true}, "photos": [{"height": 270, "html_attributions": ["<a href=\"https://maps.google.com/maps/contrib/108593520591432609156/photos\">Cole Haan</a>"], "photo_reference": "CmRaAAAAUfe1Tnf7NvPsyrOT_HyoVb0vnWUnynwbIQPmZcD86AFKaUxrTfEaQogBRdFhh-j-qt4cvvupXsD3Gngb1c9ILGB2LQyvMQ_kXPA-gJbCjFZQAvMDbXg_RWb4BlhOmpj0EhDCIdatTBujWar-d6ShqhL4GhQD5FvOCCS6eApUs6U-cweuMS3NRA", "width": 480}], "place_id": "ChIJ08yUcQt644kRIUv8V_KILZg", "plus_code": {"compound_code": "9W2F+JJ Boston, Massachusetts, United States", "global_code": "87JC9W2F+JJ"}, "rating": 4.4, "reference": "ChIJ08yUcQt644kRIUv8V_KILZg", "scope": "GOOGLE", "types": ["shoe_store", "clothing_store", "store", "point_of_interest", "establishment"], "user_ratings_total": 45, "vicinity": "109 Newbury Street, Boston"}, "ChIJ3zW42XR644kRozNcFspen0s": {"geometry": {"location": {"lat": 42.3514872, "lng": -71.07614769999999}, "viewport": {"northeast": {"lat": 42.3527607302915, "lng": -71.0747610697085}, "southwest": {"lat": 42.3500627697085, "lng": -71.07745903029151}}}, "icon": "https://maps.gstatic.com/mapfiles/place_api/icons/generic_business-71.png", "id": "00c087235f142817ef209e6ea712084ba3e233a8", "name": "Salon Marc Harris", "opening_hours": {"open_now": true}, "photos": [{"height": 4000, "html_attributions": ["<a href=\"https://maps.google.com/maps/contrib/112630801032357843120/photos\">Michael Lamont</a>"], "photo_reference": "CmRaAAAAi4FGEYWzwjxfHF11dK6N3rrALikVx4Xql6s42LfvnGaEC0dkEKuUX36uBJ36SiEGxEyk1pY1PmtjgmJOi53RGN0QUyXp2jjHcs1HDd8XDgtKr4SLAlYNzXNJcjymtQMxEhBHYk0z66qlyAwbDrKxn9qeGhQ4p6CDo4IivFWqzYo6jpy3YlIuQg", "width": 2992}], "place_id": "ChIJ3zW42XR644kRozNcFspen0s", "plus_code": {"compound_code": "9W2F+HG Boston, Massachusetts, United States", "global_code": "87JC9W2F+HG"}, "rating": 4.7, "reference": "ChIJ3zW42XR644kRozNcFspen0s", "scope": "GOOGLE", "types": ["beauty_salon", "hair_care", "point_of_interest", "establishment"], "user_ratings_total": 25, "vicinity": "115 Newbury Street #201, Boston"}, "ChIJx3SEdgt644kR1xRC5It-IHI": {"geometry": {"location": {"lat": 42.3515272, "lng": -71.0762822}, "viewport": {"northeast": {"lat": 42.3527669802915, "lng": -71.07487876970849}, "southwest": {"lat": 42.35006901970851, "lng": -71.0775767302915}}}, "icon": "https://maps.gstatic.com/mapfiles/place_api/icons/generic_business-71.png", "id": "41ba4a73d29847875861901eeac9e279f367ff91", "name": "Junior League of Boston", "opening_hours": {"open_now": true}, "photos": [{"height": 4000, "html_attributions": ["<a href=\"https://maps.google.com/maps/contrib/112630801032357843120/photos\">Michael Lamont</a>"], "photo_reference": "CmRaAAAAF8vWPKR9QgfBIOKcGF9lyuQjw2YnIr-a9PicWaMJiMFICgYUgltnQ6fcOC35FNHxCTlmWoUBxJ5OQaSNPb7cdpfDCcOAOdcjbLAv7MXRRX1YjNOsFBPJOi68gLs_No_mEhA85QmCPDt85y7zPsFPHEOvGhQzN4YoNbzkAlY6iLWpUhq6Ru3iVA", "width": 2992}], "place_id": "ChIJx3SEdgt644kR1xRC5It-IHI", "plus_code": {"compound_code": "9W2F+JF Boston, Massachusetts, United States", "global_code": "87JC9W2F+JF"}, "rating": 5, "reference": "ChIJx3SEdgt644kR1xRC5It-IHI", "scope": "GOOGLE", "types": ["point_of_interest", "establishment"], "user_ratings_total": 2, "vicinity": "117 Newbury Street, Boston"}, "ChIJE8xodgt644kR9UgmV9RfC6o": {"geometry": {"location": {"lat": 42.351468, "lng": -71.076337}, "viewport": {"northeast": {"lat": 42.35272728029149, "lng": -71.07494326970848}, "southwest": {"lat": 42.35002931970849, "lng": -71.0776412302915}}}, "icon": "https://maps.gstatic.com/mapfiles/place_api/icons/generic_business-71.png", "id": "6954c17a4b75acc208ad9d4ef57cadcb5e0ab7dd", "name": "The Laser Skin Center / Med Spa", "opening_hours": {"open_now": true}, "photos": [{"height": 1396, "html_attributions": ["<a href=\"https://maps.google.com/maps/contrib/100772103279774169149/photos\">The Laser Skin Center / Med Spa</a>"], "photo_reference": "CmRaAAAAawKf7VQgTmvfh9r7b5ZQbPL2erfXj0wQeJ37q9QfGd_dNJ6pTKU5hOozcOrfVXowDgiQVek9dQPSOsdMkgISS2utvy-7iFu3G7XORbF-KF_9f90nPD6xPVD3Z7MT8_YiEhAqblVjrVsnTFj22nO0r-VnGhQ2eaZMthVdfs26IA2DkdnqmdhKoA", "width": 2048}], "place_id": "ChIJE8xodgt644kR9UgmV9RfC6o", "plus_code": {"compound_code": "9W2F+HF Boston, Massachusetts, United States", "global_code": "87JC9W2F+HF"}, "rating": 4.4, "reference": "ChIJE8xodgt644kR9UgmV9RfC6o", "scope": "GOOGLE", "types": ["beauty_salon", "hair_care", "spa", "health", "point_of_interest", "establishment"], "user_ratings_total": 21, "vicinity": "119 Newbury Street #2, Boston"}, "ChIJ9cnTRAV644kR7DC5M7zJXfY": {"geometry": {"location": {"lat": 42.351513, "lng": -71.076112}, "viewport": {"northeast": {"lat": 42.3527794802915, "lng": -71.07472186970848}, "southwest": {"lat": 42.3500815197085, "lng": -71.0774198302915}}}, "icon": "https://maps.gstatic.com/mapfiles/place_api/icons/generic_business-71.png", "id": "7c2b86a4a05c39dbb2033ca70994150255333002", "name": "Minnah & Korn Orthodontics", "opening_hours": {"open_now": true}, "photos": [{"height": 4016, "html_attributions": ["<a href=\"https://maps.google.com/maps/contrib/104962511732920140454/photos\">Minnah &amp; Korn Orthodontics On Newbury Street</a>"], "photo_reference": "CmRaAAAAxnS4gAEV_ngQZ64UvzuOP3vuDoUBRCQHecFMRKOQAkE7GBUJyhlPAndQxzXQz4oQEs0r5LnlsyyB6Ou1zup5RA2GvjSWRP7rn8pvX3RxpQ7QPZyeC9PoKcf_e5Ksh26iEhAfhtQAmv4VyOKM77EEc_Q1GhTNomwbHdRvpgfZF4CrVUtd3Z6U8A", "width": 6016}], "place_id": "ChIJ9cnTRAV644kR7DC5M7zJXfY", "plus_code": {"compound_code": "9W2F+JH Boston, Massachusetts, United States", "global_code": "87JC9W2F+JH"}, "rating": 5, "reference": "ChIJ9cnTRAV644kR7DC5M7zJXfY", "scope": "GOOGLE", "types": ["dentist", "health", "point_of_interest", "establishment"], "user_ratings_total": 13, "vicinity": "115 Newbury Street #501, Boston"}, "ChIJazDDhgt644kRn5DiJg5Dh8s": {"geometry": {"location": {"lat": 42.3511885, "lng": -71.0760602}, "viewport": {"northeast": {"lat": 42.3526040302915, "lng": -71.0747444197085}, "southwest": {"lat": 42.3499060697085, "lng": -71.07744238029152}}}, "icon": "https://maps.gstatic.com/mapfiles/place_api/icons/generic_business-71.png", "id": "a81913b0895fe43872bce90982dfd6a2a3439f7c", "name": "Stilisti Salon", "opening_hours": {"open_now": true}, "photos": [{"height": 748, "html_attributions": ["<a href=\"https://maps.google.com/maps/contrib/101435217136713851607/photos\">Stilisti Salon</a>"], "photo_reference": "CmRaAAAA7sNNFWUFubHLs-xB0C6EHIluA3HJ75WVmG6drDXVWciUy3bRsLxCkMIW1w3UGdHls16uoywceJSvBirBvUU2LuWrxFRY9-ioqPYkPwyZiVvXWTpdtwzmaebEmoptMY-8EhAms17cu5TNdYSNxPsevTm3GhRku3Le1B4Z29EMhYVkQO19Yxyu-g", "width": 1728}], "place_id": "ChIJazDDhgt644kRn5DiJg5Dh8s", "plus_code": {"compound_code": "9W2F+FH Boston, Massachusetts, United States", "global_code": "87JC9W2F+FH"}, "rating": 4.6, "reference": "ChIJazDDhgt644kRn5DiJg5Dh8s", "scope": "GOOGLE", "types": ["beauty_salon", "hair_care", "point_of_interest", "establishment"], "user_ratings_total": 21, "vicinity": "116 Newbury Street, Boston"}, "ChIJ-60xdwt644kRdqqP16JINRo": {"geometry": {"location": {"lat": 42.35151260000001, "lng": -71.07611159999999}, "viewport": {"northeast": {"lat": 42.35277928029151, "lng": -71.07472156970849}, "southwest": {"lat": 42.35008131970851, "lng": -71.0774195302915}}}, "icon": "https://maps.gstatic.com/mapfiles/place_api/icons/generic_business-71.png", "id": "716929fd91b2adebc9161f1975780cbaf4354034", "name": "Waypoint Companies", "place_id": "ChIJ-60xdwt644kRdqqP16JINRo", "plus_code": {"compound_code": "9W2F+JH Boston, Massachusetts, United States", "global_code": "87JC9W2F+JH"}, "reference": "ChIJ-60xdwt644kRdqqP16JINRo", "scope": "GOOGLE", "types": ["point_of_interest", "establishment"], "vicinity": "115 Newbury Street # 302, Boston"}, "ChIJ_XxrnQt644kR8z__TIn_jNM": {"geometry": {"location": {"lat": 42.3514893, "lng": -71.0761138}, "viewport": {"northeast": {"lat": 42.35276598029149, "lng": -71.07472876970849}, "southwest": {"lat": 42.3500680197085, "lng": -71.07742673029149}}}, "icon": "https://maps.gstatic.com/mapfiles/place_api/icons/generic_business-71.png", "id": "38d13ed86c36041130a76777728f773d3c26c42a", "name": "Perspective Eyecare - inside SEE Eyewear", "opening_hours": {"open_now": true}, "photos": [{"height": 1363, "html_attributions": ["<a href=\"https://maps.google.com/maps/contrib/104921112394070144425/photos\">Perspective Eyecare - inside SEE Eyewear</a>"], "photo_reference": "CmRaAAAAlZXpgih71dzEuLXzMzH0MVXhQ_sEuYOiiLlEk3AVaTR7zmxOVGvDaJ2F-NbswM1jVr1DOgn7g63NFqHtVqLONrfWbn0PMQe4bkzEOzAbA1iAA0fCpYscm69xaj8_AH5sEhAJodafc69dy9yH6D9OMl5ZGhSBCxkUZpjMyT9ChpLVqRzmi2UUUA", "width": 2048}], "place_id": "ChIJ_XxrnQt644kR8z__TIn_jNM", "plus_code": {"compound_code": "9W2F+HH Boston, Massachusetts, United States", "global_code": "87JC9W2F+HH"}, "reference": "ChIJ_XxrnQt644kR8z__TIn_jNM", "scope": "GOOGLE", "types": ["health", "point_of_interest", "establishment"], "vicinity": "125 Newbury Street #1, Boston"}, "ChIJ_YvYcAt644kRV0jGVgGCG5M": {"geometry": {"location": {"lat": 42.35151260000001, "lng": -71.07611159999999}, "viewport": {"northeast": {"lat": 42.35277928029151, "lng": -71.07472156970849}, "southwest": {"lat": 42.35008131970851, "lng": -71.0774195302915}}}, "icon": "https://maps.gstatic.com/mapfiles/place_api/icons/generic_business-71.png", "id": "7c5202d26e33647e1f586fe1427256f0d40bc108", "name": "Katrina Hess Makeup Studio", "opening_hours": {"open_now": true}, "photos": [{"height": 480, "html_attributions": ["<a href=\"https://maps.google.com/maps/contrib/113842389556270622358/photos\">Katrina Hess Makeup Studio</a>"], "photo_reference": "CmRaAAAAEYvej_NgsFpIEmUMmMW307PNlSat4s22iugGFIEeCS22oBgTm0CN3nqJJMkNwuAtPCsdamdGwzi01E3EEmm3SOkaJcwB5rrVnT7L8NHWUTZYMdH5h0sAoqjhOsF4bkNNEhCVzDHqk6a0oyPKmvyKgdPLGhTPk17GkGMMzeljYW7Y4TQ4XYInGQ", "width": 720}], "place_id": "ChIJ_YvYcAt644kRV0jGVgGCG5M", "plus_code": {"compound_code": "9W2F+JH Boston, Massachusetts, United States", "global_code": "87JC9W2F+JH"}, "rating": 5, "reference": "ChIJ_YvYcAt644kRV0jGVgGCG5M", "scope": "GOOGLE", "types": ["beauty_salon", "hair_care", "point_of_interest", "establishment"], "user_ratings_total": 2, "vicinity": "115 Newbury Street, Boston"}, "ChIJbdRXcQt644kR4SwycMtErf4": {"geometry": {"location": {"lat": 42.35151260000001, "lng": -71.07611159999999}, "viewport": {"northeast": {"lat": 42.35277928029151, "lng": -71.07472156970849}, "southwest": {"lat": 42.35008131970851, "lng": -71.0774195302915}}}, "icon": "https://maps.gstatic.com/mapfiles/place_api/icons/shopping-71.png", "id": "43adc1396ae6b43f1e7f1134b0ff0b3c9dc6279d", "name": "Faherty Brand", "opening_hours": {"open_now": true}, "photos": [{"height": 4048, "html_attributions": ["<a href=\"https://maps.google.com/maps/contrib/104735303485303739474/photos\">james farnsworth</a>"], "photo_reference": "CmRaAAAARCt7rFxZ57zMR8LyBSlADSLuhisSsWAmH9Pg4G-hL90KMRkU17FNEER6jTSJmeQeNRb0VuVKJ1l-pAUOWX5WeMj0AE_lZERjGePRWVqAdYWdrNS-YeeNtiLjQK3DwrnqEhC8pM3X5xkUtfVQAkN87HwpGhSJCwx9q_WAwpkLEY1lK-Ue2AEhCA", "width": 3036}], "place_id": "ChIJbdRXcQt644kR4SwycMtErf4", "plus_code": {"compound_code": "9W2F+JH Boston, Massachusetts, United States", "global_code": "87JC9W2F+JH"}, "rating": 5, "reference": "ChIJbdRXcQt644kR4SwycMtErf4", "scope": "GOOGLE", "types": ["clothing_store", "store", "point_of_interest", "establishment"], "user_ratings_total": 6, "vicinity": "115 Newbury Street, Boston"}, "ChIJbdRXcQt644kRPAnEN2ND7xk": {"geometry": {"location": {"lat": 42.35151260000001, "lng": -71.07611159999999}, "viewport": {"northeast": {"lat": 42.35277928029151, "lng": -71.07472156970849}, "southwest": {"lat": 42.35008131970851, "lng": -71.0774195302915}}}, "icon": "https://maps.gstatic.com/mapfiles/place_api/icons/generic_business-71.png", "id": "515fbf2dfc633c998748ce6823d00d7533dc7d7f", "name": "Donnelly + Co.", "opening_hours": {"open_now": true}, "photos": [{"height": 504, "html_attributions": ["<a href=\"https://maps.google.com/maps/contrib/103581120976406523986/photos\">Donnelly + Co.</a>"], "photo_reference": "CmRaAAAAvbDzC2AgCfTgcEkd-TAm5LHsqmaOFLAOqR2JRsyWqbvB755QhaKkD4G9HqN_PeskQkRwTsSKVIZAeHX-WbLqb4WvM4mHRCYMrEAfecEiwWhiycLK3LwWO38ac7AML1p0EhA9Koh0Nkhn7tfQw2GOzfG9GhTnm3xlS4yUta1RTQEXF9YELXmmnA", "width": 504}], "place_id": "ChIJbdRXcQt644kRPAnEN2ND7xk", "plus_code": {"compound_code": "9W2F+JH Boston, Massachusetts, United States", "global_code": "87JC9W2F+JH"}, "rating": 5, "reference": "ChIJbdRXcQt644kRPAnEN2ND7xk", "scope": "GOOGLE", "types": ["real_estate_agency", "point_of_interest", "establishment"], "user_ratings_total": 1, "vicinity": "115 Newbury Street Suite 402, Boston"}, "ChIJa7BGhwt644kRNugVe8JgRew": {"geometry": {"location": {"lat": 42.35156099999999, "lng": -71.076174}, "viewport": {"northeast": {"lat": 42.35279888029149, "lng": -71.07476961970849}, "southwest": {"lat": 42.35010091970849, "lng": -71.07746758029151}}}, "icon": "https://maps.gstatic.com/mapfiles/place_api/icons/generic_business-71.png", "id": "e549cbc8564bbeab0ae6b4aaf771a1812d0eca76", "name": "Ariel Szabo with Donnelly + Co", "opening_hours": {"open_now": true}, "photos": [{"height": 518, "html_attributions": ["<a href=\"https://maps.google.com/maps/contrib/106189239097802491757/photos\">Ariel Szabo with Donnelly + Co</a>"], "photo_reference": "CmRaAAAA1Yay_Veq_oTBfHcgVEa2Y0Ezqf-ErxJ8ZsdHOJOUdLGb2GUXHYuihH7BiKQS-IZXlGYNvtHu_SdKi80V5Dp_P7jEp6kblk-b4kdHX43Q1e9hVlnZMfW04R6IfZU23HGiEhDZKCqbR6e4t8Gm-nQboTuoGhQd1WLsiGUDZrmfsQdek1D3foYicA", "width": 518}], "place_id": "ChIJa7BGhwt644kRNugVe8JgRew", "plus_code": {"compound_code": "9W2F+JG Boston, Massachusetts, United States", "global_code": "87JC9W2F+JG"}, "reference": "ChIJa7BGhwt644kRNugVe8JgRew", "scope": "GOOGLE", "types": ["real_estate_agency", "point_of_interest", "establishment"], "vicinity": "115 Newbury Street Suite 402, Boston"}, "ChIJm_ABdAt644kRL2a3zaqZcxQ": {"geometry": {"location": {"lat": 42.351557, "lng": -71.0761944}, "viewport": {"northeast": {"lat": 42.3527942302915, "lng": -71.0747896697085}, "southwest": {"lat": 42.3500962697085, "lng": -71.0774876302915}}}, "icon": "https://maps.gstatic.com/mapfiles/place_api/icons/shopping-71.png", "id": "6deff0b7e2db3156ef959e07dfc9dfe5f98e468d", "name": "rag & bone", "opening_hours": {"open_now": true}, "photos": [{"height": 3024, "html_attributions": ["<a href=\"https://maps.google.com/maps/contrib/105151042876321855554/photos\">Sarah Mountford</a>"], "photo_reference": "CmRaAAAAnZaB-9wWXWduMHjYpaBgSbB8p38dgs3E5MQAWBS5N-_QTgXyuiHW1hOL7Tx-piaNyTrFoUyNbgd3EveNmLJ7PmvB1rfU_nL57tRTctvKOCymI3gSCrK6fqM6YfMXpcZqEhAv6JSponDBkVoXU7qmlqYJGhQjb9GlHOawp_DD_d6LW-Tqix79ww", "width": 4032}], "place_id": "ChIJm_ABdAt644kRL2a3zaqZcxQ", "plus_code": {"compound_code": "9W2F+JG Boston, Massachusetts, United States", "global_code": "87JC9W2F+JG"}, "rating": 5, "reference": "ChIJm_ABdAt644kRL2a3zaqZcxQ", "scope": "GOOGLE", "types": ["clothing_store", "shoe_store", "store", "point_of_interest", "establishment"], "user_ratings_total": 6, "vicinity": "111 Newbury Street, Boston"}, "ChIJGzE9DS1l44kRoOhiASS_fHg": {"geometry": {"location": {"lat": 42.3600825, "lng": -71.0588801}, "viewport": {"northeast": {"lat": 42.40081989999999, "lng": -70.749455}, "southwest": {"lat": 42.22788, "lng": -71.191113}}}, "icon": "https://maps.gstatic.com/mapfiles/place_api/icons/geocode-71.png", "id": "06755c25d2b34d13942a4713971756a55b870ced", "name": "Boston", "photos": [{"height": 3024, "html_attributions": ["<a href=\"https://maps.google.com/maps/contrib/104670289779338733432/photos\">Natalia Zalucean</a>"], "photo_reference": "CmRaAAAAJL5COC2raaTxKUM9S5EmVbswjeeZlxoRzyPpyM2LU09c3xtf5UkXcR8WMA_kRNl1MUexWLRlRpwNyRn6hAQ8uMAaGkfS0Ok7KdGRvOtMwdpFVXrbX7Lpd4jqkRbciBrrEhD-fvZHdthF1OX-Oi-2PypyGhSSsLouQ5N46KwY3qnny-p2nP3Z4Q", "width": 4032}], "place_id": "ChIJGzE9DS1l44kRoOhiASS_fHg", "reference": "ChIJGzE9DS1l44kRoOhiASS_fHg", "scope": "GOOGLE", "types": ["locality", "political"], "vicinity": "Boston"}, "ChIJE8xodgt644kRX2gOghGfNao": {"geometry": {"location": {"lat": 42.35142999999999, "lng": -71.076348}, "viewport": {"northeast": {"lat": 42.35270468029149, "lng": -71.07496196970848}, "southwest": {"lat": 42.3500067197085, "lng": -71.07765993029149}}}, "icon": "https://maps.gstatic.com/mapfiles/place_api/icons/generic_business-71.png", "id": "458236d1359facac5b097cdbb74e24058191a429", "name": "Jerel At 119", "opening_hours": {"open_now": true}, "photos": [{"height": 4000, "html_attributions": ["<a href=\"https://maps.google.com/maps/contrib/112630801032357843120/photos\">Michael Lamont</a>"], "photo_reference": "CmRaAAAAfut4QY_r-yZebl6JLfzDZJMQhP6wjazrcmSrtiBLZXOZFLc6tDHI0qvS3jtP73Nvn1B-C41NORLMpMt2q27LH7rkfG0bRCGB3JvC_mMj22LVIphbbKlDAZKNZ0YsOZmmEhBwmenBN5nSmS6-3LhT-LLbGhQHleUUoH4uDU0O7ZxJz0xrLNld5g", "width": 2992}], "place_id": "ChIJE8xodgt644kRX2gOghGfNao", "plus_code": {"compound_code": "9W2F+HF Boston, Massachusetts, United States", "global_code": "87JC9W2F+HF"}, "rating": 5, "reference": "ChIJE8xodgt644kRX2gOghGfNao", "scope": "GOOGLE", "types": ["beauty_salon", "point_of_interest", "establishment"], "user_ratings_total": 4, "vicinity": "119 Newbury Street, Boston"}, "ChIJbw4ydwt644kRhbL6bcfq0kE": {"geometry": {"location": {"lat": 42.35157939999999, "lng": -71.0761706}, "viewport": {"northeast": {"lat": 42.3528096302915, "lng": -71.0747623697085}, "southwest": {"lat": 42.3501116697085, "lng": -71.0774603302915}}}, "icon": "https://maps.gstatic.com/mapfiles/place_api/icons/generic_business-71.png", "id": "5eec96101f9137c186c37bdb0a29a393b6ef991a", "name": "Megan Graham Beauty", "opening_hours": {"open_now": true}, "photos": [{"height": 850, "html_attributions": ["<a href=\"https://maps.google.com/maps/contrib/117493804821159375985/photos\">Megan Graham Beauty</a>"], "photo_reference": "CmRaAAAAi3tuZCEG_BnJmD1wPaz1Yi0L50TVDvzobQZqwGuHheWvbP7vJPRyxoJIRFZl2c5GmZtkavTVGzJXI30rMbN0zCvRH_qNt0gsV_u6RlcPxaPLFsjSlTgNk6It2-PNl6D_EhB7erCof689CRQkBusWXeirGhT2ow8l2wR65myFnvGrMpbh_skWBw", "width": 1280}], "place_id": "ChIJbw4ydwt644kRhbL6bcfq0kE", "plus_code": {"compound_code": "9W2F+JG Boston, Massachusetts, United States", "global_code": "87JC9W2F+JG"}, "rating": 4.9, "reference": "ChIJbw4ydwt644kRhbL6bcfq0kE", "scope": "GOOGLE", "types": ["beauty_salon", "hair_care", "point_of_interest", "establishment"], "user_ratings_total": 84, "vicinity": "115 Newbury Street #401, Boston"}, "ChIJbdRXcQt644kR2BeEzUsAVvk": {"geometry": {"location": {"lat": 42.35151260000001, "lng": -71.07611159999999}, "viewport": {"northeast": {"lat": 42.35277928029151, "lng": -71.07472156970849}, "southwest": {"lat": 42.35008131970851, "lng": -71.0774195302915}}}, "icon": "https://maps.gstatic.com/mapfiles/place_api/icons/generic_business-71.png", "id": "4ba1eeee3b96d6ea17163788f011156a964d99a6", "name": "Katerina Gerontis", "place_id": "ChIJbdRXcQt644kR2BeEzUsAVvk", "plus_code": {"compound_code": "9W2F+JH Boston, Massachusetts, United States", "global_code": "87JC9W2F+JH"}, "reference": "ChIJbdRXcQt644kR2BeEzUsAVvk", "scope": "GOOGLE", "types": ["point_of_interest", "establishment"], "vicinity": "115 Newbury Street, Boston"}, "ChIJ-60xdwt644kRNFRiwM5f9Lk": {"geometry": {"location": {"lat": 42.35157939999999, "lng": -71.0761706}, "viewport": {"northeast": {"lat": 42.3528096302915, "lng": -71.0747623697085}, "southwest": {"lat": 42.3501116697085, "lng": -71.0774603302915}}}, "icon": "https://maps.gstatic.com/mapfiles/place_api/icons/generic_business-71.png", "id": "f2c7fd7cfc515fc44d771d0797e6a25b9b8f1dd6", "name": "Christina K. Pierce", "photos": [{"height": 1500, "html_attributions": ["<a href=\"https://maps.google.com/maps/contrib/104335417455313584890/photos\">Christina K. Pierce</a>"], "photo_reference": "CmRaAAAAzfMVUtin8kwUEuZfOEkPbMP-s9u4Zg8bf3DiBeM6Jsg-z4Fah3cgprARK7we8QkpMTv7cvFOxTpeZmoksxAPlmk4l3iZQJFd_jwt1ptzv8bmzIpnGELrvWj3C8PxTXOlEhBYJwiOJSiYIYKDmgB-pSTdGhTVRJWY-eZVQfTrHauSZVTTu8_oVA", "width": 1500}], "place_id": "ChIJ-60xdwt644kRNFRiwM5f9Lk", "plus_code": {"compound_code": "9W2F+JG Boston, Massachusetts, United States", "global_code": "87JC9W2F+JG"}, "reference": "ChIJ-60xdwt644kRNFRiwM5f9Lk", "scope": "GOOGLE", "types": ["point_of_interest", "establishment"], "vicinity": "115 Newbury Street #303, Boston"}, "ChIJbdRXcQt644kRszIxMO61W_E": {"geometry": {"location": {"lat": 42.35151260000001, "lng": -71.07611159999999}, "viewport": {"northeast": {"lat": 42.35277928029151, "lng": -71.07472156970849}, "southwest": {"lat": 42.35008131970851, "lng": -71.0774195302915}}}, "icon": "https://maps.gstatic.com/mapfiles/place_api/icons/generic_business-71.png", "id": "1ad0a24441e8b21952ee3aa7f4134788f4769cfd", "name": "Charmin\u2019 Y on Newbury", "place_id": "ChIJbdRXcQt644kRszIxMO61W_E", "plus_code": {"compound_code": "9W2F+JH Boston, Massachusetts, United States", "global_code": "87JC9W2F+JH"}, "reference": "ChIJbdRXcQt644kRszIxMO61W_E", "scope": "GOOGLE", "types": ["general_contractor", "point_of_interest", "establishment"], "vicinity": "115 Newbury Street, Boston"}, "ChIJ_5EJLA9644kRt8V7YZbYoYQ": {"geometry": {"location": {"lat": 42.351513, "lng": -71.076112}, "viewport": {"northeast": {"lat": 42.3527794802915, "lng": -71.07472186970848}, "southwest": {"lat": 42.3500815197085, "lng": -71.0774198302915}}}, "icon": "https://maps.gstatic.com/mapfiles/place_api/icons/generic_business-71.png", "id": "41212c45eee4f9c44ab3ea5c70c511de97d33550", "name": "Airbrush ONE Spray Tanning", "opening_hours": {"open_now": true}, "photos": [{"height": 750, "html_attributions": ["<a href=\"https://maps.google.com/maps/contrib/102344540659685584576/photos\">Airbrush ONE Spray Tanning</a>"], "photo_reference": "CmRaAAAA5OBuPdso0lRLenBd98UEs0JnLnzjmRIxIIYQeuRFWRubYhZIeBfRM6lHPVMKIpNDrKVIwsgz3SjC2rDCgxEqqJ4p2ZlyBsQKclYjYDevZUxyp-5NBbG2Sa4QLWBDcJxREhAo7CFF9X3SDphckYEyVbnlGhRROexCQKr1ygEyxe97qpwqhQAe4w", "width": 500}], "place_id": "ChIJ_5EJLA9644kRt8V7YZbYoYQ", "plus_code": {"compound_code": "9W2F+JH Boston, Massachusetts, United States", "global_code": "87JC9W2F+JH"}, "rating": 5, "reference": "ChIJ_5EJLA9644kRt8V7YZbYoYQ", "scope": "GOOGLE", "types": ["point_of_interest", "establishment"], "user_ratings_total": 4, "vicinity": "115 Newbury Street 3rd floor, Boston"}, "ChIJxQTLz4lw44kREIKy9TlFK3A": {"geometry": {"location": {"lat": 42.3514648, "lng": -71.0762394}, "viewport": {"northeast": {"lat": 42.35273718029149, "lng": -71.0748522197085}, "southwest": {"lat": 42.35003921970849, "lng": -71.07755018029151}}}, "icon": "https://maps.gstatic.com/mapfiles/place_api/icons/generic_business-71.png", "id": "408198bf73e7bb84d4c3c872bc8e5a3ff1859e50", "name": "Line Loss Pro", "opening_hours": {"open_now": true}, "place_id": "ChIJxQTLz4lw44kREIKy9TlFK3A", "plus_code": {"compound_code": "9W2F+HG Boston, Massachusetts, United States", "global_code": "87JC9W2F+HG"}, "reference": "ChIJxQTLz4lw44kREIKy9TlFK3A", "scope": "GOOGLE", "types": ["point_of_interest", "establishment"], "vicinity": "115 Newbury Street Suite 303R, Boston"}, "ChIJmeAzcAt644kRco3tdqmRWNQ": {"geometry": {"location": {"lat": 42.351301, "lng": -71.07584}, "viewport": {"northeast": {"lat": 42.3526932802915, "lng": -71.0745133697085}, "southwest": {"lat": 42.3499953197085, "lng": -71.0772113302915}}}, "icon": "https://maps.gstatic.com/mapfiles/place_api/icons/generic_business-71.png", "id": "7643143dda6dcc166bb98227d46f1d9e76f16ec0", "name": "The Royal Furs", "opening_hours": {"open_now": true}, "photos": [{"height": 1365, "html_attributions": ["<a href=\"https://maps.google.com/maps/contrib/101133746124226551880/photos\">The Royal Furs</a>"], "photo_reference": "CmRaAAAAMLZOUdWTfEWFkwGMAp-dMDJ8T_KyHhnB61Fi8FtbVSvhoAWztAlBIMqoKP8AYp1w5o1CZ5h7nmj7aRz6s43ifcGggbyNfMTNpg62qMjeqT582HruExO08HKsDfN13cKuEhAczUtqZVuCYbY7DHwfLoDhGhQoq-QjW9C7Mm4aT1F41p1WOmxYIw", "width": 2048}], "place_id": "ChIJmeAzcAt644kRco3tdqmRWNQ", "plus_code": {"compound_code": "9W2F+GM Boston, Massachusetts, United States", "global_code": "87JC9W2F+GM"}, "reference": "ChIJmeAzcAt644kRco3tdqmRWNQ", "scope": "GOOGLE", "types": ["point_of_interest", "establishment"], "vicinity": "112 Newbury Street, Boston"}, "ChIJwRsjdAt644kRaEpTfd_wx84": {"geometry": {"location": {"lat": 42.35157, "lng": -71.0761588}, "viewport": {"northeast": {"lat": 42.3528057802915, "lng": -71.07475331970849}, "southwest": {"lat": 42.3501078197085, "lng": -71.0774512802915}}}, "icon": "https://maps.gstatic.com/mapfiles/place_api/icons/generic_business-71.png", "id": "262b1112ec983f4ff2761aa1ac9d3fb7779518f0", "name": "Jeanne Lee", "opening_hours": {"open_now": true}, "place_id": "ChIJwRsjdAt644kRaEpTfd_wx84", "plus_code": {"compound_code": "9W2F+JG Boston, Massachusetts, United States", "global_code": "87JC9W2F+JG"}, "rating": 5, "reference": "ChIJwRsjdAt644kRaEpTfd_wx84", "scope": "GOOGLE", "types": ["beauty_salon", "point_of_interest", "establishment"], "user_ratings_total": 1, "vicinity": "115 Newbury Street, Boston"}}