{"ChIJvwRFb4B644kRo0wXI_LGe-0": {"geometry": {"location": {"lat": 42.3489331, "lng": -71.0486025}, "viewport": {"northeast": {"lat": 42.35028638029149, "lng": -71.04715549999999}, "southwest": {"lat": 42.34758841970849, "lng": -71.0500427}}}, "icon": "https://maps.gstatic.com/mapfiles/place_api/icons/geocode-71.png", "id": "2d60db66991d89069ff5f586e20c04f6ffe9de4f", "name": "315-319 Pastene Alley", "place_id": "ChIJvwRFb4B644kRo0wXI_LGe-0", "reference": "ChIJvwRFb4B644kRo0wXI_LGe-0", "scope": "GOOGLE", "types": ["route"], "vicinity": "Boston"}, "ChIJ0ZQ9cYB644kRVdWt7fiUbyI": {"geometry": {"location": {"lat": 42.34926139999999, "lng": -71.0490561}, "viewport": {"northeast": {"lat": 42.35065318029149, "lng": -71.04780551970849}, "southwest": {"lat": 42.3479552197085, "lng": -71.05050348029151}}}, "icon": "https://maps.gstatic.com/mapfiles/place_api/icons/shopping-71.png", "id": "bdc0ea80ee14dccd29e286f78898194701d248d2", "name": "Chimera", "opening_hours": {"open_now": false}, "photos": [{"height": 2160, "html_attributions": ["<a href=\"https://maps.google.com/maps/contrib/100281328131250007584/photos\">Joe Pato</a>"], "photo_reference": "CmRaAAAA7bOX6JHjDUYuwye9CsxOW3zVE8qBvCCgPKqXbSk2pFxLwXZ1gQ57Jhrc3rr4g6vYqiIZtjDbamxTBPTlIZlEwjlQi5qUPFlcPFOvrIbEyYS-YcxJOozbCzq8Azcuiew0EhBgyUs4oMUbAP4XdoGjxDaNGhRPy5Px4ZfuZRQI_osX0GH-JFfUvA", "width": 3840}], "place_id": "ChIJ0ZQ9cYB644kRVdWt7fiUbyI", "plus_code": {"compound_code": "8XX2+P9 Boston, Massachusetts, United States", "global_code": "87JC8XX2+P9"}, "rating": 5, "reference": "ChIJ0ZQ9cYB644kRVdWt7fiUbyI", "scope": "GOOGLE", "types": ["home_goods_store", "store", "point_of_interest", "establishment"], "user_ratings_total": 2, "vicinity": "327 A Street, Boston"}, "ChIJ7QFodRB644kRaUNgungUUUw": {"geometry": {"location": {"lat": 42.3490971, "lng": -71.0487089}, "viewport": {"northeast": {"lat": 42.35057758029151, "lng": -71.0472479197085}, "southwest": {"lat": 42.34787961970851, "lng": -71.0499458802915}}}, "icon": "https://maps.gstatic.com/mapfiles/place_api/icons/generic_business-71.png", "id": "b8152801eb27868ab6a8a854a91e1c528cc208be", "name": "Propertybase (formerly Boston Logic)", "opening_hours": {"open_now": true}, "place_id": "ChIJ7QFodRB644kRaUNgungUUUw", "plus_code": {"compound_code": "8XX2+JG Boston, Massachusetts, United States", "global_code": "87JC8XX2+JG"}, "rating": 3.5, "reference": "ChIJ7QFodRB644kRaUNgungUUUw", "scope": "GOOGLE", "types": ["point_of_interest", "establishment"], "user_ratings_total": 11, "vicinity": "321 Summer Street Floor 6, Boston"}, "ChIJo_TYcIB644kRAjs51b_M1o8": {"geometry": {"location": {"lat": 42.348929, "lng": -71.0489939}, "viewport": {"northeast": {"lat": 42.3503727302915, "lng": -71.04786486970849}, "southwest": {"lat": 42.3476747697085, "lng": -71.0505628302915}}}, "icon": "https://maps.gstatic.com/mapfiles/place_api/icons/generic_business-71.png", "id": "c43dc45d3a4fd11e6a1db6ba462d7d4276228502", "name": "Boston Condo Domain Real Estate", "place_id": "ChIJo_TYcIB644kRAjs51b_M1o8", "plus_code": {"compound_code": "8XX2+HC Boston, Massachusetts, United States", "global_code": "87JC8XX2+HC"}, "rating": 5, "reference": "ChIJo_TYcIB644kRAjs51b_M1o8", "scope": "GOOGLE", "types": ["real_estate_agency", "point_of_interest", "establishment"], "user_ratings_total": 1, "vicinity": "319 A Street, Boston"}, "ChIJB1hga4B644kRrhsmKAOyNcM": {"geometry": {"location": {"lat": 42.3492773, "lng": -71.0488946}, "viewport": {"northeast": {"lat": 42.3507241802915, "lng": -71.04746221970849}, "southwest": {"lat": 42.3480262197085, "lng": -71.0501601802915}}}, "icon": "https://maps.gstatic.com/mapfiles/place_api/icons/generic_business-71.png", "id": "66f0938ae7ff46a346e7d9f5aaaf266f396e9ee9", "name": "Wiss, Janney, Elstner Associates, Inc.", "opening_hours": {"open_now": false}, "photos": [{"height": 250, "html_attributions": ["<a href=\"https://maps.google.com/maps/contrib/112983626870719799362/photos\">Wiss, Janney, Elstner Associates</a>"], "photo_reference": "CmRaAAAAQJ1AvKOMnC6eQHqJq4a_u_LEIxipvfMrPzhI1cOsjuEM5J9y7FrrbCNlDvjg6lJ7vn9kSHaT8TSeUL8XPuarkkSmjHNsPZLU5GmPcHzdQoo956XsRH1hnxhxmdKWwdoSEhDPvZ87q5T3K21wIJpAabHjGhSiC7ULs6GG0zpr-3-eqWqpx7gHNQ", "width": 250}], "place_id": "ChIJB1hga4B644kRrhsmKAOyNcM", "plus_code": {"compound_code": "8XX2+PC Boston, Massachusetts, United States", "global_code": "87JC8XX2+PC"}, "reference": "ChIJB1hga4B644kRrhsmKAOyNcM", "scope": "GOOGLE", "types": ["point_of_interest", "establishment"], "vicinity": "311 Summer Street Suite 300, Boston"}, "ChIJB1hga4B644kRtHCDJ0aGeVQ": {"geometry": {"location": {"lat": 42.34926139999999, "lng": -71.0490561}, "viewport": {"northeast": {"lat": 42.35065318029149, "lng": -71.04780551970849}, "southwest": {"lat": 42.3479552197085, "lng": -71.05050348029151}}}, "icon": "https://maps.gstatic.com/mapfiles/place_api/icons/shopping-71.png", "id": "3d90ab5767d9dd47bdaa5103014b7011753c650d", "name": "Stone Source", "opening_hours": {"open_now": false}, "photos": [{"height": 1274, "html_attributions": ["<a href=\"https://maps.google.com/maps/contrib/105745387147683563981/photos\">Stone Source</a>"], "photo_reference": "CmRaAAAABnDvS1ujULvivlfD6-cwkzEBUnNVFLMR0I2vgS75ZO_09r4dztVefhYfmoqFUw06A1t41bG1Og7Hywl4KAPaTFNJFUhZlBjK9-o9IeWb4k9uQJLvadMlh5sRK_0ttB4oEhCo7TbcZOMNLjoL4gu-pOAQGhTZ8xU8N7qqMvCmDyFyszYZjNPC8Q", "width": 1920}], "place_id": "ChIJB1hga4B644kRtHCDJ0aGeVQ", "plus_code": {"compound_code": "8XX2+P9 Boston, Massachusetts, United States", "global_code": "87JC8XX2+P9"}, "reference": "ChIJB1hga4B644kRtHCDJ0aGeVQ", "scope": "GOOGLE", "types": ["cemetery", "home_goods_store", "store", "point_of_interest", "establishment"], "vicinity": "327 A Street, Boston"}, "ChIJo_TYcIB644kRyZ5bYSCjTAg": {"geometry": {"location": {"lat": 42.348929, "lng": -71.0489939}, "viewport": {"northeast": {"lat": 42.3503727302915, "lng": -71.04786486970849}, "southwest": {"lat": 42.3476747697085, "lng": -71.0505628302915}}}, "icon": "https://maps.gstatic.com/mapfiles/place_api/icons/generic_business-71.png", "id": "e9e04097e6d127094468e7d3e17af050eb704803", "name": "SPRINGER architects", "photos": [{"height": 1070, "html_attributions": ["<a href=\"https://maps.google.com/maps/contrib/107927755791079175820/photos\">SPRINGER architects</a>"], "photo_reference": "CmRaAAAA31sKC_-SCyTntFyXzgepq4K-93Pq3B5sIgFbr-r0a8KwxhiuvsRwM9z0druAo3FF7hfK0wwISHQxu5kCtfLn1IgXINL64jIXfpiIIsWMdzMOeK_NH-UC6oSQ-fSNHlfsEhBDEeBViFboitzleOxyOdA3GhSjho-YnXjgYZ28OQjSQgqxCY6OFw", "width": 2048}], "place_id": "ChIJo_TYcIB644kRyZ5bYSCjTAg", "plus_code": {"compound_code": "8XX2+HC Boston, Massachusetts, United States", "global_code": "87JC8XX2+HC"}, "reference": "ChIJo_TYcIB644kRyZ5bYSCjTAg", "scope": "GOOGLE", "types": ["point_of_interest", "establishment"], "vicinity": "319 A Street, Boston"}, "ChIJKSzMa4B644kR862BgbeSJgg": {"geometry": {"location": {"lat": 42.349097, "lng": -71.048709}, "viewport": {"northeast": {"lat": 42.35057753029151, "lng": -71.0472479697085}, "southwest": {"lat": 42.34787956970851, "lng": -71.0499459302915}}}, "icon": "https://maps.gstatic.com/mapfiles/place_api/icons/generic_business-71.png", "id": "b1503ef96e742e258377c3b674903941449a9389", "name": "Occhiuti & Rohlicek LLP", "opening_hours": {"open_now": false}, "photos": [{"height": 300, "html_attributions": ["<a href=\"https://maps.google.com/maps/contrib/101211641053693351796/photos\">Occhiuti &amp; Rohlicek LLP</a>"], "photo_reference": "CmRaAAAAVA0eK48Pmuf11Zkk7pyLS6UbWctckT_wYiUjpAJlL7ENMPshfCIwCcfdLUp3wTNVMJvSHyDGCv8XaPxj05pMea1u2eP2IpNxCWqWaYwDNGCN2eOqCGVFH9kf-4su026aEhCbWZrhiTQI2eZDDJStbAFWGhRNBq0m7zccsYHj68Op3Ef3OYIVYw", "width": 300}], "place_id": "ChIJKSzMa4B644kR862BgbeSJgg", "plus_code": {"compound_code": "8XX2+JG Boston, Massachusetts, United States", "global_code": "87JC8XX2+JG"}, "reference": "ChIJKSzMa4B644kR862BgbeSJgg", "scope": "GOOGLE", "types": ["lawyer", "point_of_interest", "establishment"], "vicinity": "321 Summer Street fl 2, Boston"}, "ChIJa7UneYNw44kRztpHk45EFqA": {"geometry": {"location": {"lat": 42.349097, "lng": -71.048709}, "viewport": {"northeast": {"lat": 42.35057753029151, "lng": -71.0472479697085}, "southwest": {"lat": 42.34787956970851, "lng": -71.0499459302915}}}, "icon": "https://maps.gstatic.com/mapfiles/place_api/icons/generic_business-71.png", "id": "3fdbccb5e0282521e52b519ccce7344252fce7c4", "name": "BevSpot", "photos": [{"height": 1440, "html_attributions": ["<a href=\"https://maps.google.com/maps/contrib/103945022860145925150/photos\">BevSpot</a>"], "photo_reference": "CmRaAAAAtt1j_yXoYQ7jzpqrvQ0505My2Xg8oMxvW1eHQ55vQV3MHm42XVPPUf9FJ2Pu3pOOEbYhzbGrmE--5dfT_ZtPKBUlm_bR8rmLo-ChwQZyaXd7CYrr2Ag9W3GE1XXkxjMjEhDVnjZeNrsELNlwHbzQav0DGhTTn2H0ssac9TIbnO9Tl1ykApiBxg", "width": 2560}], "place_id": "ChIJa7UneYNw44kRztpHk45EFqA", "plus_code": {"compound_code": "8XX2+JG Boston, Massachusetts, United States", "global_code": "87JC8XX2+JG"}, "rating": 4, "reference": "ChIJa7UneYNw44kRztpHk45EFqA", "scope": "GOOGLE", "types": ["point_of_interest", "establishment"], "user_ratings_total": 2, "vicinity": "1725, 321 Summer Street floor 3, Boston"}, "ChIJY9W8c1R344kRrx-srFYTsNs": {"geometry": {"location": {"lat": 42.3490971, "lng": -71.0487089}, "viewport": {"northeast": {"lat": 42.35057758029151, "lng": -71.0472479197085}, "southwest": {"lat": 42.34787961970851, "lng": -71.0499458802915}}}, "icon": "https://maps.gstatic.com/mapfiles/place_api/icons/generic_business-71.png", "id": "12c76cdf2d58fe1513a292ae3a9b02dcb7e494dd", "name": "Wellframe", "opening_hours": {"open_now": false}, "photos": [{"height": 438, "html_attributions": ["<a href=\"https://maps.google.com/maps/contrib/115792192813290367066/photos\">Wellframe</a>"], "photo_reference": "CmRaAAAAP7d81JaHhKmpXCVMYtbwZtDNJAA6s6VPBf9NCauYERDxo7vxn4lTgIN8Zwe42GNF9_humfgsNT4eDKMwuUP-F-sjpCUnlUXZRo16LHiSYdDEpBvG7gvmez910zk99TQFEhBHTSNIRliTAHvXf78WLp2bGhS38jPLHE-IGCHj3oRUaw2JhtfuhA", "width": 438}], "place_id": "ChIJY9W8c1R344kRrx-srFYTsNs", "plus_code": {"compound_code": "8XX2+JG Boston, Massachusetts, United States", "global_code": "87JC8XX2+JG"}, "rating": 4.7, "reference": "ChIJY9W8c1R344kRrx-srFYTsNs", "scope": "GOOGLE", "types": ["point_of_interest", "establishment"], "user_ratings_total": 3, "vicinity": "321 Summer Street 7th floor, Boston"}, "ChIJB05GWrl744kRAa09fDqUHKU": {"geometry": {"location": {"lat": 42.3490971, "lng": -71.0487089}, "viewport": {"northeast": {"lat": 42.35057758029151, "lng": -71.0472479197085}, "southwest": {"lat": 42.34787961970851, "lng": -71.0499458802915}}}, "icon": "https://maps.gstatic.com/mapfiles/place_api/icons/generic_business-71.png", "id": "df67880346db4968a179698aca6547e78ffcf643", "name": "McLaughlin-Paucek", "place_id": "ChIJB05GWrl744kRAa09fDqUHKU", "plus_code": {"compound_code": "8XX2+JG Boston, Massachusetts, United States", "global_code": "87JC8XX2+JG"}, "reference": "ChIJB05GWrl744kRAa09fDqUHKU", "scope": "GOOGLE", "types": ["point_of_interest", "establishment"], "vicinity": "321 Summer Street #22, Boston"}, "ChIJ___PboB644kR_QuUpxKauTQ": {"geometry": {"location": {"lat": 42.3490971, "lng": -71.0487089}, "viewport": {"northeast": {"lat": 42.35057758029151, "lng": -71.0472479197085}, "southwest": {"lat": 42.34787961970851, "lng": -71.0499458802915}}}, "icon": "https://maps.gstatic.com/mapfiles/place_api/icons/generic_business-71.png", "id": "f50c0cb7373948af614f43bdf47da216143e2c45", "name": "Boston Logic Platform", "place_id": "ChIJ___PboB644kR_QuUpxKauTQ", "plus_code": {"compound_code": "8XX2+JG Boston, Massachusetts, United States", "global_code": "87JC8XX2+JG"}, "reference": "ChIJ___PboB644kR_QuUpxKauTQ", "scope": "GOOGLE", "types": ["real_estate_agency", "point_of_interest", "establishment"], "vicinity": "321 Summer Street Floor 6, Boston"}, "ChIJlz21rzx744kRL6almxpO49o": {"geometry": {"location": {"lat": 42.3490971, "lng": -71.0487089}, "viewport": {"northeast": {"lat": 42.35057758029151, "lng": -71.0472479197085}, "southwest": {"lat": 42.34787961970851, "lng": -71.0499458802915}}}, "icon": "https://maps.gstatic.com/mapfiles/place_api/icons/generic_business-71.png", "id": "5075df02512ed9a7bc7192a1e011f7bee6830c97", "name": "Konopelski and Sons", "place_id": "ChIJlz21rzx744kRL6almxpO49o", "plus_code": {"compound_code": "8XX2+JG Boston, Massachusetts, United States", "global_code": "87JC8XX2+JG"}, "reference": "ChIJlz21rzx744kRL6almxpO49o", "scope": "GOOGLE", "types": ["general_contractor", "point_of_interest", "establishment"], "vicinity": "321 Summer Street #91, Boston"}, "ChIJ___PboB644kRRa-Y_kGrpa0": {"geometry": {"location": {"lat": 42.3490971, "lng": -71.0487089}, "viewport": {"northeast": {"lat": 42.35057758029151, "lng": -71.0472479197085}, "southwest": {"lat": 42.34787961970851, "lng": -71.0499458802915}}}, "icon": "https://maps.gstatic.com/mapfiles/place_api/icons/bank_dollar-71.png", "id": "5bdd82f0bb6bda4f03f31b929697bc27916004ed", "name": "Deutsche Bank", "place_id": "ChIJ___PboB644kRRa-Y_kGrpa0", "plus_code": {"compound_code": "8XX2+JG Boston, Massachusetts, United States", "global_code": "87JC8XX2+JG"}, "reference": "ChIJ___PboB644kRRa-Y_kGrpa0", "scope": "GOOGLE", "types": ["bank", "finance", "point_of_interest", "establishment"], "vicinity": "321 Summer Street Suite 405, Boston"}, "ChIJGzE9DS1l44kRoOhiASS_fHg": {"geometry": {"location": {"lat": 42.3600825, "lng": -71.0588801}, "viewport": {"northeast": {"lat": 42.40081989999999, "lng": -70.749455}, "southwest": {"lat": 42.22788, "lng": -71.191113}}}, "icon": "https://maps.gstatic.com/mapfiles/place_api/icons/geocode-71.png", "id": "06755c25d2b34d13942a4713971756a55b870ced", "name": "Boston", "photos": [{"height": 3024, "html_attributions": ["<a href=\"https://maps.google.com/maps/contrib/104670289779338733432/photos\">Natalia Zalucean</a>"], "photo_reference": "CmRaAAAASicvCjaEQly8H1wN3f0nwgTCXgniWrmnZonzdkhxTfdpfit2KdeiE3PfulUWuvgk9bcBFRfhnpsNGMPxO1M-s9p86U48dWNDNg-hPvj3DmWK18w03fajgVWQF-gj09vVEhCWgl5d1_D_B9Zaxe3LmSx-GhTP4YcN00U7lg6nGXsTwc0-pwdrHg", "width": 4032}], "place_id": "ChIJGzE9DS1l44kRoOhiASS_fHg", "reference": "ChIJGzE9DS1l44kRoOhiASS_fHg", "scope": "GOOGLE", "types": ["locality", "political"], "vicinity": "Boston"}}