{"ChIJt0x0i3h644kRNpVTlVpcnUA": {"geometry": {"location": {"lat": 42.351314, "lng": -71.058384}, "viewport": {"northeast": {"lat": 42.3526629802915, "lng": -71.05703501970848}, "southwest": {"lat": 42.3499650197085, "lng": -71.0597329802915}}}, "icon": "https://maps.gstatic.com/mapfiles/place_api/icons/geocode-71.png", "id": "703117668c830bf0fadff6c189e0e7e56d5d8d72", "name": "160-104 Lincoln St", "place_id": "ChIJt0x0i3h644kRNpVTlVpcnUA", "reference": "ChIJt0x0i3h644kRNpVTlVpcnUA", "scope": "GOOGLE", "types": ["route"], "vicinity": "Boston"}, "ChIJs-osUYNw44kRlncw4Ib_dow": {"geometry": {"location": {"lat": 42.351459, "lng": -71.058223}, "viewport": {"northeast": {"lat": 42.3528184302915, "lng": -71.0569198697085}, "southwest": {"lat": 42.35012046970851, "lng": -71.0596178302915}}}, "icon": "https://maps.gstatic.com/mapfiles/place_api/icons/generic_business-71.png", "id": "db88b6b5243c41728a88e3836788c20f64d22902", "name": "Boston Center for Pregnancy Choices", "opening_hours": {"open_now": false}, "place_id": "ChIJs-osUYNw44kRlncw4Ib_dow", "plus_code": {"compound_code": "9W2R+HP Boston, Massachusetts, United States", "global_code": "87JC9W2R+HP"}, "rating": 3.4, "reference": "ChIJs-osUYNw44kRlncw4Ib_dow", "scope": "GOOGLE", "types": ["health", "point_of_interest", "establishment"], "user_ratings_total": 15, "vicinity": "120 Lincoln Street #1A, Boston"}, "ChIJf5snjHh644kRkfNmcBhLUtI": {"geometry": {"location": {"lat": 42.351232, "lng": -71.05828799999999}, "viewport": {"northeast": {"lat": 42.3525945302915, "lng": -71.05699846970849}, "southwest": {"lat": 42.3498965697085, "lng": -71.0596964302915}}}, "icon": "https://maps.gstatic.com/mapfiles/place_api/icons/generic_business-71.png", "id": "523ad7f59cbd698e314b71c2a4310f876f8e6133", "name": "Boston Oral and Facial Surgery", "opening_hours": {"open_now": false}, "photos": [{"height": 465, "html_attributions": ["<a href=\"https://maps.google.com/maps/contrib/106254408967922363368/photos\">Boston Oral and Facial Surgery</a>"], "photo_reference": "CmRaAAAAQHnXZrFdYrTYWFXfpm0b7hxImaEzmAvAV7lvhDCbUqpB6CsQwq2M9U1EG1Mh_qWJQtarb51RDdOz_1_yY0KQTF7UJFN93qUpLu_gW-b0lcfLi-NlTaeDgtXPYLp3mH06EhAwPq2h2BO58_LfGVpRDPhPGhSkIP_hmMMViTohQ-N6Gmgm7XmDtQ", "width": 700}], "place_id": "ChIJf5snjHh644kRkfNmcBhLUtI", "plus_code": {"compound_code": "9W2R+FM Boston, Massachusetts, United States", "global_code": "87JC9W2R+FM"}, "rating": 4.8, "reference": "ChIJf5snjHh644kRkfNmcBhLUtI", "scope": "GOOGLE", "types": ["dentist", "doctor", "health", "point_of_interest", "establishment"], "user_ratings_total": 192, "vicinity": "136 Lincoln Street, Boston"}, "ChIJywFui3h644kRtyht43yjKy8": {"geometry": {"location": {"lat": 42.3512894, "lng": -71.0582668}, "viewport": {"northeast": {"lat": 42.3526516302915, "lng": -71.0569760197085}, "southwest": {"lat": 42.3499536697085, "lng": -71.0596739802915}}}, "icon": "https://maps.gstatic.com/mapfiles/place_api/icons/generic_business-71.png", "id": "e86d7af0ed430330d040a4939faadb72d0875297", "name": "Kennedy Law Office", "opening_hours": {"open_now": true}, "place_id": "ChIJywFui3h644kRtyht43yjKy8", "plus_code": {"compound_code": "9W2R+GM Boston, Massachusetts, United States", "global_code": "87JC9W2R+GM"}, "reference": "ChIJywFui3h644kRtyht43yjKy8", "scope": "GOOGLE", "types": ["lawyer", "point_of_interest", "establishment"], "vicinity": "132 Lincoln Street Suite 2R, Boston"}, "ChIJywFui3h644kRUHRHhi08J7I": {"geometry": {"location": {"lat": 42.3512487, "lng": -71.0583845}, "viewport": {"northeast": {"lat": 42.35259398029149, "lng": -71.0570192197085}, "southwest": {"lat": 42.3498960197085, "lng": -71.0597171802915}}}, "icon": "https://maps.gstatic.com/mapfiles/place_api/icons/generic_business-71.png", "id": "511f8e3299f26b49164d3bea2e391677c393243d", "name": "Wallace Capital", "opening_hours": {"open_now": true}, "photos": [{"height": 300, "html_attributions": ["<a href=\"https://maps.google.com/maps/contrib/113368153252812536712/photos\">Wallace Capital</a>"], "photo_reference": "CmRaAAAAaS8HxDFqohgvseLqK6ALu-ZPrRmzDMAc9xJ63jyTG8y23QAx4ZbnypElW6byb3N7qs9PpA90F60WDNONC8oXRlrhZni3EUZPS5PRzN0yrwznfP0E3YFgZuB4aJkKSohsEhAM9TRGbcZ_GYZDZLZyBWhFGhSZI-JfNYPge6Xjh7cgmUZaljExJg", "width": 960}], "place_id": "ChIJywFui3h644kRUHRHhi08J7I", "plus_code": {"compound_code": "9W2R+FJ Boston, Massachusetts, United States", "global_code": "87JC9W2R+FJ"}, "rating": 4.4, "reference": "ChIJywFui3h644kRUHRHhi08J7I", "scope": "GOOGLE", "types": ["finance", "point_of_interest", "establishment"], "user_ratings_total": 7, "vicinity": "132 Lincoln Street # 6L, Boston"}, "ChIJQR10jHh644kRgZQKocJpcnM": {"geometry": {"location": {"lat": 42.3513358, "lng": -71.0581803}, "viewport": {"northeast": {"lat": 42.3527050302915, "lng": -71.0569201697085}, "southwest": {"lat": 42.3500070697085, "lng": -71.05961813029151}}}, "icon": "https://maps.gstatic.com/mapfiles/place_api/icons/generic_business-71.png", "id": "ef54198f7c3b2143a29eb297b7c80d4f1e52edfd", "name": "New York Life", "opening_hours": {"open_now": true}, "place_id": "ChIJQR10jHh644kRgZQKocJpcnM", "plus_code": {"compound_code": "9W2R+GP Boston, Massachusetts, United States", "global_code": "87JC9W2R+GP"}, "reference": "ChIJQR10jHh644kRgZQKocJpcnM", "scope": "GOOGLE", "types": ["insurance_agency", "point_of_interest", "establishment"], "vicinity": "128 Lincoln Street #105, Boston"}, "ChIJTwFui3h644kRIgFQ_xQ5TuI": {"geometry": {"location": {"lat": 42.3512894, "lng": -71.0582668}, "viewport": {"northeast": {"lat": 42.3526516302915, "lng": -71.0569760197085}, "southwest": {"lat": 42.3499536697085, "lng": -71.0596739802915}}}, "icon": "https://maps.gstatic.com/mapfiles/place_api/icons/generic_business-71.png", "id": "18ec75983df00b368f742803442c2acf603713e5", "name": "Baker/Wohl architects", "place_id": "ChIJTwFui3h644kRIgFQ_xQ5TuI", "plus_code": {"compound_code": "9W2R+GM Boston, Massachusetts, United States", "global_code": "87JC9W2R+GM"}, "reference": "ChIJTwFui3h644kRIgFQ_xQ5TuI", "scope": "GOOGLE", "types": ["point_of_interest", "establishment"], "vicinity": "132 Lincoln Street, Boston"}, "ChIJywFui3h644kR3cpcR7WH6UA": {"geometry": {"location": {"lat": 42.3512894, "lng": -71.0582668}, "viewport": {"northeast": {"lat": 42.3526516302915, "lng": -71.0569760197085}, "southwest": {"lat": 42.3499536697085, "lng": -71.0596739802915}}}, "icon": "https://maps.gstatic.com/mapfiles/place_api/icons/generic_business-71.png", "id": "7c09b5bcad20aaa41b434d83d48cfb793e2ae755", "name": "Caro Properties Inc", "place_id": "ChIJywFui3h644kR3cpcR7WH6UA", "plus_code": {"compound_code": "9W2R+GM Boston, Massachusetts, United States", "global_code": "87JC9W2R+GM"}, "reference": "ChIJywFui3h644kR3cpcR7WH6UA", "scope": "GOOGLE", "types": ["general_contractor", "point_of_interest", "establishment"], "vicinity": "132 Lincoln Street # 6R, Boston"}, "ChIJXX4qIG1644kRESM0gw0vGKo": {"geometry": {"location": {"lat": 42.3512894, "lng": -71.0582668}, "viewport": {"northeast": {"lat": 42.3526516302915, "lng": -71.0569760197085}, "southwest": {"lat": 42.3499536697085, "lng": -71.0596739802915}}}, "icon": "https://maps.gstatic.com/mapfiles/place_api/icons/generic_business-71.png", "id": "29ec29f7c32dd528ccbe01c9d1656f0ec1a1fed8", "name": "Flanders & Associates Inc", "place_id": "ChIJXX4qIG1644kRESM0gw0vGKo", "plus_code": {"compound_code": "9W2R+GM Boston, Massachusetts, United States", "global_code": "87JC9W2R+GM"}, "reference": "ChIJXX4qIG1644kRESM0gw0vGKo", "scope": "GOOGLE", "types": ["point_of_interest", "establishment"], "vicinity": "132 Lincoln Street, Boston"}, "ChIJtwWNinh644kRlR-feU2HeD8": {"geometry": {"location": {"lat": 42.3514183, "lng": -71.0585981}, "viewport": {"northeast": {"lat": 42.3527404302915, "lng": -71.05713151970849}, "southwest": {"lat": 42.3500424697085, "lng": -71.0598294802915}}}, "icon": "https://maps.gstatic.com/mapfiles/place_api/icons/generic_business-71.png", "id": "699e2fd6d3153fc6ffa573f5b9643b843acf7a38", "name": "China Garage", "opening_hours": {"open_now": true}, "photos": [{"height": 3024, "html_attributions": ["<a href=\"https://maps.google.com/maps/contrib/107233868034791549754/photos\">China Garage</a>"], "photo_reference": "CmRaAAAAUmW4Tn4p59CBTlwfT9YGgqwm-1HY39_vyl8CXfThrf4xUfHn7siTfsZZ4v7hcyGTis-lArkSw_DRFZvrRuhTuEgUxxUhZO5lkJwWAZRjE4MMnaKIZpDTk-ddWwmNIP5BEhBpxQQUTQGA_5Go1Yj9kPnFGhRPyc81MW6ImjAayl1ccWXGOJMibQ", "width": 4032}], "place_id": "ChIJtwWNinh644kRlR-feU2HeD8", "plus_code": {"compound_code": "9W2R+HH Boston, Massachusetts, United States", "global_code": "87JC9W2R+HH"}, "rating": 2.9, "reference": "ChIJtwWNinh644kRlR-feU2HeD8", "scope": "GOOGLE", "types": ["parking", "point_of_interest", "establishment"], "user_ratings_total": 16, "vicinity": "125 Lincoln Street, Boston"}, "ChIJywFui3h644kRsH3boMqS8t0": {"geometry": {"location": {"lat": 42.3512894, "lng": -71.0582668}, "viewport": {"northeast": {"lat": 42.3526516302915, "lng": -71.0569760197085}, "southwest": {"lat": 42.3499536697085, "lng": -71.0596739802915}}}, "icon": "https://maps.gstatic.com/mapfiles/place_api/icons/generic_business-71.png", "id": "756222a90c1297424de1cff7b7757712a2341296", "name": "SED Associates", "place_id": "ChIJywFui3h644kRsH3boMqS8t0", "plus_code": {"compound_code": "9W2R+GM Boston, Massachusetts, United States", "global_code": "87JC9W2R+GM"}, "reference": "ChIJywFui3h644kRsH3boMqS8t0", "scope": "GOOGLE", "types": ["point_of_interest", "establishment"], "vicinity": "132 Lincoln Street # 5R, Boston"}, "ChIJuTIn94Jw44kRlE4tRDjkzBg": {"geometry": {"location": {"lat": 42.3512894, "lng": -71.0582668}, "viewport": {"northeast": {"lat": 42.3526516302915, "lng": -71.0569760197085}, "southwest": {"lat": 42.3499536697085, "lng": -71.0596739802915}}}, "icon": "https://maps.gstatic.com/mapfiles/place_api/icons/generic_business-71.png", "id": "dc5833065762ca2d5e1ca2047cf8f918b5825c43", "name": "Apptopia Inc.", "opening_hours": {"open_now": true}, "photos": [{"height": 1000, "html_attributions": ["<a href=\"https://maps.google.com/maps/contrib/100717067050569954560/photos\">Apptopia Inc.</a>"], "photo_reference": "CmRaAAAAT8FSuQSDzmIGBK48x_6kKSHjHWBfsnuCN8el3dCU65Om_oj4lt22JDr18c_X0r5LFiGqMzl95odNSgahi62Vg-2pDWQ1r1SpCn2-ykyBtyyrSWrsPS6eJ63o-EchgBSdEhCmqajzNtwi-O6ZavE7Dsf6GhR6pxkueN7YAhKWVEIe1eKoX_hdEA", "width": 1000}], "place_id": "ChIJuTIn94Jw44kRlE4tRDjkzBg", "plus_code": {"compound_code": "9W2R+GM Boston, Massachusetts, United States", "global_code": "87JC9W2R+GM"}, "rating": 5, "reference": "ChIJuTIn94Jw44kRlE4tRDjkzBg", "scope": "GOOGLE", "types": ["point_of_interest", "establishment"], "user_ratings_total": 3, "vicinity": "132 Lincoln St., Floor 3, Boston"}, "ChIJy12JjHh644kRcH1aCaPHwiU": {"geometry": {"location": {"lat": 42.3512441, "lng": -71.05827529999999}, "viewport": {"northeast": {"lat": 42.35260743029149, "lng": -71.05698926970848}, "southwest": {"lat": 42.3499094697085, "lng": -71.05968723029149}}}, "icon": "https://maps.gstatic.com/mapfiles/place_api/icons/generic_business-71.png", "id": "51abc8e60071a4896b365bbb59fe11f89782321b", "name": "Sing Tao Newspaper", "place_id": "ChIJy12JjHh644kRcH1aCaPHwiU", "plus_code": {"compound_code": "9W2R+FM Boston, Massachusetts, United States", "global_code": "87JC9W2R+FM"}, "reference": "ChIJy12JjHh644kRcH1aCaPHwiU", "scope": "GOOGLE", "types": ["point_of_interest", "establishment"], "vicinity": "130 Lincoln Street, Boston"}, "ChIJc65gjHh644kRjsOgHG_PMWU": {"geometry": {"location": {"lat": 42.3512983, "lng": -71.0582292}, "viewport": {"northeast": {"lat": 42.3526640802915, "lng": -71.0569538697085}, "southwest": {"lat": 42.3499661197085, "lng": -71.05965183029151}}}, "icon": "https://maps.gstatic.com/mapfiles/place_api/icons/shopping-71.png", "id": "a0cdb8785ff2c31f431d8ef1dbb606d86936f390", "name": "Wrap It Up", "opening_hours": {"open_now": true}, "place_id": "ChIJc65gjHh644kRjsOgHG_PMWU", "plus_code": {"compound_code": "9W2R+GP Boston, Massachusetts, United States", "global_code": "87JC9W2R+GP"}, "reference": "ChIJc65gjHh644kRjsOgHG_PMWU", "scope": "GOOGLE", "types": ["store", "point_of_interest", "establishment"], "vicinity": "132 Lincoln Street, Boston"}, "ChIJtwWNinh644kRvGGCBbBGx-g": {"geometry": {"location": {"lat": 42.351316, "lng": -71.0586079}, "viewport": {"northeast": {"lat": 42.3526415802915, "lng": -71.0571563197085}, "southwest": {"lat": 42.3499436197085, "lng": -71.05985428029152}}}, "icon": "https://maps.gstatic.com/mapfiles/place_api/icons/generic_business-71.png", "id": "8e2fce47df5bad24e116dc72c7fd86b2d8f11c9f", "name": "Maven Car Sharing", "opening_hours": {"open_now": true}, "photos": [{"height": 499, "html_attributions": ["<a href=\"https://maps.google.com/maps/contrib/115587436213471186293/photos\">Maven Car Sharing</a>"], "photo_reference": "CmRaAAAAiJKigpBU_tQ7-vs46yXoLSC2E7PecZwcdrSz_-sOFwHVMmIU8IVkCcWPIusfjHCqGLWal85kYU9Hj7BfngLpF5pXYwKd7QIBR6SG5gGvqeS4L6uPOnkgz2F9o-4jzf8oEhAcxVW2jq_33MPSeC4NECbOGhQE0mwqWFu2VAyg9GUc02SRIFlolA", "width": 499}], "place_id": "ChIJtwWNinh644kRvGGCBbBGx-g", "plus_code": {"compound_code": "9W2R+GH Boston, Massachusetts, United States", "global_code": "87JC9W2R+GH"}, "rating": 5, "reference": "ChIJtwWNinh644kRvGGCBbBGx-g", "scope": "GOOGLE", "types": ["car_rental", "point_of_interest", "establishment"], "user_ratings_total": 1, "vicinity": "125 Lincoln Street, Boston"}, "ChIJOfOhfIZw44kRN8bM6F1Z0gY": {"geometry": {"location": {"lat": 42.35153770000001, "lng": -71.058218}, "viewport": {"northeast": {"lat": 42.3528924802915, "lng": -71.0568946197085}, "southwest": {"lat": 42.3501945197085, "lng": -71.05959258029151}}}, "icon": "https://maps.gstatic.com/mapfiles/place_api/icons/civic_building-71.png", "id": "6bda26781e25ecaa344f018a1469059f7d0cf562", "name": "Marathon Staffing", "opening_hours": {"open_now": true}, "place_id": "ChIJOfOhfIZw44kRN8bM6F1Z0gY", "plus_code": {"compound_code": "9W2R+JP Boston, Massachusetts, United States", "global_code": "87JC9W2R+JP"}, "rating": 4, "reference": "ChIJOfOhfIZw44kRN8bM6F1Z0gY", "scope": "GOOGLE", "types": ["point_of_interest", "establishment"], "user_ratings_total": 13, "vicinity": "108 Lincoln Street #1b, Boston"}, "ChIJH_wRsYNw44kROUx5KuZLNjo": {"geometry": {"location": {"lat": 42.3512517, "lng": -71.0583781}, "viewport": {"northeast": {"lat": 42.3525980302915, "lng": -71.05701751970848}, "southwest": {"lat": 42.3499000697085, "lng": -71.05971548029149}}}, "icon": "https://maps.gstatic.com/mapfiles/place_api/icons/generic_business-71.png", "id": "48353cd596c916a0acf871418e555ed9c6e592a8", "name": "Tony Tong the Tailor", "opening_hours": {"open_now": true}, "photos": [{"height": 4032, "html_attributions": ["<a href=\"https://maps.google.com/maps/contrib/104578247846188377346/photos\">Eliott Wiener</a>"], "photo_reference": "CmRaAAAAlwNqtE8pkQv8uqx8wsOFD_x0phWQdevqW2jQtTcVSYKVmT8a0XIgLl-KSFx4iH4wSFQXyDD-7UvxU2P7NVYyGY-iFNw1sCwZHbHFCDQP2ht6GH3NxYhJ0sU_KsmwgYI0EhDEDCqWvgiUIUQ4yiHCahuPGhR_AQW8Nxuq64rXQt3cdxyuTmIe6A", "width": 3024}], "place_id": "ChIJH_wRsYNw44kROUx5KuZLNjo", "plus_code": {"compound_code": "9W2R+GJ Boston, Massachusetts, United States", "global_code": "87JC9W2R+GJ"}, "rating": 4.7, "reference": "ChIJH_wRsYNw44kROUx5KuZLNjo", "scope": "GOOGLE", "types": ["point_of_interest", "establishment"], "user_ratings_total": 15, "vicinity": "132 Lincoln Street, Boston"}, "ChIJq0o43Xh644kRWIIE4hYl93Q": {"geometry": {"location": {"lat": 42.3514183, "lng": -71.0585981}, "viewport": {"northeast": {"lat": 42.3527404302915, "lng": -71.05713151970849}, "southwest": {"lat": 42.3500424697085, "lng": -71.0598294802915}}}, "icon": "https://maps.gstatic.com/mapfiles/place_api/icons/generic_business-71.png", "id": "b5f87f7ee2aba115cb7b74772a36a9fe012bfcf0", "name": "MarketMuse", "photos": [{"height": 500, "html_attributions": ["<a href=\"https://maps.google.com/maps/contrib/105443502582100013886/photos\">MarketMuse</a>"], "photo_reference": "CmRZAAAA6eNSU1t5YwofjJTOaVHcBVCmC0-dQacEjjFxB3iT4U4A8VlbcFhJGl4A1A9oh4E7514xKhatTU_22HXvvLNXXu3_J_W2d1fSdMpdazDBHOYwHDycJRuazxirey0giF0IEhBbMX4zLOjQuAXJiLz3W_baGhSI9yT90VzKa92wmbwfymnapRqq2w", "width": 501}], "place_id": "ChIJq0o43Xh644kRWIIE4hYl93Q", "plus_code": {"compound_code": "9W2R+HH Boston, Massachusetts, United States", "global_code": "87JC9W2R+HH"}, "reference": "ChIJq0o43Xh644kRWIIE4hYl93Q", "scope": "GOOGLE", "types": ["point_of_interest", "establishment"], "vicinity": "125 Lincoln Street, Boston"}, "ChIJywFui3h644kRkOwYBhuUMGU": {"geometry": {"location": {"lat": 42.3512894, "lng": -71.0582668}, "viewport": {"northeast": {"lat": 42.3526516302915, "lng": -71.0569760197085}, "southwest": {"lat": 42.3499536697085, "lng": -71.0596739802915}}}, "icon": "https://maps.gstatic.com/mapfiles/place_api/icons/generic_business-71.png", "id": "4eccb91ba6ae5b5d707d8551def73ffa38531d2e", "name": "Goldberg Harder Adelstein & Co", "place_id": "ChIJywFui3h644kRkOwYBhuUMGU", "plus_code": {"compound_code": "9W2R+GM Boston, Massachusetts, United States", "global_code": "87JC9W2R+GM"}, "reference": "ChIJywFui3h644kRkOwYBhuUMGU", "scope": "GOOGLE", "types": ["accounting", "finance", "point_of_interest", "establishment"], "vicinity": "132 Lincoln Street # 2L, Boston"}, "ChIJGzE9DS1l44kRoOhiASS_fHg": {"geometry": {"location": {"lat": 42.3600825, "lng": -71.0588801}, "viewport": {"northeast": {"lat": 42.40081989999999, "lng": -70.749455}, "southwest": {"lat": 42.22788, "lng": -71.191113}}}, "icon": "https://maps.gstatic.com/mapfiles/place_api/icons/geocode-71.png", "id": "06755c25d2b34d13942a4713971756a55b870ced", "name": "Boston", "photos": [{"height": 3024, "html_attributions": ["<a href=\"https://maps.google.com/maps/contrib/104670289779338733432/photos\">Natalia Zalucean</a>"], "photo_reference": "CmRaAAAAOopPMC2zsNecertvBPkGi1LzldGVP68Ks7JeFzUy1GgoU6cyfDc-4aVjTQPsju7h506eif9gZGtlv-CmRyvgMlk6YO9LIgpFYyI_w_e0IZPGuwcZIS5MGwxeSu9sWajLEhDyf0T-AJgT_x74fWQ-IRUvGhSscqlyaVfcDcFtp-5Fp71kksjOJQ", "width": 4032}], "place_id": "ChIJGzE9DS1l44kRoOhiASS_fHg", "reference": "ChIJGzE9DS1l44kRoOhiASS_fHg", "scope": "GOOGLE", "types": ["locality", "political"], "vicinity": "Boston"}, "ChIJywFui3h644kRaIKXxCg-uJM": {"geometry": {"location": {"lat": 42.3512894, "lng": -71.0582668}, "viewport": {"northeast": {"lat": 42.3526516302915, "lng": -71.0569760197085}, "southwest": {"lat": 42.3499536697085, "lng": -71.0596739802915}}}, "icon": "https://maps.gstatic.com/mapfiles/place_api/icons/generic_business-71.png", "id": "134daa371b485413be22ab821a7cd8c2233eecb0", "name": "Penta Sallyann CPA", "place_id": "ChIJywFui3h644kRaIKXxCg-uJM", "plus_code": {"compound_code": "9W2R+GM Boston, Massachusetts, United States", "global_code": "87JC9W2R+GM"}, "reference": "ChIJywFui3h644kRaIKXxCg-uJM", "scope": "GOOGLE", "types": ["accounting", "finance", "point_of_interest", "establishment"], "vicinity": "132 Lincoln Street # 6R, Boston"}, "ChIJ6xaRIed744kRIW6pSuSVTkg": {"geometry": {"location": {"lat": 42.3514724, "lng": -71.05821399999999}, "viewport": {"northeast": {"lat": 42.3528321802915, "lng": -71.05691241970848}, "southwest": {"lat": 42.3501342197085, "lng": -71.0596103802915}}}, "icon": "https://maps.gstatic.com/mapfiles/place_api/icons/generic_business-71.png", "id": "24188160d6d8ab268ef8b98ab29b3f1501f9f212", "name": "Boston Chinatown Tours", "opening_hours": {"open_now": true}, "photos": [{"height": 1192, "html_attributions": ["<a href=\"https://maps.google.com/maps/contrib/102984514784143545614/photos\">Boston Chinatown Tours</a>"], "photo_reference": "CmRaAAAAEVecXK9_GolTAl_WrY7KFNTq9XtIP-kTsPVBzUOIngQR8w-Mxig1vgCz_A-Nopn4A1COO0qpwJee7cFEjkCpvSA-MT2xTypTvKIsvZzf1nwPfNRUf921MpbDc6xpJZ3rEhD1W90ArxH_nJ_ELqzNjDYPGhRqpQf42J-FHUjvRF5DjNpFUiuFCg", "width": 2120}], "place_id": "ChIJ6xaRIed744kRIW6pSuSVTkg", "plus_code": {"compound_code": "9W2R+HP Boston, Massachusetts, United States", "global_code": "87JC9W2R+HP"}, "reference": "ChIJ6xaRIed744kRIW6pSuSVTkg", "scope": "GOOGLE", "types": ["point_of_interest", "establishment"], "vicinity": "116 Lincoln Street, Boston"}, "ChIJtwWNinh644kRqTLFBoGmoDA": {"geometry": {"location": {"lat": 42.351316, "lng": -71.0586079}, "viewport": {"northeast": {"lat": 42.3526415802915, "lng": -71.0571563197085}, "southwest": {"lat": 42.3499436197085, "lng": -71.05985428029152}}}, "icon": "https://maps.gstatic.com/mapfiles/place_api/icons/generic_business-71.png", "id": "8e2ef05fe6182a508b1cd61949d7a66917788e7a", "name": "Zipcar", "opening_hours": {"open_now": true}, "photos": [{"height": 499, "html_attributions": ["<a href=\"https://maps.google.com/maps/contrib/109375399735145272429/photos\">Zipcar</a>"], "photo_reference": "CmRaAAAAlsQA3UtQdmWLJeIhYkBd0sFPcn2DPnmgkWdg9-E2vyEiU98ANUn4csph4xD1iLmZRbIgmK08g1jkKSlWfFatUWORZ22Mqg9K_OGa6LjBf_EgWGOBaxwbiR0CWQrRaAcrEhAjhwLRsJ6-A5jMnNVq5OgQGhRh-W6UJ38nAbUCE7hc1w7yRvPI4Q", "width": 499}], "place_id": "ChIJtwWNinh644kRqTLFBoGmoDA", "plus_code": {"compound_code": "9W2R+GH Boston, Massachusetts, United States", "global_code": "87JC9W2R+GH"}, "reference": "ChIJtwWNinh644kRqTLFBoGmoDA", "scope": "GOOGLE", "types": ["car_rental", "point_of_interest", "establishment"], "vicinity": "125 Lincoln Street, Boston"}, "ChIJtwWNinh644kRKpfbU-UAsL4": {"geometry": {"location": {"lat": 42.351316, "lng": -71.0586079}, "viewport": {"northeast": {"lat": 42.3526415802915, "lng": -71.0571563197085}, "southwest": {"lat": 42.3499436197085, "lng": -71.05985428029152}}}, "icon": "https://maps.gstatic.com/mapfiles/place_api/icons/generic_business-71.png", "id": "7a3f761047492b8759e5d5010ee20d19d97deaee", "name": "HqO", "photos": [{"height": 1854, "html_attributions": ["<a href=\"https://maps.google.com/maps/contrib/109995505207367501102/photos\">HqO</a>"], "photo_reference": "CmRaAAAAmhFvRW35bLBzGRXGFvUE8C9bnmMswwHgODdDtljfp_SK9wRwFw7HNv5k4ygvj-p2r36oiJA4wsV-ibsR7_9mPGW7F2oYl3touU8kRX20vGRvGNhvV_V4xWPdN2rM7Ka_EhCVo_yVZ5C9ApLGheW-UT3zGhSj4s11szIshRprPO4II1DGyKjZsg", "width": 1854}], "place_id": "ChIJtwWNinh644kRKpfbU-UAsL4", "plus_code": {"compound_code": "9W2R+GH Boston, Massachusetts, United States", "global_code": "87JC9W2R+GH"}, "rating": 5, "reference": "ChIJtwWNinh644kRKpfbU-UAsL4", "scope": "GOOGLE", "types": ["point_of_interest", "establishment"], "user_ratings_total": 1, "vicinity": "125 Lincoln Street, Boston"}}