{"ChIJGzE9DS1l44kRoOhiASS_fHg": {"geometry": {"location": {"lat": 42.3600825, "lng": -71.0588801}, "viewport": {"northeast": {"lat": 42.40081989999999, "lng": -70.749455}, "southwest": {"lat": 42.22788, "lng": -71.191113}}}, "icon": "https://maps.gstatic.com/mapfiles/place_api/icons/geocode-71.png", "id": "06755c25d2b34d13942a4713971756a55b870ced", "name": "Boston", "photos": [{"height": 3024, "html_attributions": ["<a href=\"https://maps.google.com/maps/contrib/104670289779338733432/photos\">Natalia Zalucean</a>"], "photo_reference": "CmRaAAAAdlmBqmYaxji7sT-X6uDLpzVU-5QlKgoXXznqSLrtXYSIg4P8Zho8XCZNG16eIajs21x71VFSAAEqAmINgk9MZxX8V6q74jZzKf4lslmAIxKoJ1e3WU4B2JxnBzEjL52FEhDpEqIPrWokaiL20bUZ2d89GhTVBvoEnFs6fuyaZ5PEsvKbEIy96w", "width": 4032}], "place_id": "ChIJGzE9DS1l44kRoOhiASS_fHg", "reference": "ChIJGzE9DS1l44kRoOhiASS_fHg", "scope": "GOOGLE", "types": ["locality", "political"], "vicinity": "Boston"}, "ChIJi0-nQppw44kRbArtygmIXCc": {"geometry": {"location": {"lat": 42.3619656, "lng": -71.0652273}, "viewport": {"northeast": {"lat": 42.3632713302915, "lng": -71.06403921970849}, "southwest": {"lat": 42.3605733697085, "lng": -71.0667371802915}}}, "icon": "https://maps.gstatic.com/mapfiles/place_api/icons/doctor-71.png", "id": "fc77c8986a67177b78434d878ddf9d6d9e72c5ae", "name": "Mass General Division of Trauma, Emergency Surgery & Surgical Critical Care", "opening_hours": {"open_now": true}, "place_id": "ChIJi0-nQppw44kRbArtygmIXCc", "plus_code": {"compound_code": "9W6M+QW Boston, Massachusetts, United States", "global_code": "87JC9W6M+QW"}, "reference": "ChIJi0-nQppw44kRbArtygmIXCc", "scope": "GOOGLE", "types": ["hospital", "health", "point_of_interest", "establishment"], "vicinity": "165 Cambridge Street Suite 810, Boston"}, "ChIJJe_sRpdw44kRiBoWvKeVYN4": {"geometry": {"location": {"lat": 42.36435789999999, "lng": -71.0661193}, "viewport": {"northeast": {"lat": 42.3683341, "lng": -71.0583927}, "southwest": {"lat": 42.36115789999999, "lng": -71.0736953}}}, "icon": "https://maps.gstatic.com/mapfiles/place_api/icons/geocode-71.png", "id": "b8678c0447cf0367b24babc43890d2888c389a7a", "name": "West End", "photos": [{"height": 1944, "html_attributions": ["<a href=\"https://maps.google.com/maps/contrib/118366960396286562471/photos\">Michael Laferriere</a>"], "photo_reference": "CmRaAAAAmQ7bhJC9oAzUfezAA0umQn0NSADRDZ9Krey57eFH6Wxtc7YErTcrq32-HjHYYXSlqn3El2Secqszf6p_b8NvAd_dvjbayfrlJ5cmWf_YWy45GxpeuTtI_CxHrPiJd550EhAvdeA36gsfNm66kKmydgXVGhS-ywWpZE8ydvvZztIASPGbUpsllw", "width": 2592}], "place_id": "ChIJJe_sRpdw44kRiBoWvKeVYN4", "reference": "ChIJJe_sRpdw44kRiBoWvKeVYN4", "scope": "GOOGLE", "types": ["neighborhood", "political"], "vicinity": "Boston"}}