{"ChIJY0i9C4B644kROJnVXo6bbVk": {"geometry": {"location": {"lat": 42.3498261, "lng": -71.04950389999999}, "viewport": {"northeast": {"lat": 42.3511750802915, "lng": -71.0481549197085}, "southwest": {"lat": 42.34847711970851, "lng": -71.0508528802915}}}, "icon": "https://maps.gstatic.com/mapfiles/place_api/icons/geocode-71.png", "id": "9458f301110d2ae1934c9b117702db1a97ed2d18", "name": "285 Summer St", "place_id": "ChIJY0i9C4B644kROJnVXo6bbVk", "reference": "ChIJY0i9C4B644kROJnVXo6bbVk", "scope": "GOOGLE", "types": ["route"], "vicinity": "Boston"}, "ChIJq0LrdIB644kRs7aJg9jUtus": {"geometry": {"location": {"lat": 42.3496801, "lng": -71.0495455}, "viewport": {"northeast": {"lat": 42.3510886302915, "lng": -71.04814641970849}, "southwest": {"lat": 42.3483906697085, "lng": -71.05084438029151}}}, "icon": "https://maps.gstatic.com/mapfiles/place_api/icons/generic_business-71.png", "id": "06fa38af037859ffda062503b7bcaa1087708841", "name": "M+W Group", "opening_hours": {"open_now": false}, "place_id": "ChIJq0LrdIB644kRs7aJg9jUtus", "plus_code": {"compound_code": "8XX2+V5 Boston, Massachusetts, United States", "global_code": "87JC8XX2+V5"}, "reference": "ChIJq0LrdIB644kRs7aJg9jUtus", "scope": "GOOGLE", "types": ["point_of_interest", "establishment"], "vicinity": "285 Summer Street, Boston"}, "ChIJGzE9DS1l44kRoOhiASS_fHg": {"geometry": {"location": {"lat": 42.3600825, "lng": -71.0588801}, "viewport": {"northeast": {"lat": 42.40081989999999, "lng": -70.749455}, "southwest": {"lat": 42.22788, "lng": -71.191113}}}, "icon": "https://maps.gstatic.com/mapfiles/place_api/icons/geocode-71.png", "id": "06755c25d2b34d13942a4713971756a55b870ced", "name": "Boston", "photos": [{"height": 3024, "html_attributions": ["<a href=\"https://maps.google.com/maps/contrib/104670289779338733432/photos\">Natalia Zalucean</a>"], "photo_reference": "CmRaAAAAo8D1x2e3xpRr9pmOdipK3Uj3V0KtP8xhZPISxcZ7Na4kdI7YvimcPjIHxVhz5qwbQhMgPQUi5_YORyC3sNkO-hheHnO2hHcIZ-ULa_3rdBkXLnRok_GPfU_YFJfsdMYcEhBOTTfXZI4STpXJ-l1gdUrYGhRDltzgmRt7icf1Or9hRl1hrcq2WA", "width": 4032}], "place_id": "ChIJGzE9DS1l44kRoOhiASS_fHg", "reference": "ChIJGzE9DS1l44kRoOhiASS_fHg", "scope": "GOOGLE", "types": ["locality", "political"], "vicinity": "Boston"}}