{"ChIJz3P_L4lw44kRMWTLMuX5D00": {"geometry": {"location": {"lat": 42.3642088, "lng": -71.0550226}, "viewport": {"northeast": {"lat": 42.3655577802915, "lng": -71.05367361970849}, "southwest": {"lat": 42.3628598197085, "lng": -71.0563715802915}}}, "icon": "https://maps.gstatic.com/mapfiles/place_api/icons/geocode-71.png", "id": "362dcc7cb908652a41d956689b83ff4379919292", "name": "Richmond Place", "place_id": "ChIJz3P_L4lw44kRMWTLMuX5D00", "reference": "ChIJz3P_L4lw44kRMWTLMuX5D00", "scope": "GOOGLE", "types": ["route"], "vicinity": "Boston"}, "ChIJe-mfMIlw44kRU6MvPQBH9yI": {"geometry": {"location": {"lat": 42.3644291, "lng": -71.0550232}, "viewport": {"northeast": {"lat": 42.3659391302915, "lng": -71.0535040197085}, "southwest": {"lat": 42.3632411697085, "lng": -71.0562019802915}}}, "icon": "https://maps.gstatic.com/mapfiles/place_api/icons/shopping-71.png", "id": "093a9a0c87ccdcc7933200c1ee3714d72d0d3cd2", "name": "bGreen lifestyle + building", "place_id": "ChIJe-mfMIlw44kRU6MvPQBH9yI", "plus_code": {"compound_code": "9W7V+QX Boston, Massachusetts, United States", "global_code": "87JC9W7V+QX"}, "reference": "ChIJe-mfMIlw44kRU6MvPQBH9yI", "scope": "GOOGLE", "types": ["hardware_store", "home_goods_store", "store", "point_of_interest", "establishment"], "vicinity": "44 Prince Street, Boston"}, "ChIJe-mfMIlw44kReVlNn5iXsGc": {"geometry": {"location": {"lat": 42.3644291, "lng": -71.0550232}, "viewport": {"northeast": {"lat": 42.3659391302915, "lng": -71.0535040197085}, "southwest": {"lat": 42.3632411697085, "lng": -71.0562019802915}}}, "icon": "https://maps.gstatic.com/mapfiles/place_api/icons/generic_business-71.png", "id": "bb89eb1b13eae4dd6bc3106de816caac6bcee4d2", "name": "Dr. Adela Agolli, DMD", "place_id": "ChIJe-mfMIlw44kReVlNn5iXsGc", "plus_code": {"compound_code": "9W7V+QX Boston, Massachusetts, United States", "global_code": "87JC9W7V+QX"}, "reference": "ChIJe-mfMIlw44kReVlNn5iXsGc", "scope": "GOOGLE", "types": ["dentist", "health", "point_of_interest", "establishment"], "vicinity": "44 Prince Street, Boston"}, "ChIJe-mfMIlw44kRTaZ0lpf4Y4Q": {"geometry": {"location": {"lat": 42.364455, "lng": -71.054981}, "viewport": {"northeast": {"lat": 42.3659493802915, "lng": -71.05347831970849}, "southwest": {"lat": 42.3632514197085, "lng": -71.0561762802915}}}, "icon": "https://maps.gstatic.com/mapfiles/place_api/icons/generic_business-71.png", "id": "ae90387faab24bb49cb59580c1419fec6c3f8dfd", "name": "44 Prince St Condo Trust", "place_id": "ChIJe-mfMIlw44kRTaZ0lpf4Y4Q", "plus_code": {"compound_code": "9W7W+Q2 Boston, Massachusetts, United States", "global_code": "87JC9W7W+Q2"}, "reference": "ChIJe-mfMIlw44kRTaZ0lpf4Y4Q", "scope": "GOOGLE", "types": ["point_of_interest", "establishment"], "vicinity": "44 Prince Street, Boston"}, "ChIJGzE9DS1l44kRoOhiASS_fHg": {"geometry": {"location": {"lat": 42.3600825, "lng": -71.0588801}, "viewport": {"northeast": {"lat": 42.40081989999999, "lng": -70.749455}, "southwest": {"lat": 42.22788, "lng": -71.191113}}}, "icon": "https://maps.gstatic.com/mapfiles/place_api/icons/geocode-71.png", "id": "06755c25d2b34d13942a4713971756a55b870ced", "name": "Boston", "photos": [{"height": 3024, "html_attributions": ["<a href=\"https://maps.google.com/maps/contrib/104670289779338733432/photos\">Natalia Zalucean</a>"], "photo_reference": "CmRaAAAAOk_ltuDRpAC-BVU5xr7Lr6rBmOeF6FAPCMbakAyQbW3rdZ0SU43gm6mXcQjtwJTheJeL8RbAN2Ebkb0XKjeiha-5ePoNwH1zRPTqfL16e6bsCLppA55YJIqeT2Pc7JmXEhBe5XPI5pLctvf00MSVqd6tGhT1eU1SXImXgJEi-HdVpDTsR61-Hw", "width": 4032}], "place_id": "ChIJGzE9DS1l44kRoOhiASS_fHg", "reference": "ChIJGzE9DS1l44kRoOhiASS_fHg", "scope": "GOOGLE", "types": ["locality", "political"], "vicinity": "Boston"}}