{"ChIJn57DZ39w44kRGU9_s2FbQ0I": {"geometry": {"location": {"lat": 42.3510027, "lng": -71.0448906}, "viewport": {"northeast": {"lat": 42.35545245000004, "lng": -71.03969224999999}, "southwest": {"lat": 42.34591064999996, "lng": -71.05118365}}}, "icon": "https://maps.gstatic.com/mapfiles/place_api/icons/geocode-71.png", "id": "c4f80bfe3f84501638bb4816e4c80e94e6485beb", "name": "Silver Line Way", "place_id": "ChIJn57DZ39w44kRGU9_s2FbQ0I", "reference": "ChIJn57DZ39w44kRGU9_s2FbQ0I", "scope": "GOOGLE", "types": ["route"], "vicinity": "Boston"}, "ChIJ0Z9B1N9744kRkCWIefwPI0M": {"geometry": {"location": {"lat": 42.3496856, "lng": -71.0438825}, "viewport": {"northeast": {"lat": 42.35146673029151, "lng": -71.04213656970849}, "southwest": {"lat": 42.34876876970851, "lng": -71.04483453029151}}}, "icon": "https://maps.gstatic.com/mapfiles/place_api/icons/generic_business-71.png", "id": "794f4a45f5161964fb9f63f4eb45e5212db794bb", "name": "Echelon Seaport Sales Center", "opening_hours": {"open_now": true}, "photos": [{"height": 3024, "html_attributions": ["<a href=\"https://maps.google.com/maps/contrib/102534160449952968926/photos\">Echelon Seaport Sales Center</a>"], "photo_reference": "CmRaAAAAt4XP0X-ognQ3gfUDovE9ddjA2BP5qJ9z7gJfZ2iAPhkSLn_UoobM26wVKQqJP4ZaU4HUkRKQTWa1law1bqWNvlpfEQmzJhy6zfw4JzlJtOey5bUq5wV4uvSuEx8gfbvLEhDovBd5N9JY9KcssPJ8jD5HGhQYkrJKaWjhlKRDAUpJRbxphpPJZQ", "width": 4032}], "place_id": "ChIJ0Z9B1N9744kRkCWIefwPI0M", "plus_code": {"compound_code": "8XX4+VC Boston, Massachusetts, United States", "global_code": "87JC8XX4+VC"}, "reference": "ChIJ0Z9B1N9744kRkCWIefwPI0M", "scope": "GOOGLE", "types": ["point_of_interest", "establishment"], "vicinity": "6th Floor, 101 Seaport Boulevard Suite #608, Boston"}, "ChIJGzE9DS1l44kRoOhiASS_fHg": {"geometry": {"location": {"lat": 42.3600825, "lng": -71.0588801}, "viewport": {"northeast": {"lat": 42.40081989999999, "lng": -70.749455}, "southwest": {"lat": 42.22788, "lng": -71.191113}}}, "icon": "https://maps.gstatic.com/mapfiles/place_api/icons/geocode-71.png", "id": "06755c25d2b34d13942a4713971756a55b870ced", "name": "Boston", "photos": [{"height": 3024, "html_attributions": ["<a href=\"https://maps.google.com/maps/contrib/104670289779338733432/photos\">Natalia Zalucean</a>"], "photo_reference": "CmRaAAAAMZkpHMIFlWYB-t-_uP_ff_z1GyZCECWMkw4WOcRgIM_Y4sqg02kvfBdEl9slJWLWBQXYw6HZBe6PPPAbWMFTPmaJnXBSMptG4Mwo9f0uCdcKw7JcOCprnulZCkpe8-anEhCHxd8QZ8YA54cWllIxXBpsGhSeSZT9dqJKiSVDrD7oLmKTsdFw3w", "width": 4032}], "place_id": "ChIJGzE9DS1l44kRoOhiASS_fHg", "reference": "ChIJGzE9DS1l44kRoOhiASS_fHg", "scope": "GOOGLE", "types": ["locality", "political"], "vicinity": "Boston"}}