{"ChIJs8i4Qu1444kRQO3EiQiUKEw": {"geometry": {"location": {"lat": 42.3227044, "lng": -71.1672189}, "viewport": {"northeast": {"lat": 42.3240535302915, "lng": -71.1658699697085}, "southwest": {"lat": 42.3213555697085, "lng": -71.1685679302915}}}, "icon": "https://maps.gstatic.com/mapfiles/place_api/icons/geocode-71.png", "id": "8850f2c17d9d37dfe6e82a02361373ee002f17fd", "name": "25-27 Boylston St", "place_id": "ChIJs8i4Qu1444kRQO3EiQiUKEw", "reference": "ChIJs8i4Qu1444kRQO3EiQiUKEw", "scope": "GOOGLE", "types": ["route"], "vicinity": "Brookline"}, "ChIJC_Vd3ZJ444kRC1uAjJHWHy8": {"geometry": {"location": {"lat": 42.3230601, "lng": -71.1669552}, "viewport": {"northeast": {"lat": 42.3243442302915, "lng": -71.1655755697085}, "southwest": {"lat": 42.3216462697085, "lng": -71.1682735302915}}}, "icon": "https://maps.gstatic.com/mapfiles/place_api/icons/generic_business-71.png", "id": "515c622eb5814ac5f185fc8fb041d2515cfd91b7", "name": "Chestnut Hill Pediatrics: Vives Patricio MD", "place_id": "ChIJC_Vd3ZJ444kRC1uAjJHWHy8", "plus_code": {"compound_code": "8RFM+66 Newton, Massachusetts, United States", "global_code": "87JC8RFM+66"}, "reference": "ChIJC_Vd3ZJ444kRC1uAjJHWHy8", "scope": "GOOGLE", "types": ["doctor", "health", "point_of_interest", "establishment"], "vicinity": "25 Boylston Street # 112, Chestnut Hill"}, "ChIJP1QEjJl544kRRJlhuCYdVIY": {"geometry": {"location": {"lat": 42.32307790000001, "lng": -71.1669472}, "viewport": {"northeast": {"lat": 42.32435503029151, "lng": -71.16556426970848}, "southwest": {"lat": 42.32165706970851, "lng": -71.16826223029149}}}, "icon": "https://maps.gstatic.com/mapfiles/place_api/icons/generic_business-71.png", "id": "ddf0792a572efcd60cbf75f27bb1013261c3d4a4", "name": "Dr. Susan Freedman, MD", "place_id": "ChIJP1QEjJl544kRRJlhuCYdVIY", "plus_code": {"compound_code": "8RFM+66 Newton, Massachusetts, United States", "global_code": "87JC8RFM+66"}, "reference": "ChIJP1QEjJl544kRRJlhuCYdVIY", "scope": "GOOGLE", "types": ["doctor", "health", "point_of_interest", "establishment"], "vicinity": "25 Boylston Street Suite 211, Chestnut Hill"}, "ChIJpSUHhAmC44kRfq9wm3sIklU": {"geometry": {"location": {"lat": 42.3370413, "lng": -71.20922139999999}, "viewport": {"northeast": {"lat": 42.3679719, "lng": -71.1569968}, "southwest": {"lat": 42.2827739, "lng": -71.270359}}}, "icon": "https://maps.gstatic.com/mapfiles/place_api/icons/geocode-71.png", "id": "d74f935d4736f725e4eba20abe314f6094a27c4a", "name": "Newton", "photos": [{"height": 1536, "html_attributions": ["<a href=\"https://maps.google.com/maps/contrib/103956073675495355808/photos\">Fumiaki Imamura</a>"], "photo_reference": "CmRZAAAAYi0wKpo3JMlvTNZcao_O9t3rpt1L2KRG8mY5KBx_tNKI_9JxatGfMrreerWkBtUPmTYt-oSagwTP9NToM7PAxbuRe7zEYaLNTk38wHwv-qPp5a7Uyg0n1JT1kLEatMmFEhCv0bwizUscRfwylP2JpQBcGhSzLke8pFK6ruDr-8dxy1_yTN75ug", "width": 2048}], "place_id": "ChIJpSUHhAmC44kRfq9wm3sIklU", "reference": "ChIJpSUHhAmC44kRfq9wm3sIklU", "scope": "GOOGLE", "types": ["locality", "political"], "vicinity": "Newton"}}