{"ChIJNRYrSb5544kRx8m2FDBD-88": {"geometry": {"location": {"lat": 42.34152789999999, "lng": -71.12295430000002}, "viewport": {"northeast": {"lat": 42.34287688029149, "lng": -71.1216053197085}, "southwest": {"lat": 42.34017891970849, "lng": -71.1243032802915}}}, "icon": "https://maps.gstatic.com/mapfiles/place_api/icons/geocode-71.png", "id": "faf804c77e401aae9e6ff21c4e241bf83eeda259", "name": "1363-1361 Beacon St", "place_id": "ChIJNRYrSb5544kRx8m2FDBD-88", "reference": "ChIJNRYrSb5544kRx8m2FDBD-88", "scope": "GOOGLE", "types": ["route"], "vicinity": "Brookline"}, "ChIJ_WjSTr5544kREK2iRzMJOrg": {"geometry": {"location": {"lat": 42.3414525, "lng": -71.1227892}, "viewport": {"northeast": {"lat": 42.3428528302915, "lng": -71.1214618697085}, "southwest": {"lat": 42.34015486970851, "lng": -71.1241598302915}}}, "icon": "https://maps.gstatic.com/mapfiles/place_api/icons/shopping-71.png", "id": "9085ade5cdb26a0057d3a76ed0ade6740b5c7d1d", "name": "Paper Source", "opening_hours": {"open_now": true}, "photos": [{"height": 2448, "html_attributions": ["<a href=\"https://maps.google.com/maps/contrib/117074177874390413912/photos\">Nathan Miller</a>"], "photo_reference": "CmRaAAAANYHq-rAT-VrT6OVaSJhV2LJKQsMOw3FpPqezzT6tVOZ-MA4adOhbuWmammgVJORgqTwA9sNjEcaJtWPSgpeCuTDSpLoP8gMVuZL30SwBdecGA0sLOjMeBShtUXTuGJf3EhBcqTXJ9LYMtFOzosT8kgWXGhRHCOGX7Gr8iXUHNVYsnw6l9OH3RA", "width": 3264}], "place_id": "ChIJ_WjSTr5544kREK2iRzMJOrg", "plus_code": {"compound_code": "8VRG+HV Brookline, Massachusetts, United States", "global_code": "87JC8VRG+HV"}, "rating": 4.5, "reference": "ChIJ_WjSTr5544kREK2iRzMJOrg", "scope": "GOOGLE", "types": ["store", "point_of_interest", "establishment"], "user_ratings_total": 69, "vicinity": "1361 Beacon Street, Brookline"}, "ChIJhZirQQB544kRB9LbXEfedZQ": {"geometry": {"location": {"lat": 42.33176419999999, "lng": -71.1211635}, "viewport": {"northeast": {"lat": 42.3518109, "lng": -71.1056969}, "southwest": {"lat": 42.29459689999999, "lng": -71.1789959}}}, "icon": "https://maps.gstatic.com/mapfiles/place_api/icons/geocode-71.png", "id": "92986b2d1f69af2f2a7e29d34ced8adfa8573beb", "name": "Brookline", "photos": [{"height": 651, "html_attributions": ["<a href=\"https://maps.google.com/maps/contrib/114772942214832951419/photos\">Michael Ahn</a>"], "photo_reference": "CmRaAAAAD2wK968Ctxfuj3tIzYcQDIjGl-yqZbBx4_-aCjtzhZFHL6jiy4Hhk50s0Xjv470boWDBJptDJ6tNS9HpotkHpLhKgiy3oNDk8QI1sZArT2y6eAc3kTvB9srb8h1oNCwGEhCWMNn2y9iKwux7R-mgehqyGhQT1e6hP5MHJg_4tCWHs1a5VsIJtg", "width": 1608}], "place_id": "ChIJhZirQQB544kRB9LbXEfedZQ", "reference": "ChIJhZirQQB544kRB9LbXEfedZQ", "scope": "GOOGLE", "types": ["locality", "political"], "vicinity": "Brookline"}}