{"ChIJ8aTsO4Fw44kR1wGg_YNgYJI": {"geometry": {"location": {"lat": 42.355519, "lng": -71.05372350000002}, "viewport": {"northeast": {"lat": 42.3568679802915, "lng": -71.0523744697085}, "southwest": {"lat": 42.3541700197085, "lng": -71.0550724302915}}}, "icon": "https://maps.gstatic.com/mapfiles/place_api/icons/geocode-71.png", "id": "f3352c5fc52285eff8edf4536795b9c7b02b1d3b", "name": "146-126 High St", "place_id": "ChIJ8aTsO4Fw44kR1wGg_YNgYJI", "reference": "ChIJ8aTsO4Fw44kR1wGg_YNgYJI", "scope": "GOOGLE", "types": ["route"], "vicinity": "Boston"}, "ChIJM6lzKYFw44kRhgqbP3WQnTw": {"geometry": {"location": {"lat": 42.3555854, "lng": -71.05335660000001}, "viewport": {"northeast": {"lat": 42.3569875302915, "lng": -71.05210261970849}, "southwest": {"lat": 42.3542895697085, "lng": -71.05480058029151}}}, "icon": "https://maps.gstatic.com/mapfiles/place_api/icons/generic_business-71.png", "id": "7f63700b1cf59ed5f1462ba53f70cd81762bdf28", "name": "Andersen Tax LLC", "place_id": "ChIJM6lzKYFw44kRhgqbP3WQnTw", "plus_code": {"compound_code": "9W4W+6M Boston, Massachusetts, United States", "global_code": "87JC9W4W+6M"}, "reference": "ChIJM6lzKYFw44kRhgqbP3WQnTw", "scope": "GOOGLE", "types": ["finance", "point_of_interest", "establishment"], "vicinity": "125 High St Oliver Street Tower, 16th Floor, Boston"}, "ChIJdRXRL4Fw44kRV7y3BFXkoFk": {"geometry": {"location": {"lat": 42.3555007, "lng": -71.0533825}, "viewport": {"northeast": {"lat": 42.3569136302915, "lng": -71.05214786970849}, "southwest": {"lat": 42.3542156697085, "lng": -71.0548458302915}}}, "icon": "https://maps.gstatic.com/mapfiles/place_api/icons/generic_business-71.png", "id": "37233fd0207ae241cc2f6db521471f705cbf5a2f", "name": "AAA Boston", "opening_hours": {"open_now": true}, "photos": [{"height": 3024, "html_attributions": ["<a href=\"https://maps.google.com/maps/contrib/109888114070781798651/photos\">Sagar Dwarampudi</a>"], "photo_reference": "CmRaAAAAwGCNItIgKGaRFbSaFnrtyAxwBa4KOVqoKq4BihwB5aVJIWl_w2g8NtuT28kLh4acaLoxDdkt2zlmAjy5ZjucVXH2Drxo6FlrjPDlBmoHeW9ubLRJhyL1ePx7qRYwzWC1EhBfBZAQSgul8dYfctVpo17xGhRSbfv_WQxqXU0wZlqDlBX-2uWrJQ", "width": 4032}], "place_id": "ChIJdRXRL4Fw44kRV7y3BFXkoFk", "plus_code": {"compound_code": "9W4W+6J Boston, Massachusetts, United States", "global_code": "87JC9W4W+6J"}, "rating": 4.2, "reference": "ChIJdRXRL4Fw44kRV7y3BFXkoFk", "scope": "GOOGLE", "types": ["insurance_agency", "travel_agency", "finance", "point_of_interest", "establishment"], "user_ratings_total": 48, "vicinity": "125 High Street, Boston"}, "ChIJof-xO4dw44kRKVG-c5nWYlo": {"geometry": {"location": {"lat": 42.3554749, "lng": -71.0533775}, "viewport": {"northeast": {"lat": 42.35689343029149, "lng": -71.0521528197085}, "southwest": {"lat": 42.3541954697085, "lng": -71.05485078029152}}}, "icon": "https://maps.gstatic.com/mapfiles/place_api/icons/generic_business-71.png", "id": "18c2c919c45fb4fe7d2e46b58d05ae37a1a69e81", "name": "Breckinridge Capital Advisors", "place_id": "ChIJof-xO4dw44kRKVG-c5nWYlo", "plus_code": {"compound_code": "9W4W+5J Boston, Massachusetts, United States", "global_code": "87JC9W4W+5J"}, "reference": "ChIJof-xO4dw44kRKVG-c5nWYlo", "scope": "GOOGLE", "types": ["finance", "point_of_interest", "establishment"], "vicinity": "125 High Street, Boston"}, "ChIJGzE9DS1l44kRoOhiASS_fHg": {"geometry": {"location": {"lat": 42.3600825, "lng": -71.0588801}, "viewport": {"northeast": {"lat": 42.40081989999999, "lng": -70.749455}, "southwest": {"lat": 42.22788, "lng": -71.191113}}}, "icon": "https://maps.gstatic.com/mapfiles/place_api/icons/geocode-71.png", "id": "06755c25d2b34d13942a4713971756a55b870ced", "name": "Boston", "photos": [{"height": 3024, "html_attributions": ["<a href=\"https://maps.google.com/maps/contrib/104670289779338733432/photos\">Natalia Zalucean</a>"], "photo_reference": "CmRaAAAAJI-v9SZ-C_E8l6o4bpuDwvGe9UrK1dJjcti8xVSkS6kJ-L6lru5yTRwaPnL-LLHBi4L9CIQL5cB21VpPXSdUKVOS4qcpnyl2jIkPSZPKQVy5LBEvv8GHktzss1EY8b8AEhDbNjHAevVKsYLItmyCH66kGhSE27QtCSILK3Rx8aMbKtLAhv7J-w", "width": 4032}], "place_id": "ChIJGzE9DS1l44kRoOhiASS_fHg", "reference": "ChIJGzE9DS1l44kRoOhiASS_fHg", "scope": "GOOGLE", "types": ["locality", "political"], "vicinity": "Boston"}}