{"ChIJf_f1wwx644kRB4hjY6Yvk_A": {"geometry": {"location": {"lat": 42.34883229999999, "lng": -71.0746626}, "viewport": {"northeast": {"lat": 42.3501812302915, "lng": -71.07331361970849}, "southwest": {"lat": 42.3474832697085, "lng": -71.07601158029149}}}, "icon": "https://maps.gstatic.com/mapfiles/place_api/icons/geocode-71.png", "id": "b753ee56a0d9e8b91ec028e69d53b1b6da07c563", "name": "401-415 Stuart St", "place_id": "ChIJf_f1wwx644kRB4hjY6Yvk_A", "reference": "ChIJf_f1wwx644kRB4hjY6Yvk_A", "scope": "GOOGLE", "types": ["route"], "vicinity": "Boston"}, "ChIJXY3rzwx644kRXmLjatcCSyk": {"geometry": {"location": {"lat": 42.3486204, "lng": -71.0745635}, "viewport": {"northeast": {"lat": 42.3499947802915, "lng": -71.07304626970848}, "southwest": {"lat": 42.3472968197085, "lng": -71.07574423029149}}}, "icon": "https://maps.gstatic.com/mapfiles/place_api/icons/lodging-71.png", "id": "4c210ad1d186a95bfbb108883a76c250b997fae9", "name": "Hotel 140", "opening_hours": {"open_now": true}, "photos": [{"height": 4032, "html_attributions": ["<a href=\"https://maps.google.com/maps/contrib/109064339618987214868/photos\">Alex I</a>"], "photo_reference": "CmRaAAAAFJxbV6WRS-F-yTeMDJokO-NrOGr67iAf8uf9MlwRMMCj0KZ2wLAvycx7WM0EvDsLlbtc4GldLtmxTUYpjJq4leOSwV9UivMA7XeORWrh-2toLXWA-9jsuZa8FPZ7eVr7EhAaJ-v4yKfIPYoS6W5Owc-VGhSy6GjYXpIFR5VuwR14PddyKKCgMw", "width": 2268}], "place_id": "ChIJXY3rzwx644kRXmLjatcCSyk", "plus_code": {"compound_code": "8WXG+C5 Boston, Massachusetts, United States", "global_code": "87JC8WXG+C5"}, "rating": 3.9, "reference": "ChIJXY3rzwx644kRXmLjatcCSyk", "scope": "GOOGLE", "types": ["lodging", "point_of_interest", "establishment"], "user_ratings_total": 267, "vicinity": "140 Clarendon Street, Boston"}, "ChIJXY3rzwx644kRyZ0uC8s2emw": {"geometry": {"location": {"lat": 42.3486305, "lng": -71.07446}, "viewport": {"northeast": {"lat": 42.35000978029149, "lng": -71.0729994197085}, "southwest": {"lat": 42.34731181970849, "lng": -71.0756973802915}}}, "icon": "https://maps.gstatic.com/mapfiles/place_api/icons/generic_business-71.png", "id": "a53e26d0421b3abf35420a7479212740e7b87861", "name": "Women's Theological Center", "place_id": "ChIJXY3rzwx644kRyZ0uC8s2emw", "plus_code": {"compound_code": "8WXG+F6 Boston, Massachusetts, United States", "global_code": "87JC8WXG+F6"}, "reference": "ChIJXY3rzwx644kRyZ0uC8s2emw", "scope": "GOOGLE", "types": ["health", "point_of_interest", "establishment"], "vicinity": "140 Clarendon Street, Boston"}, "ChIJXY3rzwx644kRqv601KUMTic": {"geometry": {"location": {"lat": 42.3486768, "lng": -71.0745322}, "viewport": {"northeast": {"lat": 42.3500619302915, "lng": -71.07304996970849}, "southwest": {"lat": 42.3473639697085, "lng": -71.0757479302915}}}, "icon": "https://maps.gstatic.com/mapfiles/place_api/icons/generic_business-71.png", "id": "e8224f30dae6107f692eafb6cb61c72c0013d730", "name": "Boylston Chess Club", "place_id": "ChIJXY3rzwx644kRqv601KUMTic", "plus_code": {"compound_code": "8WXG+F5 Boston, Massachusetts, United States", "global_code": "87JC8WXG+F5"}, "rating": 4, "reference": "ChIJXY3rzwx644kRqv601KUMTic", "scope": "GOOGLE", "types": ["point_of_interest", "establishment"], "user_ratings_total": 4, "vicinity": "140 Clarendon Street, Boston"}, "ChIJXY3rzwx644kRReUfcgMctg0": {"geometry": {"location": {"lat": 42.3486305, "lng": -71.07446}, "viewport": {"northeast": {"lat": 42.35000978029149, "lng": -71.0729994197085}, "southwest": {"lat": 42.34731181970849, "lng": -71.0756973802915}}}, "icon": "https://maps.gstatic.com/mapfiles/place_api/icons/generic_business-71.png", "id": "a60e9a13d382f747ca238b816d7d38d0ca31e7d6", "name": "Edvestors", "photos": [{"height": 349, "html_attributions": ["<a href=\"https://maps.google.com/maps/contrib/103329898160907644020/photos\">Edvestors</a>"], "photo_reference": "CmRaAAAAOWY8wjf9Z6vyWulZ2iN3SBmb0qtgS21D_ePYSwc-DzLFA8-YGHs0VAmkn3fQptywqwFTH1nOu7jOSoWPLM9-u1YlWvmLcoh1RFzuVNL85cffD9a4jQQreHx85WqnapbTEhCHwqN-_sXSw_Lyi15KBVNzGhQcLKVpFN98MZv7h1MoIzg_f2lQHA", "width": 606}], "place_id": "ChIJXY3rzwx644kRReUfcgMctg0", "plus_code": {"compound_code": "8WXG+F6 Boston, Massachusetts, United States", "global_code": "87JC8WXG+F6"}, "reference": "ChIJXY3rzwx644kRReUfcgMctg0", "scope": "GOOGLE", "types": ["point_of_interest", "establishment"], "vicinity": "140 Clarendon Street, Boston"}, "ChIJXY3rzwx644kRmaq6X65Zlc4": {"geometry": {"location": {"lat": 42.3485563, "lng": -71.0744687}, "viewport": {"northeast": {"lat": 42.3498181802915, "lng": -71.0730664697085}, "southwest": {"lat": 42.34712021970851, "lng": -71.0757644302915}}}, "icon": "https://maps.gstatic.com/mapfiles/place_api/icons/generic_business-71.png", "id": "77bc96f9f841cde62eec85b086dd45dfc17c0714", "name": "Clarendon Residences LLC", "opening_hours": {"open_now": true}, "photos": [{"height": 540, "html_attributions": ["<a href=\"https://maps.google.com/maps/contrib/104293657562467574923/photos\">Zoe S</a>"], "photo_reference": "CmRaAAAA5JXsC2Fv7n_BO_c2-OTEHuC3uTw3JcDCWEmX6mO1ceiu5eiQl9m8_ixjnX5wiOhRI5pNmWYdcDbPLiuARr-SIQ0djcv79-rSad6jngmRseeohVyNFm97nH4F3vfnRnvmEhCJrK76mrrtzHXJj0UsWhNzGhQyfzdeO6VFNSjo0b0nV5WD7tzZnQ", "width": 800}], "place_id": "ChIJXY3rzwx644kRmaq6X65Zlc4", "plus_code": {"compound_code": "8WXG+C6 Boston, Massachusetts, United States", "global_code": "87JC8WXG+C6"}, "rating": 5, "reference": "ChIJXY3rzwx644kRmaq6X65Zlc4", "scope": "GOOGLE", "types": ["point_of_interest", "establishment"], "user_ratings_total": 1, "vicinity": "140 Clarendon Street, Boston"}, "ChIJXY3rzwx644kRz6fyvOFm-ws": {"geometry": {"location": {"lat": 42.3486305, "lng": -71.07446}, "viewport": {"northeast": {"lat": 42.35000978029149, "lng": -71.0729994197085}, "southwest": {"lat": 42.34731181970849, "lng": -71.0756973802915}}}, "icon": "https://maps.gstatic.com/mapfiles/place_api/icons/generic_business-71.png", "id": "c1eefda2627d7561435175bb5d3eb30fe3abbe7b", "name": "Parlin Apartments Boston", "place_id": "ChIJXY3rzwx644kRz6fyvOFm-ws", "plus_code": {"compound_code": "8WXG+F6 Boston, Massachusetts, United States", "global_code": "87JC8WXG+F6"}, "reference": "ChIJXY3rzwx644kRz6fyvOFm-ws", "scope": "GOOGLE", "types": ["point_of_interest", "establishment"], "vicinity": "140 Clarendon Street, Boston"}, "ChIJXY3rzwx644kRcw-pgY6QFBM": {"geometry": {"location": {"lat": 42.3486204, "lng": -71.0745635}, "viewport": {"northeast": {"lat": 42.35001263029149, "lng": -71.0730551197085}, "southwest": {"lat": 42.3473146697085, "lng": -71.0757530802915}}}, "icon": "https://maps.gstatic.com/mapfiles/place_api/icons/generic_business-71.png", "id": "8ea0f5bb81af2099836ba0ab6d626f89fff3368e", "name": "YWCA Boston", "photos": [{"height": 3840, "html_attributions": ["<a href=\"https://maps.google.com/maps/contrib/107083124356022633431/photos\">Pisang Rebus</a>"], "photo_reference": "CmRaAAAAzS3MdACXihWQq5d8eMiIa49JkzoCa_BN0gRhbkdtPUPk0l1qAlja0S36fY1EyCnvTAsNGAwknX3rWjxxXBrT5BA4Sx-2BZmSRJOXVDdmVtzZHIgHTd_kIPJXiUpB6db0EhAqv8N-yBbis-nXQfxLrdtxGhQy1yWLEBtihHQxj4QqoB9lUNRflQ", "width": 2160}], "place_id": "ChIJXY3rzwx644kRcw-pgY6QFBM", "plus_code": {"compound_code": "8WXG+C5 Boston, Massachusetts, United States", "global_code": "87JC8WXG+C5"}, "rating": 3.8, "reference": "ChIJXY3rzwx644kRcw-pgY6QFBM", "scope": "GOOGLE", "types": ["point_of_interest", "establishment"], "user_ratings_total": 5, "vicinity": "140 Clarendon Street, Boston"}, "ChIJq3iD4wx644kRv1-X_u114SE": {"geometry": {"location": {"lat": 42.3486204, "lng": -71.0745635}, "viewport": {"northeast": {"lat": 42.35001263029149, "lng": -71.0730551197085}, "southwest": {"lat": 42.3473146697085, "lng": -71.0757530802915}}}, "icon": "https://maps.gstatic.com/mapfiles/place_api/icons/generic_business-71.png", "id": "b307377a95b042abbdfcf8d6bde6deb757d4deb8", "name": "Honovan", "opening_hours": {"open_now": true}, "place_id": "ChIJq3iD4wx644kRv1-X_u114SE", "plus_code": {"compound_code": "8WXG+C5 Boston, Massachusetts, United States", "global_code": "87JC8WXG+C5"}, "rating": 4, "reference": "ChIJq3iD4wx644kRv1-X_u114SE", "scope": "GOOGLE", "types": ["laundry", "point_of_interest", "establishment"], "user_ratings_total": 16, "vicinity": "140 Clarendon Street, Boston"}, "ChIJXY3rzwx644kRYgz0ZUpCnAQ": {"geometry": {"location": {"lat": 42.3486305, "lng": -71.07446}, "viewport": {"northeast": {"lat": 42.35000978029149, "lng": -71.0729994197085}, "southwest": {"lat": 42.34731181970849, "lng": -71.0756973802915}}}, "icon": "https://maps.gstatic.com/mapfiles/place_api/icons/generic_business-71.png", "id": "c5e6a83dab4e6d9f6b3418a561add12cd2f1ab95", "name": "Foster Production", "place_id": "ChIJXY3rzwx644kRYgz0ZUpCnAQ", "plus_code": {"compound_code": "8WXG+F6 Boston, Massachusetts, United States", "global_code": "87JC8WXG+F6"}, "reference": "ChIJXY3rzwx644kRYgz0ZUpCnAQ", "scope": "GOOGLE", "types": ["point_of_interest", "establishment"], "vicinity": "140 Clarendon Street, Boston"}, "ChIJp94Nxxl644kRYXekBCOCpeU": {"geometry": {"location": {"lat": 42.34862, "lng": -71.074564}, "viewport": {"northeast": {"lat": 42.3500123302915, "lng": -71.07305531970849}, "southwest": {"lat": 42.3473143697085, "lng": -71.07575328029151}}}, "icon": "https://maps.gstatic.com/mapfiles/place_api/icons/generic_business-71.png", "id": "b4d3aae4400909ad299bd90398c0de7389c344e1", "name": "From the Top", "opening_hours": {"open_now": true}, "photos": [{"height": 1367, "html_attributions": ["<a href=\"https://maps.google.com/maps/contrib/110205478186923363037/photos\">From the Top</a>"], "photo_reference": "CmRaAAAAm2hXs2XbywCh9UGc7V8Ji1NgOjQdNGMJBsI9jYAyj5JnVyRROg-B73t3HiZLqw6EESUPYl07RBCh6zQwlA1k_7TLe_IpwMiNIaX8dPlcaBmWU_6X--SsFSbGbyJ9icZBEhBHvE5fPhUpD2gWX1GFvu-8GhTptGlq65Ra2TSPAcoLTb1OvW55Yw", "width": 2048}], "place_id": "ChIJp94Nxxl644kRYXekBCOCpeU", "plus_code": {"compound_code": "8WXG+C5 Boston, Massachusetts, United States", "global_code": "87JC8WXG+C5"}, "reference": "ChIJp94Nxxl644kRYXekBCOCpeU", "scope": "GOOGLE", "types": ["point_of_interest", "establishment"], "vicinity": "140 Clarendon Street Suite 301, Boston"}, "ChIJC3tMz4Nw44kRcZMXK4B4nHs": {"geometry": {"location": {"lat": 42.34862469999999, "lng": -71.0745635}, "viewport": {"northeast": {"lat": 42.3500166802915, "lng": -71.0730560697085}, "southwest": {"lat": 42.3473187197085, "lng": -71.0757540302915}}}, "icon": "https://maps.gstatic.com/mapfiles/place_api/icons/shopping-71.png", "id": "eb3d75fcdac29216a0e9a7a14d768f61dd03502a", "name": "BookATailor Boston Showroom", "opening_hours": {"open_now": true}, "place_id": "ChIJC3tMz4Nw44kRcZMXK4B4nHs", "plus_code": {"compound_code": "8WXG+C5 Boston, Massachusetts, United States", "global_code": "87JC8WXG+C5"}, "rating": 4.7, "reference": "ChIJC3tMz4Nw44kRcZMXK4B4nHs", "scope": "GOOGLE", "types": ["clothing_store", "store", "point_of_interest", "establishment"], "user_ratings_total": 22, "vicinity": "140 Clarendon Street, Boston"}, "ChIJ9ZfHxAx644kR-A7qYnsu4UM": {"geometry": {"location": {"lat": 42.3486204, "lng": -71.0745635}, "viewport": {"northeast": {"lat": 42.35001263029149, "lng": -71.0730551197085}, "southwest": {"lat": 42.3473146697085, "lng": -71.0757530802915}}}, "icon": "https://maps.gstatic.com/mapfiles/place_api/icons/generic_business-71.png", "id": "64822fa6d4cdce4d5ee45b981836b8ad36ecc94b", "name": "360 Public Relations", "place_id": "ChIJ9ZfHxAx644kR-A7qYnsu4UM", "plus_code": {"compound_code": "8WXG+C5 Boston, Massachusetts, United States", "global_code": "87JC8WXG+C5"}, "reference": "ChIJ9ZfHxAx644kR-A7qYnsu4UM", "scope": "GOOGLE", "types": ["point_of_interest", "establishment"], "vicinity": "140 Clarendon Street, Boston"}, "ChIJN9pkxQx644kRmp3KJUl_qPY": {"geometry": {"location": {"lat": 42.3486203, "lng": -71.07451549999999}, "viewport": {"northeast": {"lat": 42.35000678029149, "lng": -71.07302821970849}, "southwest": {"lat": 42.34730881970849, "lng": -71.0757261802915}}}, "icon": "https://maps.gstatic.com/mapfiles/place_api/icons/generic_business-71.png", "id": "d299f54904801fc5c493c4849a48317e67c2bb1f", "name": "Lyric Stage Company of Boston", "opening_hours": {"open_now": false}, "photos": [{"height": 2048, "html_attributions": ["<a href=\"https://maps.google.com/maps/contrib/117513144121287871626/photos\">Lyric Stage Company of Boston</a>"], "photo_reference": "CmRaAAAArBXH3iLb4ouDFFcTahol-CO7LIrZgFO0RduHFAiy7PMt1qMvUuq2uJjKQJ7aF5iqzgXJR6vBN0n6-Jnp-7keGHS-5-ofKYxpacUE8e-9AgNDKPpGS-4-m3VX1vRdUTMxEhCqb4zx89FzBySmpIu1PVWFGhTUukCzf1WHYt3f4zBaGXz9Ay-ymQ", "width": 3072}], "place_id": "ChIJN9pkxQx644kRmp3KJUl_qPY", "plus_code": {"compound_code": "8WXG+C5 Boston, Massachusetts, United States", "global_code": "87JC8WXG+C5"}, "rating": 4.7, "reference": "ChIJN9pkxQx644kRmp3KJUl_qPY", "scope": "GOOGLE", "types": ["point_of_interest", "establishment"], "user_ratings_total": 128, "vicinity": "140 Clarendon Street, Boston"}, "ChIJTYwNxAx644kRYcUGHobiunw": {"geometry": {"location": {"lat": 42.3486032, "lng": -71.0745584}, "viewport": {"northeast": {"lat": 42.3498340802915, "lng": -71.0731339697085}, "southwest": {"lat": 42.3471361197085, "lng": -71.0758319302915}}}, "icon": "https://maps.gstatic.com/mapfiles/place_api/icons/restaurant-71.png", "id": "274d4bd67c48c79f5d2a28288a7ea1e4066b9d26", "name": "Viga", "opening_hours": {"open_now": true}, "photos": [{"height": 1365, "html_attributions": ["<a href=\"https://maps.google.com/maps/contrib/107719937239665648469/photos\">Viga</a>"], "photo_reference": "CmRaAAAA3T_6Am4BdE14p0ib5yceQw3aGntFUL_KMYYDg39qEq5o9Q02WbpPFpC_4eSToabKG_eTc5vcEoapB0ZREZ5ybZFpYVmD85AZIv4wUHrlQkPeXSAnIG6bMxOnbsCk3mqTEhB_xdS8P895F3uHwsMd1uDZGhTitr85tiGa7uw-FdPMUaDXXXmQEw", "width": 2048}], "place_id": "ChIJTYwNxAx644kRYcUGHobiunw", "plus_code": {"compound_code": "8WXG+C5 Boston, Massachusetts, United States", "global_code": "87JC8WXG+C5"}, "price_level": 1, "rating": 4.2, "reference": "ChIJTYwNxAx644kRYcUGHobiunw", "scope": "GOOGLE", "types": ["restaurant", "point_of_interest", "food", "establishment"], "user_ratings_total": 80, "vicinity": "140 Clarendon Street, Boston"}, "ChIJqdIo2wx644kRkg0rRgByn8k": {"geometry": {"location": {"lat": 42.34853529999999, "lng": -71.07449919999999}, "viewport": {"northeast": {"lat": 42.34980168029149, "lng": -71.07309971970848}, "southwest": {"lat": 42.3471037197085, "lng": -71.07579768029149}}}, "icon": "https://maps.gstatic.com/mapfiles/place_api/icons/school-71.png", "id": "41dd551b926f18abac2fe6f88dd3fc96f67f23ec", "name": "Manhattan Prep", "photos": [{"height": 408, "html_attributions": ["<a href=\"https://maps.google.com/maps/contrib/109183857330371534226/photos\">Manhattan Prep</a>"], "photo_reference": "CmRaAAAABnUCYAJ5hROWF_Pk7tsSeCy7v5dVQNxWs0c-dTCHhAKY87qmwWmgCbA0nyPCJ8Fph-ssX-X-8U5K6MuYXNkWf98TYTMs6vGePXo5YjetxViv67j10Xg17-o8mYyp83-bEhBPQUiH_HJeHLx5O0j5CKyqGhTQPZeqlvtdYMrlseVGfyOGMarYwQ", "width": 408}], "place_id": "ChIJqdIo2wx644kRkg0rRgByn8k", "plus_code": {"compound_code": "8WXG+C6 Boston, Massachusetts, United States", "global_code": "87JC8WXG+C6"}, "rating": 5, "reference": "ChIJqdIo2wx644kRkg0rRgByn8k", "scope": "GOOGLE", "types": ["point_of_interest", "establishment"], "user_ratings_total": 26, "vicinity": "140 Clarendon Street, Boston"}, "ChIJ9ZfHxAx644kRtqNs4PoMJIQ": {"geometry": {"location": {"lat": 42.3486204, "lng": -71.0745635}, "viewport": {"northeast": {"lat": 42.35001263029149, "lng": -71.0730551197085}, "southwest": {"lat": 42.3473146697085, "lng": -71.0757530802915}}}, "icon": "https://maps.gstatic.com/mapfiles/place_api/icons/shopping-71.png", "id": "d12d9471b92b146dd4ac5d2bc32155edaace07c9", "name": "Fresh Pond Mall", "place_id": "ChIJ9ZfHxAx644kRtqNs4PoMJIQ", "plus_code": {"compound_code": "8WXG+C5 Boston, Massachusetts, United States", "global_code": "87JC8WXG+C5"}, "reference": "ChIJ9ZfHxAx644kRtqNs4PoMJIQ", "scope": "GOOGLE", "types": ["shopping_mall", "point_of_interest", "establishment"], "vicinity": "140 Clarendon Street, Boston"}, "ChIJ9ZfHxAx644kRX6f3v5fmFn4": {"geometry": {"location": {"lat": 42.3486204, "lng": -71.0745635}, "viewport": {"northeast": {"lat": 42.35001263029149, "lng": -71.0730551197085}, "southwest": {"lat": 42.3473146697085, "lng": -71.0757530802915}}}, "icon": "https://maps.gstatic.com/mapfiles/place_api/icons/worship_general-71.png", "id": "236b833506b3e83fe77fa967e1984cdf6f2af908", "name": "Christians in Boston", "place_id": "ChIJ9ZfHxAx644kRX6f3v5fmFn4", "plus_code": {"compound_code": "8WXG+C5 Boston, Massachusetts, United States", "global_code": "87JC8WXG+C5"}, "reference": "ChIJ9ZfHxAx644kRX6f3v5fmFn4", "scope": "GOOGLE", "types": ["church", "place_of_worship", "point_of_interest", "establishment"], "vicinity": "140 Clarendon Street, Boston"}, "ChIJnTYUdgt644kRs9A4fEQ70Iw": {"geometry": {"location": {"lat": 42.3487788, "lng": -71.0744558}, "viewport": {"northeast": {"lat": 42.3501487302915, "lng": -71.07302951970848}, "southwest": {"lat": 42.3474507697085, "lng": -71.07572748029149}}}, "icon": "https://maps.gstatic.com/mapfiles/place_api/icons/generic_business-71.png", "id": "82de0b16dccb937039296dc5ae52afb1e8f4ed29", "name": "Kokel Custom Tailor", "opening_hours": {"open_now": true}, "photos": [{"height": 3264, "html_attributions": ["<a href=\"https://maps.google.com/maps/contrib/102201837868509343695/photos\">Val C. V.</a>"], "photo_reference": "CmRaAAAAI6aI-AK1p4sCTA4EABBZ00gMcKmk1lTU6T2_RI-JV4dpEsKkHk59a-T5DQiAplR36HhVa7-vrODTqLnF6bXmST0LVuVhpWHh3X8AaP8jeDK7hiOrhUPNcZxCCbTRK6zZEhBQrHmObwr40FFDPFR3he_LGhQJWZ90K8PJT4gnqhYOVGmKqW8-yw", "width": 2448}], "place_id": "ChIJnTYUdgt644kRs9A4fEQ70Iw", "plus_code": {"compound_code": "8WXG+G6 Boston, Massachusetts, United States", "global_code": "87JC8WXG+G6"}, "rating": 5, "reference": "ChIJnTYUdgt644kRs9A4fEQ70Iw", "scope": "GOOGLE", "types": ["clothing_store", "store", "point_of_interest", "establishment"], "user_ratings_total": 13, "vicinity": "140 Clarendon Street, Boston"}, "ChIJGzE9DS1l44kRoOhiASS_fHg": {"geometry": {"location": {"lat": 42.3600825, "lng": -71.0588801}, "viewport": {"northeast": {"lat": 42.40081989999999, "lng": -70.749455}, "southwest": {"lat": 42.22788, "lng": -71.191113}}}, "icon": "https://maps.gstatic.com/mapfiles/place_api/icons/geocode-71.png", "id": "06755c25d2b34d13942a4713971756a55b870ced", "name": "Boston", "photos": [{"height": 3024, "html_attributions": ["<a href=\"https://maps.google.com/maps/contrib/104670289779338733432/photos\">Natalia Zalucean</a>"], "photo_reference": "CmRaAAAA-BMGZLV_q5db3XahRtiklH6OQU7lS8vVG8s7p3_rT3WFd3-sxvpN5L-R2zURdNK76CqEpghZZ-4idPxZNI-ha8a08OkFA3ESUxu1PPLFi9zaTL8Xt4a5bhy8I74TxJjJEhB-ZioQmkvMid9_bVOSidTXGhQvRtuOnYdJRh_-qDy7HSTZ8Ud9tA", "width": 4032}], "place_id": "ChIJGzE9DS1l44kRoOhiASS_fHg", "reference": "ChIJGzE9DS1l44kRoOhiASS_fHg", "scope": "GOOGLE", "types": ["locality", "political"], "vicinity": "Boston"}, "ChIJo0uixQx644kRF98faUzhzWs": {"geometry": {"location": {"lat": 42.34872, "lng": -71.074394}, "viewport": {"northeast": {"lat": 42.35003693029149, "lng": -71.0729608697085}, "southwest": {"lat": 42.3473389697085, "lng": -71.07565883029152}}}, "icon": "https://maps.gstatic.com/mapfiles/place_api/icons/lodging-71.png", "id": "51b2c39ad0ceba40e488907d4db01f8f43928afa", "name": "Hotel Donde Se Quedo Rommel", "place_id": "ChIJo0uixQx644kRF98faUzhzWs", "plus_code": {"compound_code": "8WXG+F6 Boston, Massachusetts, United States", "global_code": "87JC8WXG+F6"}, "reference": "ChIJo0uixQx644kRF98faUzhzWs", "scope": "GOOGLE", "types": ["lodging", "point_of_interest", "establishment"], "vicinity": "140 Massachusetts 28, Boston"}, "ChIJaS2Hxgx644kRNAG9Bp-QVfY": {"geometry": {"location": {"lat": 42.34887889999999, "lng": -71.074485}, "viewport": {"northeast": {"lat": 42.3502099802915, "lng": -71.0731249697085}, "southwest": {"lat": 42.3475120197085, "lng": -71.07582293029151}}}, "icon": "https://maps.gstatic.com/mapfiles/place_api/icons/generic_business-71.png", "id": "697c18aaf34ffb9928f95804a6bedaf68621142e", "name": "404 Stuart St Parking", "place_id": "ChIJaS2Hxgx644kRNAG9Bp-QVfY", "plus_code": {"compound_code": "8WXG+H6 Boston, Massachusetts, United States", "global_code": "87JC8WXG+H6"}, "reference": "ChIJaS2Hxgx644kRNAG9Bp-QVfY", "scope": "GOOGLE", "types": ["parking", "point_of_interest", "establishment"], "vicinity": "404 Stuart St, Boston"}, "ChIJkUB3f7d744kRNKRTHAEU4-c": {"geometry": {"location": {"lat": 42.3486305, "lng": -71.07446}, "viewport": {"northeast": {"lat": 42.35000978029149, "lng": -71.0729994197085}, "southwest": {"lat": 42.34731181970849, "lng": -71.0756973802915}}}, "icon": "https://maps.gstatic.com/mapfiles/place_api/icons/shopping-71.png", "id": "7eeb45afd8aaf09922bb6e8367e6ca9c38b1fde0", "name": "Bespoke Boston", "place_id": "ChIJkUB3f7d744kRNKRTHAEU4-c", "plus_code": {"compound_code": "8WXG+F6 Boston, Massachusetts, United States", "global_code": "87JC8WXG+F6"}, "reference": "ChIJkUB3f7d744kRNKRTHAEU4-c", "scope": "GOOGLE", "types": ["clothing_store", "store", "point_of_interest", "establishment"], "vicinity": "140 Clarendon Street, Boston"}}