{"ChIJq9Bu4Ap644kRBlr1Ku9ZaOI": {"geometry": {"location": {"lat": 42.3529191, "lng": -71.07508779999999}, "viewport": {"northeast": {"lat": 42.3542680802915, "lng": -71.07293379999999}, "southwest": {"lat": 42.35157011970851, "lng": -71.0772418}}}, "icon": "https://maps.gstatic.com/mapfiles/place_api/icons/geocode-71.png", "id": "1f21ddde32a19591f0f0019afe8c3cd0e03bc00b", "name": "29-65 MA-2", "place_id": "ChIJq9Bu4Ap644kRBlr1Ku9ZaOI", "reference": "ChIJq9Bu4Ap644kRBlr1Ku9ZaOI", "scope": "GOOGLE", "types": ["route"], "vicinity": "Boston"}, "ChIJMTBG3wp644kRVMHbJnN28uk": {"geometry": {"location": {"lat": 42.3528203, "lng": -71.0746903}, "viewport": {"northeast": {"lat": 42.3540875802915, "lng": -71.07330116970849}, "southwest": {"lat": 42.3513896197085, "lng": -71.07599913029149}}}, "icon": "https://maps.gstatic.com/mapfiles/place_api/icons/generic_business-71.png", "id": "948e6738cd4cee5001b04e447fe987e91e1a9b0a", "name": "General John Glover statue", "photos": [{"height": 1277, "html_attributions": ["<a href=\"https://maps.google.com/maps/contrib/113688018873181740009/photos\">Darren C</a>"], "photo_reference": "CmRaAAAARBl--YiHbaGspPnzmMdh_dgoADYuKL784D7CL6X18wFwRosjqqypxOe2ZY7IVC8x9FYL8_f8G2_LNXhgQu302oKL_m8YZNe7DLBs-YEgKXiCHCAKIaSrl5VvVMPVvdepEhArP0IcOQPB5mKOgSs3YB1eGhR55zs3Nx5Agq4MY0LM9ETpj9K9Zg", "width": 958}], "place_id": "ChIJMTBG3wp644kRVMHbJnN28uk", "plus_code": {"compound_code": "9W3G+44 Boston, Massachusetts, United States", "global_code": "87JC9W3G+44"}, "rating": 4.7, "reference": "ChIJMTBG3wp644kRVMHbJnN28uk", "scope": "GOOGLE", "types": ["point_of_interest", "establishment"], "user_ratings_total": 7, "vicinity": "60 Commonwealth Avenue, Boston"}, "ChIJjRBE3gp644kRD8tcCC-96s0": {"geometry": {"location": {"lat": 42.35299089999999, "lng": -71.07492549999999}, "viewport": {"northeast": {"lat": 42.3543438302915, "lng": -71.0735784697085}, "southwest": {"lat": 42.3516458697085, "lng": -71.0762764302915}}}, "icon": "https://maps.gstatic.com/mapfiles/place_api/icons/generic_business-71.png", "id": "6da07f8a5d4d873da1ed63cddd7457d7536fee3c", "name": "Man Elevator", "place_id": "ChIJjRBE3gp644kRD8tcCC-96s0", "plus_code": {"compound_code": "9W3G+52 Boston, Massachusetts, United States", "global_code": "87JC9W3G+52"}, "reference": "ChIJjRBE3gp644kRD8tcCC-96s0", "scope": "GOOGLE", "types": ["point_of_interest", "establishment"], "vicinity": "43 Commonwealth Avenue, Boston"}, "ChIJGzE9DS1l44kRoOhiASS_fHg": {"geometry": {"location": {"lat": 42.3600825, "lng": -71.0588801}, "viewport": {"northeast": {"lat": 42.40081989999999, "lng": -70.749455}, "southwest": {"lat": 42.22788, "lng": -71.191113}}}, "icon": "https://maps.gstatic.com/mapfiles/place_api/icons/geocode-71.png", "id": "06755c25d2b34d13942a4713971756a55b870ced", "name": "Boston", "photos": [{"height": 3024, "html_attributions": ["<a href=\"https://maps.google.com/maps/contrib/104670289779338733432/photos\">Natalia Zalucean</a>"], "photo_reference": "CmRaAAAANC721q5dTgJPSdl0UwqNRaPklDW3kHqufdKz-Hkmco_fcPeV37fIrX09z5RQYJq9TN5vhvYxT5rsTyEXUJJ-o538O2zVTf3YSRaMS0ZF2DnqKfAH7cEHeVfQud8YALQyEhCaEmvV5vbuz8za6ccEsW88GhRXpmOEgoRIx0hZKnOI6lzME1-7RQ", "width": 4032}], "place_id": "ChIJGzE9DS1l44kRoOhiASS_fHg", "reference": "ChIJGzE9DS1l44kRoOhiASS_fHg", "scope": "GOOGLE", "types": ["locality", "political"], "vicinity": "Boston"}}