{"ChIJZ_o7soFw44kRHdhcDVCIEWk": {"geometry": {"location": {"lat": 42.3531282, "lng": -71.0530395}, "viewport": {"northeast": {"lat": 42.3544777302915, "lng": -71.05168966970848}, "southwest": {"lat": 42.3517797697085, "lng": -71.05438763029149}}}, "icon": "https://maps.gstatic.com/mapfiles/place_api/icons/geocode-71.png", "id": "ad1c07b456d0f21d69aef246c2936a27d21b0c49", "name": "281-285 Congress St", "place_id": "ChIJZ_o7soFw44kRHdhcDVCIEWk", "reference": "ChIJZ_o7soFw44kRHdhcDVCIEWk", "scope": "GOOGLE", "types": ["route"], "vicinity": "Boston"}, "ChIJ41-RNoZw44kRUkPVwHNFSyw": {"geometry": {"location": {"lat": 42.353325, "lng": -71.0527613}, "viewport": {"northeast": {"lat": 42.3545873802915, "lng": -71.05156376970848}, "southwest": {"lat": 42.3518894197085, "lng": -71.0542617302915}}}, "icon": "https://maps.gstatic.com/mapfiles/place_api/icons/generic_business-71.png", "id": "0797f1a714540eabdfb7700db60ff31a55f9cde0", "name": "Cresa", "opening_hours": {"open_now": true}, "place_id": "ChIJ41-RNoZw44kRUkPVwHNFSyw", "plus_code": {"compound_code": "9W3W+8V Boston, Massachusetts, United States", "global_code": "87JC9W3W+8V"}, "rating": 5, "reference": "ChIJ41-RNoZw44kRUkPVwHNFSyw", "scope": "GOOGLE", "types": ["real_estate_agency", "point_of_interest", "establishment"], "user_ratings_total": 1, "vicinity": "10, 280 Congress Street, Boston"}, "ChIJdZNQsoFw44kRzxmCbQoEf8A": {"geometry": {"location": {"lat": 42.3533142, "lng": -71.053}, "viewport": {"northeast": {"lat": 42.3546212802915, "lng": -71.0517242697085}, "southwest": {"lat": 42.3519233197085, "lng": -71.05442223029151}}}, "icon": "https://maps.gstatic.com/mapfiles/place_api/icons/cafe-71.png", "id": "0030e8fec84435419d5f22754aec7d41989d9573", "name": "Sorelle Bakery & Cafe", "opening_hours": {"open_now": true}, "photos": [{"height": 768, "html_attributions": ["<a href=\"https://maps.google.com/maps/contrib/112792889008626028140/photos\">Sorelle Bakery &amp; Cafe</a>"], "photo_reference": "CmRaAAAApaU2g8rI35QfSTinxEdu0T9phs4Bgnc5DX9RUuvRpv8T0D0A1rdqse_p77imvZWDqj4x201ECWdhL5HTo6wB6YY9INS3FOWZqrLdtcMzfR4uzaBMwetAamB-i5MHsSjlEhDtxa6VXzBvz2xDroRGP2-UGhTx0nClAyhPhrlX_nwuC7tJ5L5y0Q", "width": 1024}], "place_id": "ChIJdZNQsoFw44kRzxmCbQoEf8A", "plus_code": {"compound_code": "9W3W+8R Boston, Massachusetts, United States", "global_code": "87JC9W3W+8R"}, "rating": 4, "reference": "ChIJdZNQsoFw44kRzxmCbQoEf8A", "scope": "GOOGLE", "types": ["cafe", "bakery", "meal_takeaway", "store", "restaurant", "point_of_interest", "food", "establishment"], "user_ratings_total": 113, "vicinity": "282 Congress Street, Boston"}, "ChIJmdUhhYZw44kRIdzSG0q2vJE": {"geometry": {"location": {"lat": 42.3533864, "lng": -71.0529918}, "viewport": {"northeast": {"lat": 42.35467853029149, "lng": -71.0517422697085}, "southwest": {"lat": 42.35198056970849, "lng": -71.0544402302915}}}, "icon": "https://maps.gstatic.com/mapfiles/place_api/icons/generic_business-71.png", "id": "5b9ff436b4b23800c41437c9f156d9806c1c4e09", "name": "Wellington Management Company, LLP", "photos": [{"height": 2448, "html_attributions": ["<a href=\"https://maps.google.com/maps/contrib/104365243404988932978/photos\">Mark Price</a>"], "photo_reference": "CmRaAAAAvvhz4AbGUOmXiiFVvlurdaI_AvxoRNCMo8RMNf7IzlWx1LYhpkvHYC2FWAX7lIv0Qih_asclqLZL_CyvaUMY7PrIkOXpe8PuyMANI2AtxENET--mk9y9ETADIo8rIkmpEhDYRDZSlu0upuAh4G_9H77hGhReO2_3V8heAtjNa4M_x0HQF2MV5g", "width": 3264}], "place_id": "ChIJmdUhhYZw44kRIdzSG0q2vJE", "plus_code": {"compound_code": "9W3W+9R Boston, Massachusetts, United States", "global_code": "87JC9W3W+9R"}, "rating": 4.7, "reference": "ChIJmdUhhYZw44kRIdzSG0q2vJE", "scope": "GOOGLE", "types": ["finance", "point_of_interest", "establishment"], "user_ratings_total": 3, "vicinity": "280 Congress Street, Boston"}, "ChIJU2gXsA9644kRzkvloyRD90c": {"geometry": {"location": {"lat": 42.3533614, "lng": -71.05277579999999}, "viewport": {"northeast": {"lat": 42.3546195802915, "lng": -71.0515856697085}, "southwest": {"lat": 42.3519216197085, "lng": -71.05428363029151}}}, "icon": "https://maps.gstatic.com/mapfiles/place_api/icons/generic_business-71.png", "id": "2700b8b1c16b76738f20da8b20a29c94797ccd75", "name": "FleishmanHillard Boston", "place_id": "ChIJU2gXsA9644kRzkvloyRD90c", "plus_code": {"compound_code": "9W3W+8V Boston, Massachusetts, United States", "global_code": "87JC9W3W+8V"}, "reference": "ChIJU2gXsA9644kRzkvloyRD90c", "scope": "GOOGLE", "types": ["point_of_interest", "establishment"], "vicinity": "290 Congress Street 6th floor, Boston"}, "ChIJU2gXsA9644kRH4GnvhioPTQ": {"geometry": {"location": {"lat": 42.353298, "lng": -71.0528188}, "viewport": {"northeast": {"lat": 42.35457573029149, "lng": -71.0515944197085}, "southwest": {"lat": 42.3518777697085, "lng": -71.0542923802915}}}, "icon": "https://maps.gstatic.com/mapfiles/place_api/icons/generic_business-71.png", "id": "536d82dd3a500dad4b244df7718b41cc92a0fc0b", "name": "Cone", "opening_hours": {"open_now": true}, "photos": [{"height": 300, "html_attributions": ["<a href=\"https://maps.google.com/maps/contrib/111096960841457076116/photos\">Sophie Komornicki</a>"], "photo_reference": "CmRaAAAAV6RIkxXtagVXhXu06v9Y_FX1-FlcWpXvRnj6ZAuoh2KRhsWWfKzBYFcoJa5nH1MVF6mBhyp2Uzk8G8TQmCDrlXv82nRq8oBM9_J2JLjskmrUofua8M6nk2aNzVpLQeaGEhBx5zMOKvVHmqcUIlGgaMqbGhTfam7qTpLttnIgNsOU0EMZHbeB9g", "width": 564}], "place_id": "ChIJU2gXsA9644kRH4GnvhioPTQ", "plus_code": {"compound_code": "9W3W+8V Boston, Massachusetts, United States", "global_code": "87JC9W3W+8V"}, "reference": "ChIJU2gXsA9644kRH4GnvhioPTQ", "scope": "GOOGLE", "types": ["point_of_interest", "establishment"], "vicinity": "290 Congress Street, Boston"}, "ChIJs_Ov_YBw44kR3WwlGec4zh8": {"geometry": {"location": {"lat": 42.3534048, "lng": -71.0528243}, "viewport": {"northeast": {"lat": 42.3546635302915, "lng": -71.0516331697085}, "southwest": {"lat": 42.3519655697085, "lng": -71.0543311302915}}}, "icon": "https://maps.gstatic.com/mapfiles/place_api/icons/generic_business-71.png", "id": "636acda4e59fa4ed60d1472028952b957924d1b8", "name": "Boston Properties", "place_id": "ChIJs_Ov_YBw44kR3WwlGec4zh8", "plus_code": {"compound_code": "9W3W+9V Boston, Massachusetts, United States", "global_code": "87JC9W3W+9V"}, "rating": 1, "reference": "ChIJs_Ov_YBw44kR3WwlGec4zh8", "scope": "GOOGLE", "types": ["point_of_interest", "establishment"], "user_ratings_total": 1, "vicinity": "280 Congress Street, Boston"}, "ChIJ7ciji4Nw44kRF5iPppuSSeI": {"geometry": {"location": {"lat": 42.353325, "lng": -71.0527613}, "viewport": {"northeast": {"lat": 42.3545873802915, "lng": -71.05156376970848}, "southwest": {"lat": 42.3518894197085, "lng": -71.0542617302915}}}, "icon": "https://maps.gstatic.com/mapfiles/place_api/icons/generic_business-71.png", "id": "57d58b0a2e9230a753c9df0f2997d9bf2a4e6b98", "name": "Wilmington Trust Fsb", "place_id": "ChIJ7ciji4Nw44kRF5iPppuSSeI", "plus_code": {"compound_code": "9W3W+8V Boston, Massachusetts, United States", "global_code": "87JC9W3W+8V"}, "reference": "ChIJ7ciji4Nw44kRF5iPppuSSeI", "scope": "GOOGLE", "types": ["finance", "point_of_interest", "establishment"], "vicinity": "280 Congress Street, Boston"}, "ChIJd3Outo9w44kR2M1AZrVNm0M": {"geometry": {"location": {"lat": 42.3533614, "lng": -71.05277579999999}, "viewport": {"northeast": {"lat": 42.3546195802915, "lng": -71.0515856697085}, "southwest": {"lat": 42.3519216197085, "lng": -71.05428363029151}}}, "icon": "https://maps.gstatic.com/mapfiles/place_api/icons/generic_business-71.png", "id": "a491860adec2b8855b27cee1126f8b35a84b24a7", "name": "Cone Communications", "place_id": "ChIJd3Outo9w44kR2M1AZrVNm0M", "plus_code": {"compound_code": "9W3W+8V Boston, Massachusetts, United States", "global_code": "87JC9W3W+8V"}, "reference": "ChIJd3Outo9w44kR2M1AZrVNm0M", "scope": "GOOGLE", "types": ["point_of_interest", "establishment"], "vicinity": "290 Congress Street, Boston"}, "ChIJHS92rYFw44kReuJfrcGB3vQ": {"geometry": {"location": {"lat": 42.353325, "lng": -71.0527613}, "viewport": {"northeast": {"lat": 42.3545873802915, "lng": -71.05156376970848}, "southwest": {"lat": 42.3518894197085, "lng": -71.0542617302915}}}, "icon": "https://maps.gstatic.com/mapfiles/place_api/icons/generic_business-71.png", "id": "e7a6ca743a116302fd2ab0fa58d048a0140819b6", "name": "Raptor Group", "photos": [{"height": 406, "html_attributions": ["<a href=\"https://maps.google.com/maps/contrib/108857814054105048228/photos\">Raptor Group</a>"], "photo_reference": "CmRaAAAAfPMRvno_JuOxEnDuAX8d-XKLrxmwzrXb29ogTantcmXZdFZV-PhIvY6dRNHFrxbCAIjuD3F8OWSp_GOoYmOlrEamAFqHfmxkeQXebtqOvaKq8df0Sg2Jz1eZkiL8H1twEhBHFdN6OPE94y8NkZN_BGNsGhQWycPua07K00iRAeFGafbjQOlECA", "width": 416}], "place_id": "ChIJHS92rYFw44kReuJfrcGB3vQ", "plus_code": {"compound_code": "9W3W+8V Boston, Massachusetts, United States", "global_code": "87JC9W3W+8V"}, "reference": "ChIJHS92rYFw44kReuJfrcGB3vQ", "scope": "GOOGLE", "types": ["finance", "point_of_interest", "establishment"], "vicinity": "280 Congress Street 12th floor, Boston"}, "ChIJU-CIq4Fw44kR_kgDqfLdrT8": {"geometry": {"location": {"lat": 42.353325, "lng": -71.0527613}, "viewport": {"northeast": {"lat": 42.3545873802915, "lng": -71.05156376970848}, "southwest": {"lat": 42.3518894197085, "lng": -71.0542617302915}}}, "icon": "https://maps.gstatic.com/mapfiles/place_api/icons/generic_business-71.png", "id": "ffd6d56128e0b789fd8ed4fc0afa23a2c36461b9", "name": "Hazelbrook Partners,", "place_id": "ChIJU-CIq4Fw44kR_kgDqfLdrT8", "plus_code": {"compound_code": "9W3W+8V Boston, Massachusetts, United States", "global_code": "87JC9W3W+8V"}, "reference": "ChIJU-CIq4Fw44kR_kgDqfLdrT8", "scope": "GOOGLE", "types": ["finance", "point_of_interest", "establishment"], "vicinity": "280 Congress Street, Boston"}, "ChIJ92vOrIFw44kR3Odjd1QIdnk": {"geometry": {"location": {"lat": 42.3533614, "lng": -71.05277579999999}, "viewport": {"northeast": {"lat": 42.3546195802915, "lng": -71.0515856697085}, "southwest": {"lat": 42.3519216197085, "lng": -71.05428363029151}}}, "icon": "https://maps.gstatic.com/mapfiles/place_api/icons/generic_business-71.png", "id": "e820100543ee7c5f5167fdfc9b7420b5485af34f", "name": "Varsity Wireless", "place_id": "ChIJ92vOrIFw44kR3Odjd1QIdnk", "plus_code": {"compound_code": "9W3W+8V Boston, Massachusetts, United States", "global_code": "87JC9W3W+8V"}, "reference": "ChIJ92vOrIFw44kR3Odjd1QIdnk", "scope": "GOOGLE", "types": ["point_of_interest", "establishment"], "vicinity": "290 Congress Street, Boston"}, "ChIJ23snrIFw44kRUNSosPqdLWA": {"geometry": {"location": {"lat": 42.353325, "lng": -71.0527613}, "viewport": {"northeast": {"lat": 42.3545873802915, "lng": -71.05156376970848}, "southwest": {"lat": 42.3518894197085, "lng": -71.0542617302915}}}, "icon": "https://maps.gstatic.com/mapfiles/place_api/icons/generic_business-71.png", "id": "6e7ad798ab7d206a476898831dada38230a10f6a", "name": "Fan Manager", "place_id": "ChIJ23snrIFw44kRUNSosPqdLWA", "plus_code": {"compound_code": "9W3W+8V Boston, Massachusetts, United States", "global_code": "87JC9W3W+8V"}, "reference": "ChIJ23snrIFw44kRUNSosPqdLWA", "scope": "GOOGLE", "types": ["point_of_interest", "establishment"], "vicinity": "280 Congress Street, Boston"}, "ChIJRyLBzQ9x44kRn22cdwGU_ts": {"geometry": {"location": {"lat": 42.35341489999999, "lng": -71.0528408}, "viewport": {"northeast": {"lat": 42.3546746802915, "lng": -71.05164781970849}, "southwest": {"lat": 42.3519767197085, "lng": -71.0543457802915}}}, "icon": "https://maps.gstatic.com/mapfiles/place_api/icons/atm-71.png", "id": "976b37696f9700416aa26a30658205a41ffb9325", "name": "Bank of America ATM", "place_id": "ChIJRyLBzQ9x44kRn22cdwGU_ts", "plus_code": {"compound_code": "9W3W+9V Boston, Massachusetts, United States", "global_code": "87JC9W3W+9V"}, "reference": "ChIJRyLBzQ9x44kRn22cdwGU_ts", "scope": "GOOGLE", "types": ["atm", "finance", "point_of_interest", "establishment"], "vicinity": "280 Congress Street, Boston"}, "ChIJg6zVrIFw44kRek93syRXk7Y": {"geometry": {"location": {"lat": 42.3533273, "lng": -71.0527623}, "viewport": {"northeast": {"lat": 42.3545894302915, "lng": -71.05156521970848}, "southwest": {"lat": 42.3518914697085, "lng": -71.05426318029149}}}, "icon": "https://maps.gstatic.com/mapfiles/place_api/icons/generic_business-71.png", "id": "0917f24207cd4e1a3a065c30574fee3f3986c84e", "name": "ChargePoint Charging Station", "place_id": "ChIJg6zVrIFw44kRek93syRXk7Y", "plus_code": {"compound_code": "9W3W+8V Boston, Massachusetts, United States", "global_code": "87JC9W3W+8V"}, "reference": "ChIJg6zVrIFw44kRek93syRXk7Y", "scope": "GOOGLE", "types": ["point_of_interest", "establishment"], "vicinity": "280 Congress Street, Boston"}, "ChIJg6zVrIFw44kRO5iOH6TelB8": {"geometry": {"location": {"lat": 42.353325, "lng": -71.0527613}, "viewport": {"northeast": {"lat": 42.3545873802915, "lng": -71.05156376970848}, "southwest": {"lat": 42.3518894197085, "lng": -71.0542617302915}}}, "icon": "https://maps.gstatic.com/mapfiles/place_api/icons/generic_business-71.png", "id": "3ff437b6cf9641e308082e8972250d0a9b0c57d4", "name": "Lightkeeper, LLC", "opening_hours": {"open_now": true}, "photos": [{"height": 375, "html_attributions": ["<a href=\"https://maps.google.com/maps/contrib/115412247776758292589/photos\">Lightkeeper, LLC</a>"], "photo_reference": "CmRaAAAAG_vuTjIeXYtsWa85X2y1YaL8xzQXhQiCGs2gF1NzWieI6hFW_uKwlJHKqhJm5RFw0cGKpoCuxLw8HToLE88n-BE7Hk93qei07nLlmErMNMc-Z1qrtaKZJwcaZghEhkAeEhCCB-Rl4ph_4p9mKJdnFkymGhSPX-OsmufWlw-sAEdOOqvAIkqA7w", "width": 375}], "place_id": "ChIJg6zVrIFw44kRO5iOH6TelB8", "plus_code": {"compound_code": "9W3W+8V Boston, Massachusetts, United States", "global_code": "87JC9W3W+8V"}, "reference": "ChIJg6zVrIFw44kRO5iOH6TelB8", "scope": "GOOGLE", "types": ["point_of_interest", "establishment"], "vicinity": "280 Congress Street, Boston"}, "ChIJg6zVrIFw44kRIP-CGJe5wCs": {"geometry": {"location": {"lat": 42.353325, "lng": -71.0527613}, "viewport": {"northeast": {"lat": 42.3545873802915, "lng": -71.05156376970848}, "southwest": {"lat": 42.3518894197085, "lng": -71.0542617302915}}}, "icon": "https://maps.gstatic.com/mapfiles/place_api/icons/generic_business-71.png", "id": "65acc749d7056fbb0fdbde891173621bbe7de0d5", "name": "Atlantic Warf Properties", "opening_hours": {"open_now": true}, "photos": [{"height": 3024, "html_attributions": ["<a href=\"https://maps.google.com/maps/contrib/116929139404750688561/photos\">Larisa Drokhlyansky</a>"], "photo_reference": "CmRaAAAAVBG4pS-ffdlXkRaaNQ--NVtkJSTmlGyE-wRTVRwrwiTcLqYWUDhzC1h0gHrneX2Ovg28Q5hyAvFOdeIjgXl1XNDmp_pn5XNlmTVS4MiUuXAzRJTG2JM7M3Hal6yX6zxNEhDO4Qb7XL0Bl2pgyKT-BJjFGhSGwkhGvpWWmKafCPz0JBD6VCEhpQ", "width": 4032}], "place_id": "ChIJg6zVrIFw44kRIP-CGJe5wCs", "plus_code": {"compound_code": "9W3W+8V Boston, Massachusetts, United States", "global_code": "87JC9W3W+8V"}, "rating": 5, "reference": "ChIJg6zVrIFw44kRIP-CGJe5wCs", "scope": "GOOGLE", "types": ["real_estate_agency", "point_of_interest", "establishment"], "user_ratings_total": 1, "vicinity": "280 Congress Street, Boston"}, "ChIJfavVrIFw44kRCC5gUoPECjU": {"geometry": {"location": {"lat": 42.35332499999999, "lng": -71.05276119999999}, "viewport": {"northeast": {"lat": 42.35458738029149, "lng": -71.05156371970848}, "southwest": {"lat": 42.3518894197085, "lng": -71.0542616802915}}}, "icon": "https://maps.gstatic.com/mapfiles/place_api/icons/generic_business-71.png", "id": "c9217732982ffd417943ce3d17bfdc434f47940d", "name": "Obelisk Inc.", "place_id": "ChIJfavVrIFw44kRCC5gUoPECjU", "plus_code": {"compound_code": "9W3W+8V Boston, Massachusetts, United States", "global_code": "87JC9W3W+8V"}, "reference": "ChIJfavVrIFw44kRCC5gUoPECjU", "scope": "GOOGLE", "types": ["point_of_interest", "establishment"], "vicinity": "12, 280 Congress Street, Boston"}, "ChIJxSyrr4Fw44kRiyLpxTf8mrk": {"geometry": {"location": {"lat": 42.35346210000001, "lng": -71.0531929}, "viewport": {"northeast": {"lat": 42.3547747802915, "lng": -71.05190496970849}, "southwest": {"lat": 42.3520768197085, "lng": -71.05460293029151}}}, "icon": "https://maps.gstatic.com/mapfiles/place_api/icons/generic_business-71.png", "id": "670cd3bf3eec5aa4f93472499f3001d8a4675a5f", "name": "Customer Dialogue Systems", "place_id": "ChIJxSyrr4Fw44kRiyLpxTf8mrk", "plus_code": {"compound_code": "9W3W+9P Boston, Massachusetts, United States", "global_code": "87JC9W3W+9P"}, "reference": "ChIJxSyrr4Fw44kRiyLpxTf8mrk", "scope": "GOOGLE", "types": ["point_of_interest", "establishment"], "vicinity": "270 Congress Street, Boston"}, "ChIJGzE9DS1l44kRoOhiASS_fHg": {"geometry": {"location": {"lat": 42.3600825, "lng": -71.0588801}, "viewport": {"northeast": {"lat": 42.40081989999999, "lng": -70.749455}, "southwest": {"lat": 42.22788, "lng": -71.191113}}}, "icon": "https://maps.gstatic.com/mapfiles/place_api/icons/geocode-71.png", "id": "06755c25d2b34d13942a4713971756a55b870ced", "name": "Boston", "photos": [{"height": 3024, "html_attributions": ["<a href=\"https://maps.google.com/maps/contrib/104670289779338733432/photos\">Natalia Zalucean</a>"], "photo_reference": "CmRaAAAA29TQqu9yYDgmL0nOBPEZ1f4T9hxYj-rYl3mEODA2FDrbxPT41vZcaFNn4HjxE7izk4t2WdcrYIrWBmlJIR2JUuCzS-lfJWzVcaHYm_bex0OsjEW0QY-nfqQvzToXzalqEhBsBezvOeFfmVBCZ_3895ViGhSN83KfF05wVD4kGdSo9vWOCtqb9w", "width": 4032}], "place_id": "ChIJGzE9DS1l44kRoOhiASS_fHg", "reference": "ChIJGzE9DS1l44kRoOhiASS_fHg", "scope": "GOOGLE", "types": ["locality", "political"], "vicinity": "Boston"}, "ChIJny2rr4Fw44kRESp_BdI5xFQ": {"geometry": {"location": {"lat": 42.35346210000001, "lng": -71.0531929}, "viewport": {"northeast": {"lat": 42.3547747802915, "lng": -71.05190496970849}, "southwest": {"lat": 42.3520768197085, "lng": -71.05460293029151}}}, "icon": "https://maps.gstatic.com/mapfiles/place_api/icons/generic_business-71.png", "id": "58f5b9afea29bee91d87af746b65d0faa3c32a90", "name": "Gray & Co", "place_id": "ChIJny2rr4Fw44kRESp_BdI5xFQ", "plus_code": {"compound_code": "9W3W+9P Boston, Massachusetts, United States", "global_code": "87JC9W3W+9P"}, "reference": "ChIJny2rr4Fw44kRESp_BdI5xFQ", "scope": "GOOGLE", "types": ["finance", "point_of_interest", "establishment"], "vicinity": "270 Congress Street, Boston"}, "ChIJjyoAUoBw44kRKPQywOQsCNM": {"geometry": {"location": {"lat": 42.3531921, "lng": -71.0524696}, "viewport": {"northeast": {"lat": 42.3543589802915, "lng": -71.0512578197085}, "southwest": {"lat": 42.3516610197085, "lng": -71.0539557802915}}}, "icon": "https://maps.gstatic.com/mapfiles/place_api/icons/generic_business-71.png", "id": "4621e8d71e7c5142284045f5656fac91e102fc48", "name": "Tufts Building", "place_id": "ChIJjyoAUoBw44kRKPQywOQsCNM", "reference": "ChIJjyoAUoBw44kRKPQywOQsCNM", "scope": "GOOGLE", "types": ["parking", "premise", "point_of_interest", "establishment"], "vicinity": "Boston"}, "ChIJv077ds5x44kRozJbKhk1wuY": {"geometry": {"location": {"lat": 42.35342480000001, "lng": -71.0531177}, "viewport": {"northeast": {"lat": 42.3547737802915, "lng": -71.05176871970849}, "southwest": {"lat": 42.3520758197085, "lng": -71.05446668029151}}}, "icon": "https://maps.gstatic.com/mapfiles/place_api/icons/bank_dollar-71.png", "id": "c25c68dafa6558b10a98cd22838a1eed662e8e00", "name": "Wilmington Trust", "opening_hours": {"open_now": true}, "place_id": "ChIJv077ds5x44kRozJbKhk1wuY", "plus_code": {"compound_code": "9W3W+9Q Boston, Massachusetts, United States", "global_code": "87JC9W3W+9Q"}, "reference": "ChIJv077ds5x44kRozJbKhk1wuY", "scope": "GOOGLE", "types": ["bank", "finance", "point_of_interest", "establishment"], "vicinity": "280 Congress Street Suite 1300, Boston"}}