{"ChIJJ9kdy4Rw44kR84tSkwlpuWs": {"geometry": {"location": {"lat": 42.35897859999999, "lng": -71.0615414}, "viewport": {"northeast": {"lat": 42.3603142802915, "lng": -71.06023286970849}, "southwest": {"lat": 42.3576163197085, "lng": -71.06293083029149}}}, "icon": "https://maps.gstatic.com/mapfiles/place_api/icons/geocode-71.png", "id": "76b5baf831cec9fa9da81314896b045118a3d05e", "name": "14-8 Somerset St", "place_id": "ChIJJ9kdy4Rw44kR84tSkwlpuWs", "reference": "ChIJJ9kdy4Rw44kR84tSkwlpuWs", "scope": "GOOGLE", "types": ["route"], "vicinity": "Boston"}, "ChIJJU9xtYRw44kRoBcYBJUe8hs": {"geometry": {"location": {"lat": 42.3591924, "lng": -71.0611924}, "viewport": {"northeast": {"lat": 42.3603250302915, "lng": -71.05983501970849}, "southwest": {"lat": 42.3576270697085, "lng": -71.0625329802915}}}, "icon": "https://maps.gstatic.com/mapfiles/place_api/icons/civic_building-71.png", "id": "8170de71351fc519ddc4bf5df95574ee12db2068", "name": "Supreme Judicial Court Clerk", "photos": [{"height": 4160, "html_attributions": ["<a href=\"https://maps.google.com/maps/contrib/113542615240432115023/photos\">JianHui Lin</a>"], "photo_reference": "CmRaAAAAajNcrlHml2bfucuJurz_5gFZqZJHlFwJ_pFha-rWiUnxo6nWJjl49Lry__mp2ZdnzeSDkZorNnbUeZWZwJPKME7Z3cy1ENHvNmFkeqOLce9KECtlOQ5LrUBZafX3bCchEhBlqPZgx0dkQwFL38KA1ChRGhRDausxhEKNPhqcK7mphErYRpoA6g", "width": 3120}], "place_id": "ChIJJU9xtYRw44kRoBcYBJUe8hs", "plus_code": {"compound_code": "9W5Q+MG Boston, Massachusetts, United States", "global_code": "87JC9W5Q+MG"}, "rating": 5, "reference": "ChIJJU9xtYRw44kRoBcYBJUe8hs", "scope": "GOOGLE", "types": ["local_government_office", "point_of_interest", "establishment"], "user_ratings_total": 2, "vicinity": "1 Pemberton Square, Boston"}, "ChIJGzE9DS1l44kRoOhiASS_fHg": {"geometry": {"location": {"lat": 42.3600825, "lng": -71.0588801}, "viewport": {"northeast": {"lat": 42.40081989999999, "lng": -70.749455}, "southwest": {"lat": 42.22788, "lng": -71.191113}}}, "icon": "https://maps.gstatic.com/mapfiles/place_api/icons/geocode-71.png", "id": "06755c25d2b34d13942a4713971756a55b870ced", "name": "Boston", "photos": [{"height": 3024, "html_attributions": ["<a href=\"https://maps.google.com/maps/contrib/104670289779338733432/photos\">Natalia Zalucean</a>"], "photo_reference": "CmRaAAAAbm7NxhAheTqu2811iAwqrdZeQyMlpPkYa4gv_0zq5YZtANaQ30jkoTMJ7IiUD06t8aTUE1EDJxqdz3gqcTtlWi_AFulBcMpjTutpyF0kJIrQfEZlEv5DNb7mMBkftGb3EhDiJhAhINi5w7qvKwNBVcQHGhQ_w6Mfm2sgOeqRan-vXpubZQ_tyg", "width": 4032}], "place_id": "ChIJGzE9DS1l44kRoOhiASS_fHg", "reference": "ChIJGzE9DS1l44kRoOhiASS_fHg", "scope": "GOOGLE", "types": ["locality", "political"], "vicinity": "Boston"}}