{"ChIJA2q8xVJ444kR2LfKdRcYBpI": {"geometry": {"location": {"lat": 42.3371154, "lng": -71.145764}, "viewport": {"northeast": {"lat": 42.3384643802915, "lng": -71.14441501970849}, "southwest": {"lat": 42.33576641970851, "lng": -71.1471129802915}}}, "icon": "https://maps.gstatic.com/mapfiles/place_api/icons/geocode-71.png", "id": "5b59c5eb2e9fe4f6f1bb8dd8711eb9459d618d5d", "name": "Beacon Street", "place_id": "ChIJA2q8xVJ444kR2LfKdRcYBpI", "reference": "ChIJA2q8xVJ444kR2LfKdRcYBpI", "scope": "GOOGLE", "types": ["route"], "vicinity": "Brookline"}, "ChIJ8db4wlJ444kR3q6QRtQuuzg": {"geometry": {"location": {"lat": 42.33714979999999, "lng": -71.1461765}, "viewport": {"northeast": {"lat": 42.33844223029149, "lng": -71.14480541970849}, "southwest": {"lat": 42.3357442697085, "lng": -71.1475033802915}}}, "icon": "https://maps.gstatic.com/mapfiles/place_api/icons/school-71.png", "id": "8e1524ce2bd9be00864e1ec8ec6c7b9f6e8c0be5", "name": "Little Kingdom Family Care", "opening_hours": {"open_now": true}, "photos": [{"height": 3264, "html_attributions": ["<a href=\"https://maps.google.com/maps/contrib/101633862529007840008/photos\">Little Kingdom Family Care</a>"], "photo_reference": "CmRaAAAAZefRYwXot0L3DEXLZCeeEKFQdTEu-FBISsFnxj5rzBhIFny8U95GFdn7WUIXRUJk0ZlwqKq8FwHSg3U2MpZUCg0ssfO9Rv0clpusBj4EKYDLiRaCDbvdPIsnOef61yM3EhB9x1rgObREn-RKJhBfnr57GhT1pTlCXw6qupGwrD9CWPh5BEobqQ", "width": 2448}], "place_id": "ChIJ8db4wlJ444kR3q6QRtQuuzg", "plus_code": {"compound_code": "8VP3+VG Brookline, Massachusetts, United States", "global_code": "87JC8VP3+VG"}, "reference": "ChIJ8db4wlJ444kR3q6QRtQuuzg", "scope": "GOOGLE", "types": ["point_of_interest", "establishment"], "vicinity": "1870 Beacon Street, Brookline"}, "ChIJhZirQQB544kRB9LbXEfedZQ": {"geometry": {"location": {"lat": 42.33176419999999, "lng": -71.1211635}, "viewport": {"northeast": {"lat": 42.3518109, "lng": -71.1056969}, "southwest": {"lat": 42.29459689999999, "lng": -71.1789959}}}, "icon": "https://maps.gstatic.com/mapfiles/place_api/icons/geocode-71.png", "id": "92986b2d1f69af2f2a7e29d34ced8adfa8573beb", "name": "Brookline", "photos": [{"height": 651, "html_attributions": ["<a href=\"https://maps.google.com/maps/contrib/114772942214832951419/photos\">Michael Ahn</a>"], "photo_reference": "CmRaAAAALyuTY1j8jWO7YiBxu4-PGOSAsQ8gxVV5j8qoSKnJ8q2Sm_fANmqOfaJ8izMeVmsXKffRrcJo5DzByOmnCx6VMHkeXqTMs5DnDz40-huBpT-MO2z1kbAIcpSH-6J4ve2AEhBAZiE-r-ub4u25lkq1TPUuGhT1v871pL-GmAkAnDYpXZXzotM8-g", "width": 1608}], "place_id": "ChIJhZirQQB544kRB9LbXEfedZQ", "reference": "ChIJhZirQQB544kRB9LbXEfedZQ", "scope": "GOOGLE", "types": ["locality", "political"], "vicinity": "Brookline"}}