{"ChIJGzE9DS1l44kRoOhiASS_fHg": {"geometry": {"location": {"lat": 42.3600825, "lng": -71.0588801}, "viewport": {"northeast": {"lat": 42.40081989999999, "lng": -70.749455}, "southwest": {"lat": 42.22788, "lng": -71.191113}}}, "icon": "https://maps.gstatic.com/mapfiles/place_api/icons/geocode-71.png", "id": "06755c25d2b34d13942a4713971756a55b870ced", "name": "Boston", "photos": [{"height": 3024, "html_attributions": ["<a href=\"https://maps.google.com/maps/contrib/104670289779338733432/photos\">Natalia Zalucean</a>"], "photo_reference": "CmRaAAAAMJzbUyLzFKikZSe-woxJFxe0uuCmBZbJXMgthQPwNaAjHKO23BplAVD2pVMmMocRrvwul4V4piE1_LFw9js3BSJY7fis5TiL6c2aXoikKZFIph7M-696u34pBKtm4jFpEhAR0dE85-usPmNqLORgnAXtGhRxDZEpO5QVY6kefWaeEpN-xaBxUQ", "width": 4032}], "place_id": "ChIJGzE9DS1l44kRoOhiASS_fHg", "reference": "ChIJGzE9DS1l44kRoOhiASS_fHg", "scope": "GOOGLE", "types": ["locality", "political"], "vicinity": "Boston"}, "ChIJ0f8WPQx644kRet-0FTF_wyE": {"geometry": {"location": {"lat": 42.35666899999999, "lng": -71.13775129999999}, "viewport": {"northeast": {"lat": 42.35794708029149, "lng": -71.13642146970848}, "southwest": {"lat": 42.3552491197085, "lng": -71.1391194302915}}}, "icon": "https://maps.gstatic.com/mapfiles/place_api/icons/generic_business-71.png", "id": "20a56693d2f466b708db60772eb0952916e86781", "name": "Maintainnet Inc", "place_id": "ChIJ0f8WPQx644kRet-0FTF_wyE", "plus_code": {"compound_code": "9V46+MV Boston, Massachusetts, United States", "global_code": "87JC9V46+MV"}, "reference": "ChIJ0f8WPQx644kRet-0FTF_wyE", "scope": "GOOGLE", "types": ["point_of_interest", "establishment"], "vicinity": "119 Braintree Street, Boston"}, "ChIJIcPgus9544kRjk7LevvW_Os": {"geometry": {"location": {"lat": 42.3539038, "lng": -71.1337112}, "viewport": {"northeast": {"lat": 42.37437389999999, "lng": -71.110533}, "southwest": {"lat": 42.3460228, "lng": -71.143925}}}, "icon": "https://maps.gstatic.com/mapfiles/place_api/icons/geocode-71.png", "id": "e7453d23034c3414f98e19df650f49a83b645952", "name": "Allston", "photos": [{"height": 1536, "html_attributions": ["<a href=\"https://maps.google.com/maps/contrib/104422420120565835220/photos\">Welmyr De Baguio</a>"], "photo_reference": "CmRaAAAAafZCsWdqLj5gtIOLfVBoN1OZyOvXjtx1D6a3N8qDMcVU6KTWxzaH7QyOPO45WQS2wwmO5EFQAaixv2blAiwX9S2Zkmq6UtFMd04gZAefhIXy9FUN7od9_r7W8wKXCt-gEhAvSRDk09DN5Xwf3k4DX5nTGhQRjjokCdDM4BNq1eUwIbghVQIu1A", "width": 1536}], "place_id": "ChIJIcPgus9544kRjk7LevvW_Os", "reference": "ChIJIcPgus9544kRjk7LevvW_Os", "scope": "GOOGLE", "types": ["neighborhood", "political"], "vicinity": "Boston"}}