{"ChIJGzE9DS1l44kRoOhiASS_fHg": {"geometry": {"location": {"lat": 42.3600825, "lng": -71.0588801}, "viewport": {"northeast": {"lat": 42.40081989999999, "lng": -70.749455}, "southwest": {"lat": 42.22788, "lng": -71.191113}}}, "icon": "https://maps.gstatic.com/mapfiles/place_api/icons/geocode-71.png", "id": "06755c25d2b34d13942a4713971756a55b870ced", "name": "Boston", "photos": [{"height": 3024, "html_attributions": ["<a href=\"https://maps.google.com/maps/contrib/104670289779338733432/photos\">Natalia Zalucean</a>"], "photo_reference": "CmRaAAAAku6ZeE0EFWEsT40vs_BoX-r8W1pg_fJ3hIhA9xBkqbU-hTirX-7DzuxZfqQq9GHhEo2iKHEt4kj933tnNwoQGrY2etNtu1910nt2yUycmlipxkf8HEeYSEJ23Ic1J-pJEhBuOnid0uYqzDLX741Gw1OIGhQFMgkVyt0Ruw8ThRa2OOMYu42iWg", "width": 4032}], "place_id": "ChIJGzE9DS1l44kRoOhiASS_fHg", "reference": "ChIJGzE9DS1l44kRoOhiASS_fHg", "scope": "GOOGLE", "types": ["locality", "political"], "vicinity": "Boston"}, "ChIJ77dfG4Rw44kRgNxONkP6DlE": {"geometry": {"location": {"lat": 42.3513854, "lng": -71.0767742}, "viewport": {"northeast": {"lat": 42.3526285802915, "lng": -71.07537241970849}, "southwest": {"lat": 42.3499306197085, "lng": -71.0780703802915}}}, "icon": "https://maps.gstatic.com/mapfiles/place_api/icons/generic_business-71.png", "id": "62f5457527af9419e5b19be283d36227b839b819", "name": "Pongr Inc", "place_id": "ChIJ77dfG4Rw44kRgNxONkP6DlE", "plus_code": {"compound_code": "9W2F+H7 Boston, Massachusetts, United States", "global_code": "87JC9W2F+H7"}, "reference": "ChIJ77dfG4Rw44kRgNxONkP6DlE", "scope": "GOOGLE", "types": ["point_of_interest", "establishment"], "vicinity": "129 Newbury Street, Boston"}, "ChIJDdFpnQt644kRFQvjGO_XvR8": {"geometry": {"location": {"lat": 42.3514251, "lng": -71.0766174}, "viewport": {"northeast": {"lat": 42.35266963029149, "lng": -71.07521631970849}, "southwest": {"lat": 42.34997166970849, "lng": -71.0779142802915}}}, "icon": "https://maps.gstatic.com/mapfiles/place_api/icons/shopping-71.png", "id": "7aa60e6eb2b2dffee6741fe86d5653ec504f39be", "name": "Autre Fois", "photos": [{"height": 1920, "html_attributions": ["<a href=\"https://maps.google.com/maps/contrib/116970656508802944890/photos\">Andres Donoso</a>"], "photo_reference": "CmRaAAAAu_ACeE_c_EhPvuhCuiP2_81X-yXIU4nFWe8_LvVcVZkkWemJZZ4nz12mb__ROenktbBKkaUnIFhdF4iNTbgmLiNOTP-4eyaNJjVFr5h228qgj8sheojDzMI8XzuFQjQiEhBtIg0xojuAkxTF3JiiafO-GhQlzJbCJGpLytNtsDDew5OFFpc20Q", "width": 1080}], "place_id": "ChIJDdFpnQt644kRFQvjGO_XvR8", "plus_code": {"compound_code": "9W2F+H9 Boston, Massachusetts, United States", "global_code": "87JC9W2F+H9"}, "rating": 3, "reference": "ChIJDdFpnQt644kRFQvjGO_XvR8", "scope": "GOOGLE", "types": ["home_goods_store", "store", "point_of_interest", "establishment"], "user_ratings_total": 1, "vicinity": "125 Newbury Street, Boston"}, "ChIJMVQtgwt644kRwGrxioBvgn8": {"geometry": {"location": {"lat": 42.3513565, "lng": -71.0767694}, "viewport": {"northeast": {"lat": 42.3526129802915, "lng": -71.0753742697085}, "southwest": {"lat": 42.3499150197085, "lng": -71.07807223029151}}}, "icon": "https://maps.gstatic.com/mapfiles/place_api/icons/generic_business-71.png", "id": "0ba4ba5116ef8d92a9caa62c7f271c010cb44be0", "name": "Arden Gallery Ltd.", "opening_hours": {"open_now": true}, "photos": [{"height": 2992, "html_attributions": ["<a href=\"https://maps.google.com/maps/contrib/112630801032357843120/photos\">Michael Lamont</a>"], "photo_reference": "CmRaAAAALu99z0crsxzx1kGp5_XV9ax9CYIsKYfuBGOACcASwDStul5bQOaVBg9d0UipVEfHAPz9D0fbEURq7SYVMV8ZFEtyas0HYRzjX9651T0D3PXwU7D_OFBQeCTUzWPC8j18EhBJeidSRMs1JVRo1xY7gjHEGhQ1547MRaOnkWHt_Er6sGUqh-MQXQ", "width": 4000}], "place_id": "ChIJMVQtgwt644kRwGrxioBvgn8", "plus_code": {"compound_code": "9W2F+G7 Boston, Massachusetts, United States", "global_code": "87JC9W2F+G7"}, "rating": 5, "reference": "ChIJMVQtgwt644kRwGrxioBvgn8", "scope": "GOOGLE", "types": ["art_gallery", "point_of_interest", "establishment"], "user_ratings_total": 2, "vicinity": "129 Newbury Street, Boston"}, "ChIJCXZCnQt644kR794rgAfZ3_4": {"geometry": {"location": {"lat": 42.3514359, "lng": -71.0766349}, "viewport": {"northeast": {"lat": 42.3526735802915, "lng": -71.07523036970849}, "southwest": {"lat": 42.3499756197085, "lng": -71.0779283302915}}}, "icon": "https://maps.gstatic.com/mapfiles/place_api/icons/shopping-71.png", "id": "a5e4bab63515e6aaacaef4fb4d1daf666e85e899", "name": "Faxon Green", "place_id": "ChIJCXZCnQt644kR794rgAfZ3_4", "plus_code": {"compound_code": "9W2F+H8 Boston, Massachusetts, United States", "global_code": "87JC9W2F+H8"}, "reference": "ChIJCXZCnQt644kR794rgAfZ3_4", "scope": "GOOGLE", "types": ["florist", "store", "point_of_interest", "establishment"], "vicinity": "125 Newbury Street, Boston"}, "ChIJbw8xgwt644kR-YNXJSEHuWg": {"geometry": {"location": {"lat": 42.3513582, "lng": -71.0767728}, "viewport": {"northeast": {"lat": 42.35261353029151, "lng": -71.07537711970849}, "southwest": {"lat": 42.34991556970851, "lng": -71.0780750802915}}}, "icon": "https://maps.gstatic.com/mapfiles/place_api/icons/generic_business-71.png", "id": "9dfd4567b5cfd000fbeed7343ba70d217ba52fe5", "name": "Lash L'Amour", "opening_hours": {"open_now": true}, "photos": [{"height": 479, "html_attributions": ["<a href=\"https://maps.google.com/maps/contrib/104774518475599033002/photos\">Lash L&#39;Amour</a>"], "photo_reference": "CmRaAAAALuFURCDn1k0ZOeHmI6P-UKN-ipsyIHY2NRxq_w3WYzgHf-S0CjRDZ-mFnUESlEUKEflu26o4gN9VQjjF3R2M0-txhP5KFbdlBIWIb5gq6d43MNfLDzI1AhWB6GBnC_OpEhD4ce6EB-8mJnC5Yc7nCLJBGhSUwMoXvyaxHWWxsfl29z56Kkhzaw", "width": 688}], "place_id": "ChIJbw8xgwt644kR-YNXJSEHuWg", "plus_code": {"compound_code": "9W2F+G7 Boston, Massachusetts, United States", "global_code": "87JC9W2F+G7"}, "rating": 5, "reference": "ChIJbw8xgwt644kR-YNXJSEHuWg", "scope": "GOOGLE", "types": ["beauty_salon", "hair_care", "spa", "point_of_interest", "establishment"], "user_ratings_total": 8, "vicinity": "129 Newbury Street #201, Boston"}, "ChIJMR2XfQx644kRV6RPYd4MPuo": {"geometry": {"location": {"lat": 42.351358, "lng": -71.076773}, "viewport": {"northeast": {"lat": 42.3526134302915, "lng": -71.0753773197085}, "southwest": {"lat": 42.3499154697085, "lng": -71.0780752802915}}}, "icon": "https://maps.gstatic.com/mapfiles/place_api/icons/generic_business-71.png", "id": "875173179f1365cd8920e1d6838855b0e88c2e3f", "name": "Boston International Real Estate", "opening_hours": {"open_now": true}, "place_id": "ChIJMR2XfQx644kRV6RPYd4MPuo", "plus_code": {"compound_code": "9W2F+G7 Boston, Massachusetts, United States", "global_code": "87JC9W2F+G7"}, "rating": 5, "reference": "ChIJMR2XfQx644kRV6RPYd4MPuo", "scope": "GOOGLE", "types": ["real_estate_agency", "point_of_interest", "establishment"], "user_ratings_total": 2, "vicinity": "129 Newbury Street, Boston"}, "ChIJX9DZpINw44kRUx9R4ZTFYzw": {"geometry": {"location": {"lat": 42.3513565, "lng": -71.0767694}, "viewport": {"northeast": {"lat": 42.3526129802915, "lng": -71.0753742697085}, "southwest": {"lat": 42.3499150197085, "lng": -71.07807223029151}}}, "icon": "https://maps.gstatic.com/mapfiles/place_api/icons/generic_business-71.png", "id": "8f13037b18bdc72b36ac3a7e22fa44d57233a99f", "name": "Hoffman Warnick LLC", "place_id": "ChIJX9DZpINw44kRUx9R4ZTFYzw", "plus_code": {"compound_code": "9W2F+G7 Boston, Massachusetts, United States", "global_code": "87JC9W2F+G7"}, "reference": "ChIJX9DZpINw44kRUx9R4ZTFYzw", "scope": "GOOGLE", "types": ["lawyer", "point_of_interest", "establishment"], "vicinity": "Floor 4, 129 Newbury Street, Boston"}, "ChIJXyDPnAt644kRom97fp7uZGQ": {"geometry": {"location": {"lat": 42.3513854, "lng": -71.0767742}, "viewport": {"northeast": {"lat": 42.3526285802915, "lng": -71.07537241970849}, "southwest": {"lat": 42.3499306197085, "lng": -71.0780703802915}}}, "icon": "https://maps.gstatic.com/mapfiles/place_api/icons/shopping-71.png", "id": "bfdc1321f8d269b7db4f2237ed6ed9a97e9ed3e3", "name": "Le Labo", "opening_hours": {"open_now": true}, "photos": [{"height": 2448, "html_attributions": ["<a href=\"https://maps.google.com/maps/contrib/107000170103846904702/photos\">Leon Vuong</a>"], "photo_reference": "CmRaAAAANR61Y7UlEZLFUKUmJtLhvTSt59BNf9FHekeLLypYq1BR-F2BrEAJUzBesyj_Z0lgF4tElFuUHuy9Mlh8VL2M1A9fF3F-RE8CMOJvr_P1MOkkVAmvYAQkM8Jj7_IuEFkAEhCE5ulesr2Su4ac_HQwpw7YGhSihGQLzcGpvgL9a5UuP2HDB9TqFw", "width": 3264}], "place_id": "ChIJXyDPnAt644kRom97fp7uZGQ", "plus_code": {"compound_code": "9W2F+H7 Boston, Massachusetts, United States", "global_code": "87JC9W2F+H7"}, "rating": 4.8, "reference": "ChIJXyDPnAt644kRom97fp7uZGQ", "scope": "GOOGLE", "types": ["clothing_store", "store", "point_of_interest", "establishment"], "user_ratings_total": 14, "vicinity": "129 Newbury Street, Boston"}, "ChIJSSaC6YBw44kRDjmrVjDxx70": {"geometry": {"location": {"lat": 42.3513582, "lng": -71.0767728}, "viewport": {"northeast": {"lat": 42.35261353029151, "lng": -71.07537711970849}, "southwest": {"lat": 42.34991556970851, "lng": -71.0780750802915}}}, "icon": "https://maps.gstatic.com/mapfiles/place_api/icons/bank_dollar-71.png", "id": "b743402c3bb53292624994676601ed3fe3f84c56", "name": "Beamonte Investments", "opening_hours": {"open_now": true}, "photos": [{"height": 2736, "html_attributions": ["<a href=\"https://maps.google.com/maps/contrib/100628473439156856634/photos\">Beamonte Investments</a>"], "photo_reference": "CmRaAAAAZ7zar6_fwxNlJ86g5pReyxEGoC96pyNAgHzcQApPGhA-v2mnann0x37Ow8dFkS5LGAt743nmLMxF7vQSTro9kuZaZbQQGH6YBwdA0n69SELPDntVY4FSvdalWn7PITx6EhCca2Vib-04jSIx3nJstvS2GhSJp_pNXE-rEEPKw2ewdHi8_vAMEw", "width": 3648}], "place_id": "ChIJSSaC6YBw44kRDjmrVjDxx70", "plus_code": {"compound_code": "9W2F+G7 Boston, Massachusetts, United States", "global_code": "87JC9W2F+G7"}, "reference": "ChIJSSaC6YBw44kRDjmrVjDxx70", "scope": "GOOGLE", "types": ["bank", "finance", "point_of_interest", "establishment"], "vicinity": "129 Newbury St, 3rd Floor, Boston"}, "ChIJi90MnQt644kRK1G5Wkn-VeU": {"geometry": {"location": {"lat": 42.351436, "lng": -71.076635}, "viewport": {"northeast": {"lat": 42.3526736302915, "lng": -71.07523046970849}, "southwest": {"lat": 42.3499756697085, "lng": -71.0779284302915}}}, "icon": "https://maps.gstatic.com/mapfiles/place_api/icons/generic_business-71.png", "id": "3c088a816f858ac14aa197ed9730df4867f14906", "name": "Lisa Tharp Design", "photos": [{"height": 3550, "html_attributions": ["<a href=\"https://maps.google.com/maps/contrib/103247942443082141804/photos\">Lisa Tharp Design</a>"], "photo_reference": "CmRaAAAApcdvEIn_7p24A2lllhIUNKNiFrNneF_m-uNh4Sw3e_hOjynMHeKYWwUWu7KRtAkV3SykV-3ccjr76scq8dtmHdA3BqxSZjy9OnksKTMuUPbgUj0Wxt1ktD1DbJKfrxzLEhBOLy_Pe_I13VRgyN0NCn-4GhTPGef1tRguGUwnJZii_T-DO0v7eA", "width": 4574}], "place_id": "ChIJi90MnQt644kRK1G5Wkn-VeU", "plus_code": {"compound_code": "9W2F+H8 Boston, Massachusetts, United States", "global_code": "87JC9W2F+H8"}, "rating": 4.8, "reference": "ChIJi90MnQt644kRK1G5Wkn-VeU", "scope": "GOOGLE", "types": ["general_contractor", "point_of_interest", "establishment"], "user_ratings_total": 6, "vicinity": "125 Newbury Street, Boston"}, "ChIJ-QjCLwN444kRg11SMtypw1Q": {"geometry": {"location": {"lat": 42.35135700000001, "lng": -71.076769}, "viewport": {"northeast": {"lat": 42.3526133302915, "lng": -71.07537376970849}, "southwest": {"lat": 42.3499153697085, "lng": -71.0780717302915}}}, "icon": "https://maps.gstatic.com/mapfiles/place_api/icons/generic_business-71.png", "id": "b75134dd666e1a8781da58a90dc2c9f8318a774a", "name": "BostonExcel", "opening_hours": {"open_now": true}, "place_id": "ChIJ-QjCLwN444kRg11SMtypw1Q", "plus_code": {"compound_code": "9W2F+G7 Boston, Massachusetts, United States", "global_code": "87JC9W2F+G7"}, "reference": "ChIJ-QjCLwN444kRg11SMtypw1Q", "scope": "GOOGLE", "types": ["point_of_interest", "establishment"], "vicinity": "129 Newbury Street, 2nd Floor, Boston"}, "ChIJb9_OnAt644kRdwWo8MlbAD8": {"geometry": {"location": {"lat": 42.3513565, "lng": -71.0767693}, "viewport": {"northeast": {"lat": 42.3526130302915, "lng": -71.07537416970851}, "southwest": {"lat": 42.3499150697085, "lng": -71.07807213029152}}}, "icon": "https://maps.gstatic.com/mapfiles/place_api/icons/generic_business-71.png", "id": "1d9051e82cc83cc957b79f221ba29962912abf66", "name": "Agate Consulting, Inc", "place_id": "ChIJb9_OnAt644kRdwWo8MlbAD8", "plus_code": {"compound_code": "9W2F+G7 Boston, Massachusetts, United States", "global_code": "87JC9W2F+G7"}, "reference": "ChIJb9_OnAt644kRdwWo8MlbAD8", "scope": "GOOGLE", "types": ["point_of_interest", "establishment"], "vicinity": "2, 129 Newbury Street, Boston"}, "ChIJb9_OnAt644kRhUBRS98iuE4": {"geometry": {"location": {"lat": 42.3513565, "lng": -71.0767693}, "viewport": {"northeast": {"lat": 42.3526130302915, "lng": -71.07537416970851}, "southwest": {"lat": 42.3499150697085, "lng": -71.07807213029152}}}, "icon": "https://maps.gstatic.com/mapfiles/place_api/icons/generic_business-71.png", "id": "61e2abd765826c48d90a7d0e910fcab478704ab4", "name": "Harrison Brammmell.", "place_id": "ChIJb9_OnAt644kRhUBRS98iuE4", "plus_code": {"compound_code": "9W2F+G7 Boston, Massachusetts, United States", "global_code": "87JC9W2F+G7"}, "reference": "ChIJb9_OnAt644kRhUBRS98iuE4", "scope": "GOOGLE", "types": ["art_gallery", "point_of_interest", "establishment"], "vicinity": "129 Newbury Street, Boston"}, "ChIJb9_OnAt644kRix9zgGkyBt8": {"geometry": {"location": {"lat": 42.3513565, "lng": -71.0767693}, "viewport": {"northeast": {"lat": 42.3526130302915, "lng": -71.07537416970851}, "southwest": {"lat": 42.3499150697085, "lng": -71.07807213029152}}}, "icon": "https://maps.gstatic.com/mapfiles/place_api/icons/generic_business-71.png", "id": "931190fadaf6c21f322e40185fafb8bfeb0b77e9", "name": "Sherrie Wolf Studio", "place_id": "ChIJb9_OnAt644kRix9zgGkyBt8", "plus_code": {"compound_code": "9W2F+G7 Boston, Massachusetts, United States", "global_code": "87JC9W2F+G7"}, "reference": "ChIJb9_OnAt644kRix9zgGkyBt8", "scope": "GOOGLE", "types": ["point_of_interest", "establishment"], "vicinity": "129 Newbury Street, Boston"}, "ChIJa9_OnAt644kR0l03i3CJZ0k": {"geometry": {"location": {"lat": 42.3513565, "lng": -71.0767694}, "viewport": {"northeast": {"lat": 42.3526129802915, "lng": -71.0753742697085}, "southwest": {"lat": 42.3499150197085, "lng": -71.07807223029151}}}, "icon": "https://maps.gstatic.com/mapfiles/place_api/icons/generic_business-71.png", "id": "0253c26748783b14192f875dae13bdff72a94e29", "name": "Primary", "opening_hours": {"open_now": true}, "photos": [{"height": 608, "html_attributions": ["<a href=\"https://maps.google.com/maps/contrib/103045537508393649708/photos\">Primary</a>"], "photo_reference": "CmRaAAAAyWx-Hz895w5Ko_JUydwFIF_RXf1asuWoDocNj_R_lNzxP6g6qTz6qz3uLzCKJ7r0l0lF76aFjQv1GLrU_NzDOvgc4Ld0fAF0W8zuim9sp-c0baO7w2B3tfmzAYrbhqr_EhAPQkaucU0ChPmv2BRlhJvQGhRRsQXpOfrF73Bm0qCsFdDjI3DpZw", "width": 1080}], "place_id": "ChIJa9_OnAt644kR0l03i3CJZ0k", "plus_code": {"compound_code": "9W2F+G7 Boston, Massachusetts, United States", "global_code": "87JC9W2F+G7"}, "reference": "ChIJa9_OnAt644kR0l03i3CJZ0k", "scope": "GOOGLE", "types": ["point_of_interest", "establishment"], "vicinity": "129 Newbury Street, 2nd Floor, Boston"}, "ChIJa9_OnAt644kRhnIceOLC2fc": {"geometry": {"location": {"lat": 42.3513565, "lng": -71.0767694}, "viewport": {"northeast": {"lat": 42.3526129802915, "lng": -71.0753742697085}, "southwest": {"lat": 42.3499150197085, "lng": -71.07807223029151}}}, "icon": "https://maps.gstatic.com/mapfiles/place_api/icons/shopping-71.png", "id": "319ca2e29e27c744c1d090d30664e98a76cd55ae", "name": "The Rug Company", "opening_hours": {"open_now": true}, "photos": [{"height": 4276, "html_attributions": ["<a href=\"https://maps.google.com/maps/contrib/117036375674928507045/photos\">The Rug Company</a>"], "photo_reference": "CmRaAAAAmGGjvAidnOIciaDmufGbKTlclxbG91xDNLXaBS2SHaQv49LazJ5EFUQTjKy5ebJFRXY8Y2UTIUYQeV00TJ5_N6emrcZ3JuFDJhhux4dIZm1J-gHNxLuG1e1enRDRemFJEhA5CulMcEhayl1q4CwQQ9EQGhRbhCLGOmli5RdycV2o8wWQite9NA", "width": 6493}], "place_id": "ChIJa9_OnAt644kRhnIceOLC2fc", "plus_code": {"compound_code": "9W2F+G7 Boston, Massachusetts, United States", "global_code": "87JC9W2F+G7"}, "rating": 3, "reference": "ChIJa9_OnAt644kRhnIceOLC2fc", "scope": "GOOGLE", "types": ["store", "point_of_interest", "establishment"], "user_ratings_total": 2, "vicinity": "129 Newbury Street, Boston"}, "ChIJa9_OnAt644kRpBameR2o1LQ": {"geometry": {"location": {"lat": 42.3513565, "lng": -71.0767694}, "viewport": {"northeast": {"lat": 42.3526129802915, "lng": -71.0753742697085}, "southwest": {"lat": 42.3499150197085, "lng": -71.07807223029151}}}, "icon": "https://maps.gstatic.com/mapfiles/place_api/icons/generic_business-71.png", "id": "baf8935c647116476b4e2733df462960f8a5252e", "name": "The Beckingham Group, LLC", "photos": [{"height": 1569, "html_attributions": ["<a href=\"https://maps.google.com/maps/contrib/106366594863351281491/photos\">The Beckingham Group, LLC</a>"], "photo_reference": "CmRaAAAA_VXX0peso8PFwRrnneaQ9f3fJ75Tsv3ykqXMSuKKzDX5UVZ7XYiIHi8IZnBWgwUumW65iuCKvCIb0KovAA2VJPGADiSfz4BJC8PQQGsvb6YvKzsje5Gom5bR4czT3kOmEhAAIzaerUa7_adEZqeQecF9GhTmLCDwcMXGotedUp7Al7bi6lvGug", "width": 1224}], "place_id": "ChIJa9_OnAt644kRpBameR2o1LQ", "plus_code": {"compound_code": "9W2F+G7 Boston, Massachusetts, United States", "global_code": "87JC9W2F+G7"}, "reference": "ChIJa9_OnAt644kRpBameR2o1LQ", "scope": "GOOGLE", "types": ["real_estate_agency", "point_of_interest", "establishment"], "vicinity": "129 Newbury Street, 2nd fl., Boston"}, "ChIJ4SvPnAt644kRBSsjK3gAAwM": {"geometry": {"location": {"lat": 42.3513582, "lng": -71.0767728}, "viewport": {"northeast": {"lat": 42.35261353029151, "lng": -71.07537711970849}, "southwest": {"lat": 42.34991556970851, "lng": -71.0780750802915}}}, "icon": "https://maps.gstatic.com/mapfiles/place_api/icons/generic_business-71.png", "id": "73ee63ff8ae46fbb24cc4087da5c18b2233d4793", "name": "MDO Realty Advisors", "place_id": "ChIJ4SvPnAt644kRBSsjK3gAAwM", "plus_code": {"compound_code": "9W2F+G7 Boston, Massachusetts, United States", "global_code": "87JC9W2F+G7"}, "reference": "ChIJ4SvPnAt644kRBSsjK3gAAwM", "scope": "GOOGLE", "types": ["real_estate_agency", "point_of_interest", "establishment"], "vicinity": "129 Newbury Street, Boston"}, "ChIJsfUV-A5644kRxFubWZLMo7w": {"geometry": {"location": {"lat": 42.35026480000001, "lng": -71.0809757}, "viewport": {"northeast": {"lat": 42.356983, "lng": -71.07028989999999}, "southwest": {"lat": 42.341597, "lng": -71.0932962}}}, "icon": "https://maps.gstatic.com/mapfiles/place_api/icons/geocode-71.png", "id": "33919fd9e49b0cde06af64b330ab949ba88171ff", "name": "Back Bay", "photos": [{"height": 3936, "html_attributions": ["<a href=\"https://maps.google.com/maps/contrib/102900160723668849003/photos\">Jim Stanford</a>"], "photo_reference": "CmRaAAAAs27mWTfR5jBBk-OjP1gbgUnqisnUN5OrB23YNxql-PsUOVjTVRllarIbQfagRbOFoW4NQXh9zbnp_m9GFxz6QHG3KWlwEfy9-8V8XsAxPCuVSHmsKhbwTsDs8OwlKSf6EhDqGPGOPeTTvivxT8MC3LqZGhSmAj_-eCLtKm_hjLC-4xxnk8LlnQ", "width": 5248}], "place_id": "ChIJsfUV-A5644kRxFubWZLMo7w", "reference": "ChIJsfUV-A5644kRxFubWZLMo7w", "scope": "GOOGLE", "types": ["neighborhood", "political"], "vicinity": "Boston"}, "ChIJ4SvPnAt644kRsp-MNfq-z_k": {"geometry": {"location": {"lat": 42.3513582, "lng": -71.0767728}, "viewport": {"northeast": {"lat": 42.35261353029151, "lng": -71.07537711970849}, "southwest": {"lat": 42.34991556970851, "lng": -71.0780750802915}}}, "icon": "https://maps.gstatic.com/mapfiles/place_api/icons/generic_business-71.png", "id": "2585685ddf87028591fafdf944a76c4674169a80", "name": "ICC", "place_id": "ChIJ4SvPnAt644kRsp-MNfq-z_k", "plus_code": {"compound_code": "9W2F+G7 Boston, Massachusetts, United States", "global_code": "87JC9W2F+G7"}, "reference": "ChIJ4SvPnAt644kRsp-MNfq-z_k", "scope": "GOOGLE", "types": ["point_of_interest", "establishment"], "vicinity": "129 Newbury Street, Boston"}, "ChIJ4SvPnAt644kRROmNDEXyrbY": {"geometry": {"location": {"lat": 42.3513582, "lng": -71.0767728}, "viewport": {"northeast": {"lat": 42.35261353029151, "lng": -71.07537711970849}, "southwest": {"lat": 42.34991556970851, "lng": -71.0780750802915}}}, "icon": "https://maps.gstatic.com/mapfiles/place_api/icons/generic_business-71.png", "id": "3a8cd5a068a6bbb50e2667f9e8276d2fbbd9eb17", "name": "MarathonCFO", "place_id": "ChIJ4SvPnAt644kRROmNDEXyrbY", "plus_code": {"compound_code": "9W2F+G7 Boston, Massachusetts, United States", "global_code": "87JC9W2F+G7"}, "rating": 5, "reference": "ChIJ4SvPnAt644kRROmNDEXyrbY", "scope": "GOOGLE", "types": ["point_of_interest", "establishment"], "user_ratings_total": 1, "vicinity": "129 Newbury Street, Boston"}, "ChIJ4SvPnAt644kRK44_RPCgXMo": {"geometry": {"location": {"lat": 42.3513582, "lng": -71.0767728}, "viewport": {"northeast": {"lat": 42.35261353029151, "lng": -71.07537711970849}, "southwest": {"lat": 42.34991556970851, "lng": -71.0780750802915}}}, "icon": "https://maps.gstatic.com/mapfiles/place_api/icons/generic_business-71.png", "id": "d51129260acfe8fc179560de3b927cebcca26bbf", "name": "Webfix Studio", "opening_hours": {"open_now": true}, "photos": [{"height": 1535, "html_attributions": ["<a href=\"https://maps.google.com/maps/contrib/113673505248699578093/photos\">Webfix Studio</a>"], "photo_reference": "CmRaAAAA3qrXNvWyR0PHiDDHNTKc0Uos1dP7Z3n1jnU1eBe3fIpRpQeaTqH-A4utI0TdWzNBTfQWzlusF59ODpjRVNfzJsBrN0aRE6637KX40cxUzW7-VC2A6WgQA6i5a76ToLM4EhDI_JK-UZPah_DCQ2yO9EsaGhRhhNe2PA7g7b_vfznIFQM5JqqrcQ", "width": 2048}], "place_id": "ChIJ4SvPnAt644kRK44_RPCgXMo", "plus_code": {"compound_code": "9W2F+G7 Boston, Massachusetts, United States", "global_code": "87JC9W2F+G7"}, "rating": 5, "reference": "ChIJ4SvPnAt644kRK44_RPCgXMo", "scope": "GOOGLE", "types": ["point_of_interest", "establishment"], "user_ratings_total": 5, "vicinity": "129 Newbury Street Suite 400, Boston"}, "ChIJVVXBnAt644kRn04R8N-SHEw": {"geometry": {"location": {"lat": 42.3513854, "lng": -71.0767742}, "viewport": {"northeast": {"lat": 42.3526285802915, "lng": -71.07537241970849}, "southwest": {"lat": 42.3499306197085, "lng": -71.0780703802915}}}, "icon": "https://maps.gstatic.com/mapfiles/place_api/icons/generic_business-71.png", "id": "5c008757081d21c1d2514310479f73aa0372caf6", "name": "welcome to cf funding & investments", "place_id": "ChIJVVXBnAt644kRn04R8N-SHEw", "plus_code": {"compound_code": "9W2F+H7 Boston, Massachusetts, United States", "global_code": "87JC9W2F+H7"}, "reference": "ChIJVVXBnAt644kRn04R8N-SHEw", "scope": "GOOGLE", "types": ["point_of_interest", "establishment"], "vicinity": "129 Newbury Street, Boston"}, "ChIJVVXBnAt644kR1ChWRsLdQ7c": {"geometry": {"location": {"lat": 42.3513854, "lng": -71.0767742}, "viewport": {"northeast": {"lat": 42.3526285802915, "lng": -71.07537241970849}, "southwest": {"lat": 42.3499306197085, "lng": -71.0780703802915}}}, "icon": "https://maps.gstatic.com/mapfiles/place_api/icons/generic_business-71.png", "id": "0c414919925fb179af0483640181eb82d6ffb892", "name": "Ally Integrated Healthcare", "opening_hours": {"open_now": true}, "place_id": "ChIJVVXBnAt644kR1ChWRsLdQ7c", "plus_code": {"compound_code": "9W2F+H7 Boston, Massachusetts, United States", "global_code": "87JC9W2F+H7"}, "rating": 5, "reference": "ChIJVVXBnAt644kR1ChWRsLdQ7c", "scope": "GOOGLE", "types": ["doctor", "health", "point_of_interest", "establishment"], "user_ratings_total": 3, "vicinity": "129 Newbury Street, Boston"}, "ChIJVVUJnQt644kRsL8Zd3wWF1A": {"geometry": {"location": {"lat": 42.3514359, "lng": -71.0766349}, "viewport": {"northeast": {"lat": 42.3526735802915, "lng": -71.07523036970849}, "southwest": {"lat": 42.3499756197085, "lng": -71.0779283302915}}}, "icon": "https://maps.gstatic.com/mapfiles/place_api/icons/generic_business-71.png", "id": "23fa4545d6b77b010bc26d6270fa540404a8adea", "name": "Tactical Realty Group", "place_id": "ChIJVVUJnQt644kRsL8Zd3wWF1A", "plus_code": {"compound_code": "9W2F+H8 Boston, Massachusetts, United States", "global_code": "87JC9W2F+H8"}, "reference": "ChIJVVUJnQt644kRsL8Zd3wWF1A", "scope": "GOOGLE", "types": ["real_estate_agency", "point_of_interest", "establishment"], "vicinity": "125 Newbury Street, Boston"}, "ChIJbw8xgwt644kRO7hyxEtmQYU": {"geometry": {"location": {"lat": 42.3513565, "lng": -71.0767694}, "viewport": {"northeast": {"lat": 42.3526129802915, "lng": -71.0753742697085}, "southwest": {"lat": 42.3499150197085, "lng": -71.07807223029151}}}, "icon": "https://maps.gstatic.com/mapfiles/place_api/icons/generic_business-71.png", "id": "81a9de242a371ef4b6c230eab0a0c5e4e3cd599b", "name": "Fred Collins Studio Inc", "photos": [{"height": 435, "html_attributions": ["<a href=\"https://maps.google.com/maps/contrib/115916692123462581792/photos\">Fred Collins Studio Inc</a>"], "photo_reference": "CmRaAAAAbXZ1plz6IbbTO0-CKaQqxH3vRWsn3mQsz5z1grbw_xOFH9Em4QWQaLSv4qUQ2CEke3WatUG6LPdvdJALC4cgDUvWecCDeUqOXMfLkBvJYMfB1MiWy543bVrxeai7w73VEhCFK_xUxtm2Ef9zjpQUjfeQGhSOlU-XXBgIddBL2lSvXB5Oi9zl3w", "width": 640}], "place_id": "ChIJbw8xgwt644kRO7hyxEtmQYU", "plus_code": {"compound_code": "9W2F+G7 Boston, Massachusetts, United States", "global_code": "87JC9W2F+G7"}, "reference": "ChIJbw8xgwt644kRO7hyxEtmQYU", "scope": "GOOGLE", "types": ["point_of_interest", "establishment"], "vicinity": "129 Newbury Street, Boston"}, "ChIJ___DnAt644kR-I8XYgywHwk": {"geometry": {"location": {"lat": 42.3513854, "lng": -71.0767741}, "viewport": {"northeast": {"lat": 42.3526286302915, "lng": -71.07537236970849}, "southwest": {"lat": 42.3499306697085, "lng": -71.0780703302915}}}, "icon": "https://maps.gstatic.com/mapfiles/place_api/icons/generic_business-71.png", "id": "913aaeab2b8811e191eaa9e87ed57e4726a59e0e", "name": "Kordova", "place_id": "ChIJ___DnAt644kR-I8XYgywHwk", "plus_code": {"compound_code": "9W2F+H7 Boston, Massachusetts, United States", "global_code": "87JC9W2F+H7"}, "reference": "ChIJ___DnAt644kR-I8XYgywHwk", "scope": "GOOGLE", "types": ["point_of_interest", "establishment"], "vicinity": "2, 129 Newbury Street, Boston"}, "ChIJ___DnAt644kREcvViN_qyRw": {"geometry": {"location": {"lat": 42.3513854, "lng": -71.0767741}, "viewport": {"northeast": {"lat": 42.3526286302915, "lng": -71.07537236970849}, "southwest": {"lat": 42.3499306697085, "lng": -71.0780703302915}}}, "icon": "https://maps.gstatic.com/mapfiles/place_api/icons/generic_business-71.png", "id": "1c0d6383dee27cddceec11051ea61cf934c6c136", "name": "Automation Board", "place_id": "ChIJ___DnAt644kREcvViN_qyRw", "plus_code": {"compound_code": "9W2F+H7 Boston, Massachusetts, United States", "global_code": "87JC9W2F+H7"}, "reference": "ChIJ___DnAt644kREcvViN_qyRw", "scope": "GOOGLE", "types": ["point_of_interest", "establishment"], "vicinity": "129 Newbury Street Suite 400, Boston"}, "ChIJ4RwwzbV744kR_3YHxysy3J0": {"geometry": {"location": {"lat": 42.3513854, "lng": -71.0767742}, "viewport": {"northeast": {"lat": 42.3526285802915, "lng": -71.07537241970849}, "southwest": {"lat": 42.3499306197085, "lng": -71.0780703802915}}}, "icon": "https://maps.gstatic.com/mapfiles/place_api/icons/generic_business-71.png", "id": "916c3a290aac40b12497ba030c228ad7e3994922", "name": "Rugged Coastal", "opening_hours": {"open_now": true}, "photos": [{"height": 3044, "html_attributions": ["<a href=\"https://maps.google.com/maps/contrib/102947545597420081999/photos\">Rugged Coastal</a>"], "photo_reference": "CmRaAAAAilRUq_j-kIXaowTCh5PwGdf9rqsCzvmnFup2Henh6W_PFprAKtoD4hNSJ9AHdwvny-VXxakLF1FqkBCrqMkHrEjJZ5bpeH_vhgAci4hmT1FpeG2uDd63bo0qKM8v0E1BEhCNk-3S5ncfDhqCROyYEAJ5GhQWJ3c-AgZntrov4n2H-cS8EkVcKA", "width": 4096}], "place_id": "ChIJ4RwwzbV744kR_3YHxysy3J0", "plus_code": {"compound_code": "9W2F+H7 Boston, Massachusetts, United States", "global_code": "87JC9W2F+H7"}, "reference": "ChIJ4RwwzbV744kR_3YHxysy3J0", "scope": "GOOGLE", "types": ["point_of_interest", "establishment"], "vicinity": "129 Newbury Street #400, Boston"}, "ChIJyahzSsN744kRBtTP8qSfDhQ": {"geometry": {"location": {"lat": 42.3513854, "lng": -71.0767742}, "viewport": {"northeast": {"lat": 42.3526285802915, "lng": -71.07537241970849}, "southwest": {"lat": 42.3499306197085, "lng": -71.0780703802915}}}, "icon": "https://maps.gstatic.com/mapfiles/place_api/icons/shopping-71.png", "id": "a9e1a194cadf480ea42290092855191ac293a0c4", "name": "Risk Free Kitchen Remodeling Boston", "opening_hours": {"open_now": true}, "photos": [{"height": 1067, "html_attributions": ["<a href=\"https://maps.google.com/maps/contrib/101610160404500583926/photos\">Risk Free Kitchen Remodeling Boston</a>"], "photo_reference": "CmRaAAAAPzhMpNO5FNbdkzjL9dX71eO3vB4sbe77X_YKTM8Ho3Eg0LX8AuCTf9wmX3hE9B9q_71ao8sEo2sXSbviO6A-bR-EyQRNE0F1BL2NJ4eoLAlLpHuo0aJVO4OlocLNtVbnEhCSywEUXkKiOyDZKtbd_qWRGhRpkN5Q6bdKEVJI331jqEvU1RvW0Q", "width": 1600}], "place_id": "ChIJyahzSsN744kRBtTP8qSfDhQ", "plus_code": {"compound_code": "9W2F+H7 Boston, Massachusetts, United States", "global_code": "87JC9W2F+H7"}, "rating": 5, "reference": "ChIJyahzSsN744kRBtTP8qSfDhQ", "scope": "GOOGLE", "types": ["home_goods_store", "store", "general_contractor", "point_of_interest", "establishment"], "user_ratings_total": 3, "vicinity": "129 Newbury Street 2nd Floor, Boston"}, "ChIJneFZiwJ744kR4rj7-jz5emc": {"geometry": {"location": {"lat": 42.3513854, "lng": -71.0767742}, "viewport": {"northeast": {"lat": 42.3526285802915, "lng": -71.07537241970849}, "southwest": {"lat": 42.3499306197085, "lng": -71.0780703802915}}}, "icon": "https://maps.gstatic.com/mapfiles/place_api/icons/generic_business-71.png", "id": "354ccbc6fe9843bd91541576bf3266690579eefb", "name": "Bright Space Realty", "opening_hours": {"open_now": true}, "place_id": "ChIJneFZiwJ744kR4rj7-jz5emc", "plus_code": {"compound_code": "9W2F+H7 Boston, Massachusetts, United States", "global_code": "87JC9W2F+H7"}, "reference": "ChIJneFZiwJ744kR4rj7-jz5emc", "scope": "GOOGLE", "types": ["real_estate_agency", "point_of_interest", "establishment"], "vicinity": "129 Newbury Street, Boston"}, "ChIJ00ucJLd744kRTt8xGiri06g": {"geometry": {"location": {"lat": 42.3513854, "lng": -71.0767742}, "viewport": {"northeast": {"lat": 42.3526285802915, "lng": -71.07537241970849}, "southwest": {"lat": 42.3499306197085, "lng": -71.0780703802915}}}, "icon": "https://maps.gstatic.com/mapfiles/place_api/icons/generic_business-71.png", "id": "097e6cb6a5c315a306b9dc9961a60dc0d37a7570", "name": "LawnStarter Lawn Care Service", "opening_hours": {"open_now": true}, "photos": [{"height": 578, "html_attributions": ["<a href=\"https://maps.google.com/maps/contrib/102938279116485520317/photos\">LawnStarter Lawn Care Service</a>"], "photo_reference": "CmRaAAAA753Ze_Vm2VuqFdb0EoJqAUMwAZdDCoBS1ZYvd7iCzrrc0CF8RipC4zh87OpV-QtwSZxBc4_3m47akqtJYFLZ3uhw0DtVE96iS2ctZ6EuKEDfeEQCkt6eaxGbj7XK9CPoEhBv-Ed63tREU5bzf0djifdzGhSOje1PqlGChOjJHN4jIySS2rYV9g", "width": 579}], "place_id": "ChIJ00ucJLd744kRTt8xGiri06g", "plus_code": {"compound_code": "9W2F+H7 Boston, Massachusetts, United States", "global_code": "87JC9W2F+H7"}, "reference": "ChIJ00ucJLd744kRTt8xGiri06g", "scope": "GOOGLE", "types": ["point_of_interest", "establishment"], "vicinity": "129 Newbury Street 2nd floor Suite, Boston"}, "ChIJ3xOfmN5744kRQIrPXLALaAQ": {"geometry": {"location": {"lat": 42.3514359, "lng": -71.0766349}, "viewport": {"northeast": {"lat": 42.3526735802915, "lng": -71.07523036970849}, "southwest": {"lat": 42.3499756197085, "lng": -71.0779283302915}}}, "icon": "https://maps.gstatic.com/mapfiles/place_api/icons/generic_business-71.png", "id": "230bb3fae47a83c03715ee816a256cd1b632730f", "name": "Ball and Buck Barbershop", "opening_hours": {"open_now": true}, "place_id": "ChIJ3xOfmN5744kRQIrPXLALaAQ", "plus_code": {"compound_code": "9W2F+H8 Boston, Massachusetts, United States", "global_code": "87JC9W2F+H8"}, "reference": "ChIJ3xOfmN5744kRQIrPXLALaAQ", "scope": "GOOGLE", "types": ["hair_care", "health", "point_of_interest", "establishment"], "vicinity": "125 Newbury Street, Boston"}, "ChIJHRnYLx9744kR5EW_RlVCuMc": {"geometry": {"location": {"lat": 42.3514359, "lng": -71.0766349}, "viewport": {"northeast": {"lat": 42.3526735802915, "lng": -71.07523036970849}, "southwest": {"lat": 42.3499756197085, "lng": -71.0779283302915}}}, "icon": "https://maps.gstatic.com/mapfiles/place_api/icons/cafe-71.png", "id": "ed263e2aecaafce0aa91f17d04ff6f08e0043ca4", "name": "Jonquil's Cafe and Bakery", "place_id": "ChIJHRnYLx9744kR5EW_RlVCuMc", "plus_code": {"compound_code": "9W2F+H8 Boston, Massachusetts, United States", "global_code": "87JC9W2F+H8"}, "reference": "ChIJHRnYLx9744kR5EW_RlVCuMc", "scope": "GOOGLE", "types": ["cafe", "point_of_interest", "food", "establishment"], "vicinity": "125 Newbury Street, Boston"}, "ChIJSTgn7Rd744kRjOqR67Z55NM": {"geometry": {"location": {"lat": 42.3514359, "lng": -71.0766349}, "viewport": {"northeast": {"lat": 42.3526735802915, "lng": -71.07523036970849}, "southwest": {"lat": 42.3499756197085, "lng": -71.0779283302915}}}, "icon": "https://maps.gstatic.com/mapfiles/place_api/icons/generic_business-71.png", "id": "b7bb9fa58a87435217e80c31e7282b105bf47420", "name": "Rogue Barbers", "opening_hours": {"open_now": true}, "photos": [{"height": 2247, "html_attributions": ["<a href=\"https://maps.google.com/maps/contrib/112185258887539298213/photos\">Rogue Barbers</a>"], "photo_reference": "CmRaAAAAQKfE6bqUEPqUq1bBppIcMAnbuVOAJ7RKmEdyKEvpCeb8tfWMHwN7QjSOut9JuRkTo0-7poIyYsN0IsK0Uho7_WuRzNKrbQ8kmwmZxtM9ZJZnVw7_e5Kr8EL4LwdMFfPrEhCEH3D_Yi0uEob04olwUkjOGhSRtmwzD7R1R2OH9THC_NigqPhzTA", "width": 2245}], "place_id": "ChIJSTgn7Rd744kRjOqR67Z55NM", "plus_code": {"compound_code": "9W2F+H8 Boston, Massachusetts, United States", "global_code": "87JC9W2F+H8"}, "reference": "ChIJSTgn7Rd744kRjOqR67Z55NM", "scope": "GOOGLE", "types": ["hair_care", "health", "point_of_interest", "establishment"], "vicinity": "125 Newbury Street Suite 200, Boston"}, "ChIJ4SvPnAt644kRz79zJrNdIiM": {"geometry": {"location": {"lat": 42.35138389999999, "lng": -71.0767824}, "viewport": {"northeast": {"lat": 42.3526267802915, "lng": -71.07538046970849}, "southwest": {"lat": 42.3499288197085, "lng": -71.07807843029151}}}, "icon": "https://maps.gstatic.com/mapfiles/place_api/icons/generic_business-71.png", "id": "15e64fe4f917833c78c16d568a06a08ba284ece7", "name": "RooSites Web Development", "opening_hours": {"open_now": true}, "photos": [{"height": 519, "html_attributions": ["<a href=\"https://maps.google.com/maps/contrib/100833665853126778571/photos\">RooSites Web Development</a>"], "photo_reference": "CmRaAAAA1iGdb7Nf_zeFj5_cJzIvOBkVW4Ld2GWYaAlrRcy6Wg7RQppn84Nva9nUulfckQ6xxK8_Xr7bz8NC1rsw5uwhh0uVWOGCK3vr1E7VcSAPcAit-kWUXtvMwtc2o5imbcQdEhDnEZOX6-vqqEcU1IK24wYZGhQyFsRoyHMGJ-9NgTGkWLep1QPzQw", "width": 900}], "place_id": "ChIJ4SvPnAt644kRz79zJrNdIiM", "plus_code": {"compound_code": "9W2F+H7 Boston, Massachusetts, United States", "global_code": "87JC9W2F+H7"}, "rating": 5, "reference": "ChIJ4SvPnAt644kRz79zJrNdIiM", "scope": "GOOGLE", "types": ["point_of_interest", "establishment"], "user_ratings_total": 2, "vicinity": "129 Newbury Street F3, Boston"}, "ChIJCXZCnQt644kRUvgofj8aMyo": {"geometry": {"location": {"lat": 42.3514251, "lng": -71.0766174}, "viewport": {"northeast": {"lat": 42.35266963029149, "lng": -71.07521631970849}, "southwest": {"lat": 42.34997166970849, "lng": -71.0779142802915}}}, "icon": "https://maps.gstatic.com/mapfiles/place_api/icons/generic_business-71.png", "id": "88aaf4fa04c290d8c923e3d49286c58362a364f5", "name": "Shelly Margaret MD", "place_id": "ChIJCXZCnQt644kRUvgofj8aMyo", "plus_code": {"compound_code": "9W2F+H9 Boston, Massachusetts, United States", "global_code": "87JC9W2F+H9"}, "rating": 2, "reference": "ChIJCXZCnQt644kRUvgofj8aMyo", "scope": "GOOGLE", "types": ["doctor", "health", "point_of_interest", "establishment"], "user_ratings_total": 1, "vicinity": "125 Newbury Street, Boston"}, "ChIJa9_OnAt644kRS2AeX-x-sWU": {"geometry": {"location": {"lat": 42.3513565, "lng": -71.0767693}, "viewport": {"northeast": {"lat": 42.3526130302915, "lng": -71.07537416970851}, "southwest": {"lat": 42.3499150697085, "lng": -71.07807213029152}}}, "icon": "https://maps.gstatic.com/mapfiles/place_api/icons/generic_business-71.png", "id": "8105a1db40f604e6baf7d912a0e1e7d7342f6399", "name": "OBrien Design Group", "place_id": "ChIJa9_OnAt644kRS2AeX-x-sWU", "plus_code": {"compound_code": "9W2F+G7 Boston, Massachusetts, United States", "global_code": "87JC9W2F+G7"}, "reference": "ChIJa9_OnAt644kRS2AeX-x-sWU", "scope": "GOOGLE", "types": ["general_contractor", "point_of_interest", "establishment"], "vicinity": "4, 129 Newbury Street, Boston"}, "ChIJy-M41wt644kR6aIE5Fd3b98": {"geometry": {"location": {"lat": 42.3513582, "lng": -71.0767728}, "viewport": {"northeast": {"lat": 42.35261353029151, "lng": -71.07537711970849}, "southwest": {"lat": 42.34991556970851, "lng": -71.0780750802915}}}, "icon": "https://maps.gstatic.com/mapfiles/place_api/icons/generic_business-71.png", "id": "4f7763f954fc816a98cf89b73b78d94d0626c53f", "name": "Meryl Beckingham, Managing Partner", "place_id": "ChIJy-M41wt644kR6aIE5Fd3b98", "plus_code": {"compound_code": "9W2F+G7 Boston, Massachusetts, United States", "global_code": "87JC9W2F+G7"}, "reference": "ChIJy-M41wt644kR6aIE5Fd3b98", "scope": "GOOGLE", "types": ["real_estate_agency", "point_of_interest", "establishment"], "vicinity": "129 Newbury Street, 2nd fl., Boston"}, "ChIJ4SvPnAt644kRYai9nziUN3U": {"geometry": {"location": {"lat": 42.3513582, "lng": -71.0767728}, "viewport": {"northeast": {"lat": 42.35261353029151, "lng": -71.07537711970849}, "southwest": {"lat": 42.34991556970851, "lng": -71.0780750802915}}}, "icon": "https://maps.gstatic.com/mapfiles/place_api/icons/generic_business-71.png", "id": "68236f4144691ab88ce9ba492d84c1c24667968d", "name": "Jenn Drucker", "place_id": "ChIJ4SvPnAt644kRYai9nziUN3U", "plus_code": {"compound_code": "9W2F+G7 Boston, Massachusetts, United States", "global_code": "87JC9W2F+G7"}, "reference": "ChIJ4SvPnAt644kRYai9nziUN3U", "scope": "GOOGLE", "types": ["point_of_interest", "establishment"], "vicinity": "129 Newbury Street, Boston"}, "ChIJ4SvPnAt644kRkitIu-jS4M4": {"geometry": {"location": {"lat": 42.3513582, "lng": -71.0767728}, "viewport": {"northeast": {"lat": 42.35261353029151, "lng": -71.07537711970849}, "southwest": {"lat": 42.34991556970851, "lng": -71.0780750802915}}}, "icon": "https://maps.gstatic.com/mapfiles/place_api/icons/shopping-71.png", "id": "d5d9def57078f714d12d18df0969bd986b9de711", "name": "Clarity Project", "place_id": "ChIJ4SvPnAt644kRkitIu-jS4M4", "plus_code": {"compound_code": "9W2F+G7 Boston, Massachusetts, United States", "global_code": "87JC9W2F+G7"}, "reference": "ChIJ4SvPnAt644kRkitIu-jS4M4", "scope": "GOOGLE", "types": ["jewelry_store", "store", "point_of_interest", "establishment"], "vicinity": "129 Newbury Street, Boston"}, "ChIJ4SvPnAt644kRauUbzoEJHa4": {"geometry": {"location": {"lat": 42.3513582, "lng": -71.0767728}, "viewport": {"northeast": {"lat": 42.35261353029151, "lng": -71.07537711970849}, "southwest": {"lat": 42.34991556970851, "lng": -71.0780750802915}}}, "icon": "https://maps.gstatic.com/mapfiles/place_api/icons/generic_business-71.png", "id": "531bbd00f479a79fb229dfedb08b3075c331127d", "name": "Law Office of Adam S. Minsky", "place_id": "ChIJ4SvPnAt644kRauUbzoEJHa4", "plus_code": {"compound_code": "9W2F+G7 Boston, Massachusetts, United States", "global_code": "87JC9W2F+G7"}, "rating": 4.8, "reference": "ChIJ4SvPnAt644kRauUbzoEJHa4", "scope": "GOOGLE", "types": ["point_of_interest", "establishment"], "user_ratings_total": 24, "vicinity": "4, 129 Newbury Street, Boston"}}