{"ChIJGzE9DS1l44kRoOhiASS_fHg": {"geometry": {"location": {"lat": 42.3600825, "lng": -71.0588801}, "viewport": {"northeast": {"lat": 42.40081989999999, "lng": -70.749455}, "southwest": {"lat": 42.22788, "lng": -71.191113}}}, "icon": "https://maps.gstatic.com/mapfiles/place_api/icons/geocode-71.png", "id": "06755c25d2b34d13942a4713971756a55b870ced", "name": "Boston", "photos": [{"height": 3024, "html_attributions": ["<a href=\"https://maps.google.com/maps/contrib/104670289779338733432/photos\">Natalia Zalucean</a>"], "photo_reference": "CmRaAAAAWVFWZHPvtX-uRwEY8e7mDBXLJXtIgoKBZLJhzjhJCDNEPozRWai-GMZdJb1orDaoB_Tv1lCtO_e2Ru1Yj2c4vPXPTsc_FNo2AnR1g3i4Apx0u-DNhSh2JO-nKd186xPwEhCeoWaJRs-paT1KRwjsktZ1GhTCiONJr1hOGh6UxZqvjxiD25oBAA", "width": 4032}], "place_id": "ChIJGzE9DS1l44kRoOhiASS_fHg", "reference": "ChIJGzE9DS1l44kRoOhiASS_fHg", "scope": "GOOGLE", "types": ["locality", "political"], "vicinity": "Boston"}, "ChIJ62-aOoRw44kRLn_zkp8SkWI": {"geometry": {"location": {"lat": 42.3585231, "lng": -71.05607619999999}, "viewport": {"northeast": {"lat": 42.3598047802915, "lng": -71.0550145697085}, "southwest": {"lat": 42.3571068197085, "lng": -71.05771253029151}}}, "icon": "https://maps.gstatic.com/mapfiles/place_api/icons/generic_business-71.png", "id": "b981b17f1e13871a5e884f91be5bab79cc6419d4", "name": "Hines Edward F", "place_id": "ChIJ62-aOoRw44kRLn_zkp8SkWI", "plus_code": {"compound_code": "9W5V+CH Boston, Massachusetts, United States", "global_code": "87JC9W5V+CH"}, "reference": "ChIJ62-aOoRw44kRLn_zkp8SkWI", "scope": "GOOGLE", "types": ["lawyer", "point_of_interest", "establishment"], "vicinity": "53 State Street, Boston"}, "ChIJzyWROoRw44kRl4-NAtugWfM": {"geometry": {"location": {"lat": 42.3585529, "lng": -71.0560512}, "viewport": {"northeast": {"lat": 42.35981968029149, "lng": -71.0550020697085}, "southwest": {"lat": 42.35712171970849, "lng": -71.0577000302915}}}, "icon": "https://maps.gstatic.com/mapfiles/place_api/icons/school-71.png", "id": "af352fe54131597e9c3db3146327547bf0e6b2e1", "name": "Sucoff Andrew C", "place_id": "ChIJzyWROoRw44kRl4-NAtugWfM", "plus_code": {"compound_code": "9W5V+CH Boston, Massachusetts, United States", "global_code": "87JC9W5V+CH"}, "reference": "ChIJzyWROoRw44kRl4-NAtugWfM", "scope": "GOOGLE", "types": ["lawyer", "university", "point_of_interest", "establishment"], "vicinity": "100 Northern Avenue, Boston"}, "ChIJZSO0RIFw44kRMwtkx6QJp2U": {"geometry": {"location": {"lat": 42.3559219, "lng": -71.05497679999999}, "viewport": {"northeast": {"lat": 42.3595222, "lng": -71.05148729999999}, "southwest": {"lat": 42.351489, "lng": -71.0593777}}}, "icon": "https://maps.gstatic.com/mapfiles/place_api/icons/geocode-71.png", "id": "a299437eec467c3c4fb5ec448e81048caef8aacf", "name": "Financial District", "photos": [{"height": 2403, "html_attributions": ["<a href=\"https://maps.google.com/maps/contrib/115111503217500241431/photos\">Jane Wong</a>"], "photo_reference": "CmRaAAAAEkdLplmdCkhMAhlA2rhL46VIN10i1p5zpvDTkOLNUHZ6ZLYlsPTJ1TwzdLhQA195Y1BJo_S__XspxGImKX812DMpO0zLgAF6Ld81vaH9FlL1hA9STgmZELi0a3SneZRGEhBQRgzOzWr_IIwM6p5UxCceGhSp2iW5J1wEXqop1b2okvE_57O0RA", "width": 3206}], "place_id": "ChIJZSO0RIFw44kRMwtkx6QJp2U", "reference": "ChIJZSO0RIFw44kRMwtkx6QJp2U", "scope": "GOOGLE", "types": ["neighborhood", "political"], "vicinity": "Boston"}}