{"ChIJqaYEIIRw44kRkCjVFTMBojQ": {"geometry": {"location": {"lat": 42.35784779999999, "lng": -71.0559468}, "viewport": {"northeast": {"lat": 42.3591966802915, "lng": -71.0545977697085}, "southwest": {"lat": 42.3564987197085, "lng": -71.05729573029151}}}, "icon": "https://maps.gstatic.com/mapfiles/place_api/icons/geocode-71.png", "id": "379f0c49261db42365201ff3692a48d682c7c111", "name": "5 Hawes St", "place_id": "ChIJqaYEIIRw44kRkCjVFTMBojQ", "reference": "ChIJqaYEIIRw44kRkCjVFTMBojQ", "scope": "GOOGLE", "types": ["route"], "vicinity": "Boston"}, "ChIJ_971GIRw44kRdugCmYc-SH8": {"geometry": {"location": {"lat": 42.3578324, "lng": -71.0562702}, "viewport": {"northeast": {"lat": 42.3591509302915, "lng": -71.0549067197085}, "southwest": {"lat": 42.3564529697085, "lng": -71.0576046802915}}}, "icon": "https://maps.gstatic.com/mapfiles/place_api/icons/generic_business-71.png", "id": "89b5c20688091b3c41f99afd872021b1e6fe6534", "name": "RM Engineering", "place_id": "ChIJ_971GIRw44kRdugCmYc-SH8", "plus_code": {"compound_code": "9W5V+4F Boston, Massachusetts, United States", "global_code": "87JC9W5V+4F"}, "reference": "ChIJ_971GIRw44kRdugCmYc-SH8", "scope": "GOOGLE", "types": ["point_of_interest", "establishment"], "vicinity": "Boston"}, "ChIJ6RIS7kJx44kREw0NPilrk3Y": {"geometry": {"location": {"lat": 42.3578275, "lng": -71.0562879}, "viewport": {"northeast": {"lat": 42.35914613029151, "lng": -71.05492451970849}, "southwest": {"lat": 42.35644816970851, "lng": -71.05762248029151}}}, "icon": "https://maps.gstatic.com/mapfiles/place_api/icons/shopping-71.png", "id": "038ecd1e1afe0bef5eb5e4a83ccc42a40624412d", "name": "Aprils Salad Box", "place_id": "ChIJ6RIS7kJx44kREw0NPilrk3Y", "plus_code": {"compound_code": "9W5V+4F Boston, Massachusetts, United States", "global_code": "87JC9W5V+4F"}, "rating": 5, "reference": "ChIJ6RIS7kJx44kREw0NPilrk3Y", "scope": "GOOGLE", "types": ["store", "health", "point_of_interest", "food", "establishment"], "user_ratings_total": 1, "vicinity": "5 Hawes Street, Boston"}, "ChIJGzE9DS1l44kRoOhiASS_fHg": {"geometry": {"location": {"lat": 42.3600825, "lng": -71.0588801}, "viewport": {"northeast": {"lat": 42.40081989999999, "lng": -70.749455}, "southwest": {"lat": 42.22788, "lng": -71.191113}}}, "icon": "https://maps.gstatic.com/mapfiles/place_api/icons/geocode-71.png", "id": "06755c25d2b34d13942a4713971756a55b870ced", "name": "Boston", "photos": [{"height": 3024, "html_attributions": ["<a href=\"https://maps.google.com/maps/contrib/104670289779338733432/photos\">Natalia Zalucean</a>"], "photo_reference": "CmRaAAAAWe6Xl0Ny0FMGTZ6qiU-g5OYAwHPLBMS4FlJ9HACe_B-gXAk1jqIKAco32tmdX8gQqojBsKAsa2IHqIpVOYaYAunVHPNH8tSfDtzb-ddWglizBBnDXHhwTXMSHJ1FDC2_EhD9tvTmFui7ZFSbBw__B7A0GhTnj_kwOjdbJCZH4RlDfZJkkMjKSg", "width": 4032}], "place_id": "ChIJGzE9DS1l44kRoOhiASS_fHg", "reference": "ChIJGzE9DS1l44kRoOhiASS_fHg", "scope": "GOOGLE", "types": ["locality", "political"], "vicinity": "Boston"}}