{"ChIJGzE9DS1l44kRoOhiASS_fHg": {"geometry": {"location": {"lat": 42.3600825, "lng": -71.0588801}, "viewport": {"northeast": {"lat": 42.40081989999999, "lng": -70.749455}, "southwest": {"lat": 42.22788, "lng": -71.191113}}}, "icon": "https://maps.gstatic.com/mapfiles/place_api/icons/geocode-71.png", "id": "06755c25d2b34d13942a4713971756a55b870ced", "name": "Boston", "photos": [{"height": 3024, "html_attributions": ["<a href=\"https://maps.google.com/maps/contrib/104670289779338733432/photos\">Natalia Zalucean</a>"], "photo_reference": "CmRaAAAA1foiBY0cNIwhq67qTyqqKg5TmajUnVOvVg0lQNeZI-_-i_vIKCG1Gc1QIjUA17hcVRxLxU1KvxXWrXkAJutZ4P__2POzxzGyD5c_lAJowt_J0s0S39VYgrkROoZBwnVWEhCke03BhWf8w47oQ_6lm9HNGhRyYKP1FUc3kDVj5vrPRK_qTLVVkQ", "width": 4032}], "place_id": "ChIJGzE9DS1l44kRoOhiASS_fHg", "reference": "ChIJGzE9DS1l44kRoOhiASS_fHg", "scope": "GOOGLE", "types": ["locality", "political"], "vicinity": "Boston"}, "ChIJvynVtoJw44kR95wbhMJ-YCs": {"geometry": {"location": {"lat": 42.335456, "lng": -71.07148149999999}, "viewport": {"northeast": {"lat": 42.3368049802915, "lng": -71.07013251970848}, "southwest": {"lat": 42.3341070197085, "lng": -71.07283048029149}}}, "icon": "https://maps.gstatic.com/mapfiles/place_api/icons/generic_business-71.png", "id": "b427ddddf8f984e056973636ccdd3bebf9e8e129", "name": "Michael A. Grodin, MD", "place_id": "ChIJvynVtoJw44kR95wbhMJ-YCs", "plus_code": {"compound_code": "8WPH+5C Boston, Massachusetts, United States", "global_code": "87JC8WPH+5C"}, "reference": "ChIJvynVtoJw44kR95wbhMJ-YCs", "scope": "GOOGLE", "types": ["doctor", "health", "point_of_interest", "establishment"], "vicinity": "715 Albany St, 3rd Floor, Boston"}, "ChIJGXHKnWp644kRrKwvTyqjK80": {"geometry": {"location": {"lat": 42.335849, "lng": -71.0717834}, "viewport": {"northeast": {"lat": 42.3370680802915, "lng": -71.07023481970849}, "southwest": {"lat": 42.3343701197085, "lng": -71.0729327802915}}}, "icon": "https://maps.gstatic.com/mapfiles/place_api/icons/generic_recreational-71.png", "id": "e616f2aaea380ed7942ed1c382a75f57dfbf4ace", "name": "Boston Medical Center Campus Park", "place_id": "ChIJGXHKnWp644kRrKwvTyqjK80", "reference": "ChIJGXHKnWp644kRrKwvTyqjK80", "scope": "GOOGLE", "types": ["park", "premise", "point_of_interest", "establishment"], "vicinity": "Boston"}, "ChIJ28p2uBR644kRGOnQAcK4Txc": {"geometry": {"location": {"lat": 42.3388111, "lng": -71.0765188}, "viewport": {"northeast": {"lat": 42.347756, "lng": -71.0607948}, "southwest": {"lat": 42.331455, "lng": -71.09079799999999}}}, "icon": "https://maps.gstatic.com/mapfiles/place_api/icons/geocode-71.png", "id": "bf793a5ca0b5e36b87cfa6836ddba9f86f2af360", "name": "South End", "photos": [{"height": 2736, "html_attributions": ["<a href=\"https://maps.google.com/maps/contrib/110185226650349094791/photos\">Alex Harm</a>"], "photo_reference": "CmRaAAAA3MIMAm0G9qFmngHuwf2Q5_ozZMAzAUUH89tkjkSSrXE3zh5mXPgfD6_LMEiW0HaS1vVCNpaAVhpU9SgizznDmF6mR-bNTzK6mJLRULJ8xq407AF68JyOa28zT8a1x6tIEhCuEx0K3SPuny9pimJqTsWNGhS7Q9ejun8Drl-gkF0XeWHFdfjhOg", "width": 3648}], "place_id": "ChIJ28p2uBR644kRGOnQAcK4Txc", "reference": "ChIJ28p2uBR644kRGOnQAcK4Txc", "scope": "GOOGLE", "types": ["neighborhood", "political"], "vicinity": "Boston"}}