{"ChIJGzE9DS1l44kRoOhiASS_fHg": {"geometry": {"location": {"lat": 42.3600825, "lng": -71.0588801}, "viewport": {"northeast": {"lat": 42.40081989999999, "lng": -70.749455}, "southwest": {"lat": 42.22788, "lng": -71.191113}}}, "icon": "https://maps.gstatic.com/mapfiles/place_api/icons/geocode-71.png", "id": "06755c25d2b34d13942a4713971756a55b870ced", "name": "Boston", "photos": [{"height": 3024, "html_attributions": ["<a href=\"https://maps.google.com/maps/contrib/104670289779338733432/photos\">Natalia Zalucean</a>"], "photo_reference": "CmRaAAAAwXgIpkMw3ss5Z2iM6HqxPgRyW0qEgZdC0Cjxg7tnS2_nwjEUsgAyprgXcdFviXIrlb3pqw6mSEUABzzzwAgJ5fKWE15Dtyv_ZLAp1pUod-yhglH1MD4k1fhj7XPDeYQSEhCkkNBb7TSjh8-keJ7oTZltGhTbsNAZ5mg0oLZTJTGjZoJacH0IqQ", "width": 4032}], "place_id": "ChIJGzE9DS1l44kRoOhiASS_fHg", "reference": "ChIJGzE9DS1l44kRoOhiASS_fHg", "scope": "GOOGLE", "types": ["locality", "political"], "vicinity": "Boston"}, "ChIJrTfggfZ544kRaBSAIpqFcF4": {"geometry": {"location": {"lat": 42.3457394, "lng": -71.1012988}, "viewport": {"northeast": {"lat": 42.34687213029149, "lng": -71.0995647697085}, "southwest": {"lat": 42.3441741697085, "lng": -71.1022627302915}}}, "icon": "https://maps.gstatic.com/mapfiles/place_api/icons/generic_business-71.png", "id": "4ec348c9541ec9483760416f97df112a6151f025", "name": "Falke Roberta", "place_id": "ChIJrTfggfZ544kRaBSAIpqFcF4", "plus_code": {"compound_code": "8VWX+7F Boston, Massachusetts, United States", "global_code": "87JC8VWX+7F"}, "reference": "ChIJrTfggfZ544kRaBSAIpqFcF4", "scope": "GOOGLE", "types": ["doctor", "health", "point_of_interest", "establishment"], "vicinity": "4, 133 Brookline Avenue, Boston"}, "ChIJAfp8Lh5644kR9PDAZN8nEK8": {"geometry": {"location": {"lat": 42.3428653, "lng": -71.1002881}, "viewport": {"northeast": {"lat": 42.3522779, "lng": -71.0818948}, "southwest": {"lat": 42.332897, "lng": -71.11159599999999}}}, "icon": "https://maps.gstatic.com/mapfiles/place_api/icons/geocode-71.png", "id": "4ca9d423ad416930d3a49da3f2de6540df27b390", "name": "Fenway/Kenmore", "photos": [{"height": 1536, "html_attributions": ["<a href=\"https://maps.google.com/maps/contrib/108749372735406640710/photos\">Joshua Arkin</a>"], "photo_reference": "CmRaAAAAjHcSKXHW0AtuRQhCkIyc22cmi9vvRNcG6u1X84c7VT5apd77Vv_0hUqQIlQ8nfLm5SmxYqjNlv-XnuBfbeJyP0HtSd-0GNBmH37p-bqBG-Bec656OngAS0mpiKyq-AW2EhAH3mbZyClKzsji5pofDrP0GhRQa1Xkyu4fyFb1UM6jjFJq0N3k4A", "width": 2048}], "place_id": "ChIJAfp8Lh5644kR9PDAZN8nEK8", "reference": "ChIJAfp8Lh5644kR9PDAZN8nEK8", "scope": "GOOGLE", "types": ["neighborhood", "political"], "vicinity": "Boston"}}