{"ChIJGzE9DS1l44kRoOhiASS_fHg": {"geometry": {"location": {"lat": 42.3600825, "lng": -71.0588801}, "viewport": {"northeast": {"lat": 42.40081989999999, "lng": -70.749455}, "southwest": {"lat": 42.22788, "lng": -71.191113}}}, "icon": "https://maps.gstatic.com/mapfiles/place_api/icons/geocode-71.png", "id": "06755c25d2b34d13942a4713971756a55b870ced", "name": "Boston", "photos": [{"height": 3024, "html_attributions": ["<a href=\"https://maps.google.com/maps/contrib/104670289779338733432/photos\">Natalia Zalucean</a>"], "photo_reference": "CmRaAAAArvjUtJVv8OCkQ-6U25Pv0wnviHcH00rqOQfIwCcyuxYlVjq_QZ8M8erLI6MFN9e4bgKftiuKj9KLfICwXv6Aj4fR3ZXswtyZLnPAmwKZ_pP5Ek0TxiROhJ_M5M0i9-uuEhALzePLcTFsQDJzRUHzvrpsGhRMfVvqKTkzA8mO1n3GF2-wrXDUVQ", "width": 4032}], "place_id": "ChIJGzE9DS1l44kRoOhiASS_fHg", "reference": "ChIJGzE9DS1l44kRoOhiASS_fHg", "scope": "GOOGLE", "types": ["locality", "political"], "vicinity": "Boston"}, "ChIJu1QRKJ1w44kRQJK71cq8ShI": {"geometry": {"location": {"lat": 42.3552093, "lng": -71.0624704}, "viewport": {"northeast": {"lat": 42.3566315302915, "lng": -71.0610532697085}, "southwest": {"lat": 42.3539335697085, "lng": -71.0637512302915}}}, "icon": "https://maps.gstatic.com/mapfiles/place_api/icons/civic_building-71.png", "id": "e7cb7de395bda0eff40f45c38864a00d60363592", "name": "ABCD", "opening_hours": {"open_now": false}, "place_id": "ChIJu1QRKJ1w44kRQJK71cq8ShI", "plus_code": {"compound_code": "9W4Q+32 Boston, Massachusetts, United States", "global_code": "87JC9W4Q+32"}, "rating": 3.3, "reference": "ChIJu1QRKJ1w44kRQJK71cq8ShI", "scope": "GOOGLE", "types": ["point_of_interest", "establishment"], "user_ratings_total": 3, "vicinity": "19 Temple Place, Boston"}, "ChIJu1QRKJ1w44kRjM6aAhWOybI": {"geometry": {"location": {"lat": 42.35521929999999, "lng": -71.0624666}, "viewport": {"northeast": {"lat": 42.3566374802915, "lng": -71.0610532197085}, "southwest": {"lat": 42.3539395197085, "lng": -71.0637511802915}}}, "icon": "https://maps.gstatic.com/mapfiles/place_api/icons/generic_business-71.png", "id": "deedb72f7fa4c6ca40f94a5d6557c91ab8847b38", "name": "Massachusetts Association-Old", "place_id": "ChIJu1QRKJ1w44kRjM6aAhWOybI", "plus_code": {"compound_code": "9W4Q+32 Boston, Massachusetts, United States", "global_code": "87JC9W4Q+32"}, "reference": "ChIJu1QRKJ1w44kRjM6aAhWOybI", "scope": "GOOGLE", "types": ["point_of_interest", "establishment"], "vicinity": "19 Temple Place, Boston"}, "ChIJu1QRKJ1w44kREXYGUj5bMLw": {"geometry": {"location": {"lat": 42.35521929999999, "lng": -71.0624666}, "viewport": {"northeast": {"lat": 42.3566374802915, "lng": -71.0610532197085}, "southwest": {"lat": 42.3539395197085, "lng": -71.0637511802915}}}, "icon": "https://maps.gstatic.com/mapfiles/place_api/icons/generic_business-71.png", "id": "181d77edd816a3fe9623bd937dcb40b5a2c9411f", "name": "Building Operations", "place_id": "ChIJu1QRKJ1w44kREXYGUj5bMLw", "plus_code": {"compound_code": "9W4Q+32 Boston, Massachusetts, United States", "global_code": "87JC9W4Q+32"}, "reference": "ChIJu1QRKJ1w44kREXYGUj5bMLw", "scope": "GOOGLE", "types": ["general_contractor", "point_of_interest", "establishment"], "vicinity": "19 Temple Place, Boston"}, "ChIJaU-PKJ1w44kRbhSvSF0rb00": {"geometry": {"location": {"lat": 42.3552093, "lng": -71.0624704}, "viewport": {"northeast": {"lat": 42.3566165802915, "lng": -71.0610204697085}, "southwest": {"lat": 42.3539186197085, "lng": -71.0637184302915}}}, "icon": "https://maps.gstatic.com/mapfiles/place_api/icons/school-71.png", "id": "10b285760ce7e17e26dfc3130c4c7a1be9beff54", "name": "William J. Ostiguy High School", "place_id": "ChIJaU-PKJ1w44kRbhSvSF0rb00", "plus_code": {"compound_code": "9W4Q+32 Boston, Massachusetts, United States", "global_code": "87JC9W4Q+32"}, "rating": 3, "reference": "ChIJaU-PKJ1w44kRbhSvSF0rb00", "scope": "GOOGLE", "types": ["point_of_interest", "school", "establishment"], "user_ratings_total": 1, "vicinity": "19 Temple Place, Boston"}, "ChIJjZFlGJ1w44kRDZRiPAgeD2o": {"geometry": {"location": {"lat": 42.35521929999999, "lng": -71.0624666}, "viewport": {"northeast": {"lat": 42.3566374802915, "lng": -71.0610532197085}, "southwest": {"lat": 42.3539395197085, "lng": -71.0637511802915}}}, "icon": "https://maps.gstatic.com/mapfiles/place_api/icons/generic_business-71.png", "id": "4f00a12a9ea01062d2b26b02eed85f977195d0e0", "name": "Foster Grandparent Program", "place_id": "ChIJjZFlGJ1w44kRDZRiPAgeD2o", "plus_code": {"compound_code": "9W4Q+32 Boston, Massachusetts, United States", "global_code": "87JC9W4Q+32"}, "reference": "ChIJjZFlGJ1w44kRDZRiPAgeD2o", "scope": "GOOGLE", "types": ["point_of_interest", "establishment"], "vicinity": "19 Temple Place, Boston"}, "ChIJC3yBIoNw44kRTLQCUX7w3J8": {"geometry": {"location": {"lat": 42.35549580000001, "lng": -71.0594338}, "viewport": {"northeast": {"lat": 42.3580143, "lng": -71.0572826}, "southwest": {"lat": 42.3531629, "lng": -71.0633258}}}, "icon": "https://maps.gstatic.com/mapfiles/place_api/icons/geocode-71.png", "id": "b17444457334b229c72e82dab5a3242f1d0e2a61", "name": "Downtown Crossing", "photos": [{"height": 3120, "html_attributions": ["<a href=\"https://maps.google.com/maps/contrib/111777007894721839306/photos\">verona mantova</a>"], "photo_reference": "CmRaAAAAgRWsSWAhdR2ac2N3o6WCmboSDng4q3cNPRP78fGu0n2aOQjb2Fi4tNpYzF6uxJeyjc7UTo0a44NVpB78YVpYh8_mlp0yG_w9FoXRYprq-m7QKXeLKK6dfdYwN83e4CnAEhBY5Q07YpW0xYzY-Xyt59KUGhTbtmKQNjaK3oP-NfUjr81-3rfl5A", "width": 4160}], "place_id": "ChIJC3yBIoNw44kRTLQCUX7w3J8", "reference": "ChIJC3yBIoNw44kRTLQCUX7w3J8", "scope": "GOOGLE", "types": ["neighborhood", "political"], "vicinity": "Boston"}}