{"ChIJGzE9DS1l44kRoOhiASS_fHg": {"geometry": {"location": {"lat": 42.3600825, "lng": -71.0588801}, "viewport": {"northeast": {"lat": 42.40081989999999, "lng": -70.749455}, "southwest": {"lat": 42.22788, "lng": -71.191113}}}, "icon": "https://maps.gstatic.com/mapfiles/place_api/icons/geocode-71.png", "id": "06755c25d2b34d13942a4713971756a55b870ced", "name": "Boston", "photos": [{"height": 3024, "html_attributions": ["<a href=\"https://maps.google.com/maps/contrib/104670289779338733432/photos\">Natalia Zalucean</a>"], "photo_reference": "CmRaAAAA-5MyOt7nLX1otCu3UWr17nAWAAnI-AspFgEjkuCPieD9CvHaRCLI7BOKGiABi7_x_-p9kB9zYlVHTFVCibW5vNBGlMko1MhbKK4HJW4Q2FP_i22tQMQO-nlhH6L_FZHsEhBwfy6xhGBAUuwwxsa3BTZtGhSnbAgFp3sIEvHfMY2YKfKdM2eE6Q", "width": 4032}], "place_id": "ChIJGzE9DS1l44kRoOhiASS_fHg", "reference": "ChIJGzE9DS1l44kRoOhiASS_fHg", "scope": "GOOGLE", "types": ["locality", "political"], "vicinity": "Boston"}, "ChIJKUsMaGl644kRyeg6AZ6I2Rs": {"geometry": {"location": {"lat": 42.338379, "lng": -71.06693}, "viewport": {"northeast": {"lat": 42.3396744302915, "lng": -71.06551026970851}, "southwest": {"lat": 42.3369764697085, "lng": -71.06820823029152}}}, "icon": "https://maps.gstatic.com/mapfiles/place_api/icons/generic_business-71.png", "id": "b742b366aa1fb4a029106a9ac849eb679b632d4c", "name": "Metropolis Creative", "opening_hours": {"open_now": false}, "photos": [{"height": 2448, "html_attributions": ["<a href=\"https://maps.google.com/maps/contrib/107758620992916801351/photos\">Michael Flint</a>"], "photo_reference": "CmRaAAAAUq6fj98uPDWCXiJgg1K_B2KbVFlv1FNIVybDYbhTntShB2SaHt6BiiuFGnoVmIKtZpS-UxIHrq17Tl0EfiRDYKQ9SZybY9yafgxUToxJ5WdTQHH0rCp3Ls6X_Elj06t5EhAkW7t_nYQhwHAE5wfHDVpVGhTdcC3Tc17lgjfjG7u41Xu4UGPOiw", "width": 3264}], "place_id": "ChIJKUsMaGl644kRyeg6AZ6I2Rs", "plus_code": {"compound_code": "8WQM+96 Boston, Massachusetts, United States", "global_code": "87JC8WQM+96"}, "rating": 5, "reference": "ChIJKUsMaGl644kRyeg6AZ6I2Rs", "scope": "GOOGLE", "types": ["point_of_interest", "establishment"], "user_ratings_total": 2, "vicinity": "535 Albany Street #200, Boston"}, "ChIJ28p2uBR644kRGOnQAcK4Txc": {"geometry": {"location": {"lat": 42.3388111, "lng": -71.0765188}, "viewport": {"northeast": {"lat": 42.347756, "lng": -71.0607948}, "southwest": {"lat": 42.331455, "lng": -71.09079799999999}}}, "icon": "https://maps.gstatic.com/mapfiles/place_api/icons/geocode-71.png", "id": "bf793a5ca0b5e36b87cfa6836ddba9f86f2af360", "name": "South End", "photos": [{"height": 2736, "html_attributions": ["<a href=\"https://maps.google.com/maps/contrib/110185226650349094791/photos\">Alex Harm</a>"], "photo_reference": "CmRaAAAAzDYWQTc_WtN3qrNvehJWn3Ix6CEUzcd8RnOX7TZhSzH-FUb8pBwsz6pFJiIc1oodvDxwp5edpz19fmae2AFJLyY11is3bvI9RqnrTRPulU8usQhcVOvoB9zOb4cV08V2EhAqeNaYGfwxeUWFTd3zSlB3GhTBLjenjEj9fXQ4ONoh6jLJB71DMg", "width": 3648}], "place_id": "ChIJ28p2uBR644kRGOnQAcK4Txc", "reference": "ChIJ28p2uBR644kRGOnQAcK4Txc", "scope": "GOOGLE", "types": ["neighborhood", "political"], "vicinity": "Boston"}}