{"ChIJGzE9DS1l44kRoOhiASS_fHg": {"geometry": {"location": {"lat": 42.3600825, "lng": -71.0588801}, "viewport": {"northeast": {"lat": 42.40081989999999, "lng": -70.749455}, "southwest": {"lat": 42.22788, "lng": -71.191113}}}, "icon": "https://maps.gstatic.com/mapfiles/place_api/icons/geocode-71.png", "id": "06755c25d2b34d13942a4713971756a55b870ced", "name": "Boston", "photos": [{"height": 3024, "html_attributions": ["<a href=\"https://maps.google.com/maps/contrib/104670289779338733432/photos\">Natalia Zalucean</a>"], "photo_reference": "CmRaAAAA5OKFkz_M2TiSqqWxoAMPWwrl-JTRX9M9ZYErzHMFWzAI7Y-TFC1vzA6e4lryrEXZMbLk-aZOnDauINGu6D3Xidab8U0grwgZf6b0eCW43NLTg5NZ7si84zbdZ0fhws4vEhDH3p97lDV2I950iVlUxSNaGhQmVbEsQnY_s-VxuGthnhQaiNrFpg", "width": 4032}], "place_id": "ChIJGzE9DS1l44kRoOhiASS_fHg", "reference": "ChIJGzE9DS1l44kRoOhiASS_fHg", "scope": "GOOGLE", "types": ["locality", "political"], "vicinity": "Boston"}, "ChIJh2LzIJ1w44kRPFohCJgOtl0": {"geometry": {"location": {"lat": 42.3553852, "lng": -71.06272369999999}, "viewport": {"northeast": {"lat": 42.3568056802915, "lng": -71.06150826970848}, "southwest": {"lat": 42.3541077197085, "lng": -71.06420623029149}}}, "icon": "https://maps.gstatic.com/mapfiles/place_api/icons/generic_business-71.png", "id": "0ca0efee5da524cf6843d9dc8267ec3366ff9110", "name": "Ann M. McNamara", "place_id": "ChIJh2LzIJ1w44kRPFohCJgOtl0", "plus_code": {"compound_code": "9W4P+5W Boston, Massachusetts, United States", "global_code": "87JC9W4P+5W"}, "reference": "ChIJh2LzIJ1w44kRPFohCJgOtl0", "scope": "GOOGLE", "types": ["lawyer", "point_of_interest", "establishment"], "vicinity": "141 Tremont Street, Boston"}, "ChIJh2LzIJ1w44kRy-M-lYrSNRI": {"geometry": {"location": {"lat": 42.3554088, "lng": -71.0627176}, "viewport": {"northeast": {"lat": 42.3568262802915, "lng": -71.06149661970849}, "southwest": {"lat": 42.3541283197085, "lng": -71.0641945802915}}}, "icon": "https://maps.gstatic.com/mapfiles/place_api/icons/generic_business-71.png", "id": "df55b4bf1b70f3b1b96fc43f980dbb363781ec87", "name": "Maguire, Ann Marie - Keches Law Group Pc", "place_id": "ChIJh2LzIJ1w44kRy-M-lYrSNRI", "plus_code": {"compound_code": "9W4P+5W Boston, Massachusetts, United States", "global_code": "87JC9W4P+5W"}, "reference": "ChIJh2LzIJ1w44kRy-M-lYrSNRI", "scope": "GOOGLE", "types": ["lawyer", "point_of_interest", "establishment"], "vicinity": "141 Tremont Street # 5, Boston"}, "ChIJBWCvIJ1w44kRTqawXtmAJck": {"geometry": {"location": {"lat": 42.3554088, "lng": -71.0627176}, "viewport": {"northeast": {"lat": 42.3568262802915, "lng": -71.06149661970849}, "southwest": {"lat": 42.3541283197085, "lng": -71.0641945802915}}}, "icon": "https://maps.gstatic.com/mapfiles/place_api/icons/generic_business-71.png", "id": "3cdb6d0d4216e64a85f2be18b2c866eb47de1864", "name": "Robert E Wiener Law Office", "place_id": "ChIJBWCvIJ1w44kRTqawXtmAJck", "plus_code": {"compound_code": "9W4P+5W Boston, Massachusetts, United States", "global_code": "87JC9W4P+5W"}, "reference": "ChIJBWCvIJ1w44kRTqawXtmAJck", "scope": "GOOGLE", "types": ["lawyer", "point_of_interest", "establishment"], "vicinity": "141 Tremont Street # 4, Boston"}, "ChIJ09Wh64Jw44kRerZYcfDKCdY": {"geometry": {"location": {"lat": 42.3554088, "lng": -71.0627176}, "viewport": {"northeast": {"lat": 42.3568262802915, "lng": -71.06149661970849}, "southwest": {"lat": 42.3541283197085, "lng": -71.0641945802915}}}, "icon": "https://maps.gstatic.com/mapfiles/place_api/icons/generic_business-71.png", "id": "3be3972f86aa169eabea09a34434b9c5a66e182b", "name": "Cimetrics Inc.", "opening_hours": {"open_now": false}, "place_id": "ChIJ09Wh64Jw44kRerZYcfDKCdY", "plus_code": {"compound_code": "9W4P+5W Boston, Massachusetts, United States", "global_code": "87JC9W4P+5W"}, "reference": "ChIJ09Wh64Jw44kRerZYcfDKCdY", "scope": "GOOGLE", "types": ["general_contractor", "point_of_interest", "establishment"], "vicinity": "141 Tremont Street, Boston"}, "ChIJh2LzIJ1w44kRpiNhwDCOpiU": {"geometry": {"location": {"lat": 42.3554088, "lng": -71.0627176}, "viewport": {"northeast": {"lat": 42.3568262802915, "lng": -71.06149661970849}, "southwest": {"lat": 42.3541283197085, "lng": -71.0641945802915}}}, "icon": "https://maps.gstatic.com/mapfiles/place_api/icons/generic_business-71.png", "id": "38055b688cbd869af624640ea3f8501379d5f574", "name": "Krokidas & Bluestein: Lundberg Janet Steck", "place_id": "ChIJh2LzIJ1w44kRpiNhwDCOpiU", "plus_code": {"compound_code": "9W4P+5W Boston, Massachusetts, United States", "global_code": "87JC9W4P+5W"}, "reference": "ChIJh2LzIJ1w44kRpiNhwDCOpiU", "scope": "GOOGLE", "types": ["lawyer", "point_of_interest", "establishment"], "vicinity": "141 Tremont Street # 11, Boston"}, "ChIJh2LzIJ1w44kR660k1rmRQLQ": {"geometry": {"location": {"lat": 42.3554279, "lng": -71.0627301}, "viewport": {"northeast": {"lat": 42.3568399302915, "lng": -71.0614988697085}, "southwest": {"lat": 42.3541419697085, "lng": -71.06419683029151}}}, "icon": "https://maps.gstatic.com/mapfiles/place_api/icons/generic_business-71.png", "id": "0dd35ce28e0a863d3dbe0e77fd10c0073fc9a29a", "name": "Daniel S O'Connor", "place_id": "ChIJh2LzIJ1w44kR660k1rmRQLQ", "plus_code": {"compound_code": "9W4P+5W Boston, Massachusetts, United States", "global_code": "87JC9W4P+5W"}, "reference": "ChIJh2LzIJ1w44kR660k1rmRQLQ", "scope": "GOOGLE", "types": ["lawyer", "point_of_interest", "establishment"], "vicinity": "141 Tremont Street, Boston"}, "ChIJh2LzIJ1w44kRudN3o9U2iuY": {"geometry": {"location": {"lat": 42.3554088, "lng": -71.0627176}, "viewport": {"northeast": {"lat": 42.3568262802915, "lng": -71.06149661970849}, "southwest": {"lat": 42.3541283197085, "lng": -71.0641945802915}}}, "icon": "https://maps.gstatic.com/mapfiles/place_api/icons/generic_business-71.png", "id": "80f267b61151f1c71fe0442ebeee9c32ccaa6c5b", "name": "Shaevel & Krems LLP", "place_id": "ChIJh2LzIJ1w44kRudN3o9U2iuY", "plus_code": {"compound_code": "9W4P+5W Boston, Massachusetts, United States", "global_code": "87JC9W4P+5W"}, "rating": 1, "reference": "ChIJh2LzIJ1w44kRudN3o9U2iuY", "scope": "GOOGLE", "types": ["lawyer", "point_of_interest", "establishment"], "user_ratings_total": 1, "vicinity": "141 Tremont Street # 3, Boston"}, "ChIJh2LzIJ1w44kRlEx8qZFbEwk": {"geometry": {"location": {"lat": 42.3554088, "lng": -71.0627176}, "viewport": {"northeast": {"lat": 42.3568262802915, "lng": -71.06149661970849}, "southwest": {"lat": 42.3541283197085, "lng": -71.0641945802915}}}, "icon": "https://maps.gstatic.com/mapfiles/place_api/icons/generic_business-71.png", "id": "5dce6d060719028e05b74bd1f1a156a08873c1e3", "name": "Richard Sinnott Law Office", "place_id": "ChIJh2LzIJ1w44kRlEx8qZFbEwk", "plus_code": {"compound_code": "9W4P+5W Boston, Massachusetts, United States", "global_code": "87JC9W4P+5W"}, "reference": "ChIJh2LzIJ1w44kRlEx8qZFbEwk", "scope": "GOOGLE", "types": ["lawyer", "point_of_interest", "establishment"], "vicinity": "141 Tremont Street # 8, Boston"}, "ChIJU-qtIJ1w44kRVbHFPlXp_W8": {"geometry": {"location": {"lat": 42.3553852, "lng": -71.06272369999999}, "viewport": {"northeast": {"lat": 42.3568056802915, "lng": -71.06150826970848}, "southwest": {"lat": 42.3541077197085, "lng": -71.06420623029149}}}, "icon": "https://maps.gstatic.com/mapfiles/place_api/icons/generic_business-71.png", "id": "e8cba4c34731ad9442a76bec848ee90531433141", "name": "The Law Firm of Quinn and Morris PC", "opening_hours": {"open_now": false}, "place_id": "ChIJU-qtIJ1w44kRVbHFPlXp_W8", "plus_code": {"compound_code": "9W4P+5W Boston, Massachusetts, United States", "global_code": "87JC9W4P+5W"}, "rating": 5, "reference": "ChIJU-qtIJ1w44kRVbHFPlXp_W8", "scope": "GOOGLE", "types": ["lawyer", "point_of_interest", "establishment"], "user_ratings_total": 2, "vicinity": "141 Tremont Street Suite 500, Boston"}, "ChIJTYeHlINw44kRlzTB-IG0jVM": {"geometry": {"location": {"lat": 42.3553852, "lng": -71.06272369999999}, "viewport": {"northeast": {"lat": 42.3568056802915, "lng": -71.06150826970848}, "southwest": {"lat": 42.3541077197085, "lng": -71.06420623029149}}}, "icon": "https://maps.gstatic.com/mapfiles/place_api/icons/civic_building-71.png", "id": "32e20d62946b7dbf05026303509b9ac344ea3e2d", "name": "Air Force Recruiting Office", "opening_hours": {"open_now": false}, "place_id": "ChIJTYeHlINw44kRlzTB-IG0jVM", "plus_code": {"compound_code": "9W4P+5W Boston, Massachusetts, United States", "global_code": "87JC9W4P+5W"}, "rating": 4, "reference": "ChIJTYeHlINw44kRlzTB-IG0jVM", "scope": "GOOGLE", "types": ["point_of_interest", "establishment"], "user_ratings_total": 4, "vicinity": "141 Tremont Street, Boston"}, "ChIJh2LzIJ1w44kRCqBlh8pXurA": {"geometry": {"location": {"lat": 42.3553852, "lng": -71.06272369999999}, "viewport": {"northeast": {"lat": 42.3568056802915, "lng": -71.06150826970848}, "southwest": {"lat": 42.3541077197085, "lng": -71.06420623029149}}}, "icon": "https://maps.gstatic.com/mapfiles/place_api/icons/generic_business-71.png", "id": "b3c1ef7ecd54c265a893ff013a7130e84fa4a56e", "name": "Crowe & Dunn", "opening_hours": {"open_now": false}, "place_id": "ChIJh2LzIJ1w44kRCqBlh8pXurA", "plus_code": {"compound_code": "9W4P+5W Boston, Massachusetts, United States", "global_code": "87JC9W4P+5W"}, "reference": "ChIJh2LzIJ1w44kRCqBlh8pXurA", "scope": "GOOGLE", "types": ["lawyer", "point_of_interest", "establishment"], "vicinity": "141 Tremont Street, Boston"}, "ChIJh2LzIJ1w44kRKJbz596JXLA": {"geometry": {"location": {"lat": 42.3554088, "lng": -71.0627176}, "viewport": {"northeast": {"lat": 42.3568262802915, "lng": -71.06149661970849}, "southwest": {"lat": 42.3541283197085, "lng": -71.0641945802915}}}, "icon": "https://maps.gstatic.com/mapfiles/place_api/icons/generic_business-71.png", "id": "a540525f8c905b3d004445b3037f9f9f09cf881f", "name": "Robert H. Quinn", "place_id": "ChIJh2LzIJ1w44kRKJbz596JXLA", "plus_code": {"compound_code": "9W4P+5W Boston, Massachusetts, United States", "global_code": "87JC9W4P+5W"}, "reference": "ChIJh2LzIJ1w44kRKJbz596JXLA", "scope": "GOOGLE", "types": ["lawyer", "point_of_interest", "establishment"], "vicinity": "141 Tremont Street # 600, Boston"}, "ChIJh2LzIJ1w44kRODIVQettSzU": {"geometry": {"location": {"lat": 42.3554088, "lng": -71.0627176}, "viewport": {"northeast": {"lat": 42.3568262802915, "lng": -71.06149661970849}, "southwest": {"lat": 42.3541283197085, "lng": -71.0641945802915}}}, "icon": "https://maps.gstatic.com/mapfiles/place_api/icons/generic_business-71.png", "id": "a09b09b1511c0610db015e73ed95c313e25c6488", "name": "Massachusetts Bus Roundtable", "place_id": "ChIJh2LzIJ1w44kRODIVQettSzU", "plus_code": {"compound_code": "9W4P+5W Boston, Massachusetts, United States", "global_code": "87JC9W4P+5W"}, "reference": "ChIJh2LzIJ1w44kRODIVQettSzU", "scope": "GOOGLE", "types": ["point_of_interest", "establishment"], "vicinity": "141 Tremont Street, Boston"}, "ChIJh2LzIJ1w44kR3Ox267kD9fU": {"geometry": {"location": {"lat": 42.3554088, "lng": -71.0627176}, "viewport": {"northeast": {"lat": 42.3568262802915, "lng": -71.06149661970849}, "southwest": {"lat": 42.3541283197085, "lng": -71.0641945802915}}}, "icon": "https://maps.gstatic.com/mapfiles/place_api/icons/generic_business-71.png", "id": "3155daff28fbbf7027f52f42c18ea731dda1ff12", "name": "Johnston Patrick J", "place_id": "ChIJh2LzIJ1w44kR3Ox267kD9fU", "plus_code": {"compound_code": "9W4P+5W Boston, Massachusetts, United States", "global_code": "87JC9W4P+5W"}, "reference": "ChIJh2LzIJ1w44kR3Ox267kD9fU", "scope": "GOOGLE", "types": ["point_of_interest", "establishment"], "vicinity": "141 Tremont Street # 3, Boston"}, "ChIJh2LzIJ1w44kRo9Y-4Y0ElRY": {"geometry": {"location": {"lat": 42.35540899999999, "lng": -71.062718}, "viewport": {"northeast": {"lat": 42.3568263802915, "lng": -71.0614968197085}, "southwest": {"lat": 42.3541284197085, "lng": -71.06419478029152}}}, "icon": "https://maps.gstatic.com/mapfiles/place_api/icons/civic_building-71.png", "id": "803f934cea1878aa481f02b143ad5745a5f24532", "name": "US Marine Corps Recruiting", "opening_hours": {"open_now": true}, "place_id": "ChIJh2LzIJ1w44kRo9Y-4Y0ElRY", "plus_code": {"compound_code": "9W4P+5W Boston, Massachusetts, United States", "global_code": "87JC9W4P+5W"}, "rating": 5, "reference": "ChIJh2LzIJ1w44kRo9Y-4Y0ElRY", "scope": "GOOGLE", "types": ["point_of_interest", "establishment"], "user_ratings_total": 4, "vicinity": "141 Tremont Street, Boston"}, "ChIJh2LzIJ1w44kRXF_kr6gtnUA": {"geometry": {"location": {"lat": 42.3554088, "lng": -71.0627176}, "viewport": {"northeast": {"lat": 42.3568262802915, "lng": -71.06149661970849}, "southwest": {"lat": 42.3541283197085, "lng": -71.0641945802915}}}, "icon": "https://maps.gstatic.com/mapfiles/place_api/icons/generic_business-71.png", "id": "aaed217c65d2218ba4aadee92e7253f1257750a6", "name": "Lowell Blake & Associates", "photos": [{"height": 1200, "html_attributions": ["<a href=\"https://maps.google.com/maps/contrib/117874842162131567962/photos\">John Cunningham</a>"], "photo_reference": "CmRaAAAAoIkuIOQErBs9q2xkTG6XK8_S9TKzG1lZpN3PxGUWhEq1UMwN5sOxa_mwsbpWPqAaoXPCOwk5VSu_cZH7Tz4AwieAUDWGMIWhDhugR1OsqoAhBN0wOvDcs8u2HPzPtgQnEhB1awHAYGWJ0TSm_tj_AOeDGhSliSzJqvdhYpGyRFrd5BFtNV70bA", "width": 1600}], "place_id": "ChIJh2LzIJ1w44kRXF_kr6gtnUA", "plus_code": {"compound_code": "9W4P+5W Boston, Massachusetts, United States", "global_code": "87JC9W4P+5W"}, "reference": "ChIJh2LzIJ1w44kRXF_kr6gtnUA", "scope": "GOOGLE", "types": ["finance", "point_of_interest", "establishment"], "vicinity": "141 Tremont Street # 2, Boston"}, "ChIJh2LzIJ1w44kRaVK9wniqNJQ": {"geometry": {"location": {"lat": 42.3554088, "lng": -71.0627176}, "viewport": {"northeast": {"lat": 42.3568262802915, "lng": -71.06149661970849}, "southwest": {"lat": 42.3541283197085, "lng": -71.0641945802915}}}, "icon": "https://maps.gstatic.com/mapfiles/place_api/icons/generic_business-71.png", "id": "2158ebb43e332295f6fa8da4379c9dd878fa973a", "name": "Beazley Group", "place_id": "ChIJh2LzIJ1w44kRaVK9wniqNJQ", "plus_code": {"compound_code": "9W4P+5W Boston, Massachusetts, United States", "global_code": "87JC9W4P+5W"}, "rating": 1, "reference": "ChIJh2LzIJ1w44kRaVK9wniqNJQ", "scope": "GOOGLE", "types": ["insurance_agency", "point_of_interest", "establishment"], "user_ratings_total": 1, "vicinity": "141 Tremont Street # 1200, Boston"}, "ChIJh2LzIJ1w44kR4Us3X_uBbhk": {"geometry": {"location": {"lat": 42.35538510000001, "lng": -71.06272369999999}, "viewport": {"northeast": {"lat": 42.3568055802915, "lng": -71.0615083197085}, "southwest": {"lat": 42.3541076197085, "lng": -71.0642062802915}}}, "icon": "https://maps.gstatic.com/mapfiles/place_api/icons/generic_business-71.png", "id": "bfcac8a457cab7a044f8085246ec63e948581471", "name": "New England Power Generators", "place_id": "ChIJh2LzIJ1w44kR4Us3X_uBbhk", "plus_code": {"compound_code": "9W4P+5W Boston, Massachusetts, United States", "global_code": "87JC9W4P+5W"}, "reference": "ChIJh2LzIJ1w44kR4Us3X_uBbhk", "scope": "GOOGLE", "types": ["point_of_interest", "establishment"], "vicinity": "141 Tremont Street, Boston"}, "ChIJC3yBIoNw44kRTLQCUX7w3J8": {"geometry": {"location": {"lat": 42.35549580000001, "lng": -71.0594338}, "viewport": {"northeast": {"lat": 42.3580143, "lng": -71.0572826}, "southwest": {"lat": 42.3531629, "lng": -71.0633258}}}, "icon": "https://maps.gstatic.com/mapfiles/place_api/icons/geocode-71.png", "id": "b17444457334b229c72e82dab5a3242f1d0e2a61", "name": "Downtown Crossing", "photos": [{"height": 3120, "html_attributions": ["<a href=\"https://maps.google.com/maps/contrib/111777007894721839306/photos\">verona mantova</a>"], "photo_reference": "CmRaAAAAVw6i4vUApdhy2KLWv8qF2iXxYnUZA_hzJMTH5x8N0jr5U5x9eQQSaOycMAjzpOWMrGCmsN-kWcPvLbsb9wVvtVck8E7Dpvh2ITMFvWw9ADffEwuqY21XFXJ2G7iL6Pd4EhDrIA9LaaGfa95r0jyLG0O6GhS39Os4x7wyu54XpL1ST2Z1cCRKuw", "width": 4160}], "place_id": "ChIJC3yBIoNw44kRTLQCUX7w3J8", "reference": "ChIJC3yBIoNw44kRTLQCUX7w3J8", "scope": "GOOGLE", "types": ["neighborhood", "political"], "vicinity": "Boston"}, "ChIJh2LzIJ1w44kROECxPxQd9fs": {"geometry": {"location": {"lat": 42.3554088, "lng": -71.0627176}, "viewport": {"northeast": {"lat": 42.3568262802915, "lng": -71.06149661970849}, "southwest": {"lat": 42.3541283197085, "lng": -71.0641945802915}}}, "icon": "https://maps.gstatic.com/mapfiles/place_api/icons/generic_business-71.png", "id": "e94f6f53f6dd78f35c2453733cdef0bef57f9ac9", "name": "Allied Advertising Agency", "place_id": "ChIJh2LzIJ1w44kROECxPxQd9fs", "plus_code": {"compound_code": "9W4P+5W Boston, Massachusetts, United States", "global_code": "87JC9W4P+5W"}, "reference": "ChIJh2LzIJ1w44kROECxPxQd9fs", "scope": "GOOGLE", "types": ["point_of_interest", "establishment"], "vicinity": "141 Tremont Street, Boston"}, "ChIJP6C8wpxw44kRFdqh7GtnqGo": {"geometry": {"location": {"lat": 42.3554088, "lng": -71.0627176}, "viewport": {"northeast": {"lat": 42.3568262802915, "lng": -71.06149661970849}, "southwest": {"lat": 42.3541283197085, "lng": -71.0641945802915}}}, "icon": "https://maps.gstatic.com/mapfiles/place_api/icons/generic_business-71.png", "id": "87d21e1285c535dc4aab85a7425c1aa6a9b19dda", "name": "Steven H. Schafer & Associates Counsellors At Law", "opening_hours": {"open_now": true}, "place_id": "ChIJP6C8wpxw44kRFdqh7GtnqGo", "plus_code": {"compound_code": "9W4P+5W Boston, Massachusetts, United States", "global_code": "87JC9W4P+5W"}, "reference": "ChIJP6C8wpxw44kRFdqh7GtnqGo", "scope": "GOOGLE", "types": ["lawyer", "point_of_interest", "establishment"], "vicinity": "141 Tremont Street, Boston"}, "ChIJh0dE35xw44kR9Ed-zLUIrnc": {"geometry": {"location": {"lat": 42.3554086, "lng": -71.0627334}, "viewport": {"northeast": {"lat": 42.3568233302915, "lng": -71.06150726970849}, "southwest": {"lat": 42.35412536970851, "lng": -71.0642052302915}}}, "icon": "https://maps.gstatic.com/mapfiles/place_api/icons/generic_business-71.png", "id": "ce2302c703620b1b061cb7a341917d21ef6eb012", "name": "Dumont Morris and Burke PC", "place_id": "ChIJh0dE35xw44kR9Ed-zLUIrnc", "plus_code": {"compound_code": "9W4P+5W Boston, Massachusetts, United States", "global_code": "87JC9W4P+5W"}, "reference": "ChIJh0dE35xw44kR9Ed-zLUIrnc", "scope": "GOOGLE", "types": ["lawyer", "point_of_interest", "establishment"], "vicinity": "141 Tremont Street, Boston"}, "ChIJh0dE35xw44kR3vz19mMyrrg": {"geometry": {"location": {"lat": 42.3554279, "lng": -71.06273019999999}, "viewport": {"northeast": {"lat": 42.3568398802915, "lng": -71.0614989197085}, "southwest": {"lat": 42.3541419197085, "lng": -71.0641968802915}}}, "icon": "https://maps.gstatic.com/mapfiles/place_api/icons/generic_business-71.png", "id": "f6bc6ddccecf3cee9c237ae11679723d45fafe3e", "name": "Adam A. Rowe", "place_id": "ChIJh0dE35xw44kR3vz19mMyrrg", "plus_code": {"compound_code": "9W4P+5W Boston, Massachusetts, United States", "global_code": "87JC9W4P+5W"}, "rating": 5, "reference": "ChIJh0dE35xw44kR3vz19mMyrrg", "scope": "GOOGLE", "types": ["lawyer", "point_of_interest", "establishment"], "user_ratings_total": 1, "vicinity": "141 Tremont Street, Boston"}, "ChIJdUtAnghx44kRCVOTdFgUvl4": {"geometry": {"location": {"lat": 42.3554279, "lng": -71.06273019999999}, "viewport": {"northeast": {"lat": 42.3568398802915, "lng": -71.0614989197085}, "southwest": {"lat": 42.3541419197085, "lng": -71.0641968802915}}}, "icon": "https://maps.gstatic.com/mapfiles/place_api/icons/civic_building-71.png", "id": "f11c1a609967a8d865e56052e9d9ced66cac90f1", "name": "Army Recruiting Office", "opening_hours": {"open_now": true}, "place_id": "ChIJdUtAnghx44kRCVOTdFgUvl4", "plus_code": {"compound_code": "9W4P+5W Boston, Massachusetts, United States", "global_code": "87JC9W4P+5W"}, "rating": 4.2, "reference": "ChIJdUtAnghx44kRCVOTdFgUvl4", "scope": "GOOGLE", "types": ["point_of_interest", "establishment"], "user_ratings_total": 10, "vicinity": "141 Tremont Street, Boston"}, "ChIJ226F0hpF5IkR9EuNV-H6KLc": {"geometry": {"location": {"lat": 42.355428, "lng": -71.06273}, "viewport": {"northeast": {"lat": 42.3568400302915, "lng": -71.06149876970848}, "southwest": {"lat": 42.3541420697085, "lng": -71.0641967302915}}}, "icon": "https://maps.gstatic.com/mapfiles/place_api/icons/generic_business-71.png", "id": "a1c44aa8180043b1ab6966440f597d49cdf424d6", "name": "iFactory", "opening_hours": {"open_now": false}, "place_id": "ChIJ226F0hpF5IkR9EuNV-H6KLc", "plus_code": {"compound_code": "9W4P+5W Boston, Massachusetts, United States", "global_code": "87JC9W4P+5W"}, "reference": "ChIJ226F0hpF5IkR9EuNV-H6KLc", "scope": "GOOGLE", "types": ["point_of_interest", "establishment"], "vicinity": "141 Tremont Street, Boston"}, "ChIJ53xP35xw44kRYZ5koikfWqw": {"geometry": {"location": {"lat": 42.3554088, "lng": -71.0627176}, "viewport": {"northeast": {"lat": 42.3568262802915, "lng": -71.06149661970849}, "southwest": {"lat": 42.3541283197085, "lng": -71.0641945802915}}}, "icon": "https://maps.gstatic.com/mapfiles/place_api/icons/generic_business-71.png", "id": "7bcab6d704cf210f3a5b2fc49165c1027086f63a", "name": "James P Mccarthy Law Office", "place_id": "ChIJ53xP35xw44kRYZ5koikfWqw", "plus_code": {"compound_code": "9W4P+5W Boston, Massachusetts, United States", "global_code": "87JC9W4P+5W"}, "reference": "ChIJ53xP35xw44kRYZ5koikfWqw", "scope": "GOOGLE", "types": ["lawyer", "point_of_interest", "establishment"], "vicinity": "141 Tremont Street # 4, Boston"}, "ChIJSSxEJ51w44kRgfHb2pbuivs": {"geometry": {"location": {"lat": 42.3554088, "lng": -71.06271749999999}, "viewport": {"northeast": {"lat": 42.3568263302915, "lng": -71.06149651970848}, "southwest": {"lat": 42.3541283697085, "lng": -71.06419448029149}}}, "icon": "https://maps.gstatic.com/mapfiles/place_api/icons/generic_business-71.png", "id": "3b4ca0914cd8998e0f16b7c7a7e6b7d55d547469", "name": "Outside In Advisors", "place_id": "ChIJSSxEJ51w44kRgfHb2pbuivs", "plus_code": {"compound_code": "9W4P+5W Boston, Massachusetts, United States", "global_code": "87JC9W4P+5W"}, "reference": "ChIJSSxEJ51w44kRgfHb2pbuivs", "scope": "GOOGLE", "types": ["point_of_interest", "establishment"], "vicinity": "5, 141 Tremont Street, Boston"}, "ChIJSSxEJ51w44kR9NMaZanXW24": {"geometry": {"location": {"lat": 42.3554088, "lng": -71.06271749999999}, "viewport": {"northeast": {"lat": 42.3568263302915, "lng": -71.06149651970848}, "southwest": {"lat": 42.3541283697085, "lng": -71.06419448029149}}}, "icon": "https://maps.gstatic.com/mapfiles/place_api/icons/generic_business-71.png", "id": "271586d628b3673058da881b141a2e0e4e0a5752", "name": "C.F. Adams Charitable Trust", "place_id": "ChIJSSxEJ51w44kR9NMaZanXW24", "plus_code": {"compound_code": "9W4P+5W Boston, Massachusetts, United States", "global_code": "87JC9W4P+5W"}, "reference": "ChIJSSxEJ51w44kR9NMaZanXW24", "scope": "GOOGLE", "types": ["point_of_interest", "establishment"], "vicinity": "141 Tremont Street #200, Boston"}, "ChIJATFzWABZwokRpEGtBt4XOgo": {"geometry": {"location": {"lat": 42.3553852, "lng": -71.06272369999999}, "viewport": {"northeast": {"lat": 42.3568056802915, "lng": -71.06150826970848}, "southwest": {"lat": 42.3541077197085, "lng": -71.06420623029149}}}, "icon": "https://maps.gstatic.com/mapfiles/place_api/icons/generic_business-71.png", "id": "013366e35931b1264cd104e8771cd6032cd06a95", "name": "Reward Gateway", "opening_hours": {"open_now": true}, "photos": [{"height": 656, "html_attributions": ["<a href=\"https://maps.google.com/maps/contrib/116032139365131103479/photos\">Reward Gateway</a>"], "photo_reference": "CmRaAAAAnhAh92Vl_qyl8A5scGgdM18WGcxdP_NpmOkQenBo9Up3TJdfjLmfj9QNq3xagCuXavaZ1vPmButLMcc0Nr2KqdAmTmxJNTpF3OwFZS0nb5ZNf6tOdtPXRNxM8IF-5-XVEhCXkDuYsCtZcwP7expKLaZFGhT2GiqO-GAJt0TgOCJoHh1tR8Xp8A", "width": 1171}], "place_id": "ChIJATFzWABZwokRpEGtBt4XOgo", "plus_code": {"compound_code": "9W4P+5W Boston, Massachusetts, United States", "global_code": "87JC9W4P+5W"}, "rating": 5, "reference": "ChIJATFzWABZwokRpEGtBt4XOgo", "scope": "GOOGLE", "types": ["point_of_interest", "establishment"], "user_ratings_total": 1, "vicinity": "141 Tremont Street, Boston"}, "ChIJAQBQJ51w44kRWDkAZwpF230": {"geometry": {"location": {"lat": 42.3554279, "lng": -71.06273019999999}, "viewport": {"northeast": {"lat": 42.3568398802915, "lng": -71.0614989197085}, "southwest": {"lat": 42.3541419197085, "lng": -71.0641968802915}}}, "icon": "https://maps.gstatic.com/mapfiles/place_api/icons/generic_business-71.png", "id": "3554017728963ce1eb29aca1027913c401d24811", "name": "John Shek Boston", "place_id": "ChIJAQBQJ51w44kRWDkAZwpF230", "plus_code": {"compound_code": "9W4P+5W Boston, Massachusetts, United States", "global_code": "87JC9W4P+5W"}, "reference": "ChIJAQBQJ51w44kRWDkAZwpF230", "scope": "GOOGLE", "types": ["lawyer", "point_of_interest", "establishment"], "vicinity": "141 Tremont Street, Boston"}, "ChIJh2LzIJ1w44kRxT4R4yxuo3U": {"geometry": {"location": {"lat": 42.3553852, "lng": -71.06272369999999}, "viewport": {"northeast": {"lat": 42.3568056802915, "lng": -71.06150826970848}, "southwest": {"lat": 42.3541077197085, "lng": -71.06420623029149}}}, "icon": "https://maps.gstatic.com/mapfiles/place_api/icons/generic_business-71.png", "id": "71f76492a0ffb49551874409828e945c0b105bf2", "name": "Michael A West Law Office", "place_id": "ChIJh2LzIJ1w44kRxT4R4yxuo3U", "plus_code": {"compound_code": "9W4P+5W Boston, Massachusetts, United States", "global_code": "87JC9W4P+5W"}, "reference": "ChIJh2LzIJ1w44kRxT4R4yxuo3U", "scope": "GOOGLE", "types": ["lawyer", "point_of_interest", "establishment"], "vicinity": "141 Tremont Street # 3, Boston"}, "ChIJh2LzIJ1w44kRrDkeI86G3qs": {"geometry": {"location": {"lat": 42.3554088, "lng": -71.0627176}, "viewport": {"northeast": {"lat": 42.3568262802915, "lng": -71.06149661970849}, "southwest": {"lat": 42.3541283197085, "lng": -71.0641945802915}}}, "icon": "https://maps.gstatic.com/mapfiles/place_api/icons/generic_business-71.png", "id": "f4a0c1056c49a07e249f5732682301625688f790", "name": "O'Neill Peter", "place_id": "ChIJh2LzIJ1w44kRrDkeI86G3qs", "plus_code": {"compound_code": "9W4P+5W Boston, Massachusetts, United States", "global_code": "87JC9W4P+5W"}, "reference": "ChIJh2LzIJ1w44kRrDkeI86G3qs", "scope": "GOOGLE", "types": ["lawyer", "point_of_interest", "establishment"], "vicinity": "141 Tremont Street # 600, Boston"}, "ChIJh2LzIJ1w44kRJjqPV7hGrzc": {"geometry": {"location": {"lat": 42.3554088, "lng": -71.0627176}, "viewport": {"northeast": {"lat": 42.3568262802915, "lng": -71.06149661970849}, "southwest": {"lat": 42.3541283197085, "lng": -71.0641945802915}}}, "icon": "https://maps.gstatic.com/mapfiles/place_api/icons/generic_business-71.png", "id": "d4c5e1f9d0726859c62d3b2efa5804b11ebb22eb", "name": "Ford Thomas J", "place_id": "ChIJh2LzIJ1w44kRJjqPV7hGrzc", "plus_code": {"compound_code": "9W4P+5W Boston, Massachusetts, United States", "global_code": "87JC9W4P+5W"}, "reference": "ChIJh2LzIJ1w44kRJjqPV7hGrzc", "scope": "GOOGLE", "types": ["lawyer", "point_of_interest", "establishment"], "vicinity": "141 Tremont Street # 4, Boston"}, "ChIJq2ZEZ2t444kRj8WDZixU2GA": {"geometry": {"location": {"lat": 42.355429, "lng": -71.062769}, "viewport": {"northeast": {"lat": 42.3568339802915, "lng": -71.06152466970849}, "southwest": {"lat": 42.35413601970851, "lng": -71.0642226302915}}}, "icon": "https://maps.gstatic.com/mapfiles/place_api/icons/generic_business-71.png", "id": "f590a060d9269295ed1e237d6e1cbb61447760dd", "name": "Flywire", "opening_hours": {"open_now": false}, "photos": [{"height": 3024, "html_attributions": ["<a href=\"https://maps.google.com/maps/contrib/113712262757459017175/photos\">Flywire</a>"], "photo_reference": "CmRaAAAA7lH0aRzX1w_dJlo_pd2_YghgeLRmsk7Lc1UQwbSqgrY9JkrpuNKzM8WdiKiiGCU6JW8W80ljSq2GO4MCOv9kGL6BeKyBWmAjQTob9s5GeK2hHP8FtDiUWoHaf8l4clUJEhDToNd8VvYLf-UKwp8HUNlQGhTQhI1HrvVcNmR9q8CRmLun3bVG7g", "width": 4032}], "place_id": "ChIJq2ZEZ2t444kRj8WDZixU2GA", "plus_code": {"compound_code": "9W4P+5V Boston, Massachusetts, United States", "global_code": "87JC9W4P+5V"}, "rating": 4.2, "reference": "ChIJq2ZEZ2t444kRj8WDZixU2GA", "scope": "GOOGLE", "types": ["point_of_interest", "establishment"], "user_ratings_total": 9, "vicinity": "141 Tremont Street #10, Boston"}, "ChIJTyxEJ51w44kRN33baCbJCyI": {"geometry": {"location": {"lat": 42.3554088, "lng": -71.0627176}, "viewport": {"northeast": {"lat": 42.3568262802915, "lng": -71.06149661970849}, "southwest": {"lat": 42.3541283197085, "lng": -71.0641945802915}}}, "icon": "https://maps.gstatic.com/mapfiles/place_api/icons/generic_business-71.png", "id": "338c1c4465b7d8521aaa45cf041b6ef9397a5667", "name": "mabl HQ", "place_id": "ChIJTyxEJ51w44kRN33baCbJCyI", "plus_code": {"compound_code": "9W4P+5W Boston, Massachusetts, United States", "global_code": "87JC9W4P+5W"}, "rating": 5, "reference": "ChIJTyxEJ51w44kRN33baCbJCyI", "scope": "GOOGLE", "types": ["point_of_interest", "establishment"], "user_ratings_total": 1, "vicinity": "141 Tremont Street floor 6, Boston"}, "ChIJqUo43Xh644kRNscOiO5bBbk": {"geometry": {"location": {"lat": 42.355443, "lng": -71.062794}, "viewport": {"northeast": {"lat": 42.3568411802915, "lng": -71.06153696970848}, "southwest": {"lat": 42.3541432197085, "lng": -71.0642349302915}}}, "icon": "https://maps.gstatic.com/mapfiles/place_api/icons/generic_business-71.png", "id": "287ebc01466daac23e963de7d0a376d8f6111568", "name": "iMotions Inc", "place_id": "ChIJqUo43Xh644kRNscOiO5bBbk", "plus_code": {"compound_code": "9W4P+5V Boston, Massachusetts, United States", "global_code": "87JC9W4P+5V"}, "rating": 5, "reference": "ChIJqUo43Xh644kRNscOiO5bBbk", "scope": "GOOGLE", "types": ["point_of_interest", "establishment"], "user_ratings_total": 1, "vicinity": "7, 141 Tremont Street, Boston"}}