{"ChIJGzE9DS1l44kRoOhiASS_fHg": {"geometry": {"location": {"lat": 42.3600825, "lng": -71.0588801}, "viewport": {"northeast": {"lat": 42.40081989999999, "lng": -70.749455}, "southwest": {"lat": 42.22788, "lng": -71.191113}}}, "icon": "https://maps.gstatic.com/mapfiles/place_api/icons/geocode-71.png", "id": "06755c25d2b34d13942a4713971756a55b870ced", "name": "Boston", "photos": [{"height": 3024, "html_attributions": ["<a href=\"https://maps.google.com/maps/contrib/104670289779338733432/photos\">Natalia Zalucean</a>"], "photo_reference": "CmRaAAAAXWnGyr2UKwO0MySgw5al1Vic-VnlSBcENAohdynAwDfdgEzzFvq-UJv_cxTOlkrxtfeKXJRBf_7JvQoScYZR-woMD4A_qNez4V5PSkI1zqtq9SrDrhCbevWyEuhK8gPYEhAf4iFl_ROaqV3XsBWYIHEbGhRnZmuklNzvPQUglB0ffyE1-II_-g", "width": 4032}], "place_id": "ChIJGzE9DS1l44kRoOhiASS_fHg", "reference": "ChIJGzE9DS1l44kRoOhiASS_fHg", "scope": "GOOGLE", "types": ["locality", "political"], "vicinity": "Boston"}, "ChIJDTAA9Hh644kR2DIoLFbQrj4": {"geometry": {"location": {"lat": 42.35100000000001, "lng": -71.057191}, "viewport": {"northeast": {"lat": 42.35235838029151, "lng": -71.0559264697085}, "southwest": {"lat": 42.34966041970851, "lng": -71.0586244302915}}}, "icon": "https://maps.gstatic.com/mapfiles/place_api/icons/generic_business-71.png", "id": "9af2d7eff6a3a0eee1aafb7dd3a9343461afdc0e", "name": "Lee's Pain Relief Center", "opening_hours": {"open_now": true}, "place_id": "ChIJDTAA9Hh644kR2DIoLFbQrj4", "plus_code": {"compound_code": "9W2V+94 Boston, Massachusetts, United States", "global_code": "87JC9W2V+94"}, "rating": 2.5, "reference": "ChIJDTAA9Hh644kR2DIoLFbQrj4", "scope": "GOOGLE", "types": ["health", "point_of_interest", "establishment"], "user_ratings_total": 2, "vicinity": "112 South Street, Boston"}, "ChIJETHIlHh644kR6l_PScMvg78": {"geometry": {"location": {"lat": 42.3509999, "lng": -71.05719119999999}, "viewport": {"northeast": {"lat": 42.35235828029149, "lng": -71.05592656970849}, "southwest": {"lat": 42.3496603197085, "lng": -71.0586245302915}}}, "icon": "https://maps.gstatic.com/mapfiles/place_api/icons/generic_business-71.png", "id": "519be37edd78f21a373dd26079a34b14cbb85918", "name": "Northeast Advanced Vehicle Consortium", "place_id": "ChIJETHIlHh644kR6l_PScMvg78", "plus_code": {"compound_code": "9W2V+94 Boston, Massachusetts, United States", "global_code": "87JC9W2V+94"}, "reference": "ChIJETHIlHh644kR6l_PScMvg78", "scope": "GOOGLE", "types": ["point_of_interest", "establishment"], "vicinity": "112 South Street, Boston"}, "ChIJowXjv3h644kRL3wRISdGSlQ": {"geometry": {"location": {"lat": 42.3509999, "lng": -71.05719119999999}, "viewport": {"northeast": {"lat": 42.35235828029149, "lng": -71.05592656970849}, "southwest": {"lat": 42.3496603197085, "lng": -71.0586245302915}}}, "icon": "https://maps.gstatic.com/mapfiles/place_api/icons/school-71.png", "id": "5719e37fa18818d0e91fd28f47584067aff4ed02", "name": "myCADD", "place_id": "ChIJowXjv3h644kRL3wRISdGSlQ", "plus_code": {"compound_code": "9W2V+94 Boston, Massachusetts, United States", "global_code": "87JC9W2V+94"}, "reference": "ChIJowXjv3h644kRL3wRISdGSlQ", "scope": "GOOGLE", "types": ["school", "point_of_interest", "establishment"], "vicinity": "112 South Street, Boston"}, "ChIJowXjv3h644kRpUqoU6ud1dg": {"geometry": {"location": {"lat": 42.3509999, "lng": -71.05719119999999}, "viewport": {"northeast": {"lat": 42.35235828029149, "lng": -71.05592656970849}, "southwest": {"lat": 42.3496603197085, "lng": -71.0586245302915}}}, "icon": "https://maps.gstatic.com/mapfiles/place_api/icons/restaurant-71.png", "id": "5ae3b26462db1958a89b964dee8aebe07272c16f", "name": "Amateras Ramen", "opening_hours": {"open_now": true}, "photos": [{"height": 3024, "html_attributions": ["<a href=\"https://maps.google.com/maps/contrib/109676863172018672796/photos\">Diego Rivadeneira</a>"], "photo_reference": "CmRaAAAAbdQ3oHPS-P-vuGtVKU_1KGO44PjFh8Momj2XZE1pmp93-OgcSBdepyqz05RK_C42KuANCT5R2ynYYJPvAFPi_gup0M26gPeKGMCvxNCLB3iiF4GEC-HHyV9vAmlI4p_JEhCvaS9gqvlNS1cOYxSjAskOGhRPKYNalCvc4hso6_Iso0neId9Rhg", "width": 4032}], "place_id": "ChIJowXjv3h644kRpUqoU6ud1dg", "plus_code": {"compound_code": "9W2V+94 Boston, Massachusetts, United States", "global_code": "87JC9W2V+94"}, "price_level": 2, "rating": 4.5, "reference": "ChIJowXjv3h644kRpUqoU6ud1dg", "scope": "GOOGLE", "types": ["restaurant", "point_of_interest", "food", "establishment"], "user_ratings_total": 214, "vicinity": "112 South Street, Boston"}, "ChIJA8i-v3h644kReYnO60fmlVw": {"geometry": {"location": {"lat": 42.3509999, "lng": -71.05719119999999}, "viewport": {"northeast": {"lat": 42.35235828029149, "lng": -71.05592656970849}, "southwest": {"lat": 42.3496603197085, "lng": -71.0586245302915}}}, "icon": "https://maps.gstatic.com/mapfiles/place_api/icons/generic_business-71.png", "id": "ea67f0c3452607d53662a0dac830e8006e73f814", "name": "Eversound", "opening_hours": {"open_now": true}, "photos": [{"height": 1344, "html_attributions": ["<a href=\"https://maps.google.com/maps/contrib/106444477771427742072/photos\">Eversound</a>"], "photo_reference": "CmRaAAAAMa_8pNhurLkCuTK_ciPA1tNxFmZatG6h3rFkfCKovl73HLWKS7XbFKPXlT01qP7Md7VERwW4Z6tD8MemQyfh7xp9dD_fZy6zfuoLWJEHqMtGRUCI5eyMh7vkgXuiQk-CEhDZIKWCkBg79FMCAEvCtFCfGhS8eBjtsE1DEYSWGfwYzKuDSKU3nQ", "width": 2016}], "place_id": "ChIJA8i-v3h644kReYnO60fmlVw", "plus_code": {"compound_code": "9W2V+94 Boston, Massachusetts, United States", "global_code": "87JC9W2V+94"}, "reference": "ChIJA8i-v3h644kReYnO60fmlVw", "scope": "GOOGLE", "types": ["point_of_interest", "establishment"], "vicinity": "112 South Street, Boston"}, "ChIJVVWlv3h644kRqWylI-I4oII": {"geometry": {"location": {"lat": 42.3509999, "lng": -71.05719119999999}, "viewport": {"northeast": {"lat": 42.35235828029149, "lng": -71.05592656970849}, "southwest": {"lat": 42.3496603197085, "lng": -71.0586245302915}}}, "icon": "https://maps.gstatic.com/mapfiles/place_api/icons/generic_business-71.png", "id": "ca6046f9b2a22ae1b797f6a9dbb88a7972190f51", "name": "Lab Architect Group", "place_id": "ChIJVVWlv3h644kRqWylI-I4oII", "plus_code": {"compound_code": "9W2V+94 Boston, Massachusetts, United States", "global_code": "87JC9W2V+94"}, "reference": "ChIJVVWlv3h644kRqWylI-I4oII", "scope": "GOOGLE", "types": ["point_of_interest", "establishment"], "vicinity": "112 South Street, Boston"}, "ChIJ18a26nh644kRmNDOgVxnoV4": {"geometry": {"location": {"lat": 42.3509464, "lng": -71.0572791}, "viewport": {"northeast": {"lat": 42.35230058029149, "lng": -71.0559768197085}, "southwest": {"lat": 42.34960261970849, "lng": -71.05867478029151}}}, "icon": "https://maps.gstatic.com/mapfiles/place_api/icons/generic_business-71.png", "id": "6c5649f424ca374efbe59ee8afc45e3bdde45d33", "name": "Arthur Choo Associates, Inc.", "place_id": "ChIJ18a26nh644kRmNDOgVxnoV4", "plus_code": {"compound_code": "9W2V+93 Boston, Massachusetts, United States", "global_code": "87JC9W2V+93"}, "reference": "ChIJ18a26nh644kRmNDOgVxnoV4", "scope": "GOOGLE", "types": ["point_of_interest", "establishment"], "vicinity": "114 South Street, Boston"}, "ChIJW60DJYNw44kRmL2Ehm4t0Bg": {"geometry": {"location": {"lat": 42.3557089, "lng": -71.05720529999999}, "viewport": {"northeast": {"lat": 42.36839699999999, "lng": -71.04779599999999}, "southwest": {"lat": 42.342797, "lng": -71.072996}}}, "icon": "https://maps.gstatic.com/mapfiles/place_api/icons/geocode-71.png", "id": "bc27dcccb31ae90e36c262f557a1c09193ec777d", "name": "Downtown", "photos": [{"height": 629, "html_attributions": ["<a href=\"https://maps.google.com/maps/contrib/111777007894721839306/photos\">verona mantova</a>"], "photo_reference": "CmRaAAAAEqgT09uopAARSRtMLtnimZNvpuMfkl8o44G7pNsqNyIqYtmFbMEEgckGgbg-0Fhc9I_rTYU48IDDy78_cHq8PBPw5Mp3GGDtfCJfQ_jiBuBb4zBqWQnBsYTVzLKZGrF0EhB1U9VznzdlMCX0lM4DgDA1GhTwlnhwLa0AzyT9iNkSkaRHsNcsbg", "width": 1000}], "place_id": "ChIJW60DJYNw44kRmL2Ehm4t0Bg", "reference": "ChIJW60DJYNw44kRmL2Ehm4t0Bg", "scope": "GOOGLE", "types": ["neighborhood", "political"], "vicinity": "Boston"}}