{"ChIJGzE9DS1l44kRoOhiASS_fHg": {"geometry": {"location": {"lat": 42.3600825, "lng": -71.0588801}, "viewport": {"northeast": {"lat": 42.40081989999999, "lng": -70.749455}, "southwest": {"lat": 42.22788, "lng": -71.191113}}}, "icon": "https://maps.gstatic.com/mapfiles/place_api/icons/geocode-71.png", "id": "06755c25d2b34d13942a4713971756a55b870ced", "name": "Boston", "photos": [{"height": 3024, "html_attributions": ["<a href=\"https://maps.google.com/maps/contrib/104670289779338733432/photos\">Natalia Zalucean</a>"], "photo_reference": "CmRaAAAABKJdwyWLF-JqVQGyh_cyWoucVPwwXSpT7cKGNV4vHpkpoEtOblf4TtLUjtP8OgD3aL470n69T-JcD5MZtYlZDYXRVc8uSJ50tYA0b5XlQKQCWTdHHAsNWvfVAL45BxC0EhAPPNj4m9CKlY139tEc9wI5GhR2Z8LHIxcFbseYJ6VnnSkFCe65Kw", "width": 4032}], "place_id": "ChIJGzE9DS1l44kRoOhiASS_fHg", "reference": "ChIJGzE9DS1l44kRoOhiASS_fHg", "scope": "GOOGLE", "types": ["locality", "political"], "vicinity": "Boston"}, "ChIJE093rdNx44kRPbVADGNGg7Q": {"geometry": {"location": {"lat": 42.35616269999999, "lng": -71.0570394}, "viewport": {"northeast": {"lat": 42.3575314302915, "lng": -71.05549581970848}, "southwest": {"lat": 42.3548334697085, "lng": -71.0581937802915}}}, "icon": "https://maps.gstatic.com/mapfiles/place_api/icons/generic_business-71.png", "id": "f8ffdd32e801c4e60341e81e4e2ed5b68dfe02fb", "name": "Gary L McGuirk - Merrill Lynch", "photos": [{"height": 789, "html_attributions": ["<a href=\"https://maps.google.com/maps/contrib/112429809016999392468/photos\">Gary L McGuirk - Merrill Lynch</a>"], "photo_reference": "CmRaAAAAkLpR8H0atkuLQIWMPFyhWPaSo3x170eKNH-Ko76LR7DGIV2KOEN1fmsT2wGcC0woFJ_cOGjjvwzcWwwe3T7Fnklth8lY2xts8qeNrBGrAiPO2Oz2vcER5Nq-daLbsfKJEhBv_v8kud6C47v09mfXvFAWGhT_d5tQDkkajtzv1yRmMcwBtUGKSA", "width": 789}], "place_id": "ChIJE093rdNx44kRPbVADGNGg7Q", "plus_code": {"compound_code": "9W4V+F5 Boston, Massachusetts, United States", "global_code": "87JC9W4V+F5"}, "reference": "ChIJE093rdNx44kRPbVADGNGg7Q", "scope": "GOOGLE", "types": ["finance", "point_of_interest", "establishment"], "vicinity": "F24, 1 Federal Street, Boston"}, "ChIJZSO0RIFw44kRMwtkx6QJp2U": {"geometry": {"location": {"lat": 42.3559219, "lng": -71.05497679999999}, "viewport": {"northeast": {"lat": 42.3595222, "lng": -71.05148729999999}, "southwest": {"lat": 42.351489, "lng": -71.0593777}}}, "icon": "https://maps.gstatic.com/mapfiles/place_api/icons/geocode-71.png", "id": "a299437eec467c3c4fb5ec448e81048caef8aacf", "name": "Financial District", "photos": [{"height": 2403, "html_attributions": ["<a href=\"https://maps.google.com/maps/contrib/115111503217500241431/photos\">Jane Wong</a>"], "photo_reference": "CmRaAAAAABmEjvvHC_pHMSLDgfMU0YxjeUxmgtkMXIE0unZtsxhaXxL_WyPWDiHSoX2x3smHCASESmmJKNg3vIpQ9P3xvMobCaJ-LNubOy7n3YMmQ7mC5M0zOKOEDFxOtOXnHn-8EhCQRGuQJNaLHubzGXQ3HTz7GhSFEZhau7k9_N8z9zcn-C3TfV-lUw", "width": 3206}], "place_id": "ChIJZSO0RIFw44kRMwtkx6QJp2U", "reference": "ChIJZSO0RIFw44kRMwtkx6QJp2U", "scope": "GOOGLE", "types": ["neighborhood", "political"], "vicinity": "Boston"}}