{"ChIJGzE9DS1l44kRoOhiASS_fHg": {"geometry": {"location": {"lat": 42.3600825, "lng": -71.0588801}, "viewport": {"northeast": {"lat": 42.40081989999999, "lng": -70.749455}, "southwest": {"lat": 42.22788, "lng": -71.191113}}}, "icon": "https://maps.gstatic.com/mapfiles/place_api/icons/geocode-71.png", "id": "06755c25d2b34d13942a4713971756a55b870ced", "name": "Boston", "photos": [{"height": 3024, "html_attributions": ["<a href=\"https://maps.google.com/maps/contrib/104670289779338733432/photos\">Natalia Zalucean</a>"], "photo_reference": "CmRaAAAAyb5D96auOEMCrFANtyijv9-KJSpN8ffy1-ucWZ08AbRrjAa5cruDT_rgx-3zbleLVaNja4aRe-7CunyzcHnGtbRzkstL1ejxlfRbx9u5J0XGHMwuj8U3G5Qcx885hhKXEhAzVtCsDZpNpQNFSMhK5d_DGhQqhegf7KrXg924mpLD156NmOHy1g", "width": 4032}], "place_id": "ChIJGzE9DS1l44kRoOhiASS_fHg", "reference": "ChIJGzE9DS1l44kRoOhiASS_fHg", "scope": "GOOGLE", "types": ["locality", "political"], "vicinity": "Boston"}, "ChIJAUQAEw1644kRROgLSVT6uQ4": {"geometry": {"location": {"lat": 42.3604385, "lng": -71.0621365}, "viewport": {"northeast": {"lat": 42.3620901302915, "lng": -71.06063586970849}, "southwest": {"lat": 42.3593921697085, "lng": -71.0633338302915}}}, "icon": "https://maps.gstatic.com/mapfiles/place_api/icons/generic_business-71.png", "id": "c486a88817a93dbe42373a7ef8cbfbf524a44b8c", "name": "Partners HealthCare International", "opening_hours": {"open_now": true}, "place_id": "ChIJAUQAEw1644kRROgLSVT6uQ4", "plus_code": {"compound_code": "9W6Q+54 Boston, Massachusetts, United States", "global_code": "87JC9W6Q+54"}, "rating": 5, "reference": "ChIJAUQAEw1644kRROgLSVT6uQ4", "scope": "GOOGLE", "types": ["health", "point_of_interest", "establishment"], "user_ratings_total": 1, "vicinity": "100 Cambridge Street, Boston"}, "ChIJPbS_0Zpw44kREVxfE1Pt3WE": {"geometry": {"location": {"lat": 42.36046690000001, "lng": -71.0620926}, "viewport": {"northeast": {"lat": 42.3620979802915, "lng": -71.06059171970848}, "southwest": {"lat": 42.3594000197085, "lng": -71.06328968029149}}}, "icon": "https://maps.gstatic.com/mapfiles/place_api/icons/generic_business-71.png", "id": "a883dfdec41662d7b69680a8ad5aef3007de2210", "name": "MSBRC", "place_id": "ChIJPbS_0Zpw44kREVxfE1Pt3WE", "plus_code": {"compound_code": "9W6Q+55 Boston, Massachusetts, United States", "global_code": "87JC9W6Q+55"}, "reference": "ChIJPbS_0Zpw44kREVxfE1Pt3WE", "scope": "GOOGLE", "types": ["point_of_interest", "establishment"], "vicinity": "100 Cambridge Street, Boston"}, "ChIJN95m1YVw44kRkfGO0fp3Z3o": {"geometry": {"location": {"lat": 42.3605198, "lng": -71.0622331}, "viewport": {"northeast": {"lat": 42.3621507302915, "lng": -71.0607611697085}, "southwest": {"lat": 42.3594527697085, "lng": -71.0634591302915}}}, "icon": "https://maps.gstatic.com/mapfiles/place_api/icons/generic_business-71.png", "id": "d0cfaf47c788618730db16417215f1bdb6d9bf71", "name": "Gregory R. Barison", "place_id": "ChIJN95m1YVw44kRkfGO0fp3Z3o", "plus_code": {"compound_code": "9W6Q+64 Boston, Massachusetts, United States", "global_code": "87JC9W6Q+64"}, "reference": "ChIJN95m1YVw44kRkfGO0fp3Z3o", "scope": "GOOGLE", "types": ["lawyer", "point_of_interest", "establishment"], "vicinity": "100 Cambridge Street, Boston"}, "ChIJPbS_0Zpw44kRhM1jbVePjss": {"geometry": {"location": {"lat": 42.3605132, "lng": -71.0620802}, "viewport": {"northeast": {"lat": 42.3621227302915, "lng": -71.06059091970849}, "southwest": {"lat": 42.3594247697085, "lng": -71.0632888802915}}}, "icon": "https://maps.gstatic.com/mapfiles/place_api/icons/generic_business-71.png", "id": "447e3c30b6377d44b4aa87078521cc30d7e734b8", "name": "Massachusetts Department-Housing", "place_id": "ChIJPbS_0Zpw44kRhM1jbVePjss", "plus_code": {"compound_code": "9W6Q+65 Boston, Massachusetts, United States", "global_code": "87JC9W6Q+65"}, "reference": "ChIJPbS_0Zpw44kRhM1jbVePjss", "scope": "GOOGLE", "types": ["real_estate_agency", "point_of_interest", "establishment"], "vicinity": "100 Cambridge Street # 3, Boston"}, "ChIJw1R7N5tw44kRbs50181fqSg": {"geometry": {"location": {"lat": 42.3605132, "lng": -71.0620802}, "viewport": {"northeast": {"lat": 42.3621227302915, "lng": -71.06059091970849}, "southwest": {"lat": 42.3594247697085, "lng": -71.0632888802915}}}, "icon": "https://maps.gstatic.com/mapfiles/place_api/icons/school-71.png", "id": "64d42e1fd95934ace7e0c32caf512c67e584c52d", "name": "Massachusetts Higher Education", "place_id": "ChIJw1R7N5tw44kRbs50181fqSg", "plus_code": {"compound_code": "9W6Q+65 Boston, Massachusetts, United States", "global_code": "87JC9W6Q+65"}, "reference": "ChIJw1R7N5tw44kRbs50181fqSg", "scope": "GOOGLE", "types": ["point_of_interest", "establishment"], "vicinity": "100 Cambridge Street, Boston"}, "ChIJZ5jQHf1644kRYuy_O97eHf0": {"geometry": {"location": {"lat": 42.3605132, "lng": -71.0620802}, "viewport": {"northeast": {"lat": 42.3618621802915, "lng": -71.06073121970849}, "southwest": {"lat": 42.3591642197085, "lng": -71.06342918029151}}}, "icon": "https://maps.gstatic.com/mapfiles/place_api/icons/civic_building-71.png", "id": "6d2747814bea101bd29c8901f922370a1a17de40", "name": "Korean War Veterans", "photos": [{"height": 2848, "html_attributions": ["<a href=\"https://maps.google.com/maps/contrib/115640193205564823849/photos\">Dwen Doggett</a>"], "photo_reference": "CmRaAAAANHbRgOkTi79I9CZBGZoFjHmGLPavp9HRGI3rUhNEu01ffN49kJ7cWRXo389UCg-beQL_MhlFWl7subVfaeCw_xlsq8LgqNI6UTnnr7oxocDxx1QNeLTb5_968DhfqESSEhDI4vdDEpeeht8nKs5UGoffGhRYJSsHet_dozamD1JzlMxR3Cv5Bg", "width": 4272}], "place_id": "ChIJZ5jQHf1644kRYuy_O97eHf0", "plus_code": {"compound_code": "9W6Q+65 Boston, Massachusetts, United States", "global_code": "87JC9W6Q+65"}, "rating": 5, "reference": "ChIJZ5jQHf1644kRYuy_O97eHf0", "scope": "GOOGLE", "types": ["local_government_office", "point_of_interest", "establishment"], "user_ratings_total": 1, "vicinity": "Boston"}, "ChIJPbS_0Zpw44kRZzOQ_o7iqio": {"geometry": {"location": {"lat": 42.36046690000001, "lng": -71.0620926}, "viewport": {"northeast": {"lat": 42.3620979802915, "lng": -71.06059171970848}, "southwest": {"lat": 42.3594000197085, "lng": -71.06328968029149}}}, "icon": "https://maps.gstatic.com/mapfiles/place_api/icons/generic_business-71.png", "id": "e202ea4ced9085289e7d25ed72ed4de820edc678", "name": "ECG Management Consultants", "place_id": "ChIJPbS_0Zpw44kRZzOQ_o7iqio", "plus_code": {"compound_code": "9W6Q+55 Boston, Massachusetts, United States", "global_code": "87JC9W6Q+55"}, "reference": "ChIJPbS_0Zpw44kRZzOQ_o7iqio", "scope": "GOOGLE", "types": ["point_of_interest", "establishment"], "vicinity": "100 Cambridge Street, Boston"}, "ChIJsRT2dplw44kR9uk5zCbzDZw": {"geometry": {"location": {"lat": 42.36046690000001, "lng": -71.0620926}, "viewport": {"northeast": {"lat": 42.3620979802915, "lng": -71.06059171970848}, "southwest": {"lat": 42.3594000197085, "lng": -71.06328968029149}}}, "icon": "https://maps.gstatic.com/mapfiles/place_api/icons/civic_building-71.png", "id": "7ade2963b86865bfa33f8d7468d92c83194a85be", "name": "Indian Affairs", "place_id": "ChIJsRT2dplw44kR9uk5zCbzDZw", "plus_code": {"compound_code": "9W6Q+55 Boston, Massachusetts, United States", "global_code": "87JC9W6Q+55"}, "reference": "ChIJsRT2dplw44kR9uk5zCbzDZw", "scope": "GOOGLE", "types": ["local_government_office", "point_of_interest", "establishment"], "vicinity": "100 Cambridge Street, Boston"}, "ChIJa04qjoRw44kRI_WAN0s7Hy8": {"geometry": {"location": {"lat": 42.3605132, "lng": -71.0620802}, "viewport": {"northeast": {"lat": 42.3618621802915, "lng": -71.06073121970849}, "southwest": {"lat": 42.3591642197085, "lng": -71.06342918029151}}}, "icon": "https://maps.gstatic.com/mapfiles/place_api/icons/generic_business-71.png", "id": "6c1a58acf2d44c8f3969e52679cf957e3d1892a5", "name": "Law Offices of Daniel A. Batterman", "place_id": "ChIJa04qjoRw44kRI_WAN0s7Hy8", "plus_code": {"compound_code": "9W6Q+65 Boston, Massachusetts, United States", "global_code": "87JC9W6Q+65"}, "reference": "ChIJa04qjoRw44kRI_WAN0s7Hy8", "scope": "GOOGLE", "types": ["lawyer", "point_of_interest", "establishment"], "vicinity": "100 Cambridge St Ave #1310, Boston"}, "ChIJuTer0Zpw44kRUICaQpQVIcg": {"geometry": {"location": {"lat": 42.3605356, "lng": -71.0621464}, "viewport": {"northeast": {"lat": 42.3621473302915, "lng": -71.06067296970849}, "southwest": {"lat": 42.3594493697085, "lng": -71.06337093029151}}}, "icon": "https://maps.gstatic.com/mapfiles/place_api/icons/generic_business-71.png", "id": "1b2478932949f59dd687bd0781f8daa2d760083b", "name": "Zettlex", "opening_hours": {"open_now": true}, "photos": [{"height": 1213, "html_attributions": ["<a href=\"https://maps.google.com/maps/contrib/116503507348629236826/photos\">Zettlex</a>"], "photo_reference": "CmRaAAAAk9wov6h3su_RSh5gYrUEfpbdXfPn_LcGEE2e03Lu-r810R8QTVA8D7WorjCWUr3d6MuYwdmz9xc1BerGm1C5G7rbTmFhCkcOAm-ZG9eri1c5zwnycg16Y2I6dYG9ZE9CEhD9Rqlk-Q3x02yXWRWwpE4qGhTtVM0lLUH6BSlKYtpM9RlmXW5vmA", "width": 2160}], "place_id": "ChIJuTer0Zpw44kRUICaQpQVIcg", "plus_code": {"compound_code": "9W6Q+64 Boston, Massachusetts, United States", "global_code": "87JC9W6Q+64"}, "reference": "ChIJuTer0Zpw44kRUICaQpQVIcg", "scope": "GOOGLE", "types": ["point_of_interest", "establishment"], "vicinity": "100 Cambridge Street #1400, Boston"}, "ChIJPbS_0Zpw44kRt_wk5H6_Wn4": {"geometry": {"location": {"lat": 42.36054699999999, "lng": -71.062108}, "viewport": {"northeast": {"lat": 42.36214748029149, "lng": -71.0606329697085}, "southwest": {"lat": 42.3594495197085, "lng": -71.0633309302915}}}, "icon": "https://maps.gstatic.com/mapfiles/place_api/icons/generic_business-71.png", "id": "142e3a16e084bdaec9b435961997840fe12ec92b", "name": "Lariviere Raymond T CPA", "opening_hours": {"open_now": true}, "place_id": "ChIJPbS_0Zpw44kRt_wk5H6_Wn4", "plus_code": {"compound_code": "9W6Q+65 Boston, Massachusetts, United States", "global_code": "87JC9W6Q+65"}, "reference": "ChIJPbS_0Zpw44kRt_wk5H6_Wn4", "scope": "GOOGLE", "types": ["accounting", "finance", "point_of_interest", "establishment"], "vicinity": "100 Cambridge Street # 1302, Boston"}, "ChIJx6hD0Zpw44kRmy3OXcUNfiw": {"geometry": {"location": {"lat": 42.3605473, "lng": -71.062108}, "viewport": {"northeast": {"lat": 42.3621476302915, "lng": -71.06063306970849}, "southwest": {"lat": 42.3594496697085, "lng": -71.0633310302915}}}, "icon": "https://maps.gstatic.com/mapfiles/place_api/icons/generic_business-71.png", "id": "4685d62d551e08034b57ead1584de3a6146eda34", "name": "Law Offices of Caro Kinsella", "place_id": "ChIJx6hD0Zpw44kRmy3OXcUNfiw", "plus_code": {"compound_code": "9W6Q+65 Boston, Massachusetts, United States", "global_code": "87JC9W6Q+65"}, "reference": "ChIJx6hD0Zpw44kRmy3OXcUNfiw", "scope": "GOOGLE", "types": ["lawyer", "point_of_interest", "establishment"], "vicinity": "Saltonstall Building, 100 Cambridge Street #1400, Boston"}, "ChIJi6hD0Zpw44kRtaMUqY1e9Sw": {"geometry": {"location": {"lat": 42.3605473, "lng": -71.062108}, "viewport": {"northeast": {"lat": 42.3618962802915, "lng": -71.06075901970848}, "southwest": {"lat": 42.3591983197085, "lng": -71.0634569802915}}}, "icon": "https://maps.gstatic.com/mapfiles/place_api/icons/generic_business-71.png", "id": "aab785ba6d12d02c1d6507f0fcfbb21346c3e5e9", "name": "Ascent", "place_id": "ChIJi6hD0Zpw44kRtaMUqY1e9Sw", "plus_code": {"compound_code": "9W6Q+65 Boston, Massachusetts, United States", "global_code": "87JC9W6Q+65"}, "rating": 5, "reference": "ChIJi6hD0Zpw44kRtaMUqY1e9Sw", "scope": "GOOGLE", "types": ["point_of_interest", "establishment"], "user_ratings_total": 1, "vicinity": "75 Federal Street Suite 805, Boston"}, "ChIJuTer0Zpw44kRCsxzCw9p6Ec": {"geometry": {"location": {"lat": 42.3605473, "lng": -71.062108}, "viewport": {"northeast": {"lat": 42.3621476302915, "lng": -71.06063306970849}, "southwest": {"lat": 42.3594496697085, "lng": -71.0633310302915}}}, "icon": "https://maps.gstatic.com/mapfiles/place_api/icons/civic_building-71.png", "id": "738f8cbc21bc7517aaddd7c348e627ee2cf0fc53", "name": "Framingham Housing Authority", "opening_hours": {"open_now": false}, "place_id": "ChIJuTer0Zpw44kRCsxzCw9p6Ec", "plus_code": {"compound_code": "9W6Q+65 Boston, Massachusetts, United States", "global_code": "87JC9W6Q+65"}, "reference": "ChIJuTer0Zpw44kRCsxzCw9p6Ec", "scope": "GOOGLE", "types": ["local_government_office", "point_of_interest", "establishment"], "vicinity": "100 Cambridge Street, Boston"}, "ChIJuTer0Zpw44kR-nVcWrG3F_8": {"geometry": {"location": {"lat": 42.3605473, "lng": -71.062108}, "viewport": {"northeast": {"lat": 42.3621476302915, "lng": -71.06063306970849}, "southwest": {"lat": 42.3594496697085, "lng": -71.0633310302915}}}, "icon": "https://maps.gstatic.com/mapfiles/place_api/icons/generic_business-71.png", "id": "c9bcc2b60207d426aa936b328762e8bdc934b24f", "name": "The McCormack Firm, LLC", "place_id": "ChIJuTer0Zpw44kR-nVcWrG3F_8", "plus_code": {"compound_code": "9W6Q+65 Boston, Massachusetts, United States", "global_code": "87JC9W6Q+65"}, "reference": "ChIJuTer0Zpw44kR-nVcWrG3F_8", "scope": "GOOGLE", "types": ["point_of_interest", "establishment"], "vicinity": "100 Cambridge Street, Boston"}, "ChIJPbS_0Zpw44kRHEG5_-H9ByA": {"geometry": {"location": {"lat": 42.3605132, "lng": -71.0620802}, "viewport": {"northeast": {"lat": 42.3621227302915, "lng": -71.06059091970849}, "southwest": {"lat": 42.3594247697085, "lng": -71.0632888802915}}}, "icon": "https://maps.gstatic.com/mapfiles/place_api/icons/generic_business-71.png", "id": "fcd9989e1f8ac16cb009250dd2f6dc54c505ef70", "name": "Helman Clifton E CPA", "opening_hours": {"open_now": true}, "place_id": "ChIJPbS_0Zpw44kRHEG5_-H9ByA", "plus_code": {"compound_code": "9W6Q+65 Boston, Massachusetts, United States", "global_code": "87JC9W6Q+65"}, "reference": "ChIJPbS_0Zpw44kRHEG5_-H9ByA", "scope": "GOOGLE", "types": ["accounting", "finance", "point_of_interest", "establishment"], "vicinity": "100 Cambridge Street # 1302, Boston"}, "ChIJPbS_0Zpw44kRwzxFpznDoUY": {"geometry": {"location": {"lat": 42.3605132, "lng": -71.0620802}, "viewport": {"northeast": {"lat": 42.3621227302915, "lng": -71.06059091970849}, "southwest": {"lat": 42.3594247697085, "lng": -71.0632888802915}}}, "icon": "https://maps.gstatic.com/mapfiles/place_api/icons/generic_business-71.png", "id": "5266049f9b7623281ae472c0cef747d4325ec55e", "name": "Gunzburger Stephen J CPA", "place_id": "ChIJPbS_0Zpw44kRwzxFpznDoUY", "plus_code": {"compound_code": "9W6Q+65 Boston, Massachusetts, United States", "global_code": "87JC9W6Q+65"}, "reference": "ChIJPbS_0Zpw44kRwzxFpznDoUY", "scope": "GOOGLE", "types": ["accounting", "finance", "point_of_interest", "establishment"], "vicinity": "100 Cambridge Street # 1302, Boston"}, "ChIJPbS_0Zpw44kR9FieR6dW5S8": {"geometry": {"location": {"lat": 42.3605132, "lng": -71.0620802}, "viewport": {"northeast": {"lat": 42.3621227302915, "lng": -71.06059091970849}, "southwest": {"lat": 42.3594247697085, "lng": -71.0632888802915}}}, "icon": "https://maps.gstatic.com/mapfiles/place_api/icons/generic_business-71.png", "id": "49cc4f63b565747f8e8ccbb0edb1dc60177e474d", "name": "Novak Druce Connolly Bove + Quigg LLP", "place_id": "ChIJPbS_0Zpw44kR9FieR6dW5S8", "plus_code": {"compound_code": "9W6Q+65 Boston, Massachusetts, United States", "global_code": "87JC9W6Q+65"}, "reference": "ChIJPbS_0Zpw44kR9FieR6dW5S8", "scope": "GOOGLE", "types": ["lawyer", "point_of_interest", "establishment"], "vicinity": "100 Cambridge Street, Boston"}, "ChIJT84qgp5w44kR2MRBT4FBDq0": {"geometry": {"location": {"lat": 42.3587999, "lng": -71.0707389}, "viewport": {"northeast": {"lat": 42.3611918, "lng": -71.0604501}, "southwest": {"lat": 42.3554044, "lng": -71.0730243}}}, "icon": "https://maps.gstatic.com/mapfiles/place_api/icons/geocode-71.png", "id": "fac7126b486af397364666a201134b34436961e1", "name": "Beacon Hill", "photos": [{"height": 533, "html_attributions": ["<a href=\"https://maps.google.com/maps/contrib/107493965504695166609/photos\">Alan Pembshaw</a>"], "photo_reference": "CmRaAAAAQG-yYM0LKo9m8zwZhHEP54P6sHc-H6knAhHIYMkjYcvJh23TcisOonPlUo1koRydkFmBSnY-_h-2XwWNIasgisHnZcO2ucN8PUcBrKHezTx6ZxiIFZWoY2Ti7jbijv7KEhDzeZRmPTFQDn1lBZpUtYbIGhTINTUUex4PQnSLqIblwqHCrQX7mg", "width": 799}], "place_id": "ChIJT84qgp5w44kR2MRBT4FBDq0", "reference": "ChIJT84qgp5w44kR2MRBT4FBDq0", "scope": "GOOGLE", "types": ["neighborhood", "political"], "vicinity": "Boston"}, "ChIJPbS_0Zpw44kRY0JIy6nZFv8": {"geometry": {"location": {"lat": 42.360467, "lng": -71.0620926}, "viewport": {"northeast": {"lat": 42.3620980302915, "lng": -71.06059171970848}, "southwest": {"lat": 42.3594000697085, "lng": -71.06328968029149}}}, "icon": "https://maps.gstatic.com/mapfiles/place_api/icons/civic_building-71.png", "id": "0da04a138d080fe45575078a5a43b33de8fef691", "name": "Executive Office of Energy and Environmental Affairs", "opening_hours": {"open_now": true}, "place_id": "ChIJPbS_0Zpw44kRY0JIy6nZFv8", "plus_code": {"compound_code": "9W6Q+55 Boston, Massachusetts, United States", "global_code": "87JC9W6Q+55"}, "reference": "ChIJPbS_0Zpw44kRY0JIy6nZFv8", "scope": "GOOGLE", "types": ["local_government_office", "point_of_interest", "establishment"], "vicinity": "Saltonstall Bldg, 100 Cambridge Street #900, Boston"}, "ChIJq6nzxZpw44kRzSL3ZJEhp0I": {"geometry": {"location": {"lat": 42.36046690000001, "lng": -71.0620926}, "viewport": {"northeast": {"lat": 42.3620979802915, "lng": -71.06059171970848}, "southwest": {"lat": 42.3594000197085, "lng": -71.06328968029149}}}, "icon": "https://maps.gstatic.com/mapfiles/place_api/icons/civic_building-71.png", "id": "6002c8008bd38b79f6b79082c857ba39f3bb5e84", "name": "Massachusetts Revenue Department", "opening_hours": {"open_now": true}, "photos": [{"height": 359, "html_attributions": ["<a href=\"https://maps.google.com/maps/contrib/115568944255130695343/photos\">Massachusetts Revenue Department</a>"], "photo_reference": "CmRaAAAAoCElmPEis0Tof5Vy8jisTia7UMgUmGCACVDEO2dP67CQtaJihBcYaD7JPs2WJu0KWtbmNn5IIh3LIKMq_BKOq6tOvnV-TkOmB1RGMEQ6w9Z5usn8q391__xshfYloky3EhAJhor7b3zhV-8yufd4XrQFGhTnsBmMaoPlIQqRnXGxMretW4QTPA", "width": 359}], "place_id": "ChIJq6nzxZpw44kRzSL3ZJEhp0I", "plus_code": {"compound_code": "9W6Q+55 Boston, Massachusetts, United States", "global_code": "87JC9W6Q+55"}, "rating": 1, "reference": "ChIJq6nzxZpw44kRzSL3ZJEhp0I", "scope": "GOOGLE", "types": ["accounting", "local_government_office", "finance", "point_of_interest", "establishment"], "user_ratings_total": 7, "vicinity": "100 Cambridge Street, Boston"}, "ChIJPbS_0Zpw44kRgiPcl9IAdxA": {"geometry": {"location": {"lat": 42.3605132, "lng": -71.0620802}, "viewport": {"northeast": {"lat": 42.3621227302915, "lng": -71.06059091970849}, "southwest": {"lat": 42.3594247697085, "lng": -71.0632888802915}}}, "icon": "https://maps.gstatic.com/mapfiles/place_api/icons/generic_business-71.png", "id": "e1b6522ca31963c70f5a20d93df012d40da2c0e0", "name": "Worth William A", "place_id": "ChIJPbS_0Zpw44kRgiPcl9IAdxA", "plus_code": {"compound_code": "9W6Q+65 Boston, Massachusetts, United States", "global_code": "87JC9W6Q+65"}, "reference": "ChIJPbS_0Zpw44kRgiPcl9IAdxA", "scope": "GOOGLE", "types": ["lawyer", "point_of_interest", "establishment"], "vicinity": "100 Cambridge Street # 2200, Boston"}, "ChIJPbS_0Zpw44kRwOWRlUGm8og": {"geometry": {"location": {"lat": 42.3605132, "lng": -71.0620802}, "viewport": {"northeast": {"lat": 42.3621227302915, "lng": -71.06059091970849}, "southwest": {"lat": 42.3594247697085, "lng": -71.0632888802915}}}, "icon": "https://maps.gstatic.com/mapfiles/place_api/icons/generic_business-71.png", "id": "962e1a9ab9dba34fefcca48c29022c4f250eb7c7", "name": "Georges Serge", "place_id": "ChIJPbS_0Zpw44kRwOWRlUGm8og", "plus_code": {"compound_code": "9W6Q+65 Boston, Massachusetts, United States", "global_code": "87JC9W6Q+65"}, "reference": "ChIJPbS_0Zpw44kRwOWRlUGm8og", "scope": "GOOGLE", "types": ["lawyer", "point_of_interest", "establishment"], "vicinity": "100 Cambridge Street # 1310, Boston"}, "ChIJPbS_0Zpw44kRcyzgt8Ktzbo": {"geometry": {"location": {"lat": 42.3605132, "lng": -71.0620802}, "viewport": {"northeast": {"lat": 42.3621227302915, "lng": -71.06059091970849}, "southwest": {"lat": 42.3594247697085, "lng": -71.0632888802915}}}, "icon": "https://maps.gstatic.com/mapfiles/place_api/icons/generic_business-71.png", "id": "897a552428db9e0408a8aa38f96500369ab6648b", "name": "Tateronis Greg", "place_id": "ChIJPbS_0Zpw44kRcyzgt8Ktzbo", "plus_code": {"compound_code": "9W6Q+65 Boston, Massachusetts, United States", "global_code": "87JC9W6Q+65"}, "reference": "ChIJPbS_0Zpw44kRcyzgt8Ktzbo", "scope": "GOOGLE", "types": ["lawyer", "point_of_interest", "establishment"], "vicinity": "100 Cambridge Street # 2200, Boston"}, "ChIJPbS_0Zpw44kRPLJjlEhSXBc": {"geometry": {"location": {"lat": 42.36046690000001, "lng": -71.0620926}, "viewport": {"northeast": {"lat": 42.3620979802915, "lng": -71.06059171970848}, "southwest": {"lat": 42.3594000197085, "lng": -71.06328968029149}}}, "icon": "https://maps.gstatic.com/mapfiles/place_api/icons/generic_business-71.png", "id": "55e8d1921168bd7cd2f3e86b4f085b2753121948", "name": "Area III Associates Commissioner", "place_id": "ChIJPbS_0Zpw44kRPLJjlEhSXBc", "plus_code": {"compound_code": "9W6Q+55 Boston, Massachusetts, United States", "global_code": "87JC9W6Q+55"}, "reference": "ChIJPbS_0Zpw44kRPLJjlEhSXBc", "scope": "GOOGLE", "types": ["point_of_interest", "establishment"], "vicinity": "100 Cambridge Street, Boston"}, "ChIJE3La0Jpw44kRLirRn-OWp8w": {"geometry": {"location": {"lat": 42.3605132, "lng": -71.0620802}, "viewport": {"northeast": {"lat": 42.3618621802915, "lng": -71.06073121970849}, "southwest": {"lat": 42.3591642197085, "lng": -71.06342918029151}}}, "icon": "https://maps.gstatic.com/mapfiles/place_api/icons/generic_business-71.png", "id": "f87ec379d3ebc1e2f8397574f025e9bd26233f89", "name": "mediarmor", "place_id": "ChIJE3La0Jpw44kRLirRn-OWp8w", "plus_code": {"compound_code": "9W6Q+65 Boston, Massachusetts, United States", "global_code": "87JC9W6Q+65"}, "reference": "ChIJE3La0Jpw44kRLirRn-OWp8w", "scope": "GOOGLE", "types": ["point_of_interest", "establishment"], "vicinity": "Saltonstall Building, Boston"}, "ChIJE3La0Jpw44kRWzSQeI219wg": {"geometry": {"location": {"lat": 42.3605132, "lng": -71.0620802}, "viewport": {"northeast": {"lat": 42.3618621802915, "lng": -71.06073121970849}, "southwest": {"lat": 42.3591642197085, "lng": -71.06342918029151}}}, "icon": "https://maps.gstatic.com/mapfiles/place_api/icons/generic_business-71.png", "id": "17b0ed4ae0de508801bb146651a913c1a6abe709", "name": "swanbio therapeutics", "place_id": "ChIJE3La0Jpw44kRWzSQeI219wg", "plus_code": {"compound_code": "9W6Q+65 Boston, Massachusetts, United States", "global_code": "87JC9W6Q+65"}, "reference": "ChIJE3La0Jpw44kRWzSQeI219wg", "scope": "GOOGLE", "types": ["point_of_interest", "establishment"], "vicinity": "Saltonstall Building, Boston"}, "ChIJE3La0Jpw44kR8R9tp7pPL9I": {"geometry": {"location": {"lat": 42.3605132, "lng": -71.0620802}, "viewport": {"northeast": {"lat": 42.3618621802915, "lng": -71.06073121970849}, "southwest": {"lat": 42.3591642197085, "lng": -71.06342918029151}}}, "icon": "https://maps.gstatic.com/mapfiles/place_api/icons/generic_business-71.png", "id": "d0ffc2a2f65aabee63e319f4ff3ef48e83f7649a", "name": "Mobile computing", "place_id": "ChIJE3La0Jpw44kR8R9tp7pPL9I", "plus_code": {"compound_code": "9W6Q+65 Boston, Massachusetts, United States", "global_code": "87JC9W6Q+65"}, "reference": "ChIJE3La0Jpw44kR8R9tp7pPL9I", "scope": "GOOGLE", "types": ["point_of_interest", "establishment"], "vicinity": "Saltonstall Building, Boston"}, "ChIJi6hD0Zpw44kRY_Igqj6IPj0": {"geometry": {"location": {"lat": 42.3605132, "lng": -71.0620802}, "viewport": {"northeast": {"lat": 42.3618621802915, "lng": -71.06073121970849}, "southwest": {"lat": 42.3591642197085, "lng": -71.06342918029151}}}, "icon": "https://maps.gstatic.com/mapfiles/place_api/icons/generic_business-71.png", "id": "8b5e4bfb59beb851a9cabebcc9ef17a4bb09be90", "name": "Forium", "place_id": "ChIJi6hD0Zpw44kRY_Igqj6IPj0", "plus_code": {"compound_code": "9W6Q+65 Boston, Massachusetts, United States", "global_code": "87JC9W6Q+65"}, "reference": "ChIJi6hD0Zpw44kRY_Igqj6IPj0", "scope": "GOOGLE", "types": ["health", "point_of_interest", "establishment"], "vicinity": "Saltonstall Building, Boston"}, "ChIJPbS_0Zpw44kRlNO9fdbq5Jw": {"geometry": {"location": {"lat": 42.3605132, "lng": -71.0620802}, "viewport": {"northeast": {"lat": 42.3618621802915, "lng": -71.06073121970849}, "southwest": {"lat": 42.3591642197085, "lng": -71.06342918029151}}}, "icon": "https://maps.gstatic.com/mapfiles/place_api/icons/civic_building-71.png", "id": "2c9ffd9437d3ebb2d8f8737b6d23fe66f501ef26", "name": "Resource Conservation Division", "place_id": "ChIJPbS_0Zpw44kRlNO9fdbq5Jw", "plus_code": {"compound_code": "9W6Q+65 Boston, Massachusetts, United States", "global_code": "87JC9W6Q+65"}, "reference": "ChIJPbS_0Zpw44kRlNO9fdbq5Jw", "scope": "GOOGLE", "types": ["point_of_interest", "establishment"], "vicinity": "Boston"}, "ChIJSS7Kzppw44kRBqJDT4O29B4": {"geometry": {"location": {"lat": 42.3605473, "lng": -71.062108}, "viewport": {"northeast": {"lat": 42.3621476302915, "lng": -71.06063306970849}, "southwest": {"lat": 42.3594496697085, "lng": -71.0633310302915}}}, "icon": "https://maps.gstatic.com/mapfiles/place_api/icons/school-71.png", "id": "7eb2d8d701cf73af84bd806e3838ee11a7e2ae7e", "name": "MGH Clinical and Translational Epidemiology Unit", "place_id": "ChIJSS7Kzppw44kRBqJDT4O29B4", "plus_code": {"compound_code": "9W6Q+65 Boston, Massachusetts, United States", "global_code": "87JC9W6Q+65"}, "reference": "ChIJSS7Kzppw44kRBqJDT4O29B4", "scope": "GOOGLE", "types": ["point_of_interest", "establishment"], "vicinity": "100 Cambridge Street, Boston"}, "ChIJ8b5MJt5544kRq3WFfzSNt3Y": {"geometry": {"location": {"lat": 42.3605132, "lng": -71.0620802}, "viewport": {"northeast": {"lat": 42.3621227302915, "lng": -71.06059091970849}, "southwest": {"lat": 42.3594247697085, "lng": -71.0632888802915}}}, "icon": "https://maps.gstatic.com/mapfiles/place_api/icons/atm-71.png", "id": "65a1c492472a2ffef4178c6c7ff2fa71f989971f", "name": "Atlas ATM", "place_id": "ChIJ8b5MJt5544kRq3WFfzSNt3Y", "plus_code": {"compound_code": "9W6Q+65 Boston, Massachusetts, United States", "global_code": "87JC9W6Q+65"}, "reference": "ChIJ8b5MJt5544kRq3WFfzSNt3Y", "scope": "GOOGLE", "types": ["atm", "finance", "point_of_interest", "establishment"], "vicinity": "100 Cambridge Street, Boston"}, "ChIJHdL8xpZx44kRZ17PypwBODU": {"geometry": {"location": {"lat": 42.3605132, "lng": -71.0620802}, "viewport": {"northeast": {"lat": 42.3618621802915, "lng": -71.06073121970849}, "southwest": {"lat": 42.3591642197085, "lng": -71.06342918029151}}}, "icon": "https://maps.gstatic.com/mapfiles/place_api/icons/generic_business-71.png", "id": "befd085a9a0b415cb7da7fd29f0cf28b54769f27", "name": "DHCD", "place_id": "ChIJHdL8xpZx44kRZ17PypwBODU", "plus_code": {"compound_code": "9W6Q+65 Boston, Massachusetts, United States", "global_code": "87JC9W6Q+65"}, "reference": "ChIJHdL8xpZx44kRZ17PypwBODU", "scope": "GOOGLE", "types": ["point_of_interest", "establishment"], "vicinity": "Boston"}, "ChIJ8b5MJt5544kRRBweySVFruM": {"geometry": {"location": {"lat": 42.3605132, "lng": -71.0620802}, "viewport": {"northeast": {"lat": 42.3621227302915, "lng": -71.06059091970849}, "southwest": {"lat": 42.3594247697085, "lng": -71.0632888802915}}}, "icon": "https://maps.gstatic.com/mapfiles/place_api/icons/generic_business-71.png", "id": "1b62c8a31870175470810f0940c3f8ad84eabb1c", "name": "HLB International", "place_id": "ChIJ8b5MJt5544kRRBweySVFruM", "plus_code": {"compound_code": "9W6Q+65 Boston, Massachusetts, United States", "global_code": "87JC9W6Q+65"}, "reference": "ChIJ8b5MJt5544kRRBweySVFruM", "scope": "GOOGLE", "types": ["accounting", "finance", "point_of_interest", "establishment"], "vicinity": "100 Cambridge Street, Boston"}, "ChIJx6hD0Zpw44kRqn_6BgSoOE4": {"geometry": {"location": {"lat": 42.360467, "lng": -71.06209299999999}, "viewport": {"northeast": {"lat": 42.3618159802915, "lng": -71.06074401970848}, "southwest": {"lat": 42.3591180197085, "lng": -71.0634419802915}}}, "icon": "https://maps.gstatic.com/mapfiles/place_api/icons/school-71.png", "id": "15813078020da0844b9ca2fb5b8542b72997d2d6", "name": "Cozymeal", "opening_hours": {"open_now": true}, "photos": [{"height": 3870, "html_attributions": ["<a href=\"https://maps.google.com/maps/contrib/113228625622716828314/photos\">Cozymeal</a>"], "photo_reference": "CmRaAAAAdO3R_gaJdS3TSBZ3zAHMSUJJXEFg48Tjua2wL9-BuDkhphJ779FxQ3XFuV28kBer3xCBiwbDVlD0cdmd1eH9FhKIe5NNSi814TKOW8gBK4uILlbXOloaPk0GGot2rseSEhCkB5LnyEF-fz4OSlY0O10xGhSIUCF_rzknkRK2Rue4fH1FI9apIA", "width": 5796}], "place_id": "ChIJx6hD0Zpw44kRqn_6BgSoOE4", "plus_code": {"compound_code": "9W6Q+55 Boston, Massachusetts, United States", "global_code": "87JC9W6Q+55"}, "rating": 4.7, "reference": "ChIJx6hD0Zpw44kRqn_6BgSoOE4", "scope": "GOOGLE", "types": ["restaurant", "point_of_interest", "food", "establishment"], "user_ratings_total": 27, "vicinity": "100 Cambridge St, 14th Floor,, Boston"}}