{"ChIJ6wbC84Rw44kRKuNEv-wLF3g": {"geometry": {"location": {"lat": 42.3586006, "lng": -71.0592064}, "viewport": {"northeast": {"lat": 42.3600089802915, "lng": -71.05778926970848}, "southwest": {"lat": 42.3573110197085, "lng": -71.0604872302915}}}, "icon": "https://maps.gstatic.com/mapfiles/place_api/icons/geocode-71.png", "id": "5dc545e1b20e7aed8b9a1b1bd867027b41eea5bc", "name": "24-98 Court Square", "place_id": "ChIJ6wbC84Rw44kRKuNEv-wLF3g", "reference": "ChIJ6wbC84Rw44kRKuNEv-wLF3g", "scope": "GOOGLE", "types": ["route"], "vicinity": "Boston"}, "ChIJa2Q_-IRw44kRI7MgYB3vB2w": {"geometry": {"location": {"lat": 42.35878759999999, "lng": -71.0588988}, "viewport": {"northeast": {"lat": 42.36025798029149, "lng": -71.05748771970849}, "southwest": {"lat": 42.35756001970849, "lng": -71.0601856802915}}}, "icon": "https://maps.gstatic.com/mapfiles/place_api/icons/civic_building-71.png", "id": "9b0f46fba41c074d12ba6067c8ba329a9dcdf37f", "name": "Neighborhood Development", "photos": [{"height": 4032, "html_attributions": ["<a href=\"https://maps.google.com/maps/contrib/109710435365770736486/photos\">Geo C</a>"], "photo_reference": "CmRaAAAAB2a5XZkH_96Icuw4EfHNK0IWVH2F0WeuOlZmnprH4fF9afcLyYd100WyiAX5RamXjtr4lnWNhqDnkkbcAalWhwlq8WROzNkBmZggcKiRP-gGJzjMJI2bAJLbSVHTLw28EhCqGjcTwQqXBZ9HLhzhcBRJGhSA2r7dwIdsuNcnaI9CjOyLsiOrNQ", "width": 3024}], "place_id": "ChIJa2Q_-IRw44kRI7MgYB3vB2w", "plus_code": {"compound_code": "9W5R+GC Boston, Massachusetts, United States", "global_code": "87JC9W5R+GC"}, "rating": 5, "reference": "ChIJa2Q_-IRw44kRI7MgYB3vB2w", "scope": "GOOGLE", "types": ["local_government_office", "point_of_interest", "establishment"], "user_ratings_total": 2, "vicinity": "26 Court Street #9, Boston"}, "ChIJnWM_-IRw44kRyjPqae4D5NE": {"geometry": {"location": {"lat": 42.35878759999999, "lng": -71.0588988}, "viewport": {"northeast": {"lat": 42.36025798029149, "lng": -71.05748771970849}, "southwest": {"lat": 42.35756001970849, "lng": -71.0601856802915}}}, "icon": "https://maps.gstatic.com/mapfiles/place_api/icons/school-71.png", "id": "2aca4c2a99af51e4a66b78a3a73dba0f1d8c7d1a", "name": "Boston Auditing", "place_id": "ChIJnWM_-IRw44kRyjPqae4D5NE", "plus_code": {"compound_code": "9W5R+GC Boston, Massachusetts, United States", "global_code": "87JC9W5R+GC"}, "reference": "ChIJnWM_-IRw44kRyjPqae4D5NE", "scope": "GOOGLE", "types": ["school", "point_of_interest", "establishment"], "vicinity": "26 Court Street, Boston"}, "ChIJa2Q_-IRw44kR-MBBFHSDXWg": {"geometry": {"location": {"lat": 42.35878759999999, "lng": -71.0588988}, "viewport": {"northeast": {"lat": 42.36025798029149, "lng": -71.05748771970849}, "southwest": {"lat": 42.35756001970849, "lng": -71.0601856802915}}}, "icon": "https://maps.gstatic.com/mapfiles/place_api/icons/school-71.png", "id": "9a15ce63fc3d6b5784629dcf3a7f8dc6c4ee2085", "name": "Family & Community Engangement", "place_id": "ChIJa2Q_-IRw44kR-MBBFHSDXWg", "plus_code": {"compound_code": "9W5R+GC Boston, Massachusetts, United States", "global_code": "87JC9W5R+GC"}, "reference": "ChIJa2Q_-IRw44kR-MBBFHSDXWg", "scope": "GOOGLE", "types": ["school", "point_of_interest", "establishment"], "vicinity": "26 Court Street, Boston"}, "ChIJGzE9DS1l44kRoOhiASS_fHg": {"geometry": {"location": {"lat": 42.3600825, "lng": -71.0588801}, "viewport": {"northeast": {"lat": 42.40081989999999, "lng": -70.749455}, "southwest": {"lat": 42.22788, "lng": -71.191113}}}, "icon": "https://maps.gstatic.com/mapfiles/place_api/icons/geocode-71.png", "id": "06755c25d2b34d13942a4713971756a55b870ced", "name": "Boston", "photos": [{"height": 3024, "html_attributions": ["<a href=\"https://maps.google.com/maps/contrib/104670289779338733432/photos\">Natalia Zalucean</a>"], "photo_reference": "CmRaAAAAZGpEkh2W2i0GXxUHgTL8dOUEgUhFgk10S0_fDq3rHiOp-_j8BiTKbk92pfJMLUYThxdKREp5XeRZ2nqs4If2nseq97HS6B2x08yjeE2Kx2dbxaY0To9aRWyqFNeQ4ifGEhCeJJFGbbPMN0-X9aQD5qXwGhSrC-k4OWY7UmZv86w9sIR6HfVZGg", "width": 4032}], "place_id": "ChIJGzE9DS1l44kRoOhiASS_fHg", "reference": "ChIJGzE9DS1l44kRoOhiASS_fHg", "scope": "GOOGLE", "types": ["locality", "political"], "vicinity": "Boston"}}