{"ChIJGzE9DS1l44kRoOhiASS_fHg": {"geometry": {"location": {"lat": 42.3600825, "lng": -71.0588801}, "viewport": {"northeast": {"lat": 42.40081989999999, "lng": -70.749455}, "southwest": {"lat": 42.22788, "lng": -71.191113}}}, "icon": "https://maps.gstatic.com/mapfiles/place_api/icons/geocode-71.png", "id": "06755c25d2b34d13942a4713971756a55b870ced", "name": "Boston", "photos": [{"height": 3024, "html_attributions": ["<a href=\"https://maps.google.com/maps/contrib/104670289779338733432/photos\">Natalia Zalucean</a>"], "photo_reference": "CmRaAAAAB57QG6F4VijcoT_XXiAZ-PohvdD3PCn8KFS5-RP1k-qh8SXzbBkxQUqiMVrT1UrYA-j-j3iXGT6Nr7cXiH4injAQ1izcyDAjYz1GagLFOviV654qIjHNfLRet79G8S30EhB6Js8FLFmnydGtDNkyyRsYGhSRuazOygkAbHvYqI68o1XqeEJG3Q", "width": 4032}], "place_id": "ChIJGzE9DS1l44kRoOhiASS_fHg", "reference": "ChIJGzE9DS1l44kRoOhiASS_fHg", "scope": "GOOGLE", "types": ["locality", "political"], "vicinity": "Boston"}, "ChIJt42q74Rw44kRQffoG5xhc6Q": {"geometry": {"location": {"lat": 42.358966, "lng": -71.0595811}, "viewport": {"northeast": {"lat": 42.3603291802915, "lng": -71.0583776697085}, "southwest": {"lat": 42.3576312197085, "lng": -71.06107563029151}}}, "icon": "https://maps.gstatic.com/mapfiles/place_api/icons/generic_business-71.png", "id": "7e3df40f4fb5fe80f6bd080a8033a3751e0a4baf", "name": "Sheff Law Offices, P.C.", "opening_hours": {"open_now": true}, "photos": [{"height": 608, "html_attributions": ["<a href=\"https://maps.google.com/maps/contrib/113314597914070947978/photos\">Sheff Law Offices, P.C.</a>"], "photo_reference": "CmRaAAAAyGDqW4MUKGz9pLfx2x6KozC11xt3c0Elpg-3w-TQap5kqQTtMfEiAuvtOhmPnJd5ROs2Cqrefl39n5qEMFT_OMnCrFJ45JIGxV2LA75woXPAxQkzrcMG53GOO9CzM74WEhDZzDFnD6ym5HgFCmdAQYvvGhTOX4J6o_V2JfllQgG-DoF4iDsKvQ", "width": 1080}], "place_id": "ChIJt42q74Rw44kRQffoG5xhc6Q", "plus_code": {"compound_code": "9W5R+H5 Boston, Massachusetts, United States", "global_code": "87JC9W5R+H5"}, "rating": 5, "reference": "ChIJt42q74Rw44kRQffoG5xhc6Q", "scope": "GOOGLE", "types": ["lawyer", "point_of_interest", "establishment"], "user_ratings_total": 34, "vicinity": "10 Tremont Street The Daniel Webster Suite, 7th Floor, Boston"}, "ChIJTV6bi4Rw44kRWW5xIFYSgeY": {"geometry": {"location": {"lat": 42.358921, "lng": -71.05959299999999}, "viewport": {"northeast": {"lat": 42.3602925802915, "lng": -71.0583876697085}, "southwest": {"lat": 42.3575946197085, "lng": -71.06108563029152}}}, "icon": "https://maps.gstatic.com/mapfiles/place_api/icons/cafe-71.png", "id": "540152b518a27dc247fcac790dc78a534d659265", "name": "Dunkin' Donuts", "opening_hours": {"open_now": true}, "photos": [{"height": 1600, "html_attributions": ["<a href=\"https://maps.google.com/maps/contrib/110723062827392326268/photos\">Snow White</a>"], "photo_reference": "CmRaAAAAaSmmErFRPCFV5UR7aAhQS1ClzQWQK4Rfq9acQxNfzsG6NpQ2Q0MllknGArUpIfhZ_bYYYoRSOlvk9hx8-NhwpXzwfizJNt-iFojsqg5oV0na1av-OyB3tc2JHmvLjC9hEhAJaou05nsiE5I6UNeW67YfGhSRBO0jtjyKhat3SDwN9gD-M5iuBQ", "width": 900}], "place_id": "ChIJTV6bi4Rw44kRWW5xIFYSgeY", "plus_code": {"compound_code": "9W5R+H5 Boston, Massachusetts, United States", "global_code": "87JC9W5R+H5"}, "price_level": 1, "rating": 3.6, "reference": "ChIJTV6bi4Rw44kRWW5xIFYSgeY", "scope": "GOOGLE", "types": ["cafe", "bakery", "store", "restaurant", "point_of_interest", "food", "establishment"], "user_ratings_total": 26, "vicinity": "16 Tremont Street, Boston"}, "ChIJW60DJYNw44kRmL2Ehm4t0Bg": {"geometry": {"location": {"lat": 42.3557089, "lng": -71.05720529999999}, "viewport": {"northeast": {"lat": 42.36839699999999, "lng": -71.04779599999999}, "southwest": {"lat": 42.342797, "lng": -71.072996}}}, "icon": "https://maps.gstatic.com/mapfiles/place_api/icons/geocode-71.png", "id": "bc27dcccb31ae90e36c262f557a1c09193ec777d", "name": "Downtown", "photos": [{"height": 629, "html_attributions": ["<a href=\"https://maps.google.com/maps/contrib/111777007894721839306/photos\">verona mantova</a>"], "photo_reference": "CmRaAAAAtCoWBJLlafvSAe5LQH5Cs0zBvz6KDzVlinzv2LYBT1RA-LS3loFtl3E5PmKNxrMlrLUh0HwTBJ6vaaDNoMk0gYArG5Om7uAZqWNUTjuUzr_j1JOLMCszaKUxNQ0n4RWTEhBQaXcYzMXFgf0bCzkzBlneGhRICAugXystqccDzhbIJ4nqmCYq5A", "width": 1000}], "place_id": "ChIJW60DJYNw44kRmL2Ehm4t0Bg", "reference": "ChIJW60DJYNw44kRmL2Ehm4t0Bg", "scope": "GOOGLE", "types": ["neighborhood", "political"], "vicinity": "Boston"}}