{"ChIJdwTa9I1544kRtG9Jm5y_Ji0": {"geometry": {"location": {"lat": 42.338368, "lng": -71.1089908}, "viewport": {"northeast": {"lat": 42.33971698029151, "lng": -71.10764181970849}, "southwest": {"lat": 42.33701901970851, "lng": -71.11033978029151}}}, "icon": "https://maps.gstatic.com/mapfiles/place_api/icons/geocode-71.png", "id": "da92b73273214ae82b0a0f2f201a0415908fb5ae", "name": "28-2 Deaconess Rd", "place_id": "ChIJdwTa9I1544kRtG9Jm5y_Ji0", "reference": "ChIJdwTa9I1544kRtG9Jm5y_Ji0", "scope": "GOOGLE", "types": ["route"], "vicinity": "Boston"}, "ChIJqcpN9I1544kRYud98uXvShI": {"geometry": {"location": {"lat": 42.33821299999999, "lng": -71.108998}, "viewport": {"northeast": {"lat": 42.3396113302915, "lng": -71.1075967697085}, "southwest": {"lat": 42.3369133697085, "lng": -71.11029473029151}}}, "icon": "https://maps.gstatic.com/mapfiles/place_api/icons/generic_business-71.png", "id": "d1f322cc4f3de9f00141f3f529b2be8c1eb5e48f", "name": "Emergency Medicine Consulting at Harvard Medical Faculty Physicians", "photos": [{"height": 423, "html_attributions": ["<a href=\"https://maps.google.com/maps/contrib/113626685814080429114/photos\">Emergency Medicine Consulting at Harvard Medical Faculty Physicians</a>"], "photo_reference": "CmRaAAAAT_JIGjE6mu06ublDEkYIhwCa7fXM7dl6nRV0znHwEoZ1GIVyqhbRS-vgel_19rsaAVQmqrN1m5uPqqF72bYVCpm6h1FF3mBxyD_Wi_5wluOfPhU53b4MgGsz296_bMNFEhBpBJb802oQEhDrm4OweCqlGhRlMNoInizUucATwiJNWAiLQHIOeg", "width": 424}], "place_id": "ChIJqcpN9I1544kRYud98uXvShI", "plus_code": {"compound_code": "8VQR+7C Boston, Massachusetts, United States", "global_code": "87JC8VQR+7C"}, "reference": "ChIJqcpN9I1544kRYud98uXvShI", "scope": "GOOGLE", "types": ["doctor", "health", "point_of_interest", "establishment"], "vicinity": "1 Deaconess Road, Boston"}, "ChIJGzE9DS1l44kRoOhiASS_fHg": {"geometry": {"location": {"lat": 42.3600825, "lng": -71.0588801}, "viewport": {"northeast": {"lat": 42.40081989999999, "lng": -70.749455}, "southwest": {"lat": 42.22788, "lng": -71.191113}}}, "icon": "https://maps.gstatic.com/mapfiles/place_api/icons/geocode-71.png", "id": "06755c25d2b34d13942a4713971756a55b870ced", "name": "Boston", "photos": [{"height": 3024, "html_attributions": ["<a href=\"https://maps.google.com/maps/contrib/104670289779338733432/photos\">Natalia Zalucean</a>"], "photo_reference": "CmRaAAAAbPBwsRCP28T6txT_LMzgseu0qCJvOOQUOvXJ_JOytfAI4vgBU3ZIOTdOSJ99oop5rfrSV5kOCbbIreMNgosyX38aFALnouQjA4DdSWGdXmGf0eIPMPVSac0lSUnGRlbvEhAX9lcBy2PJCOiT9KCP2zmcGhQOqiz04PTX6jjTtgwZJYRTC4kXyg", "width": 4032}], "place_id": "ChIJGzE9DS1l44kRoOhiASS_fHg", "reference": "ChIJGzE9DS1l44kRoOhiASS_fHg", "scope": "GOOGLE", "types": ["locality", "political"], "vicinity": "Boston"}}