{"ChIJyaQrsI9w44kRJgyqUCCZOQ4": {"geometry": {"location": {"lat": 42.3639473, "lng": -71.0594383}, "viewport": {"northeast": {"lat": 42.3652961302915, "lng": -71.0580896197085}, "southwest": {"lat": 42.3625981697085, "lng": -71.0607875802915}}}, "icon": "https://maps.gstatic.com/mapfiles/place_api/icons/geocode-71.png", "id": "3f731b0bb98ba9373f852fb45e22625944cec60e", "name": "102-2 Canal St", "place_id": "ChIJyaQrsI9w44kRJgyqUCCZOQ4", "reference": "ChIJyaQrsI9w44kRJgyqUCCZOQ4", "scope": "GOOGLE", "types": ["route"], "vicinity": "Boston"}, "ChIJj1PLsY9w44kR-qDc-b4htoE": {"geometry": {"location": {"lat": 42.3640007, "lng": -71.0596824}, "viewport": {"northeast": {"lat": 42.3653830802915, "lng": -71.0582794197085}, "southwest": {"lat": 42.3626851197085, "lng": -71.0609773802915}}}, "icon": "https://maps.gstatic.com/mapfiles/place_api/icons/shopping-71.png", "id": "24e190abd14ed4aa6a1593792c70f4e6c2091165", "name": "AlphaGraphics", "opening_hours": {"open_now": true}, "photos": [{"height": 4032, "html_attributions": ["<a href=\"https://maps.google.com/maps/contrib/110006200732019433700/photos\">Carmine Camerato</a>"], "photo_reference": "CmRaAAAAPUB738Ls_WzY4Y2Q8e19QCYnoPvjr_eSw0mLhgEIHz3lwYXb5aYyma3Gci_T-X7iDt-dREnVQUESPbWrsyJNOP0wlIGw2dRIMqyVGO7w8ADHqAFsQIqzS-AXtjNUawyBEhAwGcsiv5282IA1lGbBMJ3UGhQTduP7Ab9s3vz96Nh9tpoScX54SQ", "width": 3024}], "place_id": "ChIJj1PLsY9w44kR-qDc-b4htoE", "plus_code": {"compound_code": "9W7R+J4 Boston, Massachusetts, United States", "global_code": "87JC9W7R+J4"}, "price_level": 2, "rating": 4.9, "reference": "ChIJj1PLsY9w44kR-qDc-b4htoE", "scope": "GOOGLE", "types": ["store", "point_of_interest", "establishment"], "user_ratings_total": 44, "vicinity": "90 Canal Street 4th Floor, Boston"}, "ChIJGzE9DS1l44kRoOhiASS_fHg": {"geometry": {"location": {"lat": 42.3600825, "lng": -71.0588801}, "viewport": {"northeast": {"lat": 42.40081989999999, "lng": -70.749455}, "southwest": {"lat": 42.22788, "lng": -71.191113}}}, "icon": "https://maps.gstatic.com/mapfiles/place_api/icons/geocode-71.png", "id": "06755c25d2b34d13942a4713971756a55b870ced", "name": "Boston", "photos": [{"height": 3024, "html_attributions": ["<a href=\"https://maps.google.com/maps/contrib/104670289779338733432/photos\">Natalia Zalucean</a>"], "photo_reference": "CmRaAAAA5onapYR7IszSe0eyBCoBVovN2d6lntQ3zE-O9NSTMwwZuxAggSdas_kFKpLNLkp4MBdmtV37qv3suwyYtEJW-y-MoELAKU1Rq_KLwdcTipyHTmDEIo6Xlyg7vw6J7ZY-EhAY6pKIUW4SIjgcf_EiMfixGhRRRp2Nx1Zh7iIFWuJE4p4suQu16g", "width": 4032}], "place_id": "ChIJGzE9DS1l44kRoOhiASS_fHg", "reference": "ChIJGzE9DS1l44kRoOhiASS_fHg", "scope": "GOOGLE", "types": ["locality", "political"], "vicinity": "Boston"}}