{"ChIJGzE9DS1l44kRoOhiASS_fHg": {"geometry": {"location": {"lat": 42.3600825, "lng": -71.0588801}, "viewport": {"northeast": {"lat": 42.40081989999999, "lng": -70.749455}, "southwest": {"lat": 42.22788, "lng": -71.191113}}}, "icon": "https://maps.gstatic.com/mapfiles/place_api/icons/geocode-71.png", "id": "06755c25d2b34d13942a4713971756a55b870ced", "name": "Boston", "photos": [{"height": 3024, "html_attributions": ["<a href=\"https://maps.google.com/maps/contrib/104670289779338733432/photos\">Natalia Zalucean</a>"], "photo_reference": "CmRaAAAA8ZPLQQG0RTcaPcTw5P0MR9UbkmZt4UZe3KqJvo77M2oGtfIKGGgrFIRXOxSAJ9oe9J3w5DCcEAEPF2Tm8xTVuEaIjYLsl8XiWWHNN2rQmG8-bajYZZJq4fk3EoBzVQhhEhBByzSnnzxX33Qxyy3ZQf4uGhQoxTKDxiGb8kNnk-TV9mV1E1YbYQ", "width": 4032}], "place_id": "ChIJGzE9DS1l44kRoOhiASS_fHg", "reference": "ChIJGzE9DS1l44kRoOhiASS_fHg", "scope": "GOOGLE", "types": ["locality", "political"], "vicinity": "Boston"}, "ChIJLVVbaYx544kRCMN9tJBkUF0": {"geometry": {"location": {"lat": 42.3380071, "lng": -71.1044661}, "viewport": {"northeast": {"lat": 42.3394701302915, "lng": -71.10312811970849}, "southwest": {"lat": 42.3367721697085, "lng": -71.10582608029151}}}, "icon": "https://maps.gstatic.com/mapfiles/place_api/icons/generic_business-71.png", "id": "367b08c6daffbc240dacc941147bd396a7613036", "name": "Patient Family Garage", "place_id": "ChIJLVVbaYx544kRCMN9tJBkUF0", "reference": "ChIJLVVbaYx544kRCMN9tJBkUF0", "scope": "GOOGLE", "types": ["parking", "premise", "point_of_interest", "establishment"], "vicinity": "Boston"}, "ChIJAfp8Lh5644kR9PDAZN8nEK8": {"geometry": {"location": {"lat": 42.3428653, "lng": -71.1002881}, "viewport": {"northeast": {"lat": 42.3522779, "lng": -71.0818948}, "southwest": {"lat": 42.332897, "lng": -71.11159599999999}}}, "icon": "https://maps.gstatic.com/mapfiles/place_api/icons/geocode-71.png", "id": "4ca9d423ad416930d3a49da3f2de6540df27b390", "name": "Fenway/Kenmore", "photos": [{"height": 1536, "html_attributions": ["<a href=\"https://maps.google.com/maps/contrib/108749372735406640710/photos\">Joshua Arkin</a>"], "photo_reference": "CmRaAAAAkT8btJkyY6Wxt-XACeK7nGskIvZ9YU3xTCfvod2Ac7U-TNnHDBn8ZltqQjgBaBhiOZgoi3AdYHAUhUOJjs-N11x-IkQhxBB2K0zk1I6cS8j-Fa5ZuJfO8F_EK5kjZXxfEhDldMJMijDzdFLd2CzZb0Z8GhRpEQs9FfPgNk3IAcw_u4Rc2xMLHQ", "width": 2048}], "place_id": "ChIJAfp8Lh5644kR9PDAZN8nEK8", "reference": "ChIJAfp8Lh5644kR9PDAZN8nEK8", "scope": "GOOGLE", "types": ["neighborhood", "political"], "vicinity": "Boston"}}