{"ChIJGzE9DS1l44kRoOhiASS_fHg": {"geometry": {"location": {"lat": 42.3600825, "lng": -71.0588801}, "viewport": {"northeast": {"lat": 42.40081989999999, "lng": -70.749455}, "southwest": {"lat": 42.22788, "lng": -71.191113}}}, "icon": "https://maps.gstatic.com/mapfiles/place_api/icons/geocode-71.png", "id": "06755c25d2b34d13942a4713971756a55b870ced", "name": "Boston", "photos": [{"height": 3024, "html_attributions": ["<a href=\"https://maps.google.com/maps/contrib/104670289779338733432/photos\">Natalia Zalucean</a>"], "photo_reference": "CmRaAAAAuGc67OaZ8QGCcSLwbso8Iow2CTlLu2pU2uMjvTKgtF6RIAYNAmrIbfhkrtupVi6SASIPz2Ewe8_D_qNAbrjQ9Zb4Sfz_rrpEqbr1sHt7lQWS-sMEYy5JzsVoWZ24gbbOEhAvLHrcbxO7Okj8LzgF6r76GhSaI_mPnnz87csWBrzkFyZbTTvJxg", "width": 4032}], "place_id": "ChIJGzE9DS1l44kRoOhiASS_fHg", "reference": "ChIJGzE9DS1l44kRoOhiASS_fHg", "scope": "GOOGLE", "types": ["locality", "political"], "vicinity": "Boston"}, "ChIJpbUI5YRw44kRA9Pt-29I8w8": {"geometry": {"location": {"lat": 42.359096, "lng": -71.059496}, "viewport": {"northeast": {"lat": 42.3605166802915, "lng": -71.0582402197085}, "southwest": {"lat": 42.3578187197085, "lng": -71.0609381802915}}}, "icon": "https://maps.gstatic.com/mapfiles/place_api/icons/bank_dollar-71.png", "id": "84b431eccdaba1ba8fa40926ac8262946bfc92b6", "name": "Bank of America Financial Center", "opening_hours": {"open_now": false}, "photos": [{"height": 1200, "html_attributions": ["<a href=\"https://maps.google.com/maps/contrib/105846490952955324112/photos\">Kolos Ferenc</a>"], "photo_reference": "CmRaAAAAgwHvRiyvjvyMaW2aeivW-0V8iSRSbm8aZvyc3kk40mfOEUubrPXbu_fN8pabQfuDLq8kFb9zyuEGoK_9tRevU-BDdCiaq5RvNWc8ZHMNLHri1z6JOrmFFZkyJriCWnzKEhCjqoHd_GaP3v264iowxh-jGhQl949-oNFtCy-geI1kcWuvTmKQvA", "width": 900}], "place_id": "ChIJpbUI5YRw44kRA9Pt-29I8w8", "plus_code": {"compound_code": "9W5R+J6 Boston, Massachusetts, United States", "global_code": "87JC9W5R+J6"}, "rating": 4.6, "reference": "ChIJpbUI5YRw44kRA9Pt-29I8w8", "scope": "GOOGLE", "types": ["bank", "finance", "point_of_interest", "establishment"], "user_ratings_total": 11, "vicinity": "6 Tremont Street, Boston"}, "ChIJCar774Rw44kRV7OGio-uduc": {"geometry": {"location": {"lat": 42.35903690000001, "lng": -71.0594674}, "viewport": {"northeast": {"lat": 42.3603220802915, "lng": -71.05790401970849}, "southwest": {"lat": 42.3576241197085, "lng": -71.0606019802915}}}, "icon": "https://maps.gstatic.com/mapfiles/place_api/icons/atm-71.png", "id": "4ef084e4e58365e7404be58240f5acecf4ec5325", "name": "Bank of America ATM", "place_id": "ChIJCar774Rw44kRV7OGio-uduc", "plus_code": {"compound_code": "9W5R+J6 Boston, Massachusetts, United States", "global_code": "87JC9W5R+J6"}, "reference": "ChIJCar774Rw44kRV7OGio-uduc", "scope": "GOOGLE", "types": ["atm", "finance", "point_of_interest", "establishment"], "vicinity": "28 Court Square, Boston"}, "ChIJvYyv-oRw44kRBvWuBMKswFY": {"geometry": {"location": {"lat": 42.3590836, "lng": -71.05938909999999}, "viewport": {"northeast": {"lat": 42.3603755802915, "lng": -71.05784841970849}, "southwest": {"lat": 42.3576776197085, "lng": -71.0605463802915}}}, "icon": "https://maps.gstatic.com/mapfiles/place_api/icons/generic_business-71.png", "id": "a29fb894806190e5f4717c9b927b10225da15f60", "name": "Bank of America Home Mortgage", "place_id": "ChIJvYyv-oRw44kRBvWuBMKswFY", "plus_code": {"compound_code": "9W5R+J6 Boston, Massachusetts, United States", "global_code": "87JC9W5R+J6"}, "reference": "ChIJvYyv-oRw44kRBvWuBMKswFY", "scope": "GOOGLE", "types": ["finance", "point_of_interest", "establishment"], "vicinity": "28 Court Square, Boston"}, "ChIJ71by74Rw44kRlaalow9lnB8": {"geometry": {"location": {"lat": 42.3590433, "lng": -71.0595141}, "viewport": {"northeast": {"lat": 42.3604922802915, "lng": -71.05811856970851}, "southwest": {"lat": 42.3577943197085, "lng": -71.06081653029152}}}, "icon": "https://maps.gstatic.com/mapfiles/place_api/icons/generic_business-71.png", "id": "98364723eb72fff75dc33c451ac03b958d57cfaf", "name": "Bank of America Mortgage", "place_id": "ChIJ71by74Rw44kRlaalow9lnB8", "plus_code": {"compound_code": "9W5R+J5 Boston, Massachusetts, United States", "global_code": "87JC9W5R+J5"}, "reference": "ChIJ71by74Rw44kRlaalow9lnB8", "scope": "GOOGLE", "types": ["finance", "point_of_interest", "establishment"], "vicinity": "6 Tremont Street, Boston"}, "ChIJW60DJYNw44kRmL2Ehm4t0Bg": {"geometry": {"location": {"lat": 42.3557089, "lng": -71.05720529999999}, "viewport": {"northeast": {"lat": 42.36839699999999, "lng": -71.04779599999999}, "southwest": {"lat": 42.342797, "lng": -71.072996}}}, "icon": "https://maps.gstatic.com/mapfiles/place_api/icons/geocode-71.png", "id": "bc27dcccb31ae90e36c262f557a1c09193ec777d", "name": "Downtown", "photos": [{"height": 629, "html_attributions": ["<a href=\"https://maps.google.com/maps/contrib/111777007894721839306/photos\">verona mantova</a>"], "photo_reference": "CmRaAAAA0EwcmgxCMLaW2v8uL0HVC15uaY013txz3S6FLep9usYMZD56nPWJK00yhZfDen_610MMpYn8aTHgmKB3b8VfBJQQdoBhVuZihVppy5xxdtBQO_S_3N44EC3gSsqQO2kBEhDofL5e2_dWcB-sO7DxUiylGhRo0Z15FbS0NkVtK6Wk1L7IdTu0kw", "width": 1000}], "place_id": "ChIJW60DJYNw44kRmL2Ehm4t0Bg", "reference": "ChIJW60DJYNw44kRmL2Ehm4t0Bg", "scope": "GOOGLE", "types": ["neighborhood", "political"], "vicinity": "Boston"}}