{"ChIJGzE9DS1l44kRoOhiASS_fHg": {"geometry": {"location": {"lat": 42.3600825, "lng": -71.0588801}, "viewport": {"northeast": {"lat": 42.40081989999999, "lng": -70.749455}, "southwest": {"lat": 42.22788, "lng": -71.191113}}}, "icon": "https://maps.gstatic.com/mapfiles/place_api/icons/geocode-71.png", "id": "06755c25d2b34d13942a4713971756a55b870ced", "name": "Boston", "photos": [{"height": 3024, "html_attributions": ["<a href=\"https://maps.google.com/maps/contrib/104670289779338733432/photos\">Natalia Zalucean</a>"], "photo_reference": "CmRaAAAAg7zV1-1ZCB_Gc1kRayZVhlz7h9Rl_BAl_vh_uxveItu_gx7xJOE2g12iGRK_X9CNt8q1_lngHqNo0qB9phlYATs3mQbbHbkOKWF2PjD5R-V77t7_n28Fyyh6-sbDaTIPEhCRM3z2sk3oYJee7ekRs8sLGhS-bVeCaR7rokneQPBI_G59C4--9A", "width": 4032}], "place_id": "ChIJGzE9DS1l44kRoOhiASS_fHg", "reference": "ChIJGzE9DS1l44kRoOhiASS_fHg", "scope": "GOOGLE", "types": ["locality", "political"], "vicinity": "Boston"}, "ChIJbanY6YNw44kRH643mNjppZA": {"geometry": {"location": {"lat": 42.355884, "lng": -71.05692669999999}, "viewport": {"northeast": {"lat": 42.3572496802915, "lng": -71.05541301970848}, "southwest": {"lat": 42.3545517197085, "lng": -71.0581109802915}}}, "icon": "https://maps.gstatic.com/mapfiles/place_api/icons/generic_business-71.png", "id": "e076d3e73aa1f1ea83187a78ccdb95d1d63f82b3", "name": "Robert E. McDonnell", "place_id": "ChIJbanY6YNw44kRH643mNjppZA", "plus_code": {"compound_code": "9W4V+96 Boston, Massachusetts, United States", "global_code": "87JC9W4V+96"}, "reference": "ChIJbanY6YNw44kRH643mNjppZA", "scope": "GOOGLE", "types": ["lawyer", "point_of_interest", "establishment"], "vicinity": "1 Federal Street # 16, Boston"}, "ChIJbanY6YNw44kRoG6jw3bzF60": {"geometry": {"location": {"lat": 42.355884, "lng": -71.05692669999999}, "viewport": {"northeast": {"lat": 42.3572496802915, "lng": -71.05541301970848}, "southwest": {"lat": 42.3545517197085, "lng": -71.0581109802915}}}, "icon": "https://maps.gstatic.com/mapfiles/place_api/icons/generic_business-71.png", "id": "39b79914298a759497fe3c5f6a4a400bbc660e34", "name": "Lawrence I. Silverstein", "place_id": "ChIJbanY6YNw44kRoG6jw3bzF60", "plus_code": {"compound_code": "9W4V+96 Boston, Massachusetts, United States", "global_code": "87JC9W4V+96"}, "reference": "ChIJbanY6YNw44kRoG6jw3bzF60", "scope": "GOOGLE", "types": ["lawyer", "point_of_interest", "establishment"], "vicinity": "1 Federal Street # 14, Boston"}, "ChIJbanY6YNw44kRaumdLNeztrc": {"geometry": {"location": {"lat": 42.355884, "lng": -71.05692669999999}, "viewport": {"northeast": {"lat": 42.3572496802915, "lng": -71.05541301970848}, "southwest": {"lat": 42.3545517197085, "lng": -71.0581109802915}}}, "icon": "https://maps.gstatic.com/mapfiles/place_api/icons/generic_business-71.png", "id": "7e1b701eb381d52b828f4d3b938a123a6d19795e", "name": "Medacorp", "place_id": "ChIJbanY6YNw44kRaumdLNeztrc", "plus_code": {"compound_code": "9W4V+96 Boston, Massachusetts, United States", "global_code": "87JC9W4V+96"}, "reference": "ChIJbanY6YNw44kRaumdLNeztrc", "scope": "GOOGLE", "types": ["point_of_interest", "establishment"], "vicinity": "1 Federal Street # 37, Boston"}, "ChIJJ2f7GoRw44kRoostUfLENVk": {"geometry": {"location": {"lat": 42.355884, "lng": -71.05692669999999}, "viewport": {"northeast": {"lat": 42.3572496802915, "lng": -71.05541301970848}, "southwest": {"lat": 42.3545517197085, "lng": -71.0581109802915}}}, "icon": "https://maps.gstatic.com/mapfiles/place_api/icons/generic_business-71.png", "id": "b7f3895e6a0910a6bfb9badd87a55315f49a758f", "name": "Thomas J. Gallitano", "place_id": "ChIJJ2f7GoRw44kRoostUfLENVk", "plus_code": {"compound_code": "9W4V+96 Boston, Massachusetts, United States", "global_code": "87JC9W4V+96"}, "reference": "ChIJJ2f7GoRw44kRoostUfLENVk", "scope": "GOOGLE", "types": ["lawyer", "point_of_interest", "establishment"], "vicinity": "One Federal Street, Boston"}, "ChIJU2hMAoRw44kRuWAvHUDCCc8": {"geometry": {"location": {"lat": 42.355884, "lng": -71.05692669999999}, "viewport": {"northeast": {"lat": 42.3572496802915, "lng": -71.05541301970848}, "southwest": {"lat": 42.3545517197085, "lng": -71.0581109802915}}}, "icon": "https://maps.gstatic.com/mapfiles/place_api/icons/generic_business-71.png", "id": "feb4a8d0fd06766bd7b7e4657ef28cbbbc699dbd", "name": "Barry E. Gold", "place_id": "ChIJU2hMAoRw44kRuWAvHUDCCc8", "plus_code": {"compound_code": "9W4V+96 Boston, Massachusetts, United States", "global_code": "87JC9W4V+96"}, "reference": "ChIJU2hMAoRw44kRuWAvHUDCCc8", "scope": "GOOGLE", "types": ["lawyer", "point_of_interest", "establishment"], "vicinity": "One Federal Street, Boston"}, "ChIJU2hMAoRw44kR50utIQCGSIA": {"geometry": {"location": {"lat": 42.355884, "lng": -71.05692669999999}, "viewport": {"northeast": {"lat": 42.3572496802915, "lng": -71.05541301970848}, "southwest": {"lat": 42.3545517197085, "lng": -71.0581109802915}}}, "icon": "https://maps.gstatic.com/mapfiles/place_api/icons/generic_business-71.png", "id": "e269fd0ac74ea78bc5eae8d80a464d149d11c158", "name": "Erin K. Higgins", "place_id": "ChIJU2hMAoRw44kR50utIQCGSIA", "plus_code": {"compound_code": "9W4V+96 Boston, Massachusetts, United States", "global_code": "87JC9W4V+96"}, "reference": "ChIJU2hMAoRw44kR50utIQCGSIA", "scope": "GOOGLE", "types": ["lawyer", "point_of_interest", "establishment"], "vicinity": "One Federal Street, Boston"}, "ChIJbanY6YNw44kRd0CC5BYontw": {"geometry": {"location": {"lat": 42.355884, "lng": -71.05692669999999}, "viewport": {"northeast": {"lat": 42.3572496802915, "lng": -71.05541301970848}, "southwest": {"lat": 42.3545517197085, "lng": -71.0581109802915}}}, "icon": "https://maps.gstatic.com/mapfiles/place_api/icons/generic_business-71.png", "id": "22407c42f538a02f0eb7c287b37339c65bbce0e0", "name": "Brockhouse & Cooper International", "place_id": "ChIJbanY6YNw44kRd0CC5BYontw", "plus_code": {"compound_code": "9W4V+96 Boston, Massachusetts, United States", "global_code": "87JC9W4V+96"}, "reference": "ChIJbanY6YNw44kRd0CC5BYontw", "scope": "GOOGLE", "types": ["lawyer", "point_of_interest", "establishment"], "vicinity": "1 Federal Street # 2303, Boston"}, "ChIJbanY6YNw44kRp6mX8eIJ4eQ": {"geometry": {"location": {"lat": 42.355884, "lng": -71.05692669999999}, "viewport": {"northeast": {"lat": 42.3572496802915, "lng": -71.05541301970848}, "southwest": {"lat": 42.3545517197085, "lng": -71.0581109802915}}}, "icon": "https://maps.gstatic.com/mapfiles/place_api/icons/generic_business-71.png", "id": "29a10ff42e3e3b5c2026dfbd3484911d22a331ff", "name": "Bingham Consulting Group LLC", "place_id": "ChIJbanY6YNw44kRp6mX8eIJ4eQ", "plus_code": {"compound_code": "9W4V+96 Boston, Massachusetts, United States", "global_code": "87JC9W4V+96"}, "reference": "ChIJbanY6YNw44kRp6mX8eIJ4eQ", "scope": "GOOGLE", "types": ["lawyer", "point_of_interest", "establishment"], "vicinity": "1 Federal Street, Boston"}, "ChIJx3cSmYNw44kRIEKW0u6Typ4": {"geometry": {"location": {"lat": 42.355884, "lng": -71.05692669999999}, "viewport": {"northeast": {"lat": 42.3572496802915, "lng": -71.05541301970848}, "southwest": {"lat": 42.3545517197085, "lng": -71.0581109802915}}}, "icon": "https://maps.gstatic.com/mapfiles/place_api/icons/civic_building-71.png", "id": "0337d771832527e4450e19535593e1241df3cf76", "name": "TEKsystems", "opening_hours": {"open_now": false}, "photos": [{"height": 675, "html_attributions": ["<a href=\"https://maps.google.com/maps/contrib/105799546228096180522/photos\">TEKsystems</a>"], "photo_reference": "CmRaAAAAVASV6fkPmAfgoFrYX5H14rLhgDQJnLfYOzoFs-fc4QeUeJpT1sM5BkrCwwf0jaVsNpRP56x8gUdltS6CIqf1dN_T6IlABlzOe6eLmLRopHX1KwScZwAjZ7Popb0hUZpZEhDoy6xigu0kb2JpUnN0BeRyGhSMovVWBAboGN3MOsJANHWYUrg7yA", "width": 1200}], "place_id": "ChIJx3cSmYNw44kRIEKW0u6Typ4", "plus_code": {"compound_code": "9W4V+96 Boston, Massachusetts, United States", "global_code": "87JC9W4V+96"}, "rating": 3.2, "reference": "ChIJx3cSmYNw44kRIEKW0u6Typ4", "scope": "GOOGLE", "types": ["point_of_interest", "establishment"], "user_ratings_total": 6, "vicinity": "One Federal Street Suite 2104, Boston"}, "ChIJ320zNOZx44kRZLGOeOwoclE": {"geometry": {"location": {"lat": 42.35584409999999, "lng": -71.0570067}, "viewport": {"northeast": {"lat": 42.3572141302915, "lng": -71.0554501197085}, "southwest": {"lat": 42.3545161697085, "lng": -71.05814808029152}}}, "icon": "https://maps.gstatic.com/mapfiles/place_api/icons/generic_business-71.png", "id": "962fc575149d3c4ee64a61302703729142dbcbc7", "name": "Timothy King - Merrill Lynch", "photos": [{"height": 655, "html_attributions": ["<a href=\"https://maps.google.com/maps/contrib/111193562100818449580/photos\">Timothy King - Merrill Lynch</a>"], "photo_reference": "CmRaAAAAI5T1mnH-NuxWjNz8Df4OSDerxInCr5E1XKXjcJMApXQbONCmcuikLw6HibSs7s8TcnMAqb_Cpm-HVpO7Kajtok0DisWbTZl7aV_TknOtg-W78kkh0NUqz8XYQ4-pp6__EhAX0YA1tih5E1c1MtpIZYAXGhTJuRaRnRIGMIJa3ud-r9xjXMC-yA", "width": 655}], "place_id": "ChIJ320zNOZx44kRZLGOeOwoclE", "plus_code": {"compound_code": "9W4V+85 Boston, Massachusetts, United States", "global_code": "87JC9W4V+85"}, "reference": "ChIJ320zNOZx44kRZLGOeOwoclE", "scope": "GOOGLE", "types": ["finance", "point_of_interest", "establishment"], "vicinity": "F24, 1 Federal Street, Boston"}, "ChIJq4SONVRx44kRyg_LVAYhgF0": {"geometry": {"location": {"lat": 42.355884, "lng": -71.05692669999999}, "viewport": {"northeast": {"lat": 42.3572496802915, "lng": -71.05541301970848}, "southwest": {"lat": 42.3545517197085, "lng": -71.0581109802915}}}, "icon": "https://maps.gstatic.com/mapfiles/place_api/icons/generic_business-71.png", "id": "061e0fc58c5d59d260344ed456d8f13636cd9fca", "name": "Ramzi N Nuwayhid CFP, CIMA - Merrill Lynch", "photos": [{"height": 1600, "html_attributions": ["<a href=\"https://maps.google.com/maps/contrib/110308574182404572353/photos\">Ramzi N Nuwayhid CFP, CIMA - Merrill Lynch</a>"], "photo_reference": "CmRZAAAAQD7B5n4c-tUwOx8JQi2UilHd7sziag_GBiBlK3hlHSlc4GZvOn0y2v2LRe3GrNGCQpwbEJ2GGh2P6Wlj8dXmj_Ekjl2EFeylridyhf7fm7bZ8bxnX04LA4vm4Rz_W2qiEhD7CC-8fGY3OKmZBVz6CoO7GhTRpjPvwE5FKUogkZW4dEoXeH7dBA", "width": 1600}], "place_id": "ChIJq4SONVRx44kRyg_LVAYhgF0", "plus_code": {"compound_code": "9W4V+96 Boston, Massachusetts, United States", "global_code": "87JC9W4V+96"}, "reference": "ChIJq4SONVRx44kRyg_LVAYhgF0", "scope": "GOOGLE", "types": ["finance", "point_of_interest", "establishment"], "vicinity": "f24, 1 Federal Street, Boston"}, "ChIJeZQLzTNx44kRe0SuHNfohz8": {"geometry": {"location": {"lat": 42.355884, "lng": -71.05692669999999}, "viewport": {"northeast": {"lat": 42.3572496802915, "lng": -71.05541301970848}, "southwest": {"lat": 42.3545517197085, "lng": -71.0581109802915}}}, "icon": "https://maps.gstatic.com/mapfiles/place_api/icons/generic_business-71.png", "id": "2b7113af19bc783822bda986333454c599cb9e70", "name": "Marcella Behman CIMA - Merrill Lynch", "photos": [{"height": 500, "html_attributions": ["<a href=\"https://maps.google.com/maps/contrib/111661525779769408821/photos\">Marcella Behman CIMA - Merrill Lynch</a>"], "photo_reference": "CmRaAAAAAf0NtQR0CDdqzg0LIXXmS09c37UtRZjrcTh2n0VAccWwMfGKRsXhZrZWlEf1rzaXR2vOL4RTZwkO-VHE3kxTnhJKi_fULJSW1ygrUlA9pOMc29lYyPrSXBCQcFbs5IX4EhDwMoRTfmwflqSW2s20BAfGGhSLlfcqXboc-CgPdJuC5gNY7WmrVQ", "width": 500}], "place_id": "ChIJeZQLzTNx44kRe0SuHNfohz8", "plus_code": {"compound_code": "9W4V+96 Boston, Massachusetts, United States", "global_code": "87JC9W4V+96"}, "reference": "ChIJeZQLzTNx44kRe0SuHNfohz8", "scope": "GOOGLE", "types": ["finance", "point_of_interest", "establishment"], "vicinity": "F24, 1 Federal Street, Boston"}, "ChIJW_6OHexx44kRxYC0BM8MkgY": {"geometry": {"location": {"lat": 42.355884, "lng": -71.05692669999999}, "viewport": {"northeast": {"lat": 42.3572496802915, "lng": -71.05541301970848}, "southwest": {"lat": 42.3545517197085, "lng": -71.0581109802915}}}, "icon": "https://maps.gstatic.com/mapfiles/place_api/icons/generic_business-71.png", "id": "90886c63452a2b13ebcfd9669ad81a6a6c8cea98", "name": "Kathleen Hegenbart CIMC - Merrill Lynch", "place_id": "ChIJW_6OHexx44kRxYC0BM8MkgY", "plus_code": {"compound_code": "9W4V+96 Boston, Massachusetts, United States", "global_code": "87JC9W4V+96"}, "reference": "ChIJW_6OHexx44kRxYC0BM8MkgY", "scope": "GOOGLE", "types": ["finance", "point_of_interest", "establishment"], "vicinity": "F24, 1 Federal Street, Boston"}, "ChIJNVwziWdx44kR55YJ6u4MD0g": {"geometry": {"location": {"lat": 42.355884, "lng": -71.05692669999999}, "viewport": {"northeast": {"lat": 42.3572496802915, "lng": -71.05541301970848}, "southwest": {"lat": 42.3545517197085, "lng": -71.0581109802915}}}, "icon": "https://maps.gstatic.com/mapfiles/place_api/icons/generic_business-71.png", "id": "4d438eacae710d332aeb2fa9f0bf84b256271059", "name": "Steven T Smith CIMA - Merrill Lynch", "place_id": "ChIJNVwziWdx44kR55YJ6u4MD0g", "plus_code": {"compound_code": "9W4V+96 Boston, Massachusetts, United States", "global_code": "87JC9W4V+96"}, "reference": "ChIJNVwziWdx44kR55YJ6u4MD0g", "scope": "GOOGLE", "types": ["finance", "point_of_interest", "establishment"], "vicinity": "F24, 1 Federal Street, Boston"}, "ChIJ2c6m-CVx44kRRFoi0wz1RlA": {"geometry": {"location": {"lat": 42.355884, "lng": -71.05692669999999}, "viewport": {"northeast": {"lat": 42.3572496802915, "lng": -71.05541301970848}, "southwest": {"lat": 42.3545517197085, "lng": -71.0581109802915}}}, "icon": "https://maps.gstatic.com/mapfiles/place_api/icons/generic_business-71.png", "id": "e2d6671e37c81f049818c2365dbdaa9e96bd0f26", "name": "Thomas F McConnell - Merrill Lynch", "photos": [{"height": 480, "html_attributions": ["<a href=\"https://maps.google.com/maps/contrib/115216423035541626959/photos\">Thomas F McConnell - Merrill Lynch</a>"], "photo_reference": "CmRaAAAAJ18iOrg0ORvaA3yDLkHI-icGEr5DDyVu9IptQ8nwcaEMYipXZ5YbCQ_rHaW4-OizX3r_IF2jBRAncyBR__W1b6S9w-rppd09eN3l4ovMbZ320dkpRywEIzZni7z62wcmEhAIxhK5yIMwUzetJdeKD6doGhR4maxoKmWQJnG8ipT5jISo5zK5ug", "width": 480}], "place_id": "ChIJ2c6m-CVx44kRRFoi0wz1RlA", "plus_code": {"compound_code": "9W4V+96 Boston, Massachusetts, United States", "global_code": "87JC9W4V+96"}, "reference": "ChIJ2c6m-CVx44kRRFoi0wz1RlA", "scope": "GOOGLE", "types": ["finance", "point_of_interest", "establishment"], "vicinity": "F24, 1 Federal Street, Boston"}, "ChIJudRNXvlx44kRXLc0f-8d8oc": {"geometry": {"location": {"lat": 42.3558755, "lng": -71.0569051}, "viewport": {"northeast": {"lat": 42.3572401802915, "lng": -71.05540126970848}, "southwest": {"lat": 42.3545422197085, "lng": -71.05809923029149}}}, "icon": "https://maps.gstatic.com/mapfiles/place_api/icons/generic_business-71.png", "id": "61b87e2f1b98863c575de48096fc7cb2cc7cd405", "name": "Christian T Kemp CFP, CIMA - Merrill Lynch", "photos": [{"height": 1600, "html_attributions": ["<a href=\"https://maps.google.com/maps/contrib/112443847007471936525/photos\">Christian T Kemp CFP, CIMA - Merrill Lynch</a>"], "photo_reference": "CmRaAAAA5Kpp0aVepHsG38qXYOY0ylbjDELMnjFO4ezWFWOY8vq1UjuhZy_fquEjHbn6AA3wcjmqH2hxqu1d2eXxM9DuFdnl5SIzRkQZUqB73IPg27BOCHYm8LOSQVAmRmc4wrf8EhB6uMgnKCrBjJZO4kvqA_XVGhQkvBi86RVCUSnK_ijMPhaDt1rreg", "width": 1600}], "place_id": "ChIJudRNXvlx44kRXLc0f-8d8oc", "plus_code": {"compound_code": "9W4V+96 Boston, Massachusetts, United States", "global_code": "87JC9W4V+96"}, "reference": "ChIJudRNXvlx44kRXLc0f-8d8oc", "scope": "GOOGLE", "types": ["finance", "point_of_interest", "establishment"], "vicinity": "F24, 1 Federal Street, Boston"}, "ChIJnb6YVbRx44kR87vqE53rYbs": {"geometry": {"location": {"lat": 42.3559267, "lng": -71.0569902}, "viewport": {"northeast": {"lat": 42.3572951302915, "lng": -71.05544926970849}, "southwest": {"lat": 42.35459716970851, "lng": -71.05814723029151}}}, "icon": "https://maps.gstatic.com/mapfiles/place_api/icons/generic_business-71.png", "id": "c44c258b9d1bfc0068d540dc6f37610e5e244c4a", "name": "Joseph Cefalu CIMA - Merrill Lynch", "place_id": "ChIJnb6YVbRx44kR87vqE53rYbs", "plus_code": {"compound_code": "9W4V+96 Boston, Massachusetts, United States", "global_code": "87JC9W4V+96"}, "reference": "ChIJnb6YVbRx44kR87vqE53rYbs", "scope": "GOOGLE", "types": ["finance", "point_of_interest", "establishment"], "vicinity": "F24, 1 Federal Street, Boston"}, "ChIJZSO0RIFw44kRMwtkx6QJp2U": {"geometry": {"location": {"lat": 42.3559219, "lng": -71.05497679999999}, "viewport": {"northeast": {"lat": 42.3595222, "lng": -71.05148729999999}, "southwest": {"lat": 42.351489, "lng": -71.0593777}}}, "icon": "https://maps.gstatic.com/mapfiles/place_api/icons/geocode-71.png", "id": "a299437eec467c3c4fb5ec448e81048caef8aacf", "name": "Financial District", "photos": [{"height": 2403, "html_attributions": ["<a href=\"https://maps.google.com/maps/contrib/115111503217500241431/photos\">Jane Wong</a>"], "photo_reference": "CmRaAAAAVf11DdoTUXereOGfDkBuuVfxN1F7W2YZIDHCs60ZJg-tfdTwQIhaR5Dn2PF9ONWsyyHrRk7xF3C9qX0eY6SEVLQjMKoV6P93QyEa283ncvXB_gWuycOXo9KXbQOj7ZuwEhBxi3V7uYej8Z58HLiI9_kkGhR3knrJGeLK-bcmqr-AJmEbz30stA", "width": 3206}], "place_id": "ChIJZSO0RIFw44kRMwtkx6QJp2U", "reference": "ChIJZSO0RIFw44kRMwtkx6QJp2U", "scope": "GOOGLE", "types": ["neighborhood", "political"], "vicinity": "Boston"}}