{"ChIJGzE9DS1l44kRoOhiASS_fHg": {"geometry": {"location": {"lat": 42.3600825, "lng": -71.0588801}, "viewport": {"northeast": {"lat": 42.40081989999999, "lng": -70.749455}, "southwest": {"lat": 42.22788, "lng": -71.191113}}}, "icon": "https://maps.gstatic.com/mapfiles/place_api/icons/geocode-71.png", "id": "06755c25d2b34d13942a4713971756a55b870ced", "name": "Boston", "photos": [{"height": 3024, "html_attributions": ["<a href=\"https://maps.google.com/maps/contrib/104670289779338733432/photos\">Natalia Zalucean</a>"], "photo_reference": "CmRaAAAAZeJzxpuZSz509APCS75pJ51xP5zd1DiY-z1B-4qzF72Ku8VWjgCJZqFT8i7qXMg5oD92BleNPKvrkvawizq4rj3zNKK4IlP0ML6fWdmJm2zTd_dGevpgKn1LIA0LrDOyEhDF_h_uSN3y0mmgc2yj8we-GhST-e2YcSYFnLKwdIhXIaXSkjWboQ", "width": 4032}], "place_id": "ChIJGzE9DS1l44kRoOhiASS_fHg", "reference": "ChIJGzE9DS1l44kRoOhiASS_fHg", "scope": "GOOGLE", "types": ["locality", "political"], "vicinity": "Boston"}, "ChIJj_RG0Dt544kR6cU8JUmHBWA": {"geometry": {"location": {"lat": 42.3014914, "lng": -71.128377}, "viewport": {"northeast": {"lat": 42.3026361802915, "lng": -71.12686741970849}, "southwest": {"lat": 42.29993821970851, "lng": -71.12956538029151}}}, "icon": "https://maps.gstatic.com/mapfiles/place_api/icons/generic_business-71.png", "id": "202ec0e61e7653f6b259f4de225b015cf61fd4e1", "name": "Dr. Daniel S. Matloff, MD", "place_id": "ChIJj_RG0Dt544kR6cU8JUmHBWA", "plus_code": {"compound_code": "8V2C+HJ Boston, Massachusetts, United States", "global_code": "87JC8V2C+HJ"}, "reference": "ChIJj_RG0Dt544kR6cU8JUmHBWA", "scope": "GOOGLE", "types": ["doctor", "health", "point_of_interest", "establishment"], "vicinity": "1153 Centre Street #4B, Boston"}, "ChIJxZZ1e_B_44kRMylURzj9RbI": {"geometry": {"location": {"lat": 42.3015006, "lng": -71.128385}, "viewport": {"northeast": {"lat": 42.3027031302915, "lng": -71.12674736970848}, "southwest": {"lat": 42.30000516970851, "lng": -71.12944533029149}}}, "icon": "https://maps.gstatic.com/mapfiles/place_api/icons/doctor-71.png", "id": "51619454a72b405406ed9e46c0c42abf33b63e23", "name": "Faulkner Hospital", "opening_hours": {"open_now": true}, "place_id": "ChIJxZZ1e_B_44kRMylURzj9RbI", "plus_code": {"compound_code": "8V2C+JJ Boston, Massachusetts, United States", "global_code": "87JC8V2C+JJ"}, "rating": 4.5, "reference": "ChIJxZZ1e_B_44kRMylURzj9RbI", "scope": "GOOGLE", "types": ["hospital", "point_of_interest", "establishment"], "user_ratings_total": 4, "vicinity": "1153 Centre Street, Boston"}, "ChIJ0RnkK3J544kREhgmsmdsEjM": {"geometry": {"location": {"lat": 42.3097365, "lng": -71.1151431}, "viewport": {"northeast": {"lat": 42.331997, "lng": -71.0975505}, "southwest": {"lat": 42.29569790000001, "lng": -71.1400973}}}, "icon": "https://maps.gstatic.com/mapfiles/place_api/icons/geocode-71.png", "id": "24ab064d9ae80bcb5d0138c151d4899b32a120ba", "name": "Jamaica Plain", "photos": [{"height": 1536, "html_attributions": ["<a href=\"https://maps.google.com/maps/contrib/104025330983653437024/photos\">\u0410\u043d\u043d\u0430 \u041d\u0435\u0439\u0448\u0442\u0430\u0434\u0442</a>"], "photo_reference": "CmRaAAAAtwYH4Ami7ul0xQTbThwG5Rfpv0JlTlGTyW1duZ7CqdhIv4Yi8rQETasIN64otgq7qxdCcvEvooRoPTWEf1CM6l-hSMko8CyM-w5bGbuijmgxzPFv9bZ_8dk2S8uvm5_YEhDDt3Wekim-SruoXoiP8bZUGhTkfRklkwXH_4xekS4v5djGSCuXTg", "width": 2048}], "place_id": "ChIJ0RnkK3J544kREhgmsmdsEjM", "reference": "ChIJ0RnkK3J544kREhgmsmdsEjM", "scope": "GOOGLE", "types": ["neighborhood", "political"], "vicinity": "Dorchester Center"}}