{"ChIJGzE9DS1l44kRoOhiASS_fHg": {"geometry": {"location": {"lat": 42.3600825, "lng": -71.0588801}, "viewport": {"northeast": {"lat": 42.40081989999999, "lng": -70.749455}, "southwest": {"lat": 42.22788, "lng": -71.191113}}}, "icon": "https://maps.gstatic.com/mapfiles/place_api/icons/geocode-71.png", "id": "06755c25d2b34d13942a4713971756a55b870ced", "name": "Boston", "photos": [{"height": 3024, "html_attributions": ["<a href=\"https://maps.google.com/maps/contrib/104670289779338733432/photos\">Natalia Zalucean</a>"], "photo_reference": "CmRaAAAA7oovF1fLUCKdDexFSzl-9nYL4RBNpie28kAvogn7SM3QUuk-ciIqGgAJJqN9OFrDN_pn-QLK9PCcjIwucvRX3QArZV38Vk6ZJYolYoq7LaNkzd9OJuZC9_GByYzGAfiNEhAA6iQnPqWxwLXTdmiEUfm9GhQ3QTctgorz9dmdnpjUg8xZcy_DhQ", "width": 4032}], "place_id": "ChIJGzE9DS1l44kRoOhiASS_fHg", "reference": "ChIJGzE9DS1l44kRoOhiASS_fHg", "scope": "GOOGLE", "types": ["locality", "political"], "vicinity": "Boston"}, "ChIJgThZFHZ844kRR_o-j2ExoF0": {"geometry": {"location": {"lat": 42.2774361, "lng": -71.0653986}, "viewport": {"northeast": {"lat": 42.2788803802915, "lng": -71.0637650697085}, "southwest": {"lat": 42.2761824197085, "lng": -71.0664630302915}}}, "icon": "https://maps.gstatic.com/mapfiles/place_api/icons/generic_business-71.png", "id": "e7a8200cf1ec2f7818fe67cc423a216589f1e601", "name": "Dr. Christopher Kenney, MD", "photos": [{"height": 390, "html_attributions": ["<a href=\"https://maps.google.com/maps/contrib/113228856159197614838/photos\">Dr. Christopher Kenney, MD</a>"], "photo_reference": "CmRaAAAASXtL5rlZpuBhzx8SezdBG16i2i4IKzxmn5vR1qDdzC6Arh9qioRIQQtEvHtWCgPtXRLLDST7Op-p3JoR_UK0kCXjLdGr9WWFDLpk159ldBP6p65Xqj7kUHZBWCWyE4siEhAUfI-MBmQwPbyfdvI4xymRGhRNEEXIb16FL6E3McAGE3ZbQ9tBaw", "width": 390}], "place_id": "ChIJgThZFHZ844kRR_o-j2ExoF0", "plus_code": {"compound_code": "7WGM+XR Boston, Massachusetts, United States", "global_code": "87JC7WGM+XR"}, "reference": "ChIJgThZFHZ844kRR_o-j2ExoF0", "scope": "GOOGLE", "types": ["doctor", "health", "point_of_interest", "establishment"], "vicinity": "2110 Dorchester Avenue Suite 210, Boston"}, "ChIJ79R2PYh744kRj-j_ZkKiqNk": {"geometry": {"location": {"lat": 42.277442, "lng": -71.065314}, "viewport": {"northeast": {"lat": 42.2788801802915, "lng": -71.06372066970849}, "southwest": {"lat": 42.2761822197085, "lng": -71.06641863029151}}}, "icon": "https://maps.gstatic.com/mapfiles/place_api/icons/doctor-71.png", "id": "2ea55b74c407fee857f3d17e0ec0c7f2aa743bb2", "name": "SMG Ambulatory Care at Carney Hospital", "opening_hours": {"open_now": true}, "photos": [{"height": 1200, "html_attributions": ["<a href=\"https://maps.google.com/maps/contrib/113939454904980118415/photos\">SMG Ambulatory Care at Carney Hospital</a>"], "photo_reference": "CmRaAAAA9OCsG-Z8yMLOhBofR20HLFtDLtNRc23OYKHUGyFPR5qCtju0hTv7x92mR6ULqStDBzhninzltpqNQuJbKZlfrYUiAh4HoCDPg7DrXnvhi6FlQQRG5g2ClByU1Io383uzEhDZ31OEvWmyQ4Kny5IPZDwPGhRqVKbL25bqvCsdUTFPyisoS_51zA", "width": 1200}], "place_id": "ChIJ79R2PYh744kRj-j_ZkKiqNk", "plus_code": {"compound_code": "7WGM+XV Boston, Massachusetts, United States", "global_code": "87JC7WGM+XV"}, "reference": "ChIJ79R2PYh744kRj-j_ZkKiqNk", "scope": "GOOGLE", "types": ["hospital", "point_of_interest", "establishment"], "vicinity": "2100 Dorchester Ave, Third Floor, Area A, Dorchester"}, "ChIJLXf9J3Z844kRWDoPm9jEboU": {"geometry": {"location": {"lat": 42.27743580000001, "lng": -71.06537999999999}, "viewport": {"northeast": {"lat": 42.2788802302915, "lng": -71.06375576970851}, "southwest": {"lat": 42.2761822697085, "lng": -71.06645373029151}}}, "icon": "https://maps.gstatic.com/mapfiles/place_api/icons/doctor-71.png", "id": "f4cdeafbb904e5e831a5e926c25162b3e6ed02a8", "name": "SMG Endocrinology & Diabetes Center at Carney Hospital", "opening_hours": {"open_now": true}, "photos": [{"height": 1200, "html_attributions": ["<a href=\"https://maps.google.com/maps/contrib/104228624278163862759/photos\">SMG Endocrinology &amp; Diabetes Center at Carney Hospital</a>"], "photo_reference": "CmRaAAAAXoe70fVj3XdrL9YmJyW-PxaFEfGeZjfREYLKYwidJ2pMYZ1oDJWjL0F4EKrey0MBjDHcUKjg8WkWqQnvpNE0G45bmi9GOyTkTsb8tz2pVvL-foQNfpZI2-JtlEmF0PdbEhC9VykO543HPr27Yb66lGKLGhTmjdF9fopWdnEW95mXdlKgKHzuEw", "width": 1200}], "place_id": "ChIJLXf9J3Z844kRWDoPm9jEboU", "plus_code": {"compound_code": "7WGM+XR Boston, Massachusetts, United States", "global_code": "87JC7WGM+XR"}, "reference": "ChIJLXf9J3Z844kRWDoPm9jEboU", "scope": "GOOGLE", "types": ["hospital", "point_of_interest", "establishment"], "vicinity": "2100 Dorchester Avenue Suite 2002, Dorchester"}, "ChIJsbHp6ol744kR_boxyQLxquU": {"geometry": {"location": {"lat": 42.2773684, "lng": -71.06534239999999}, "viewport": {"northeast": {"lat": 42.27884188029149, "lng": -71.06373386970849}, "southwest": {"lat": 42.2761439197085, "lng": -71.0664318302915}}}, "icon": "https://maps.gstatic.com/mapfiles/place_api/icons/generic_business-71.png", "id": "c4ce3b52c3362551053a7c5a2552ec5b8635a5f7", "name": "Dr. Michael G. Ho", "place_id": "ChIJsbHp6ol744kR_boxyQLxquU", "plus_code": {"compound_code": "7WGM+WV Boston, Massachusetts, United States", "global_code": "87JC7WGM+WV"}, "reference": "ChIJsbHp6ol744kR_boxyQLxquU", "scope": "GOOGLE", "types": ["doctor", "health", "point_of_interest", "establishment"], "vicinity": "2100 Dorchester Avenue, Boston"}, "ChIJs4veGkl644kROEK8ix2v_oY": {"geometry": {"location": {"lat": 42.30163049999999, "lng": -71.067605}, "viewport": {"northeast": {"lat": 42.3358969, "lng": -71.0325551}, "southwest": {"lat": 42.267598, "lng": -71.0800369}}}, "icon": "https://maps.gstatic.com/mapfiles/place_api/icons/geocode-71.png", "id": "9e12301fdeebf54c1266b9986602466425a9c326", "name": "Dorchester", "photos": [{"height": 1944, "html_attributions": ["<a href=\"https://maps.google.com/maps/contrib/118366960396286562471/photos\">Michael Laferriere</a>"], "photo_reference": "CmRaAAAAU0VrsNYHkKvg1DbLIyBaTHSSXCuc4N6ISD1Cq_ipxQpeK6J65qCvAn6d1wBg3BoHbtsKWFg5F1BdW3dqh1GJq12XAiA9Pql5IjaZoNY-sjoHCkalmpDogF-8K4qT-N8pEhB0oWL3Hq4dHUVYndKDy8akGhRPk2TtHnUC_a9U26wiyHmVmid0Lg", "width": 2592}], "place_id": "ChIJs4veGkl644kROEK8ix2v_oY", "reference": "ChIJs4veGkl644kROEK8ix2v_oY", "scope": "GOOGLE", "types": ["neighborhood", "political"], "vicinity": "Dorchester Center"}}