{"ChIJw99oc-1544kRuqPHaDmnox0": {"geometry": {"location": {"lat": 42.3442684, "lng": -71.11058}, "viewport": {"northeast": {"lat": 42.3456173302915, "lng": -71.10923106970849}, "southwest": {"lat": 42.3429193697085, "lng": -71.1119290302915}}}, "icon": "https://maps.gstatic.com/mapfiles/place_api/icons/geocode-71.png", "id": "f1afcf992c853f469a6ed83545be88466f1c4fbb", "name": "45 Hawes St", "place_id": "ChIJw99oc-1544kRuqPHaDmnox0", "reference": "ChIJw99oc-1544kRuqPHaDmnox0", "scope": "GOOGLE", "types": ["route"], "vicinity": "Brookline"}, "ChIJZ_CzdO1544kRMmXwPbQntIs": {"geometry": {"location": {"lat": 42.3443761, "lng": -71.11071869999999}, "viewport": {"northeast": {"lat": 42.3457346802915, "lng": -71.10933391970849}, "southwest": {"lat": 42.3430367197085, "lng": -71.1120318802915}}}, "icon": "https://maps.gstatic.com/mapfiles/place_api/icons/generic_business-71.png", "id": "c4e4607dd6468948afe8c2fe7d6997a3718717c3", "name": "Florea Victoria L", "place_id": "ChIJZ_CzdO1544kRMmXwPbQntIs", "plus_code": {"compound_code": "8VVQ+QP Brookline, Massachusetts, United States", "global_code": "87JC8VVQ+QP"}, "reference": "ChIJZ_CzdO1544kRMmXwPbQntIs", "scope": "GOOGLE", "types": ["point_of_interest", "establishment"], "vicinity": "48 Hawes Street, Brookline"}, "ChIJhZirQQB544kRB9LbXEfedZQ": {"geometry": {"location": {"lat": 42.33176419999999, "lng": -71.1211635}, "viewport": {"northeast": {"lat": 42.3518109, "lng": -71.1056969}, "southwest": {"lat": 42.29459689999999, "lng": -71.1789959}}}, "icon": "https://maps.gstatic.com/mapfiles/place_api/icons/geocode-71.png", "id": "92986b2d1f69af2f2a7e29d34ced8adfa8573beb", "name": "Brookline", "photos": [{"height": 651, "html_attributions": ["<a href=\"https://maps.google.com/maps/contrib/114772942214832951419/photos\">Michael Ahn</a>"], "photo_reference": "CmRaAAAAWTd0gXV8ZBHaiU4xsO2E7dOV5kA0GJ06mxB0BLTVF3pqt_vw84Xvg-gTcTU-ioSDFBy7wMD0RF-pv12D-_x3G1KN8o4fj45kuTsm_Nz0CoFt6yiUm5EgIqm8NsOYFKCkEhDXQbrHlvn0-N1XXZt7C8bhGhQVp8i_OVAs6kd0mhNVM9g03O8IRg", "width": 1608}], "place_id": "ChIJhZirQQB544kRB9LbXEfedZQ", "reference": "ChIJhZirQQB544kRB9LbXEfedZQ", "scope": "GOOGLE", "types": ["locality", "political"], "vicinity": "Brookline"}}