{"ChIJGzE9DS1l44kRoOhiASS_fHg": {"geometry": {"location": {"lat": 42.3600825, "lng": -71.0588801}, "viewport": {"northeast": {"lat": 42.40081989999999, "lng": -70.749455}, "southwest": {"lat": 42.22788, "lng": -71.191113}}}, "icon": "https://maps.gstatic.com/mapfiles/place_api/icons/geocode-71.png", "id": "06755c25d2b34d13942a4713971756a55b870ced", "name": "Boston", "photos": [{"height": 3024, "html_attributions": ["<a href=\"https://maps.google.com/maps/contrib/104670289779338733432/photos\">Natalia Zalucean</a>"], "photo_reference": "CmRaAAAALZwTLI_YDd12GUQ4KEQcyxkbuwy0FluXvmbHTYVRjWKgz4dFrrTs9IosihDHnH1g6G5CReTMF9WOlytZg2pVax_mqxwh_CElh1JZLDIazAZe6nYL12kf3vbYq_RbIZnNEhBmMk7cy3wma_6ChUon2AIXGhTsMmzL2XmpL0mU_Xuc8IYurG1gxw", "width": 4032}], "place_id": "ChIJGzE9DS1l44kRoOhiASS_fHg", "reference": "ChIJGzE9DS1l44kRoOhiASS_fHg", "scope": "GOOGLE", "types": ["locality", "political"], "vicinity": "Boston"}, "ChIJjx2mQJtw44kRCO-Ih76GjRk": {"geometry": {"location": {"lat": 42.3588616, "lng": -71.0618449}, "viewport": {"northeast": {"lat": 42.3601718302915, "lng": -71.06063401970849}, "southwest": {"lat": 42.3574738697085, "lng": -71.06333198029151}}}, "icon": "https://maps.gstatic.com/mapfiles/place_api/icons/generic_business-71.png", "id": "fcf7d2225936c071d062593aec2cb36a6db149c9", "name": "Catherine S. Bieksha, MS", "place_id": "ChIJjx2mQJtw44kRCO-Ih76GjRk", "plus_code": {"compound_code": "9W5Q+G7 Boston, Massachusetts, United States", "global_code": "87JC9W5Q+G7"}, "reference": "ChIJjx2mQJtw44kRCO-Ih76GjRk", "scope": "GOOGLE", "types": ["doctor", "health", "point_of_interest", "establishment"], "vicinity": "8 Ashburton Place, Boston, MA 02108, Boston"}, "ChIJO7uASptw44kR-C8pDpuareg": {"geometry": {"location": {"lat": 42.3588616, "lng": -71.0618449}, "viewport": {"northeast": {"lat": 42.3601718302915, "lng": -71.06063401970849}, "southwest": {"lat": 42.3574738697085, "lng": -71.06333198029151}}}, "icon": "https://maps.gstatic.com/mapfiles/place_api/icons/generic_business-71.png", "id": "ab8b59de38f99eca8d5fbf0195de5881919ea916", "name": "Suffolk SGA", "opening_hours": {"open_now": true}, "photos": [{"height": 3036, "html_attributions": ["<a href=\"https://maps.google.com/maps/contrib/114068856976469878107/photos\">Suffolk SGA</a>"], "photo_reference": "CmRaAAAAFXl2dM_z1IZA0vL0m2lLoj0o8LPBpr_stvrUKRHQccfFZeFjppkTnseNpneBeOsb1yoq9IHuGf-EkdCuOAULSL-POiO2GhOKAFS3QutMyPWFnKOJ1AczocECe5PvscWzEhCqbLAi9yu7LbH0-7RFGMzAGhTyjGs7JaAqMl8YC2jKgH9Rrqk0Eg", "width": 4048}], "place_id": "ChIJO7uASptw44kR-C8pDpuareg", "plus_code": {"compound_code": "9W5Q+G7 Boston, Massachusetts, United States", "global_code": "87JC9W5Q+G7"}, "rating": 5, "reference": "ChIJO7uASptw44kR-C8pDpuareg", "scope": "GOOGLE", "types": ["point_of_interest", "establishment"], "user_ratings_total": 3, "vicinity": "8 Ashburton Place Suite 324C, Boston"}, "ChIJT84qgp5w44kR2MRBT4FBDq0": {"geometry": {"location": {"lat": 42.3587999, "lng": -71.0707389}, "viewport": {"northeast": {"lat": 42.3611918, "lng": -71.0604501}, "southwest": {"lat": 42.3554044, "lng": -71.0730243}}}, "icon": "https://maps.gstatic.com/mapfiles/place_api/icons/geocode-71.png", "id": "fac7126b486af397364666a201134b34436961e1", "name": "Beacon Hill", "photos": [{"height": 533, "html_attributions": ["<a href=\"https://maps.google.com/maps/contrib/107493965504695166609/photos\">Alan Pembshaw</a>"], "photo_reference": "CmRaAAAAqwZZX29kB9QNE_3CvaaqJEG-OcB5blH2WbUCelBdSi0gvVSBcfKVQWBk6JghAGXmQvWqd1dS3GnCRkcyo0xlUuizaiUsAjGXRbMNxlxEGTgWgaUPdn3x1ZMNMfZy188pEhC_O9dm0HhEefHiot7j347DGhSGn6kxr70ZCNLSy2OtTM3_-MWX-g", "width": 799}], "place_id": "ChIJT84qgp5w44kR2MRBT4FBDq0", "reference": "ChIJT84qgp5w44kR2MRBT4FBDq0", "scope": "GOOGLE", "types": ["neighborhood", "political"], "vicinity": "Boston"}}