{"ChIJJyoh3Y1544kRbbC04Ub8ut8": {"geometry": {"location": {"lat": 42.33750879999999, "lng": -71.1075419}, "viewport": {"northeast": {"lat": 42.3388569802915, "lng": -71.1061938197085}, "southwest": {"lat": 42.3361590197085, "lng": -71.1088917802915}}}, "icon": "https://maps.gstatic.com/mapfiles/place_api/icons/geocode-71.png", "id": "8b3988834dba47b1fb02e22ee1d5689facbd8514", "name": "99-35 Jimmy Fund Way", "place_id": "ChIJJyoh3Y1544kRbbC04Ub8ut8", "reference": "ChIJJyoh3Y1544kRbbC04Ub8ut8", "scope": "GOOGLE", "types": ["route"], "vicinity": "Boston"}, "ChIJB08w5I1544kRNk0uUIDHDwE": {"geometry": {"location": {"lat": 42.3373907, "lng": -71.1074781}, "viewport": {"northeast": {"lat": 42.3387649302915, "lng": -71.10610231970848}, "southwest": {"lat": 42.3360669697085, "lng": -71.1088002802915}}}, "icon": "https://maps.gstatic.com/mapfiles/place_api/icons/generic_business-71.png", "id": "7d43985d82613e1be3b63182cdad9ea794399611", "name": "Alessandra Biffi, MD", "photos": [{"height": 976, "html_attributions": ["<a href=\"https://maps.google.com/maps/contrib/109153013973728135142/photos\">Alessandra Biffi, MD</a>"], "photo_reference": "CmRaAAAAelGUQCutNF2VElv-T2lkkUR2_K3nejpB5WSt9QNfhihTQMAw3TfJw8aRG3uaJS1d9RY9Etq3mBdf7egkURuJfNfjb465s2WiOC5J46DIky2GDHbCIZL6LsHo1UHXsPVSEhDMuK3smnAHZwvqy8CiwnyWGhRgz8K29DMcK9PEDDX9za9Qy_LJ5w", "width": 1732}], "place_id": "ChIJB08w5I1544kRNk0uUIDHDwE", "plus_code": {"compound_code": "8VPV+X2 Boston, Massachusetts, United States", "global_code": "87JC8VPV+X2"}, "reference": "ChIJB08w5I1544kRNk0uUIDHDwE", "scope": "GOOGLE", "types": ["doctor", "health", "point_of_interest", "establishment"], "vicinity": "450 Brookline Avenue Dana-Farber/Boston Children's Cancer and Blood Disorders Center Stem Cell Transplant Center, Boston"}, "ChIJGzE9DS1l44kRoOhiASS_fHg": {"geometry": {"location": {"lat": 42.3600825, "lng": -71.0588801}, "viewport": {"northeast": {"lat": 42.40081989999999, "lng": -70.749455}, "southwest": {"lat": 42.22788, "lng": -71.191113}}}, "icon": "https://maps.gstatic.com/mapfiles/place_api/icons/geocode-71.png", "id": "06755c25d2b34d13942a4713971756a55b870ced", "name": "Boston", "photos": [{"height": 3024, "html_attributions": ["<a href=\"https://maps.google.com/maps/contrib/104670289779338733432/photos\">Natalia Zalucean</a>"], "photo_reference": "CmRaAAAAi1qoVAuBdOW0z5c5eDhhW0iBDeMpi38k_MOYFO_sTcHyiYk9PLeUxYGX27T2I__Q0NjRNUS0xb8NNakmjO8hc00m3ksuu4V9xhED2Wi9z-HA-qxcEAHiH5kPnxYo10UmEhAUCcRfaWmfV_ikVLMYmwO0GhRBgfpyrg2FyDhNSZe4gf8ezwZ3Yg", "width": 4032}], "place_id": "ChIJGzE9DS1l44kRoOhiASS_fHg", "reference": "ChIJGzE9DS1l44kRoOhiASS_fHg", "scope": "GOOGLE", "types": ["locality", "political"], "vicinity": "Boston"}}