{"ChIJGzE9DS1l44kRoOhiASS_fHg": {"geometry": {"location": {"lat": 42.3600825, "lng": -71.0588801}, "viewport": {"northeast": {"lat": 42.40081989999999, "lng": -70.749455}, "southwest": {"lat": 42.22788, "lng": -71.191113}}}, "icon": "https://maps.gstatic.com/mapfiles/place_api/icons/geocode-71.png", "id": "06755c25d2b34d13942a4713971756a55b870ced", "name": "Boston", "photos": [{"height": 3024, "html_attributions": ["<a href=\"https://maps.google.com/maps/contrib/104670289779338733432/photos\">Natalia Zalucean</a>"], "photo_reference": "CmRaAAAAkDh1nGYOiDN426BLX5SXafWyvlflbfGkSD96GpZ2qQxZYqjnHDQlXePDwV2m_1pG8Gz9ZVkYC_JNch73TqGvZsl3uKgyKmmg63XNk7pRob9h7DqnkjuiLI4URuV5OR0rEhDupYW9cexser_R_oIa4q5GGhTcLxEBGyZgqPBPV7phhRwB4gcAYg", "width": 4032}], "place_id": "ChIJGzE9DS1l44kRoOhiASS_fHg", "reference": "ChIJGzE9DS1l44kRoOhiASS_fHg", "scope": "GOOGLE", "types": ["locality", "political"], "vicinity": "Boston"}, "ChIJH9CZLYRw44kRWyPMtH-ZUrc": {"geometry": {"location": {"lat": 42.3585849, "lng": -71.0549882}, "viewport": {"northeast": {"lat": 42.36019948029149, "lng": -71.0537233697085}, "southwest": {"lat": 42.3575015197085, "lng": -71.0564213302915}}}, "icon": "https://maps.gstatic.com/mapfiles/place_api/icons/generic_business-71.png", "id": "47ecce1c01bf94cb5a1fd03d0f79d8468404b553", "name": "Lawrence T. Perera", "place_id": "ChIJH9CZLYRw44kRWyPMtH-ZUrc", "plus_code": {"compound_code": "9W5W+C2 Boston, Massachusetts, United States", "global_code": "87JC9W5W+C2"}, "reference": "ChIJH9CZLYRw44kRWyPMtH-ZUrc", "scope": "GOOGLE", "types": ["lawyer", "point_of_interest", "establishment"], "vicinity": "75 State Street 16th floor, Boston"}, "ChIJH9CZLYRw44kR2ebAQcULEJI": {"geometry": {"location": {"lat": 42.3585849, "lng": -71.0549882}, "viewport": {"northeast": {"lat": 42.36019948029149, "lng": -71.0537233697085}, "southwest": {"lat": 42.3575015197085, "lng": -71.0564213302915}}}, "icon": "https://maps.gstatic.com/mapfiles/place_api/icons/generic_business-71.png", "id": "e9c33a0d39ee0f2958f2245b2861707e1c3b9b40", "name": "Thomas L. Guidi", "place_id": "ChIJH9CZLYRw44kR2ebAQcULEJI", "plus_code": {"compound_code": "9W5W+C2 Boston, Massachusetts, United States", "global_code": "87JC9W5W+C2"}, "reference": "ChIJH9CZLYRw44kR2ebAQcULEJI", "scope": "GOOGLE", "types": ["lawyer", "point_of_interest", "establishment"], "vicinity": "75 State Street 16th floor, Boston"}, "ChIJH9CZLYRw44kRr68FGuGnwrM": {"geometry": {"location": {"lat": 42.3585849, "lng": -71.0549882}, "viewport": {"northeast": {"lat": 42.36019948029149, "lng": -71.0537233697085}, "southwest": {"lat": 42.3575015197085, "lng": -71.0564213302915}}}, "icon": "https://maps.gstatic.com/mapfiles/place_api/icons/generic_business-71.png", "id": "de7dd00788b831f4abafdc774bc192f25885bbc8", "name": "Susan Hughes Banning", "place_id": "ChIJH9CZLYRw44kRr68FGuGnwrM", "plus_code": {"compound_code": "9W5W+C2 Boston, Massachusetts, United States", "global_code": "87JC9W5W+C2"}, "reference": "ChIJH9CZLYRw44kRr68FGuGnwrM", "scope": "GOOGLE", "types": ["lawyer", "point_of_interest", "establishment"], "vicinity": "75 State Street 16th floor, Boston"}, "ChIJmdUhhYZw44kR5ZnCkegl2xY": {"geometry": {"location": {"lat": 42.3585849, "lng": -71.0549882}, "viewport": {"northeast": {"lat": 42.36019948029149, "lng": -71.0537233697085}, "southwest": {"lat": 42.3575015197085, "lng": -71.0564213302915}}}, "icon": "https://maps.gstatic.com/mapfiles/place_api/icons/generic_business-71.png", "id": "70cbf1281fdb38b0c0cd4931fc330dbe6d135207", "name": "MC Partners", "place_id": "ChIJmdUhhYZw44kR5ZnCkegl2xY", "plus_code": {"compound_code": "9W5W+C2 Boston, Massachusetts, United States", "global_code": "87JC9W5W+C2"}, "reference": "ChIJmdUhhYZw44kR5ZnCkegl2xY", "scope": "GOOGLE", "types": ["finance", "point_of_interest", "establishment"], "vicinity": "75 State Street #2500, Boston"}, "ChIJia43joNw44kRslqIu1Bd140": {"geometry": {"location": {"lat": 42.3585849, "lng": -71.0549882}, "viewport": {"northeast": {"lat": 42.36019948029149, "lng": -71.0537233697085}, "southwest": {"lat": 42.3575015197085, "lng": -71.0564213302915}}}, "icon": "https://maps.gstatic.com/mapfiles/place_api/icons/generic_business-71.png", "id": "6093ea15b498f157e3e57568c2005b6aca1f919e", "name": "Fish Family Foundation", "place_id": "ChIJia43joNw44kRslqIu1Bd140", "plus_code": {"compound_code": "9W5W+C2 Boston, Massachusetts, United States", "global_code": "87JC9W5W+C2"}, "reference": "ChIJia43joNw44kRslqIu1Bd140", "scope": "GOOGLE", "types": ["point_of_interest", "establishment"], "vicinity": "75 State Street, Boston"}, "ChIJVUEThoZw44kR3E4r_fn3esM": {"geometry": {"location": {"lat": 42.3585849, "lng": -71.0549882}, "viewport": {"northeast": {"lat": 42.36019948029149, "lng": -71.0537233697085}, "southwest": {"lat": 42.3575015197085, "lng": -71.0564213302915}}}, "icon": "https://maps.gstatic.com/mapfiles/place_api/icons/shopping-71.png", "id": "c11ebd0187c13fbf2c60cee507e050f4f816c4d5", "name": "Brooks Brothers", "opening_hours": {"open_now": true}, "photos": [{"height": 2992, "html_attributions": ["<a href=\"https://maps.google.com/maps/contrib/106158524608657791069/photos\">anders Corbett</a>"], "photo_reference": "CmRaAAAAuyHHvNALRIkSSZqrGwQqNwNdjEWPzf0zAI216QBHfy-4eTSb_KFusVAYhOXogpu39i-D19qD4JmkNYcyg0vtlGXRrwQM8sRWXjzHzY_lpXyhaHXhaueOO5avackUUorBEhDN-p4bumq4leJwF3xDmAIlGhQW71Hq2-pdqXXcdT8JHj3uoRJStA", "width": 4000}], "place_id": "ChIJVUEThoZw44kR3E4r_fn3esM", "plus_code": {"compound_code": "9W5W+C2 Boston, Massachusetts, United States", "global_code": "87JC9W5W+C2"}, "price_level": 3, "rating": 3.7, "reference": "ChIJVUEThoZw44kR3E4r_fn3esM", "scope": "GOOGLE", "types": ["clothing_store", "store", "point_of_interest", "establishment"], "user_ratings_total": 15, "vicinity": "75 State Street, Boston"}, "ChIJowL_hYZw44kRZ9e2AAEMeGA": {"geometry": {"location": {"lat": 42.3585849, "lng": -71.0549882}, "viewport": {"northeast": {"lat": 42.36019948029149, "lng": -71.0537233697085}, "southwest": {"lat": 42.3575015197085, "lng": -71.0564213302915}}}, "icon": "https://maps.gstatic.com/mapfiles/place_api/icons/restaurant-71.png", "id": "63da69f595c562026da7cd00a23a8da568cfee98", "name": "JWLI", "place_id": "ChIJowL_hYZw44kRZ9e2AAEMeGA", "plus_code": {"compound_code": "9W5W+C2 Boston, Massachusetts, United States", "global_code": "87JC9W5W+C2"}, "reference": "ChIJowL_hYZw44kRZ9e2AAEMeGA", "scope": "GOOGLE", "types": ["restaurant", "point_of_interest", "food", "establishment"], "vicinity": "75 State Street, Boston"}, "ChIJowL_hYZw44kR4ULqtTYBZL8": {"geometry": {"location": {"lat": 42.3585849, "lng": -71.0549882}, "viewport": {"northeast": {"lat": 42.36019948029149, "lng": -71.0537233697085}, "southwest": {"lat": 42.3575015197085, "lng": -71.0564213302915}}}, "icon": "https://maps.gstatic.com/mapfiles/place_api/icons/generic_business-71.png", "id": "99f5c81f2cab491b195efa74bf20e5da83d81295", "name": "George B. Henderson Foundation", "place_id": "ChIJowL_hYZw44kR4ULqtTYBZL8", "plus_code": {"compound_code": "9W5W+C2 Boston, Massachusetts, United States", "global_code": "87JC9W5W+C2"}, "reference": "ChIJowL_hYZw44kR4ULqtTYBZL8", "scope": "GOOGLE", "types": ["point_of_interest", "establishment"], "vicinity": "75 State Street, Boston"}, "ChIJowL_hYZw44kRI-zOF37qjAI": {"geometry": {"location": {"lat": 42.3585849, "lng": -71.0549882}, "viewport": {"northeast": {"lat": 42.36019948029149, "lng": -71.0537233697085}, "southwest": {"lat": 42.3575015197085, "lng": -71.0564213302915}}}, "icon": "https://maps.gstatic.com/mapfiles/place_api/icons/generic_business-71.png", "id": "93422e21cd0de42a21305fcddfece90072ef7ce5", "name": "Cambridge Environmental", "place_id": "ChIJowL_hYZw44kRI-zOF37qjAI", "plus_code": {"compound_code": "9W5W+C2 Boston, Massachusetts, United States", "global_code": "87JC9W5W+C2"}, "reference": "ChIJowL_hYZw44kRI-zOF37qjAI", "scope": "GOOGLE", "types": ["point_of_interest", "establishment"], "vicinity": "75 State Street, Boston"}, "ChIJowL_hYZw44kR8OWBlC6SyWY": {"geometry": {"location": {"lat": 42.3585849, "lng": -71.0549882}, "viewport": {"northeast": {"lat": 42.36019948029149, "lng": -71.0537233697085}, "southwest": {"lat": 42.3575015197085, "lng": -71.0564213302915}}}, "icon": "https://maps.gstatic.com/mapfiles/place_api/icons/generic_business-71.png", "id": "f0cc5b5136458069b4b55ff52261e2a6f1685775", "name": "Osborn Triangle MIT", "place_id": "ChIJowL_hYZw44kR8OWBlC6SyWY", "plus_code": {"compound_code": "9W5W+C2 Boston, Massachusetts, United States", "global_code": "87JC9W5W+C2"}, "reference": "ChIJowL_hYZw44kR8OWBlC6SyWY", "scope": "GOOGLE", "types": ["point_of_interest", "establishment"], "vicinity": "75 State Street, Boston"}, "ChIJowL_hYZw44kRhtTtGCiqXcw": {"geometry": {"location": {"lat": 42.3585849, "lng": -71.0549882}, "viewport": {"northeast": {"lat": 42.36019948029149, "lng": -71.0537233697085}, "southwest": {"lat": 42.3575015197085, "lng": -71.0564213302915}}}, "icon": "https://maps.gstatic.com/mapfiles/place_api/icons/generic_business-71.png", "id": "c90cdcbd85027078c7f7663866308f56aa39a4ea", "name": "Urban Strategy America Fund", "place_id": "ChIJowL_hYZw44kRhtTtGCiqXcw", "plus_code": {"compound_code": "9W5W+C2 Boston, Massachusetts, United States", "global_code": "87JC9W5W+C2"}, "reference": "ChIJowL_hYZw44kRhtTtGCiqXcw", "scope": "GOOGLE", "types": ["real_estate_agency", "point_of_interest", "establishment"], "vicinity": "75 State Street #1410, Boston"}, "ChIJowL_hYZw44kRzM5TlGCchcQ": {"geometry": {"location": {"lat": 42.3585849, "lng": -71.0549882}, "viewport": {"northeast": {"lat": 42.36019948029149, "lng": -71.0537233697085}, "southwest": {"lat": 42.3575015197085, "lng": -71.0564213302915}}}, "icon": "https://maps.gstatic.com/mapfiles/place_api/icons/generic_business-71.png", "id": "f1489af806b53493183b1b4abcd7de847754910f", "name": "AACE INTERNATIONAL", "place_id": "ChIJowL_hYZw44kRzM5TlGCchcQ", "plus_code": {"compound_code": "9W5W+C2 Boston, Massachusetts, United States", "global_code": "87JC9W5W+C2"}, "reference": "ChIJowL_hYZw44kRzM5TlGCchcQ", "scope": "GOOGLE", "types": ["point_of_interest", "establishment"], "vicinity": "75 State Street #7, Boston"}, "ChIJ6wjyRVdx44kRVIvF7O93rv4": {"geometry": {"location": {"lat": 42.3585849, "lng": -71.0549882}, "viewport": {"northeast": {"lat": 42.36019948029149, "lng": -71.0537233697085}, "southwest": {"lat": 42.3575015197085, "lng": -71.0564213302915}}}, "icon": "https://maps.gstatic.com/mapfiles/place_api/icons/generic_business-71.png", "id": "1d20f4b1f81b11120a1d1913e97abc523dd674c2", "name": "TenNote Builder Builder Pro Boston", "place_id": "ChIJ6wjyRVdx44kRVIvF7O93rv4", "plus_code": {"compound_code": "9W5W+C2 Boston, Massachusetts, United States", "global_code": "87JC9W5W+C2"}, "reference": "ChIJ6wjyRVdx44kRVIvF7O93rv4", "scope": "GOOGLE", "types": ["point_of_interest", "establishment"], "vicinity": "75 State Street #521, Boston"}, "ChIJZSO0RIFw44kRMwtkx6QJp2U": {"geometry": {"location": {"lat": 42.3559219, "lng": -71.05497679999999}, "viewport": {"northeast": {"lat": 42.3595222, "lng": -71.05148729999999}, "southwest": {"lat": 42.351489, "lng": -71.0593777}}}, "icon": "https://maps.gstatic.com/mapfiles/place_api/icons/geocode-71.png", "id": "a299437eec467c3c4fb5ec448e81048caef8aacf", "name": "Financial District", "photos": [{"height": 2403, "html_attributions": ["<a href=\"https://maps.google.com/maps/contrib/115111503217500241431/photos\">Jane Wong</a>"], "photo_reference": "CmRaAAAAEO9DhTCk9tzCP9dnm4Txpl5l-9e8oYT5pC_v_aGrCUmz4mEWkCPrNYvCDUpdhrCEzpo9CzbYGqp_CknKBmTbFzKhxEKitprDbuznzgRED3XEIsjeg5JLXuPDM-Bh7-T9EhAGnqHXsBWFwm6TeVVIvVjMGhTLd6BcpVZumPRvek_Huaig1L4U7w", "width": 3206}], "place_id": "ChIJZSO0RIFw44kRMwtkx6QJp2U", "reference": "ChIJZSO0RIFw44kRMwtkx6QJp2U", "scope": "GOOGLE", "types": ["neighborhood", "political"], "vicinity": "Boston"}}