{"ChIJGzE9DS1l44kRoOhiASS_fHg": {"geometry": {"location": {"lat": 42.3600825, "lng": -71.0588801}, "viewport": {"northeast": {"lat": 42.40081989999999, "lng": -70.749455}, "southwest": {"lat": 42.22788, "lng": -71.191113}}}, "icon": "https://maps.gstatic.com/mapfiles/place_api/icons/geocode-71.png", "id": "06755c25d2b34d13942a4713971756a55b870ced", "name": "Boston", "photos": [{"height": 3024, "html_attributions": ["<a href=\"https://maps.google.com/maps/contrib/104670289779338733432/photos\">Natalia Zalucean</a>"], "photo_reference": "CmRaAAAAkc27F3gTCqtrzPVER4AOiR4YD7dXwr7duKKGYtsWEP6q4MwMwG5ORY2aYxI6FsF11m2tN3NnGWVy2dgh4B7Ol0kcZxAhmOGyw_FE-yE1c0boOe33AXvs-tiPUs7eQJBOEhCn4SpokJFBgrhKbZw5yzA3GhRTLHnsp202Ty9sJ4FPTDumuBRbGw", "width": 4032}], "place_id": "ChIJGzE9DS1l44kRoOhiASS_fHg", "reference": "ChIJGzE9DS1l44kRoOhiASS_fHg", "scope": "GOOGLE", "types": ["locality", "political"], "vicinity": "Boston"}, "ChIJKUsMaGl644kRPXJEfgSeVvQ": {"geometry": {"location": {"lat": 42.33848689999999, "lng": -71.0667088}, "viewport": {"northeast": {"lat": 42.3397956302915, "lng": -71.0653066197085}, "southwest": {"lat": 42.3370976697085, "lng": -71.0680045802915}}}, "icon": "https://maps.gstatic.com/mapfiles/place_api/icons/shopping-71.png", "id": "9b18b701187398469557b0706a6a85467f797724", "name": "Sedia Inc", "opening_hours": {"open_now": false}, "place_id": "ChIJKUsMaGl644kRPXJEfgSeVvQ", "plus_code": {"compound_code": "8WQM+98 Boston, Massachusetts, United States", "global_code": "87JC8WQM+98"}, "rating": 5, "reference": "ChIJKUsMaGl644kRPXJEfgSeVvQ", "scope": "GOOGLE", "types": ["furniture_store", "home_goods_store", "store", "point_of_interest", "establishment"], "user_ratings_total": 1, "vicinity": "535 Albany Street, Boston"}, "ChIJ28p2uBR644kRGOnQAcK4Txc": {"geometry": {"location": {"lat": 42.3388111, "lng": -71.0765188}, "viewport": {"northeast": {"lat": 42.347756, "lng": -71.0607948}, "southwest": {"lat": 42.331455, "lng": -71.09079799999999}}}, "icon": "https://maps.gstatic.com/mapfiles/place_api/icons/geocode-71.png", "id": "bf793a5ca0b5e36b87cfa6836ddba9f86f2af360", "name": "South End", "photos": [{"height": 2736, "html_attributions": ["<a href=\"https://maps.google.com/maps/contrib/110185226650349094791/photos\">Alex Harm</a>"], "photo_reference": "CmRaAAAAc_dSzQOfYIdOt1GXPj4pC_sEeVRxneiB-WVCRmnJjGy_jqX1sMBTkzRN48G8ij-DO3QqqIv2g2VXKihnNCLfiZSHxVstFfEMdvlI-biYrswX-oarIuYhKC_975JTPin2EhDEei8rvsT2tY7sj6wtxsdKGhSkbpfBYZcL_eDcm2zX_dekOYAVJA", "width": 3648}], "place_id": "ChIJ28p2uBR644kRGOnQAcK4Txc", "reference": "ChIJ28p2uBR644kRGOnQAcK4Txc", "scope": "GOOGLE", "types": ["neighborhood", "political"], "vicinity": "Boston"}}