{"ChIJGzE9DS1l44kRoOhiASS_fHg": {"geometry": {"location": {"lat": 42.3600825, "lng": -71.0588801}, "viewport": {"northeast": {"lat": 42.40081989999999, "lng": -70.749455}, "southwest": {"lat": 42.22788, "lng": -71.191113}}}, "icon": "https://maps.gstatic.com/mapfiles/place_api/icons/geocode-71.png", "id": "06755c25d2b34d13942a4713971756a55b870ced", "name": "Boston", "photos": [{"height": 3024, "html_attributions": ["<a href=\"https://maps.google.com/maps/contrib/104670289779338733432/photos\">Natalia Zalucean</a>"], "photo_reference": "CmRaAAAAtXTlgAkiVmfiSfXsaSyp9qDcrnZWpQnhiDFYtVTdGEL6fhIc4h2sljmUBcMbVCl8d9fh8lbl9xIKu0Q7pJ_DPhiGvOOKv9cQXbJALUw-xUkmfcIrpk_ivxm0n5BVXoRgEhDIOl97DEHwf0S9c2tvuhTIGhQ1KpDfksj90op1rzz1Ib2UnMFk_w", "width": 4032}], "place_id": "ChIJGzE9DS1l44kRoOhiASS_fHg", "reference": "ChIJGzE9DS1l44kRoOhiASS_fHg", "scope": "GOOGLE", "types": ["locality", "political"], "vicinity": "Boston"}, "ChIJDVKqXoRw44kRt0RDMt809qU": {"geometry": {"location": {"lat": 42.358639, "lng": -71.05851419999999}, "viewport": {"northeast": {"lat": 42.3600238302915, "lng": -71.0572952197085}, "southwest": {"lat": 42.3573258697085, "lng": -71.0599931802915}}}, "icon": "https://maps.gstatic.com/mapfiles/place_api/icons/generic_business-71.png", "id": "d08492db652f5a0bb77d759ffbf155a57a427047", "name": "Robinson & Cole Llp", "place_id": "ChIJDVKqXoRw44kRt0RDMt809qU", "plus_code": {"compound_code": "9W5R+FH Boston, Massachusetts, United States", "global_code": "87JC9W5R+FH"}, "reference": "ChIJDVKqXoRw44kRt0RDMt809qU", "scope": "GOOGLE", "types": ["lawyer", "point_of_interest", "establishment"], "vicinity": "1 Boston Pl # 2500, Boston"}, "ChIJW60DJYNw44kRmL2Ehm4t0Bg": {"geometry": {"location": {"lat": 42.3557089, "lng": -71.05720529999999}, "viewport": {"northeast": {"lat": 42.36839699999999, "lng": -71.04779599999999}, "southwest": {"lat": 42.342797, "lng": -71.072996}}}, "icon": "https://maps.gstatic.com/mapfiles/place_api/icons/geocode-71.png", "id": "bc27dcccb31ae90e36c262f557a1c09193ec777d", "name": "Downtown", "photos": [{"height": 629, "html_attributions": ["<a href=\"https://maps.google.com/maps/contrib/111777007894721839306/photos\">verona mantova</a>"], "photo_reference": "CmRaAAAA2xBlduD81gs1PNi9C_iifxJFICdj1bw9u5ME1kWhQcKhhDOLuxtT77UCbxL069MrzAflmp6FQJZKv987qM6RMdfv9R3J0ipDPK8JyeW_29IPlRtBX1J8r2PBZyOOP93GEhBiXr_hmlHYbXWwf7Vby-HQGhQc-G1nE1jZa8CJRSa0EAjwsUsfKw", "width": 1000}], "place_id": "ChIJW60DJYNw44kRmL2Ehm4t0Bg", "reference": "ChIJW60DJYNw44kRmL2Ehm4t0Bg", "scope": "GOOGLE", "types": ["neighborhood", "political"], "vicinity": "Boston"}}