{"ChIJGzE9DS1l44kRoOhiASS_fHg": {"geometry": {"location": {"lat": 42.3600825, "lng": -71.0588801}, "viewport": {"northeast": {"lat": 42.40081989999999, "lng": -70.749455}, "southwest": {"lat": 42.22788, "lng": -71.191113}}}, "icon": "https://maps.gstatic.com/mapfiles/place_api/icons/geocode-71.png", "id": "06755c25d2b34d13942a4713971756a55b870ced", "name": "Boston", "photos": [{"height": 3024, "html_attributions": ["<a href=\"https://maps.google.com/maps/contrib/104670289779338733432/photos\">Natalia Zalucean</a>"], "photo_reference": "CmRaAAAAHahpGbIcK-dxjJCJrr5uegpqEd_7NcYleq8k1Qjp9Ps7yc2PwJAlpAP9UmgEcBZt2O8kNd1hlND7e-XtN2A7zqZVgviTXvbw0BxMWxn3cPSMWOMm64e923ILw6djhPgNEhBhZuSPiS2C0jHEqX2b983bGhTgXMkD_Bf28ixPy-CorfNfg92gaA", "width": 4032}], "place_id": "ChIJGzE9DS1l44kRoOhiASS_fHg", "reference": "ChIJGzE9DS1l44kRoOhiASS_fHg", "scope": "GOOGLE", "types": ["locality", "political"], "vicinity": "Boston"}, "ChIJtUtNiT9644kRbRSUeuKLFtY": {"geometry": {"location": {"lat": 42.3352521, "lng": -71.0721042}, "viewport": {"northeast": {"lat": 42.33611998029149, "lng": -71.07105480000001}, "southwest": {"lat": 42.33342201970849, "lng": -71.0752524}}}, "icon": "https://maps.gstatic.com/mapfiles/place_api/icons/generic_business-71.png", "id": "537c2f0ba8cca18c13bde74dc01c829af75bd852", "name": "Volunteer Services at Boston Medical Center", "place_id": "ChIJtUtNiT9644kRbRSUeuKLFtY", "plus_code": {"compound_code": "8WPH+45 Boston, Massachusetts, United States", "global_code": "87JC8WPH+45"}, "reference": "ChIJtUtNiT9644kRbRSUeuKLFtY", "scope": "GOOGLE", "types": ["point_of_interest", "establishment"], "vicinity": "85 East Concord Street 1st Floor, Boston"}, "ChIJ28p2uBR644kRGOnQAcK4Txc": {"geometry": {"location": {"lat": 42.3388111, "lng": -71.0765188}, "viewport": {"northeast": {"lat": 42.347756, "lng": -71.0607948}, "southwest": {"lat": 42.331455, "lng": -71.09079799999999}}}, "icon": "https://maps.gstatic.com/mapfiles/place_api/icons/geocode-71.png", "id": "bf793a5ca0b5e36b87cfa6836ddba9f86f2af360", "name": "South End", "photos": [{"height": 2736, "html_attributions": ["<a href=\"https://maps.google.com/maps/contrib/110185226650349094791/photos\">Alex Harm</a>"], "photo_reference": "CmRaAAAAUCr_ltyLororrJFaiNxHmMVE39qrDVB_WoXhfZe4tOpPruAWrKSWOYy5Q96AjLKJJWjJCNHMzyMsu0Tb7amVMVLQe5-gzIVwtNy1JjiKP9CEIxSvx5mhW9UMF-Rk5SeGEhAdoeM8g36CKTinYlCaBU29GhTVwC5ChOxbZIvGCVI8H--oggN50g", "width": 3648}], "place_id": "ChIJ28p2uBR644kRGOnQAcK4Txc", "reference": "ChIJ28p2uBR644kRGOnQAcK4Txc", "scope": "GOOGLE", "types": ["neighborhood", "political"], "vicinity": "Boston"}}