{"ChIJGzE9DS1l44kRoOhiASS_fHg": {"geometry": {"location": {"lat": 42.3600825, "lng": -71.0588801}, "viewport": {"northeast": {"lat": 42.40081989999999, "lng": -70.749455}, "southwest": {"lat": 42.22788, "lng": -71.191113}}}, "icon": "https://maps.gstatic.com/mapfiles/place_api/icons/geocode-71.png", "id": "06755c25d2b34d13942a4713971756a55b870ced", "name": "Boston", "photos": [{"height": 3024, "html_attributions": ["<a href=\"https://maps.google.com/maps/contrib/104670289779338733432/photos\">Natalia Zalucean</a>"], "photo_reference": "CmRaAAAAqchCQXXnKenRGeEnuO6nm6YSPBM4_D9dkVe0QuH42Jvwhn1KTyH3oVv8dw8Is3EXHXYaAgXni2qJyVgLWSa9xeUqHvBiKJnUM4V8ZR29Ej5A9PaNWjtDQed9TaTLxN9TEhCKd7nQU6MJOplxKykkssIvGhSWrFm4sCorpmiZF2I9fF0ZrYFAfw", "width": 4032}], "place_id": "ChIJGzE9DS1l44kRoOhiASS_fHg", "reference": "ChIJGzE9DS1l44kRoOhiASS_fHg", "scope": "GOOGLE", "types": ["locality", "political"], "vicinity": "Boston"}, "ChIJ_WpvmYNw44kRXX9XwsDuEwU": {"geometry": {"location": {"lat": 42.3561009, "lng": -71.05785209999999}, "viewport": {"northeast": {"lat": 42.3574507302915, "lng": -71.0564625197085}, "southwest": {"lat": 42.3547527697085, "lng": -71.05916048029151}}}, "icon": "https://maps.gstatic.com/mapfiles/place_api/icons/generic_business-71.png", "id": "4896db7f46bbad9686520268217a0f3f6d926f6b", "name": "Liquid Net", "place_id": "ChIJ_WpvmYNw44kRXX9XwsDuEwU", "plus_code": {"compound_code": "9W4R+CV Boston, Massachusetts, United States", "global_code": "87JC9W4R+CV"}, "reference": "ChIJ_WpvmYNw44kRXX9XwsDuEwU", "scope": "GOOGLE", "types": ["finance", "point_of_interest", "establishment"], "vicinity": "33 Arch Street, Boston"}, "ChIJC3yBIoNw44kRTLQCUX7w3J8": {"geometry": {"location": {"lat": 42.35549580000001, "lng": -71.0594338}, "viewport": {"northeast": {"lat": 42.3580143, "lng": -71.0572826}, "southwest": {"lat": 42.3531629, "lng": -71.0633258}}}, "icon": "https://maps.gstatic.com/mapfiles/place_api/icons/geocode-71.png", "id": "b17444457334b229c72e82dab5a3242f1d0e2a61", "name": "Downtown Crossing", "photos": [{"height": 3120, "html_attributions": ["<a href=\"https://maps.google.com/maps/contrib/111777007894721839306/photos\">verona mantova</a>"], "photo_reference": "CmRaAAAAAOKIUfIHKy0OzMdK3H8WX5vGp62C9_x4GoqHSrlT2Vlg2DTS5nOY5E0Qo6hsKguEwsHc6ZB9cTeqdR-Pc1vMRJo8nO1sYpHuekIxHE7YVKWyP7jhHofki2AMCqZD7UfVEhCzZh7Q5inAPZgaYKX_RgpDGhSOhErcUDAA25tHKruSAO34eM6cfw", "width": 4160}], "place_id": "ChIJC3yBIoNw44kRTLQCUX7w3J8", "reference": "ChIJC3yBIoNw44kRTLQCUX7w3J8", "scope": "GOOGLE", "types": ["neighborhood", "political"], "vicinity": "Boston"}}