{"ChIJGzE9DS1l44kRoOhiASS_fHg": {"geometry": {"location": {"lat": 42.3600825, "lng": -71.0588801}, "viewport": {"northeast": {"lat": 42.40081989999999, "lng": -70.749455}, "southwest": {"lat": 42.22788, "lng": -71.191113}}}, "icon": "https://maps.gstatic.com/mapfiles/place_api/icons/geocode-71.png", "id": "06755c25d2b34d13942a4713971756a55b870ced", "name": "Boston", "photos": [{"height": 3024, "html_attributions": ["<a href=\"https://maps.google.com/maps/contrib/104670289779338733432/photos\">Natalia Zalucean</a>"], "photo_reference": "CmRaAAAAe2xhftra1WLxhtQJPArP5IkCS3Bl1feSrhMYZ8rzKQlhbptNpZoa758T8Tu3S0DOLQaVcHIPIqj-uNv7OrbREr6SFlqmlhOCGFPq9KweaqpMHjwwPFap7vrKDUPA-PH6EhCdh6SqPWlggMQ2F7pcgCtfGhRLlsnkezb1HbvY_JdOTyqh6JPmAA", "width": 4032}], "place_id": "ChIJGzE9DS1l44kRoOhiASS_fHg", "reference": "ChIJGzE9DS1l44kRoOhiASS_fHg", "scope": "GOOGLE", "types": ["locality", "political"], "vicinity": "Boston"}, "ChIJeUH0a4Jw44kR25ig0-lRmeg": {"geometry": {"location": {"lat": 42.348964, "lng": -71.040936}, "viewport": {"northeast": {"lat": 42.3503592302915, "lng": -71.03969826970851}, "southwest": {"lat": 42.3476612697085, "lng": -71.04239623029152}}}, "icon": "https://maps.gstatic.com/mapfiles/place_api/icons/generic_business-71.png", "id": "dfd1b6488816b962cce52e7b6b6ce5f82d396175", "name": "Bernkopf Goodman LLP: Pomeroy Martin C", "place_id": "ChIJeUH0a4Jw44kR25ig0-lRmeg", "plus_code": {"compound_code": "8XX5+HJ Boston, Massachusetts, United States", "global_code": "87JC8XX5+HJ"}, "reference": "ChIJeUH0a4Jw44kR25ig0-lRmeg", "scope": "GOOGLE", "types": ["lawyer", "point_of_interest", "establishment"], "vicinity": "2 Seaport Lane, Boston"}, "ChIJySFSPZJ644kRQd1ylK2wP54": {"geometry": {"location": {"lat": 42.3381437, "lng": -71.0475773}, "viewport": {"northeast": {"lat": 42.3551665, "lng": -71.0091984}, "southwest": {"lat": 42.32115, "lng": -71.0652948}}}, "icon": "https://maps.gstatic.com/mapfiles/place_api/icons/geocode-71.png", "id": "56a2680fff3ada55ed539f65fc2e901a748193c6", "name": "South Boston", "photos": [{"height": 1836, "html_attributions": ["<a href=\"https://maps.google.com/maps/contrib/100381122114234243821/photos\">Gary Stephens</a>"], "photo_reference": "CmRaAAAA4Cp87KzjR4X3YHdoKF4nzD90-h-F_6pzYn050iy4SribYhQnzrKKLxuXPhoi2QWPfgOeCYA0drmx7xu_Cu7_GW9RvaQy_wMDL3A43S9L5mzl7aqiNSRuIT9Z_DJksVLSEhBn5HsxoNYE-OQNGeoJuYGMGhSbbmN3xfWHhRjJ2kW2CzdD_0qzwg", "width": 3264}], "place_id": "ChIJySFSPZJ644kRQd1ylK2wP54", "reference": "ChIJySFSPZJ644kRQd1ylK2wP54", "scope": "GOOGLE", "types": ["neighborhood", "political"], "vicinity": "Boston"}}