{"ChIJGzE9DS1l44kRoOhiASS_fHg": {"geometry": {"location": {"lat": 42.3600825, "lng": -71.0588801}, "viewport": {"northeast": {"lat": 42.40081989999999, "lng": -70.749455}, "southwest": {"lat": 42.22788, "lng": -71.191113}}}, "icon": "https://maps.gstatic.com/mapfiles/place_api/icons/geocode-71.png", "id": "06755c25d2b34d13942a4713971756a55b870ced", "name": "Boston", "photos": [{"height": 3024, "html_attributions": ["<a href=\"https://maps.google.com/maps/contrib/104670289779338733432/photos\">Natalia Zalucean</a>"], "photo_reference": "CmRaAAAA0boMQAOpL_Eacxp878g6ToyhKhErACW9KXkoK2Hssf5B2LA-s68vqYNTHpABEsNMG_B-9J2GKWOAzKxAwfDvjCGeNmro3AkEonnfDuAS8hdXtwFKQopuYhtah1FreogyEhDMYpRjBEgkO-RvQQyyAeveGhRSZbyoZKohgWmvM8sPI8elht1v7w", "width": 4032}], "place_id": "ChIJGzE9DS1l44kRoOhiASS_fHg", "reference": "ChIJGzE9DS1l44kRoOhiASS_fHg", "scope": "GOOGLE", "types": ["locality", "political"], "vicinity": "Boston"}, "ChIJZWrWXIJw44kRwpNraAxWyRo": {"geometry": {"location": {"lat": 42.3558589, "lng": -71.0573039}, "viewport": {"northeast": {"lat": 42.3572078802915, "lng": -71.0559549197085}, "southwest": {"lat": 42.35450991970851, "lng": -71.0586528802915}}}, "icon": "https://maps.gstatic.com/mapfiles/place_api/icons/generic_business-71.png", "id": "3518e65499e241a43d650216dd9fbc6705c6d225", "name": "WW (Weight Watchers)", "opening_hours": {"open_now": false}, "photos": [{"height": 500, "html_attributions": ["<a href=\"https://maps.google.com/maps/contrib/110593184151593833851/photos\">WW (Weight Watchers)</a>"], "photo_reference": "CmRaAAAAvHdM1EMe6dp8uwYukFg7R90Gj0dBThvAjQqcu2fX77KjKDGbBsdU2ovNOwFNvByfJ3sKt4U_8DBK-n0yn7osUtOQxozYMjQJNwHke9HYnxZ1H7MwaRHBtZFP2a1W2MpcEhB_17ijnkrDic3qgqwTze8cGhSXHcjcoLSombuykj-Xde6bs3UaSA", "width": 500}], "place_id": "ChIJZWrWXIJw44kRwpNraAxWyRo", "plus_code": {"compound_code": "9W4V+83 Boston, Massachusetts, United States", "global_code": "87JC9W4V+83"}, "rating": 5, "reference": "ChIJZWrWXIJw44kRwpNraAxWyRo", "scope": "GOOGLE", "types": ["health", "point_of_interest", "establishment"], "user_ratings_total": 1, "vicinity": "189 Devonshire Street, Boston"}, "ChIJZSO0RIFw44kRMwtkx6QJp2U": {"geometry": {"location": {"lat": 42.3559219, "lng": -71.05497679999999}, "viewport": {"northeast": {"lat": 42.3595222, "lng": -71.05148729999999}, "southwest": {"lat": 42.351489, "lng": -71.0593777}}}, "icon": "https://maps.gstatic.com/mapfiles/place_api/icons/geocode-71.png", "id": "a299437eec467c3c4fb5ec448e81048caef8aacf", "name": "Financial District", "photos": [{"height": 2403, "html_attributions": ["<a href=\"https://maps.google.com/maps/contrib/115111503217500241431/photos\">Jane Wong</a>"], "photo_reference": "CmRaAAAAxYVGpCXEFv39A1TlKW9azJu6KayhTn26lVhgpXr2AilWWn07ql7nClk-3iD5snfXa7ApKBzu-7N9OJmAD4pDF7ofy9MXH0aTmRZNokFFmfi061BVsNnyrGehhrZdHOroEhAoCy6F5M2_z3GObQAqI7SKGhQNmtufBxngXR9Taox_LVGdOXwpiQ", "width": 3206}], "place_id": "ChIJZSO0RIFw44kRMwtkx6QJp2U", "reference": "ChIJZSO0RIFw44kRMwtkx6QJp2U", "scope": "GOOGLE", "types": ["neighborhood", "political"], "vicinity": "Boston"}}