{"ChIJGzE9DS1l44kRoOhiASS_fHg": {"geometry": {"location": {"lat": 42.3600825, "lng": -71.0588801}, "viewport": {"northeast": {"lat": 42.40081989999999, "lng": -70.749455}, "southwest": {"lat": 42.22788, "lng": -71.191113}}}, "icon": "https://maps.gstatic.com/mapfiles/place_api/icons/geocode-71.png", "id": "06755c25d2b34d13942a4713971756a55b870ced", "name": "Boston", "photos": [{"height": 3024, "html_attributions": ["<a href=\"https://maps.google.com/maps/contrib/104670289779338733432/photos\">Natalia Zalucean</a>"], "photo_reference": "CmRaAAAAtaNnt0ZetA5EsUIPlrrq_ZpUxj-G0iJc2FPsRPC2QkRNTwttlasEoWV-c82sMkvtSl6MeEmn3nwze6k_AbjeFnA5jv7eN7-BydFyqnNN6G34h0--lqVcpXrH0Q3HZ14pEhD2KxGbT-FXRDpdzqS7KotqGhQbd1IK751eCU6BFWxxIDj8L9VNlA", "width": 4032}], "place_id": "ChIJGzE9DS1l44kRoOhiASS_fHg", "reference": "ChIJGzE9DS1l44kRoOhiASS_fHg", "scope": "GOOGLE", "types": ["locality", "political"], "vicinity": "Boston"}, "ChIJ52JRwhp644kRYXvnkj3_6H0": {"geometry": {"location": {"lat": 42.3506209, "lng": -71.07642799999999}, "viewport": {"northeast": {"lat": 42.3518418802915, "lng": -71.07501781970849}, "southwest": {"lat": 42.3491439197085, "lng": -71.0777157802915}}}, "icon": "https://maps.gstatic.com/mapfiles/place_api/icons/restaurant-71.png", "id": "257685d4894471e5a8f61e3da59cd3f43fd19848", "name": "Boloco", "opening_hours": {"open_now": true}, "photos": [{"height": 1365, "html_attributions": ["<a href=\"https://maps.google.com/maps/contrib/104111246635874032234/photos\">ZAGAT</a>"], "photo_reference": "CmRaAAAAAB0MMjLNd0JurhD0cvfekwpDFLI6FoR5aFssLYMG9py7atbUq20TGjAMohWN5ogUFvqX3v5NT-eGuyRWw5yS46Mm4rL0zVxLX_CzfKwsu_sDcdCc2bU9RI-8xUB1HSI4EhBawE6XhB0ZlUshck_efX5cGhQYYcks5JpE075Vr-d2Guvrkn1H9g", "width": 2048}], "place_id": "ChIJ52JRwhp644kRYXvnkj3_6H0", "plus_code": {"compound_code": "9W2F+6C Boston, Massachusetts, United States", "global_code": "87JC9W2F+6C"}, "price_level": 1, "rating": 4.3, "reference": "ChIJ52JRwhp644kRYXvnkj3_6H0", "scope": "GOOGLE", "types": ["restaurant", "point_of_interest", "food", "establishment"], "user_ratings_total": 221, "vicinity": "569 Boylston Street, Boston"}, "ChIJj3wNbw5644kRg4Jk6z2PILs": {"geometry": {"location": {"lat": 42.3505887, "lng": -71.0765653}, "viewport": {"northeast": {"lat": 42.3518080302915, "lng": -71.0751543697085}, "southwest": {"lat": 42.3491100697085, "lng": -71.0778523302915}}}, "icon": "https://maps.gstatic.com/mapfiles/place_api/icons/generic_business-71.png", "id": "77f184c7f2292480c0e5432b3ffbd90f95a2abc9", "name": "Michael C. Miller, MD", "place_id": "ChIJj3wNbw5644kRg4Jk6z2PILs", "plus_code": {"compound_code": "9W2F+69 Boston, Massachusetts, United States", "global_code": "87JC9W2F+69"}, "rating": 3.8, "reference": "ChIJj3wNbw5644kRg4Jk6z2PILs", "scope": "GOOGLE", "types": ["doctor", "health", "point_of_interest", "establishment"], "user_ratings_total": 4, "vicinity": "575 Boylston Street f6, Boston"}, "ChIJFzYzfgx644kRxiNTyClBMiM": {"geometry": {"location": {"lat": 42.3505887, "lng": -71.0765653}, "viewport": {"northeast": {"lat": 42.3518080302915, "lng": -71.0751543697085}, "southwest": {"lat": 42.3491100697085, "lng": -71.0778523302915}}}, "icon": "https://maps.gstatic.com/mapfiles/place_api/icons/generic_business-71.png", "id": "751957fbf741a4108518f3a9304c47f8e2253e4d", "name": "JEAN KELLY, D.C., P.C.", "opening_hours": {"open_now": true}, "photos": [{"height": 1224, "html_attributions": ["<a href=\"https://maps.google.com/maps/contrib/101361787254133769686/photos\">JEAN KELLY, D.C., P.C.</a>"], "photo_reference": "CmRaAAAAd0JxBZj433zl-knGXJKUZp1fHG5dWvzvjinOpkcBSjKjH6Gicbv-IFCrVBkNeubbk_yid1W4CwTRQqY6bL_EVKypQdynXBqGTnc9_Y1k-nk14TLFTpedi-nZCcKVTZjZEhBJyXX3P0TFR-kdo5SITq7AGhTEHLktebeIWWe1YxnpFK5cpNX1jQ", "width": 1632}], "place_id": "ChIJFzYzfgx644kRxiNTyClBMiM", "plus_code": {"compound_code": "9W2F+69 Boston, Massachusetts, United States", "global_code": "87JC9W2F+69"}, "reference": "ChIJFzYzfgx644kRxiNTyClBMiM", "scope": "GOOGLE", "types": ["doctor", "health", "point_of_interest", "establishment"], "vicinity": "575 Boylston Street 2nd fl, Boston"}, "ChIJBV2ufwx644kRGzIIiGAlbrU": {"geometry": {"location": {"lat": 42.3506097, "lng": -71.0765474}, "viewport": {"northeast": {"lat": 42.35182178029149, "lng": -71.0751330197085}, "southwest": {"lat": 42.3491238197085, "lng": -71.07783098029151}}}, "icon": "https://maps.gstatic.com/mapfiles/place_api/icons/generic_business-71.png", "id": "3fa73adc42ec6418b128875072e947e3ed30db0d", "name": "BewellConnect", "opening_hours": {"open_now": true}, "photos": [{"height": 614, "html_attributions": ["<a href=\"https://maps.google.com/maps/contrib/114373067259482454120/photos\">BewellConnect</a>"], "photo_reference": "CmRaAAAAORwIHMlH7ZZ_h_8YHLLeVBnCby8q30eOBR0XK5nLHwNtyxU7cxWFUnAue0ZameFxf8qRY0zpYp1MFKZgD6cMpZx3I6w3DgDpliWfdsEDvFkBAFlra0v6KZTthjMk3EYUEhCHtFHbJP0EK6SVVyLTqv1UGhQfGed3lTDG4TnyBGZWH0ATpVXt5A", "width": 1440}], "place_id": "ChIJBV2ufwx644kRGzIIiGAlbrU", "plus_code": {"compound_code": "9W2F+69 Boston, Massachusetts, United States", "global_code": "87JC9W2F+69"}, "reference": "ChIJBV2ufwx644kRGzIIiGAlbrU", "scope": "GOOGLE", "types": ["point_of_interest", "establishment"], "vicinity": "575 Boylston Street Ste. 3W, Boston"}, "ChIJBV2ufwx644kRKBWmdHKJce0": {"geometry": {"location": {"lat": 42.3506097, "lng": -71.0765474}, "viewport": {"northeast": {"lat": 42.35182178029149, "lng": -71.0751330197085}, "southwest": {"lat": 42.3491238197085, "lng": -71.07783098029151}}}, "icon": "https://maps.gstatic.com/mapfiles/place_api/icons/generic_business-71.png", "id": "5c6f438dfecea3d46ea28249ae17c85df8f8f4fc", "name": "Fertility Centers of New England", "place_id": "ChIJBV2ufwx644kRKBWmdHKJce0", "plus_code": {"compound_code": "9W2F+69 Boston, Massachusetts, United States", "global_code": "87JC9W2F+69"}, "rating": 5, "reference": "ChIJBV2ufwx644kRKBWmdHKJce0", "scope": "GOOGLE", "types": ["doctor", "health", "point_of_interest", "establishment"], "user_ratings_total": 1, "vicinity": "575 Boylston Street, Boston"}, "ChIJ67alfwx644kRpi10Ju7V89U": {"geometry": {"location": {"lat": 42.3505887, "lng": -71.0765653}, "viewport": {"northeast": {"lat": 42.3518080302915, "lng": -71.0751543697085}, "southwest": {"lat": 42.3491100697085, "lng": -71.0778523302915}}}, "icon": "https://maps.gstatic.com/mapfiles/place_api/icons/generic_business-71.png", "id": "3ff6eb5f0739573d29af770288cd58292e98c460", "name": "Dr. Charles P. Tifft, MD, FAHA", "photos": [{"height": 250, "html_attributions": ["<a href=\"https://maps.google.com/maps/contrib/101070466215447836386/photos\">Dr. Charles P. Tifft, MD, FAHA</a>"], "photo_reference": "CmRaAAAAQvZwahJ0mZ6aSUWTBhkc98g2lIuCBDKW1OK6WnagSi1fd0auiWIC3qKHvlXtvcFgq8pWw8ZajqrsEqLncJZzDGbOpRtMFifNHUeYFXdxqUKvnHYDSdMmVSQKj7PMzdWDEhDSOVLa_rPK-ppZ1Nz0MGHiGhTd9tGy_M2FHPhsmrJ4npb6pN5ALQ", "width": 250}], "place_id": "ChIJ67alfwx644kRpi10Ju7V89U", "plus_code": {"compound_code": "9W2F+69 Boston, Massachusetts, United States", "global_code": "87JC9W2F+69"}, "rating": 5, "reference": "ChIJ67alfwx644kRpi10Ju7V89U", "scope": "GOOGLE", "types": ["doctor", "health", "point_of_interest", "establishment"], "user_ratings_total": 1, "vicinity": "575 Boylston Street 6th Floor, Boston"}, "ChIJBV2ufwx644kR_Zn1hdyXipg": {"geometry": {"location": {"lat": 42.3505887, "lng": -71.0765653}, "viewport": {"northeast": {"lat": 42.3518080302915, "lng": -71.0751543697085}, "southwest": {"lat": 42.3491100697085, "lng": -71.0778523302915}}}, "icon": "https://maps.gstatic.com/mapfiles/place_api/icons/school-71.png", "id": "0e8b48db9c237c7ab456643b714166b0504f2e85", "name": "Lear2Tape", "opening_hours": {"open_now": true}, "photos": [{"height": 1536, "html_attributions": ["<a href=\"https://maps.google.com/maps/contrib/100933799616654801015/photos\">Lear2Tape</a>"], "photo_reference": "CmRaAAAADTlOZXBJDQCJXSdidxBPZ0o_7xbah-5DvVYebC7dxD04flQ5Zzx73kRkte7noJKyDeBh9vrVxzNnvB4HzFc1hR9KGCN8gar820GntiblYFmQYQ6G5iIUWIRHrNFZtnKREhAUpdW-CZMEEWPZWAOBj4jPGhRN-z8VDiVinBDzeN-3vRcJ9uUV6A", "width": 2048}], "place_id": "ChIJBV2ufwx644kR_Zn1hdyXipg", "plus_code": {"compound_code": "9W2F+69 Boston, Massachusetts, United States", "global_code": "87JC9W2F+69"}, "reference": "ChIJBV2ufwx644kR_Zn1hdyXipg", "scope": "GOOGLE", "types": ["point_of_interest", "establishment"], "vicinity": "575 Boylston Street #2e, Boston"}, "ChIJVVXFfwx644kRrBS1kct3Wo0": {"geometry": {"location": {"lat": 42.3505887, "lng": -71.0765653}, "viewport": {"northeast": {"lat": 42.3518080302915, "lng": -71.0751543697085}, "southwest": {"lat": 42.3491100697085, "lng": -71.0778523302915}}}, "icon": "https://maps.gstatic.com/mapfiles/place_api/icons/generic_business-71.png", "id": "8ff7644ff7da7bc43d25fb16f832c9b1b46f5f7a", "name": "Yarmouth Port", "place_id": "ChIJVVXFfwx644kRrBS1kct3Wo0", "plus_code": {"compound_code": "9W2F+69 Boston, Massachusetts, United States", "global_code": "87JC9W2F+69"}, "reference": "ChIJVVXFfwx644kRrBS1kct3Wo0", "scope": "GOOGLE", "types": ["health", "point_of_interest", "establishment"], "vicinity": "575 Boylston Street, Boston"}, "ChIJe_60Yih744kRoY3G226fmC8": {"geometry": {"location": {"lat": 42.3505565, "lng": -71.0765546}, "viewport": {"northeast": {"lat": 42.3517913802915, "lng": -71.0751511197085}, "southwest": {"lat": 42.3490934197085, "lng": -71.0778490802915}}}, "icon": "https://maps.gstatic.com/mapfiles/place_api/icons/generic_business-71.png", "id": "5cfb1a0cd3e83a1c9b688b6683964c2351baa56b", "name": "Michael E Miller, MD", "opening_hours": {"open_now": true}, "place_id": "ChIJe_60Yih744kRoY3G226fmC8", "plus_code": {"compound_code": "9W2F+69 Boston, Massachusetts, United States", "global_code": "87JC9W2F+69"}, "reference": "ChIJe_60Yih744kRoY3G226fmC8", "scope": "GOOGLE", "types": ["doctor", "health", "point_of_interest", "establishment"], "vicinity": "F6, 575 Boylston Street, Boston"}, "ChIJAQCwfwx644kRX8BXOJbiBuI": {"geometry": {"location": {"lat": 42.3506097, "lng": -71.0765474}, "viewport": {"northeast": {"lat": 42.35182178029149, "lng": -71.0751330197085}, "southwest": {"lat": 42.3491238197085, "lng": -71.07783098029151}}}, "icon": "https://maps.gstatic.com/mapfiles/place_api/icons/generic_business-71.png", "id": "a53788da38af89df9d3fdb37270cf9a92f6ee46b", "name": "Boston Active Release", "place_id": "ChIJAQCwfwx644kRX8BXOJbiBuI", "plus_code": {"compound_code": "9W2F+69 Boston, Massachusetts, United States", "global_code": "87JC9W2F+69"}, "reference": "ChIJAQCwfwx644kRX8BXOJbiBuI", "scope": "GOOGLE", "types": ["health", "point_of_interest", "establishment"], "vicinity": "575 Boylston Street, Boston"}, "ChIJWS6ufwx644kRpNos4tTNt8Y": {"geometry": {"location": {"lat": 42.3506097, "lng": -71.0765474}, "viewport": {"northeast": {"lat": 42.35182178029149, "lng": -71.0751330197085}, "southwest": {"lat": 42.3491238197085, "lng": -71.07783098029151}}}, "icon": "https://maps.gstatic.com/mapfiles/place_api/icons/generic_business-71.png", "id": "92cb9c6ea6a1e252839742ca0217792cf110f358", "name": "LCC", "place_id": "ChIJWS6ufwx644kRpNos4tTNt8Y", "plus_code": {"compound_code": "9W2F+69 Boston, Massachusetts, United States", "global_code": "87JC9W2F+69"}, "reference": "ChIJWS6ufwx644kRpNos4tTNt8Y", "scope": "GOOGLE", "types": ["point_of_interest", "establishment"], "vicinity": "575 Boylston Street, Boston"}, "ChIJkzFiDbV744kRUKaLZP9PRgo": {"geometry": {"location": {"lat": 42.3505887, "lng": -71.0765653}, "viewport": {"northeast": {"lat": 42.3518080302915, "lng": -71.0751543697085}, "southwest": {"lat": 42.3491100697085, "lng": -71.0778523302915}}}, "icon": "https://maps.gstatic.com/mapfiles/place_api/icons/generic_business-71.png", "id": "2a7760efd113eb31849fd04f4ecb75101e039afd", "name": "Rachel Lura, Realtor\u00ae - Century 21 Cityside", "opening_hours": {"open_now": true}, "photos": [{"height": 2458, "html_attributions": ["<a href=\"https://maps.google.com/maps/contrib/100561925460716269574/photos\">Rachel Lura, Realtor\u00ae - Century 21 Cityside</a>"], "photo_reference": "CmRaAAAA7YKvjeY-U-DYzUPrSbiPnZNPf1l1anCQ9yEBYRu14J9Wix8whs1LKW-hKGSlrLSZ1YWExejTytJufDhqA8whZtJoWy_VBM6zyFjZ7HTOKFLwdd4atoYWdR-qCwQ_rcXTEhAmLHR15puYX_22Qf7d6K1MGhSNkscxckwaExpbjO-UBG84r4hL5A", "width": 2459}], "place_id": "ChIJkzFiDbV744kRUKaLZP9PRgo", "plus_code": {"compound_code": "9W2F+69 Boston, Massachusetts, United States", "global_code": "87JC9W2F+69"}, "reference": "ChIJkzFiDbV744kRUKaLZP9PRgo", "scope": "GOOGLE", "types": ["point_of_interest", "establishment"], "vicinity": "575 Boylston Street #3R, Boston"}, "ChIJEQJSs8l744kRkh0c_LVJ-y0": {"geometry": {"location": {"lat": 42.3505887, "lng": -71.0765653}, "viewport": {"northeast": {"lat": 42.3518080302915, "lng": -71.0751543697085}, "southwest": {"lat": 42.3491100697085, "lng": -71.0778523302915}}}, "icon": "https://maps.gstatic.com/mapfiles/place_api/icons/generic_business-71.png", "id": "1c8529bc90dd6f38ece0b555667198f7a3d0c7e4", "name": "Miles Wright - Century 21 Cityside Boston Luxury Sales Associate", "opening_hours": {"open_now": true}, "photos": [{"height": 3097, "html_attributions": ["<a href=\"https://maps.google.com/maps/contrib/117163136647024129538/photos\">Miles Wright - Century 21 Cityside Boston Luxury Sales</a>"], "photo_reference": "CmRaAAAAtQeFYeFlezG5YcsXhTAnkW5Q0BwtWvWxMcDo5Ivwyr-M-dif5F67AOB2gYmdduUSkUTloqhvkyxwSkKKr2N-YXZ3bk_b9axnVX2zbjJggSxMBa4sUT6aI0fVFT4DefOWEhBJ7g1cGI8y5TfCqQR4nSH-GhTekKTEObLtsOT0FtG12b9jXn3jmQ", "width": 3090}], "place_id": "ChIJEQJSs8l744kRkh0c_LVJ-y0", "plus_code": {"compound_code": "9W2F+69 Boston, Massachusetts, United States", "global_code": "87JC9W2F+69"}, "reference": "ChIJEQJSs8l744kRkh0c_LVJ-y0", "scope": "GOOGLE", "types": ["point_of_interest", "establishment"], "vicinity": "575 Boylston Street, Boston"}, "ChIJh_0VgAx644kRsU555sebgac": {"geometry": {"location": {"lat": 42.3506209, "lng": -71.07642790000001}, "viewport": {"northeast": {"lat": 42.3518418802915, "lng": -71.07501776970851}, "southwest": {"lat": 42.3491439197085, "lng": -71.07771573029152}}}, "icon": "https://maps.gstatic.com/mapfiles/place_api/icons/generic_business-71.png", "id": "53e763a4dc61af27e282086c2abcff73a48cc8b2", "name": "New Top Class Asian Bodywork", "place_id": "ChIJh_0VgAx644kRsU555sebgac", "plus_code": {"compound_code": "9W2F+6C Boston, Massachusetts, United States", "global_code": "87JC9W2F+6C"}, "reference": "ChIJh_0VgAx644kRsU555sebgac", "scope": "GOOGLE", "types": ["health", "point_of_interest", "establishment"], "vicinity": "569 Boylston Street, Boston"}, "ChIJsfUV-A5644kRxFubWZLMo7w": {"geometry": {"location": {"lat": 42.35026480000001, "lng": -71.0809757}, "viewport": {"northeast": {"lat": 42.356983, "lng": -71.07028989999999}, "southwest": {"lat": 42.341597, "lng": -71.0932962}}}, "icon": "https://maps.gstatic.com/mapfiles/place_api/icons/geocode-71.png", "id": "33919fd9e49b0cde06af64b330ab949ba88171ff", "name": "Back Bay", "photos": [{"height": 3936, "html_attributions": ["<a href=\"https://maps.google.com/maps/contrib/102900160723668849003/photos\">Jim Stanford</a>"], "photo_reference": "CmRaAAAA5eTsxIKVdTKJZ9BaUc_m0lXSsZ4NblsQrECqgjrPdk9Hm9SaPJwJ-4tg0Qf4mgqM_nhnTYu9GzIy7mhLndNjFy5_RfGg-uopUxJxiUGkULT5JVBE6zUIE-j-cruPoJibEhDv2TaZblbsmipu4iFJq86VGhRk6Tew48RH7DIgW66RZ9HnlY4xiA", "width": 5248}], "place_id": "ChIJsfUV-A5644kRxFubWZLMo7w", "reference": "ChIJsfUV-A5644kRxFubWZLMo7w", "scope": "GOOGLE", "types": ["neighborhood", "political"], "vicinity": "Boston"}}