{"ChIJGzE9DS1l44kRoOhiASS_fHg": {"geometry": {"location": {"lat": 42.3600825, "lng": -71.0588801}, "viewport": {"northeast": {"lat": 42.40081989999999, "lng": -70.749455}, "southwest": {"lat": 42.22788, "lng": -71.191113}}}, "icon": "https://maps.gstatic.com/mapfiles/place_api/icons/geocode-71.png", "id": "06755c25d2b34d13942a4713971756a55b870ced", "name": "Boston", "photos": [{"height": 3024, "html_attributions": ["<a href=\"https://maps.google.com/maps/contrib/104670289779338733432/photos\">Natalia Zalucean</a>"], "photo_reference": "CmRaAAAAK_s_TjZ67ja2jfAT4aciJcB3iZUnq4znoMbSnesT5J1T2affTi7a75UrvhJ10C8XMs_9qQVjsVW_GMYyj_ITdnzXUsYlf_AstH2yBR2AL997WTSaoFlMSLx7ug_MVR2AEhDeuzB8vZvaQY6eUNasfE6XGhScxlJBl8plDmXuChtLy6k5f-fLcw", "width": 4032}], "place_id": "ChIJGzE9DS1l44kRoOhiASS_fHg", "reference": "ChIJGzE9DS1l44kRoOhiASS_fHg", "scope": "GOOGLE", "types": ["locality", "political"], "vicinity": "Boston"}, "ChIJWygqGIZw44kRnadGCdKZSoA": {"geometry": {"location": {"lat": 42.360581, "lng": -71.054397}, "viewport": {"northeast": {"lat": 42.3619299802915, "lng": -71.05304801970848}, "southwest": {"lat": 42.3592320197085, "lng": -71.05574598029149}}}, "icon": "https://maps.gstatic.com/mapfiles/place_api/icons/generic_business-71.png", "id": "842d86d4eed207aaa48bbcbaaa29d332bce29063", "name": "REDLINE IT, INC.", "opening_hours": {"open_now": true}, "photos": [{"height": 333, "html_attributions": ["<a href=\"https://maps.google.com/maps/contrib/107855125427483477289/photos\">REDLINE IT, INC.</a>"], "photo_reference": "CmRaAAAAcJWlq2waXgvO5UoV5wbkaG-NRSZrw9zKulb9W02ry8NqSrnCWEf3oIlzB98-1UJtR0lGKkQSxNZq7Kc5RCYlETloQrOOvjZvM9P-dx4dQ56gaktNcgbkftd_GOlNhRg0EhA7Ie6pqp3KdN9PJiyb30HHGhT1-65inqkYBOFDvMTLxrJ0V5Ka0g", "width": 800}], "place_id": "ChIJWygqGIZw44kRnadGCdKZSoA", "plus_code": {"compound_code": "9W6W+66 Boston, Massachusetts, United States", "global_code": "87JC9W6W+66"}, "reference": "ChIJWygqGIZw44kRnadGCdKZSoA", "scope": "GOOGLE", "types": ["point_of_interest", "establishment"], "vicinity": "8 FANEUIL HALL MARKET PL FL 3, Boston"}, "ChIJYZ5FBP9x44kRGsqOZ_6OKms": {"geometry": {"location": {"lat": 42.3605917, "lng": -71.0543636}, "viewport": {"northeast": {"lat": 42.3619406802915, "lng": -71.0530146197085}, "southwest": {"lat": 42.3592427197085, "lng": -71.05571258029151}}}, "icon": "https://maps.gstatic.com/mapfiles/place_api/icons/generic_business-71.png", "id": "34d3195ead6c377485b90476595f971f6bc9445d", "name": "Exclusive Matchmaking", "place_id": "ChIJYZ5FBP9x44kRGsqOZ_6OKms", "plus_code": {"compound_code": "9W6W+67 Boston, Massachusetts, United States", "global_code": "87JC9W6W+67"}, "reference": "ChIJYZ5FBP9x44kRGsqOZ_6OKms", "scope": "GOOGLE", "types": ["point_of_interest", "establishment"], "vicinity": "8 Faneuil Hall Marketplace 3rd Floor, Boston"}, "ChIJq6qq6mFw44kRUs5mRwG7OSE": {"geometry": {"location": {"lat": 42.3605604, "lng": -71.05439179999999}, "viewport": {"northeast": {"lat": 42.36190938029149, "lng": -71.05304281970848}, "southwest": {"lat": 42.3592114197085, "lng": -71.05574078029149}}}, "icon": "https://maps.gstatic.com/mapfiles/place_api/icons/generic_business-71.png", "id": "807270128c619114af8b93b8681ec430df703dcd", "name": "Caprola Squad", "opening_hours": {"open_now": true}, "photos": [{"height": 300, "html_attributions": ["<a href=\"https://maps.google.com/maps/contrib/115439975350654988706/photos\">Caprola Squad</a>"], "photo_reference": "CmRaAAAAmV4IXEYNPCvMOi77V70rl6dK5x9PRHOHmOnk8r1NhKr4GfTesYwXx-Gl1mU0vjV3Eyr5TRk2vlImVJBXpuaiY5UpR0jl7iGkcdYWS-H52dFz8eYetTPMP5x0sNj4jGR6EhDKAaKTHzff0EUk_Lyb4HUdGhTq80zg2Uugrxl3NRMlpONDzmTHsQ", "width": 300}], "place_id": "ChIJq6qq6mFw44kRUs5mRwG7OSE", "plus_code": {"compound_code": "9W6W+66 Boston, Massachusetts, United States", "global_code": "87JC9W6W+66"}, "reference": "ChIJq6qq6mFw44kRUs5mRwG7OSE", "scope": "GOOGLE", "types": ["point_of_interest", "establishment"], "vicinity": "8 Faneuil Hall Marketplace 3rd Floor, Boston"}, "ChIJU2IeEIVw44kRH9C7b6NI2o4": {"geometry": {"location": {"lat": 42.3604802, "lng": -71.0590624}, "viewport": {"northeast": {"lat": 42.3627586, "lng": -71.0524338}, "southwest": {"lat": 42.3588324, "lng": -71.0612372}}}, "icon": "https://maps.gstatic.com/mapfiles/place_api/icons/geocode-71.png", "id": "5b165efccc1c1de6da2d137152c0c93cc778a7e3", "name": "Government Center", "photos": [{"height": 3024, "html_attributions": ["<a href=\"https://maps.google.com/maps/contrib/104569846094635118150/photos\">Jordan Griffith</a>"], "photo_reference": "CmRaAAAAIJ4JzkrV18oK8QaXYhXa-keHgjFhmeBI3BBpBoveYi6qB5wydIMvTSjYJQYh6jJi7Z86QtmykOZ_6crXn-u2rcwlWOzfDf2uT5cWXYoaqK2RQ-NzZpNNGv9Ql-Uag2qdEhC2bCIMSRFCh0Vip-SZbrDvGhTwlmG5OeQD8iCv_cBPCMCMA-xMdA", "width": 4032}], "place_id": "ChIJU2IeEIVw44kRH9C7b6NI2o4", "reference": "ChIJU2IeEIVw44kRH9C7b6NI2o4", "scope": "GOOGLE", "types": ["neighborhood", "political"], "vicinity": "Boston"}}