{"ChIJGzE9DS1l44kRoOhiASS_fHg": {"geometry": {"location": {"lat": 42.3600825, "lng": -71.0588801}, "viewport": {"northeast": {"lat": 42.40081989999999, "lng": -70.749455}, "southwest": {"lat": 42.22788, "lng": -71.191113}}}, "icon": "https://maps.gstatic.com/mapfiles/place_api/icons/geocode-71.png", "id": "06755c25d2b34d13942a4713971756a55b870ced", "name": "Boston", "photos": [{"height": 3024, "html_attributions": ["<a href=\"https://maps.google.com/maps/contrib/104670289779338733432/photos\">Natalia Zalucean</a>"], "photo_reference": "CmRaAAAA-_oUymS8pDZfkzVbXcqGkMuPXVNyNtrD1G6fh3yF5Njk2RosV9CAcAEV5fHJPLeBTxJzh9-AToIbUQM0gbKXeX2Am2c_jJ8qg7V8-6UL_ex_MDQLZKYM-NCi0RDOlqK0EhAbQ3QLjYOYsuOT4fDX5duiGhTNPGoK0dL6r3MYSd_ZTbpjzl8izg", "width": 4032}], "place_id": "ChIJGzE9DS1l44kRoOhiASS_fHg", "reference": "ChIJGzE9DS1l44kRoOhiASS_fHg", "scope": "GOOGLE", "types": ["locality", "political"], "vicinity": "Boston"}, "ChIJDbDGZnR644kRwLvDwWd84U0": {"geometry": {"location": {"lat": 42.350627, "lng": -71.0704834}, "viewport": {"northeast": {"lat": 42.3520161302915, "lng": -71.0689632197085}, "southwest": {"lat": 42.3493181697085, "lng": -71.07166118029151}}}, "icon": "https://maps.gstatic.com/mapfiles/place_api/icons/generic_business-71.png", "id": "f771fea7f21eb9a6d92f4c391f768ede8c6d62a1", "name": "The Dietrich Group Real Estate", "photos": [{"height": 413, "html_attributions": ["<a href=\"https://maps.google.com/maps/contrib/101893186479293691406/photos\">The Dietrich Group Real Estate</a>"], "photo_reference": "CmRaAAAAJCxOZvbI3bkIXTAVsXamC8SZ3qi1c_97b8TrXHPW-zyPCN4rjsgbORQtiuFbR_wwtmXRx_oYjEgjrqMYASrfRz40c4S5LZPhU7G4wfE7eoZpkAx-Q_lWQ2jeYYNVycXWEhAkRLY3BG6n-zhZtfKuBFg6GhQ_UIQZYzNrZGsyejzgCGWFI3gm9w", "width": 550}], "place_id": "ChIJDbDGZnR644kRwLvDwWd84U0", "plus_code": {"compound_code": "9W2H+7R Boston, Massachusetts, United States", "global_code": "87JC9W2H+7R"}, "reference": "ChIJDbDGZnR644kRwLvDwWd84U0", "scope": "GOOGLE", "types": ["real_estate_agency", "point_of_interest", "establishment"], "vicinity": "75 Arlington Street, Boston"}, "ChIJDbDGZnR644kRtJOWzA9hBxU": {"geometry": {"location": {"lat": 42.350627, "lng": -71.0704834}, "viewport": {"northeast": {"lat": 42.3520161302915, "lng": -71.0689632197085}, "southwest": {"lat": 42.3493181697085, "lng": -71.07166118029151}}}, "icon": "https://maps.gstatic.com/mapfiles/place_api/icons/generic_business-71.png", "id": "52620f3840aa1fbeb4e9995b0d500c61b8a1bd98", "name": "The Law Office of Jess Wagner", "place_id": "ChIJDbDGZnR644kRtJOWzA9hBxU", "plus_code": {"compound_code": "9W2H+7R Boston, Massachusetts, United States", "global_code": "87JC9W2H+7R"}, "reference": "ChIJDbDGZnR644kRtJOWzA9hBxU", "scope": "GOOGLE", "types": ["point_of_interest", "establishment"], "vicinity": "75 Arlington Street, Boston"}, "ChIJDbDGZnR644kRhXirMbZTnGE": {"geometry": {"location": {"lat": 42.350627, "lng": -71.0704834}, "viewport": {"northeast": {"lat": 42.3520161302915, "lng": -71.0689632197085}, "southwest": {"lat": 42.3493181697085, "lng": -71.07166118029151}}}, "icon": "https://maps.gstatic.com/mapfiles/place_api/icons/generic_business-71.png", "id": "b79d16f1fa4ac0908dc06166bcd1d6e5729cfb0d", "name": "Oleg Construction", "opening_hours": {"open_now": true}, "place_id": "ChIJDbDGZnR644kRhXirMbZTnGE", "plus_code": {"compound_code": "9W2H+7R Boston, Massachusetts, United States", "global_code": "87JC9W2H+7R"}, "reference": "ChIJDbDGZnR644kRhXirMbZTnGE", "scope": "GOOGLE", "types": ["general_contractor", "point_of_interest", "establishment"], "vicinity": "75 Arlington Street, Boston"}, "ChIJDbDGZnR644kR_KSMQy0kr5o": {"geometry": {"location": {"lat": 42.350627, "lng": -71.0704834}, "viewport": {"northeast": {"lat": 42.3520161302915, "lng": -71.0689632197085}, "southwest": {"lat": 42.3493181697085, "lng": -71.07166118029151}}}, "icon": "https://maps.gstatic.com/mapfiles/place_api/icons/school-71.png", "id": "23b2a9a668aeb5fb0745cf7223c5a6e9399b88fe", "name": "The Babysitters of Boston", "photos": [{"height": 720, "html_attributions": ["<a href=\"https://maps.google.com/maps/contrib/108864655196448621556/photos\">The Babysitters of Boston</a>"], "photo_reference": "CmRaAAAANGIeq8NMdZnnNVVvMWm2wvD6_GaqN70bPClV2mfPFFlB90PZrWZ5Dq8WNxMnz-luaUiPwYNdgWwhFa56SjSSadP_VpjCWs195fXQp06sd5pzaAXGfQlceCoiwj_5JxMdEhAPZ1OQWrFS8xmdKSuPgZs0GhSafPEPXcdY9zSWXtUj2G6fLBRnEw", "width": 720}], "place_id": "ChIJDbDGZnR644kR_KSMQy0kr5o", "plus_code": {"compound_code": "9W2H+7R Boston, Massachusetts, United States", "global_code": "87JC9W2H+7R"}, "reference": "ChIJDbDGZnR644kR_KSMQy0kr5o", "scope": "GOOGLE", "types": ["point_of_interest", "establishment"], "vicinity": "75 Arlington Street, Boston"}, "ChIJS4midX5644kRK93n65TI4uw": {"geometry": {"location": {"lat": 42.350627, "lng": -71.0704834}, "viewport": {"northeast": {"lat": 42.3520161302915, "lng": -71.0689632197085}, "southwest": {"lat": 42.3493181697085, "lng": -71.07166118029151}}}, "icon": "https://maps.gstatic.com/mapfiles/place_api/icons/generic_business-71.png", "id": "ef8d9ed41f95a03ce5f201fce85c7ed81b40f39f", "name": "Safeguard Records Management Co.", "opening_hours": {"open_now": true}, "photos": [{"height": 1600, "html_attributions": ["<a href=\"https://maps.google.com/maps/contrib/102300682019275217476/photos\">Safeguard Records Management Co.</a>"], "photo_reference": "CmRZAAAA83QibNJ9Av3Wys-mj2gjYIJPvwj7AcyOdguasvzij8Dq7mcQ0iuWVrPZmXdN8v6XwSllBknHOMLS_1BL8ZkM0FdbPJ06ZQlFR6K9QyX8vd6oj4axx5cyc7Y7cIrKiLfsEhDDa2Aa9vzRSSZXytRc5MCbGhSkR3XxlrGxVZezG_MxdnZ6yOywGg", "width": 1067}], "place_id": "ChIJS4midX5644kRK93n65TI4uw", "plus_code": {"compound_code": "9W2H+7R Boston, Massachusetts, United States", "global_code": "87JC9W2H+7R"}, "reference": "ChIJS4midX5644kRK93n65TI4uw", "scope": "GOOGLE", "types": ["storage", "point_of_interest", "establishment"], "vicinity": "75 Arlington Street, Boston"}, "ChIJDbDGZnR644kR9WPpszI8M-4": {"geometry": {"location": {"lat": 42.350627, "lng": -71.0704834}, "viewport": {"northeast": {"lat": 42.3520161302915, "lng": -71.0689632197085}, "southwest": {"lat": 42.3493181697085, "lng": -71.07166118029151}}}, "icon": "https://maps.gstatic.com/mapfiles/place_api/icons/generic_business-71.png", "id": "263a958e0deb41bffc4b3024f7bc455026278ce0", "name": "Docent Insurance", "opening_hours": {"open_now": true}, "photos": [{"height": 2048, "html_attributions": ["<a href=\"https://maps.google.com/maps/contrib/118215589556839985602/photos\">Docent Insurance</a>"], "photo_reference": "CmRaAAAAt-kwQ6a3CoWzgjWPPDCTthPDICeakq2J1Bo0qPNHQRo6StopEkiBWSMnGVS8do7mZGx3fQHqOl8wPgTFT8dxLFGYf3KlBG2CKrKf9xXdWQCQMBFa1ZMy8_z5mvqvgMkkEhDbBbPvM41kXZETjxE-UiyYGhTjgjkgMYBr7tdlMZJ5T9BotKdvuQ", "width": 1463}], "place_id": "ChIJDbDGZnR644kR9WPpszI8M-4", "plus_code": {"compound_code": "9W2H+7R Boston, Massachusetts, United States", "global_code": "87JC9W2H+7R"}, "reference": "ChIJDbDGZnR644kR9WPpszI8M-4", "scope": "GOOGLE", "types": ["insurance_agency", "health", "point_of_interest", "establishment"], "vicinity": "75 Arlington Street, Boston"}, "ChIJEVvPZnR644kRB5QLRHCgcco": {"geometry": {"location": {"lat": 42.350627, "lng": -71.0704834}, "viewport": {"northeast": {"lat": 42.3520161302915, "lng": -71.0689632197085}, "southwest": {"lat": 42.3493181697085, "lng": -71.07166118029151}}}, "icon": "https://maps.gstatic.com/mapfiles/place_api/icons/civic_building-71.png", "id": "c5daff273d45c713a28ee3b73159128df764ad59", "name": "Phillips & Phillips Executive Search", "place_id": "ChIJEVvPZnR644kRB5QLRHCgcco", "plus_code": {"compound_code": "9W2H+7R Boston, Massachusetts, United States", "global_code": "87JC9W2H+7R"}, "reference": "ChIJEVvPZnR644kRB5QLRHCgcco", "scope": "GOOGLE", "types": ["point_of_interest", "establishment"], "vicinity": "75 Arlington Street, Boston"}, "ChIJDbDGZnR644kRkQutua6c1kg": {"geometry": {"location": {"lat": 42.350627, "lng": -71.0704834}, "viewport": {"northeast": {"lat": 42.3520161302915, "lng": -71.0689632197085}, "southwest": {"lat": 42.3493181697085, "lng": -71.07166118029151}}}, "icon": "https://maps.gstatic.com/mapfiles/place_api/icons/generic_business-71.png", "id": "dae0c29ba130985eb8b20318470a39b9396cc921", "name": "Druan IP Law, PLLC", "place_id": "ChIJDbDGZnR644kRkQutua6c1kg", "plus_code": {"compound_code": "9W2H+7R Boston, Massachusetts, United States", "global_code": "87JC9W2H+7R"}, "reference": "ChIJDbDGZnR644kRkQutua6c1kg", "scope": "GOOGLE", "types": ["lawyer", "point_of_interest", "establishment"], "vicinity": "75 Arlington Street, Boston"}, "ChIJDbDGZnR644kRcd_3sAoDjJg": {"geometry": {"location": {"lat": 42.350627, "lng": -71.0704834}, "viewport": {"northeast": {"lat": 42.3520161302915, "lng": -71.0689632197085}, "southwest": {"lat": 42.3493181697085, "lng": -71.07166118029151}}}, "icon": "https://maps.gstatic.com/mapfiles/place_api/icons/generic_business-71.png", "id": "5e8953080de76d9a1515650856e3066271b5fdad", "name": "North Stream Consulting", "place_id": "ChIJDbDGZnR644kRcd_3sAoDjJg", "plus_code": {"compound_code": "9W2H+7R Boston, Massachusetts, United States", "global_code": "87JC9W2H+7R"}, "reference": "ChIJDbDGZnR644kRcd_3sAoDjJg", "scope": "GOOGLE", "types": ["point_of_interest", "establishment"], "vicinity": "75 Arlington Street, Boston"}, "ChIJDbDGZnR644kR2iRaIe748Fk": {"geometry": {"location": {"lat": 42.350627, "lng": -71.0704834}, "viewport": {"northeast": {"lat": 42.3520161302915, "lng": -71.0689632197085}, "southwest": {"lat": 42.3493181697085, "lng": -71.07166118029151}}}, "icon": "https://maps.gstatic.com/mapfiles/place_api/icons/generic_business-71.png", "id": "89cc55504cc13fc19b614cd66ec31e3fcf355ef4", "name": "Thread Real Estate", "opening_hours": {"open_now": true}, "photos": [{"height": 975, "html_attributions": ["<a href=\"https://maps.google.com/maps/contrib/112891167791447317784/photos\">Thread Real Estate</a>"], "photo_reference": "CmRaAAAAnA-kfJ4IZ5njvsZdW-aUgNPbDJjqpK7RyzHKKD7JkFX2N-_E8dNqJXBPj1af1cD37npf-YSqcE11u7UiWIU74EZQy4VZQaEAvUnWCN73RcSrgl8BR0e7rIRI4X4i6BPgEhCGgp12b4jD2GrHW90csC4eGhSI0zLZCGmZ4mULWtdkMYAYS-7xNg", "width": 1125}], "place_id": "ChIJDbDGZnR644kR2iRaIe748Fk", "plus_code": {"compound_code": "9W2H+7R Boston, Massachusetts, United States", "global_code": "87JC9W2H+7R"}, "reference": "ChIJDbDGZnR644kR2iRaIe748Fk", "scope": "GOOGLE", "types": ["real_estate_agency", "point_of_interest", "establishment"], "vicinity": "75 Arlington Street, Boston"}, "ChIJEVvPZnR644kRW52e-ooN600": {"geometry": {"location": {"lat": 42.350627, "lng": -71.0704834}, "viewport": {"northeast": {"lat": 42.3520161302915, "lng": -71.0689632197085}, "southwest": {"lat": 42.3493181697085, "lng": -71.07166118029151}}}, "icon": "https://maps.gstatic.com/mapfiles/place_api/icons/shopping-71.png", "id": "12d9f3cd3498017f75bb0f53a2c397d64330b683", "name": "Boost Software, INC", "opening_hours": {"open_now": true}, "photos": [{"height": 418, "html_attributions": ["<a href=\"https://maps.google.com/maps/contrib/113977862157621937825/photos\">Boost Software, INC</a>"], "photo_reference": "CmRaAAAAH_SzGrfcTJ6Q2oevz84E1kefUduyrrZE6i7kR4b4dxVdGZ33-N89Ehz598DJ5hpVMiA2QnJlU6fimlpOxhrnyv7zdRIS8jQCD-H_1_zi3a3S75xGSwGinGsX7SrvDcX-EhB1bPsf_Y5cinG_aF7uDBFaGhRP4I2FrH8mB5ed2Te4W1TCj_g8Xw", "width": 397}], "place_id": "ChIJEVvPZnR644kRW52e-ooN600", "plus_code": {"compound_code": "9W2H+7R Boston, Massachusetts, United States", "global_code": "87JC9W2H+7R"}, "reference": "ChIJEVvPZnR644kRW52e-ooN600", "scope": "GOOGLE", "types": ["electronics_store", "store", "point_of_interest", "establishment"], "vicinity": "75 Arlington Street, Boston"}, "ChIJDbDGZnR644kR2aFXXoVRZXY": {"geometry": {"location": {"lat": 42.350627, "lng": -71.0704834}, "viewport": {"northeast": {"lat": 42.3520161302915, "lng": -71.0689632197085}, "southwest": {"lat": 42.3493181697085, "lng": -71.07166118029151}}}, "icon": "https://maps.gstatic.com/mapfiles/place_api/icons/generic_business-71.png", "id": "b8c968ec1367a14369ba6408c69cb146d5eed1f9", "name": "Amour Creole Magazine", "photos": [{"height": 2048, "html_attributions": ["<a href=\"https://maps.google.com/maps/contrib/109752193097728314293/photos\">Amour Creole Magazine</a>"], "photo_reference": "CmRaAAAAI_EXaIl1r_Kh0-YorUahM6TByzktdiFJJgqOv1CjAMMd_GF5uQrQ4Otg2e34-JuIk7-N1KazEYHN0bjx9ISVhGwHvs7seKgvxh4Ud-jiHdNMU_caQS_VgpKa8fIIQ9oTEhApavnzRzEg0lqN-kMk27_8GhRLugdWJ_k0jL0azUZ8LxwbXK_bhw", "width": 1596}], "place_id": "ChIJDbDGZnR644kR2aFXXoVRZXY", "plus_code": {"compound_code": "9W2H+7R Boston, Massachusetts, United States", "global_code": "87JC9W2H+7R"}, "reference": "ChIJDbDGZnR644kR2aFXXoVRZXY", "scope": "GOOGLE", "types": ["point_of_interest", "establishment"], "vicinity": "75 Arlington Street, Boston"}, "ChIJEVvPZnR644kRXRMT-TTcqtU": {"geometry": {"location": {"lat": 42.350627, "lng": -71.0704834}, "viewport": {"northeast": {"lat": 42.3520161302915, "lng": -71.0689632197085}, "southwest": {"lat": 42.3493181697085, "lng": -71.07166118029151}}}, "icon": "https://maps.gstatic.com/mapfiles/place_api/icons/generic_business-71.png", "id": "0beb9acb5a89d02dbdfdf566c28977b14558a493", "name": "Interiors By Donna Terry", "photos": [{"height": 576, "html_attributions": ["<a href=\"https://maps.google.com/maps/contrib/103753719933593840352/photos\">Interiors By Donna Terry</a>"], "photo_reference": "CmRaAAAAnjmD7VXSIXnoN1O2eRVENB-N990cuJYR4gChQQOKoMFK0GP7YFEymiuytSVTOkI-OsqdWbXsCuT_x0QgYnl2jfdip6l0zpV84Bp5f3orqQfZXAp-wGj6zXiHeK7SjEklEhCBkcqC4LzgF_5jHWY2fdEEGhQ7niWal7LdbTqRb4fv0M-egAVSdA", "width": 720}], "place_id": "ChIJEVvPZnR644kRXRMT-TTcqtU", "plus_code": {"compound_code": "9W2H+7R Boston, Massachusetts, United States", "global_code": "87JC9W2H+7R"}, "reference": "ChIJEVvPZnR644kRXRMT-TTcqtU", "scope": "GOOGLE", "types": ["general_contractor", "point_of_interest", "establishment"], "vicinity": "75 Arlington Street, Boston"}, "ChIJZ_hMNnR644kRC8hvDRUzQDk": {"geometry": {"location": {"lat": 42.350627, "lng": -71.0704834}, "viewport": {"northeast": {"lat": 42.3520161302915, "lng": -71.0689632197085}, "southwest": {"lat": 42.3493181697085, "lng": -71.07166118029151}}}, "icon": "https://maps.gstatic.com/mapfiles/place_api/icons/generic_business-71.png", "id": "8ac915966d7c69d18551ade68ece7a1b9a524f98", "name": "Deborah B. Dong, LL.M.", "place_id": "ChIJZ_hMNnR644kRC8hvDRUzQDk", "plus_code": {"compound_code": "9W2H+7R Boston, Massachusetts, United States", "global_code": "87JC9W2H+7R"}, "reference": "ChIJZ_hMNnR644kRC8hvDRUzQDk", "scope": "GOOGLE", "types": ["lawyer", "point_of_interest", "establishment"], "vicinity": "75 Arlington Street, Boston"}, "ChIJHcjUyHR644kRYYiIRYbN9TA": {"geometry": {"location": {"lat": 42.35061, "lng": -71.070497}, "viewport": {"northeast": {"lat": 42.35200133029149, "lng": -71.06896731970849}, "southwest": {"lat": 42.34930336970849, "lng": -71.07166528029151}}}, "icon": "https://maps.gstatic.com/mapfiles/place_api/icons/generic_business-71.png", "id": "8c15cc10cfe856808828689912c83a3ec40a39ce", "name": "Aiyara Thai Massage & Wellness", "opening_hours": {"open_now": true}, "photos": [{"height": 2000, "html_attributions": ["<a href=\"https://maps.google.com/maps/contrib/117801335756855687398/photos\">Aiyara Thai Massage &amp; Wellness</a>"], "photo_reference": "CmRaAAAAuwZyL5H1R7mKAWyW0Zg0ka0KZOjWKMVvM-6KApaaQrx7eFeWA7vO2PZItP4YhrahzHzTBgrdYkfZrSCYRDSnRWGTzaG4SiDEWb2fEcmhw9dWww8OwBgB7ePPc1toHNVaEhAYvIetbU_QXkZd5MIT8fyYGhSE0btYoCHJoGjexOgA6pgUsF4xuw", "width": 1500}], "place_id": "ChIJHcjUyHR644kRYYiIRYbN9TA", "plus_code": {"compound_code": "9W2H+6R Boston, Massachusetts, United States", "global_code": "87JC9W2H+6R"}, "rating": 5, "reference": "ChIJHcjUyHR644kRYYiIRYbN9TA", "scope": "GOOGLE", "types": ["spa", "point_of_interest", "establishment"], "user_ratings_total": 8, "vicinity": "75 Arlington Street 5th floor, Boston"}, "ChIJH-T7NbssDogRRXmfWm2oEZM": {"geometry": {"location": {"lat": 42.35061009999999, "lng": -71.0704971}, "viewport": {"northeast": {"lat": 42.35200143029149, "lng": -71.06896741970849}, "southwest": {"lat": 42.3493034697085, "lng": -71.07166538029149}}}, "icon": "https://maps.gstatic.com/mapfiles/place_api/icons/generic_business-71.png", "id": "3bf7482bdab8faaf2e0a2b38e1d540f9b2951589", "name": "Edward Voccola & Co., LLC", "opening_hours": {"open_now": true}, "photos": [{"height": 1067, "html_attributions": ["<a href=\"https://maps.google.com/maps/contrib/104647416285990082545/photos\">Edward Voccola &amp; Co., LLC</a>"], "photo_reference": "CmRaAAAA-qHISqwQDSsWX7BvXtbIgsr-O_iYvHBuN8pWn-7ILiOJrZ6IvQ-7b1KKtlLexD3Z0MGfYQF0HGKhOcrkslnQjwAsvHeT9OZM4vFgZmE6slHNoaDA2nqwGZG-yYNJjgsGEhC4UHI8BLa7bFAqdb9iLsnCGhSlHx20I0Q21axliJ59ZANucyHB7w", "width": 1600}], "place_id": "ChIJH-T7NbssDogRRXmfWm2oEZM", "plus_code": {"compound_code": "9W2H+6R Boston, Massachusetts, United States", "global_code": "87JC9W2H+6R"}, "reference": "ChIJH-T7NbssDogRRXmfWm2oEZM", "scope": "GOOGLE", "types": ["finance", "point_of_interest", "establishment"], "vicinity": "75 Arlington Street #500, Boston"}, "ChIJVVWVYXR644kRdy1Q9lspZPg": {"geometry": {"location": {"lat": 42.350627, "lng": -71.0704834}, "viewport": {"northeast": {"lat": 42.3520161302915, "lng": -71.0689632197085}, "southwest": {"lat": 42.3493181697085, "lng": -71.07166118029151}}}, "icon": "https://maps.gstatic.com/mapfiles/place_api/icons/generic_business-71.png", "id": "fcd902a3537f43cc84672d3111b8c63357147dcb", "name": "Linguistic Data Services", "place_id": "ChIJVVWVYXR644kRdy1Q9lspZPg", "reference": "ChIJVVWVYXR644kRdy1Q9lspZPg", "scope": "GOOGLE", "types": ["point_of_interest", "establishment"], "vicinity": "75 Arlington Street, Boston"}, "ChIJVVWVYXR644kRWVhPJumyF9c": {"geometry": {"location": {"lat": 42.350627, "lng": -71.0704834}, "viewport": {"northeast": {"lat": 42.3520161302915, "lng": -71.0689632197085}, "southwest": {"lat": 42.3493181697085, "lng": -71.07166118029151}}}, "icon": "https://maps.gstatic.com/mapfiles/place_api/icons/shopping-71.png", "id": "5ecd1b66559cca7542074c80fd50e938888452d6", "name": "Tekturna", "place_id": "ChIJVVWVYXR644kRWVhPJumyF9c", "reference": "ChIJVVWVYXR644kRWVhPJumyF9c", "scope": "GOOGLE", "types": ["store", "point_of_interest", "establishment"], "vicinity": "75 Arlington Street, Boston"}, "ChIJsfUV-A5644kRxFubWZLMo7w": {"geometry": {"location": {"lat": 42.35026480000001, "lng": -71.0809757}, "viewport": {"northeast": {"lat": 42.356983, "lng": -71.07028989999999}, "southwest": {"lat": 42.341597, "lng": -71.0932962}}}, "icon": "https://maps.gstatic.com/mapfiles/place_api/icons/geocode-71.png", "id": "33919fd9e49b0cde06af64b330ab949ba88171ff", "name": "Back Bay", "photos": [{"height": 3936, "html_attributions": ["<a href=\"https://maps.google.com/maps/contrib/102900160723668849003/photos\">Jim Stanford</a>"], "photo_reference": "CmRaAAAAgH5IPy8qDXIJMcwlMy0Ck3m7orvh8RePrrf4a1wppsZw3x4lC-OlO77A5s1806tLFb_gaqQ-FWznMazdd-9BdF0a740p5XGHXBsqEEAD3tAb0L0Ncf9mK8oWXu_EfFx-EhDqcY_j3oA7ePmGQCjTcZflGhSn_7bGUZYLSPmyup8TBG57iissQA", "width": 5248}], "place_id": "ChIJsfUV-A5644kRxFubWZLMo7w", "reference": "ChIJsfUV-A5644kRxFubWZLMo7w", "scope": "GOOGLE", "types": ["neighborhood", "political"], "vicinity": "Boston"}, "ChIJVVWVYXR644kRriOk0cfHa7s": {"geometry": {"location": {"lat": 42.350627, "lng": -71.0704834}, "viewport": {"northeast": {"lat": 42.3520161302915, "lng": -71.0689632197085}, "southwest": {"lat": 42.3493181697085, "lng": -71.07166118029151}}}, "icon": "https://maps.gstatic.com/mapfiles/place_api/icons/generic_business-71.png", "id": "3f453e3bf231c141d6def2c05c49904d8ce70987", "name": "HRemploymentScreening.com", "place_id": "ChIJVVWVYXR644kRriOk0cfHa7s", "reference": "ChIJVVWVYXR644kRriOk0cfHa7s", "scope": "GOOGLE", "types": ["point_of_interest", "establishment"], "vicinity": "75 Arlington Street, Boston"}, "ChIJVVWVYXR644kRNx7GWqyJaoM": {"geometry": {"location": {"lat": 42.350627, "lng": -71.0704834}, "viewport": {"northeast": {"lat": 42.3520161302915, "lng": -71.0689632197085}, "southwest": {"lat": 42.3493181697085, "lng": -71.07166118029151}}}, "icon": "https://maps.gstatic.com/mapfiles/place_api/icons/generic_business-71.png", "id": "9f7f8ce23fbba5de4258eb248e4aa7d12af904d9", "name": "Ascendant Strategy Management Group", "place_id": "ChIJVVWVYXR644kRNx7GWqyJaoM", "reference": "ChIJVVWVYXR644kRNx7GWqyJaoM", "scope": "GOOGLE", "types": ["point_of_interest", "establishment"], "vicinity": "75 Arlington Street, Boston"}, "ChIJVVWVYXR644kRJIrquKNIFgw": {"geometry": {"location": {"lat": 42.350627, "lng": -71.0704834}, "viewport": {"northeast": {"lat": 42.3520161302915, "lng": -71.0689632197085}, "southwest": {"lat": 42.3493181697085, "lng": -71.07166118029151}}}, "icon": "https://maps.gstatic.com/mapfiles/place_api/icons/shopping-71.png", "id": "d2ced60d2ce4bffdbccdf2478753cee5b0eaefde", "name": "BOSTON CLOSET ORGANIZERS", "place_id": "ChIJVVWVYXR644kRJIrquKNIFgw", "reference": "ChIJVVWVYXR644kRJIrquKNIFgw", "scope": "GOOGLE", "types": ["store", "point_of_interest", "establishment"], "vicinity": "75 Arlington Street, Boston"}, "ChIJVVWVYXR644kRgvDpoQbzAhY": {"geometry": {"location": {"lat": 42.350627, "lng": -71.0704834}, "viewport": {"northeast": {"lat": 42.3520161302915, "lng": -71.0689632197085}, "southwest": {"lat": 42.3493181697085, "lng": -71.07166118029151}}}, "icon": "https://maps.gstatic.com/mapfiles/place_api/icons/generic_business-71.png", "id": "0283cdef1abeac93f73f9fb2709051e876c42611", "name": "Normandy Advisors", "place_id": "ChIJVVWVYXR644kRgvDpoQbzAhY", "reference": "ChIJVVWVYXR644kRgvDpoQbzAhY", "scope": "GOOGLE", "types": ["finance", "point_of_interest", "establishment"], "vicinity": "75 Arlington Street, Boston"}, "ChIJVVWVYXR644kRNkvUgapxRes": {"geometry": {"location": {"lat": 42.350627, "lng": -71.0704834}, "viewport": {"northeast": {"lat": 42.3520161302915, "lng": -71.0689632197085}, "southwest": {"lat": 42.3493181697085, "lng": -71.07166118029151}}}, "icon": "https://maps.gstatic.com/mapfiles/place_api/icons/generic_business-71.png", "id": "0352651d87c12dbd9b709da4a7e547fd8d8b6590", "name": "A Little Help", "place_id": "ChIJVVWVYXR644kRNkvUgapxRes", "reference": "ChIJVVWVYXR644kRNkvUgapxRes", "scope": "GOOGLE", "types": ["point_of_interest", "establishment"], "vicinity": "75 Arlington Street, Boston"}, "ChIJVVWVYXR644kR2_dT-mzyCiE": {"geometry": {"location": {"lat": 42.350627, "lng": -71.0704834}, "viewport": {"northeast": {"lat": 42.3520161302915, "lng": -71.0689632197085}, "southwest": {"lat": 42.3493181697085, "lng": -71.07166118029151}}}, "icon": "https://maps.gstatic.com/mapfiles/place_api/icons/civic_building-71.png", "id": "3ae5c23967cd5099613344fc0ed86e899465c7e1", "name": "Conley Search Group", "place_id": "ChIJVVWVYXR644kR2_dT-mzyCiE", "reference": "ChIJVVWVYXR644kR2_dT-mzyCiE", "scope": "GOOGLE", "types": ["point_of_interest", "establishment"], "vicinity": "75 Arlington Street, Boston"}, "ChIJVVWVYXR644kREWnSqNWkGho": {"geometry": {"location": {"lat": 42.350627, "lng": -71.0704834}, "viewport": {"northeast": {"lat": 42.3520161302915, "lng": -71.0689632197085}, "southwest": {"lat": 42.3493181697085, "lng": -71.07166118029151}}}, "icon": "https://maps.gstatic.com/mapfiles/place_api/icons/generic_business-71.png", "id": "5ef4f88e3d92e2330a159a538ec12a88934b9b5f", "name": "CannWell Advisors", "place_id": "ChIJVVWVYXR644kREWnSqNWkGho", "reference": "ChIJVVWVYXR644kREWnSqNWkGho", "scope": "GOOGLE", "types": ["point_of_interest", "establishment"], "vicinity": "75 Arlington Street, Boston"}, "ChIJVVWVYXR644kRc5ekJ76qxEw": {"geometry": {"location": {"lat": 42.350627, "lng": -71.0704834}, "viewport": {"northeast": {"lat": 42.3520161302915, "lng": -71.0689632197085}, "southwest": {"lat": 42.3493181697085, "lng": -71.07166118029151}}}, "icon": "https://maps.gstatic.com/mapfiles/place_api/icons/school-71.png", "id": "fc82ad49ff0c9315238b06c30c7c0ddb939ef2fe", "name": "Success Boston", "place_id": "ChIJVVWVYXR644kRc5ekJ76qxEw", "reference": "ChIJVVWVYXR644kRc5ekJ76qxEw", "scope": "GOOGLE", "types": ["point_of_interest", "establishment"], "vicinity": "75 Arlington Street, Boston"}, "ChIJVVWVYXR644kReTCbToj3H4g": {"geometry": {"location": {"lat": 42.350627, "lng": -71.0704834}, "viewport": {"northeast": {"lat": 42.3520161302915, "lng": -71.0689632197085}, "southwest": {"lat": 42.3493181697085, "lng": -71.07166118029151}}}, "icon": "https://maps.gstatic.com/mapfiles/place_api/icons/generic_business-71.png", "id": "af64df42b7993859f9467d6084b66876222e5933", "name": "Wincove Private Holdings", "place_id": "ChIJVVWVYXR644kReTCbToj3H4g", "reference": "ChIJVVWVYXR644kReTCbToj3H4g", "scope": "GOOGLE", "types": ["finance", "point_of_interest", "establishment"], "vicinity": "75 Arlington Street, Boston"}, "ChIJB3nsYXR644kRJHbqDQzAs3E": {"geometry": {"location": {"lat": 42.3506101, "lng": -71.07049719999999}, "viewport": {"northeast": {"lat": 42.35200143029149, "lng": -71.06896746970848}, "southwest": {"lat": 42.3493034697085, "lng": -71.07166543029149}}}, "icon": "https://maps.gstatic.com/mapfiles/place_api/icons/generic_business-71.png", "id": "66e584fc4ed0f27a01c7739b677d536a0ac20c00", "name": "Income For Life Model", "place_id": "ChIJB3nsYXR644kRJHbqDQzAs3E", "reference": "ChIJB3nsYXR644kRJHbqDQzAs3E", "scope": "GOOGLE", "types": ["point_of_interest", "establishment"], "vicinity": "75 Arlington Street, Boston"}, "ChIJRaEp7_1744kRTvPe9CsB4qs": {"geometry": {"location": {"lat": 42.3506101, "lng": -71.07049719999999}, "viewport": {"northeast": {"lat": 42.35200143029149, "lng": -71.06896746970848}, "southwest": {"lat": 42.3493034697085, "lng": -71.07166543029149}}}, "icon": "https://maps.gstatic.com/mapfiles/place_api/icons/generic_business-71.png", "id": "2ddd233715e7c324d5e33f61e1ca8bf4a8480308", "name": "Verstaan", "opening_hours": {"open_now": true}, "photos": [{"height": 1208, "html_attributions": ["<a href=\"https://maps.google.com/maps/contrib/105256563296746576852/photos\">Verstaan</a>"], "photo_reference": "CmRaAAAAL2fdErRs8Jd1atnOLo-w0I8RD04kv3noxoF04UWaTih-kAKAjZOyCTrKUXJyL8Vs1QFeC1hClDWksDaos3VQXXTr1LlB24JavkQCoJV6PPaxQWN8-LiUYddIyaKs1R3iEhAVSw_AtaLveKsTzugdCjvXGhQZarqLYCDH6IzvhKxCT5A6pdskog", "width": 1123}], "place_id": "ChIJRaEp7_1744kRTvPe9CsB4qs", "plus_code": {"compound_code": "9W2H+6R Boston, Massachusetts, United States", "global_code": "87JC9W2H+6R"}, "reference": "ChIJRaEp7_1744kRTvPe9CsB4qs", "scope": "GOOGLE", "types": ["point_of_interest", "establishment"], "vicinity": "75 Arlington Street floor 5, Boston"}, "ChIJB3nsYXR644kR_NL2Brlio20": {"geometry": {"location": {"lat": 42.3506101, "lng": -71.07049719999999}, "viewport": {"northeast": {"lat": 42.35200143029149, "lng": -71.06896746970848}, "southwest": {"lat": 42.3493034697085, "lng": -71.07166543029149}}}, "icon": "https://maps.gstatic.com/mapfiles/place_api/icons/generic_business-71.png", "id": "b0e5b42f991545e29b870bfb7f84e798c22ebe97", "name": "contact \u2014 law offices of brendan s. cox, pc", "place_id": "ChIJB3nsYXR644kR_NL2Brlio20", "reference": "ChIJB3nsYXR644kR_NL2Brlio20", "scope": "GOOGLE", "types": ["lawyer", "point_of_interest", "establishment"], "vicinity": "75 Arlington Street, Boston"}, "ChIJB3nsYXR644kRImEKpPvqTf0": {"geometry": {"location": {"lat": 42.3506101, "lng": -71.07049719999999}, "viewport": {"northeast": {"lat": 42.35200143029149, "lng": -71.06896746970848}, "southwest": {"lat": 42.3493034697085, "lng": -71.07166543029149}}}, "icon": "https://maps.gstatic.com/mapfiles/place_api/icons/generic_business-71.png", "id": "f466073df4de5bdcea0d78d8366f9ff21972101d", "name": "Agnisys", "place_id": "ChIJB3nsYXR644kRImEKpPvqTf0", "reference": "ChIJB3nsYXR644kRImEKpPvqTf0", "scope": "GOOGLE", "types": ["point_of_interest", "establishment"], "vicinity": "75 Arlington Street, Boston"}, "ChIJVVWVYXR644kRNokDubAm41o": {"geometry": {"location": {"lat": 42.3506224, "lng": -71.07037629999999}, "viewport": {"northeast": {"lat": 42.3520003302915, "lng": -71.0689038697085}, "southwest": {"lat": 42.3493023697085, "lng": -71.07160183029151}}}, "icon": "https://maps.gstatic.com/mapfiles/place_api/icons/shopping-71.png", "id": "78030b351a0c3db1c1b5b6da84ea8b98580821ee", "name": "Stuffusefull", "opening_hours": {"open_now": true}, "place_id": "ChIJVVWVYXR644kRNokDubAm41o", "plus_code": {"compound_code": "9W2H+6R Boston, Massachusetts, United States", "global_code": "87JC9W2H+6R"}, "reference": "ChIJVVWVYXR644kRNokDubAm41o", "scope": "GOOGLE", "types": ["shopping_mall", "point_of_interest", "establishment"], "vicinity": "75 Arlington Street #500, Boston"}, "ChIJ054lYnR644kRXUp6ZLfmgG8": {"geometry": {"location": {"lat": 42.350627, "lng": -71.0704834}, "viewport": {"northeast": {"lat": 42.3521495802915, "lng": -71.0692221697085}, "southwest": {"lat": 42.3494516197085, "lng": -71.0719201302915}}}, "icon": "https://maps.gstatic.com/mapfiles/place_api/icons/shopping-71.png", "id": "b753c0b164fb2606f9dfacd25bd7b801e7627ce6", "name": "Public Safety Pictures Inc", "place_id": "ChIJ054lYnR644kRXUp6ZLfmgG8", "plus_code": {"compound_code": "9W2H+7R Boston, Massachusetts, United States", "global_code": "87JC9W2H+7R"}, "reference": "ChIJ054lYnR644kRXUp6ZLfmgG8", "scope": "GOOGLE", "types": ["store", "point_of_interest", "establishment"], "vicinity": "6 Saint James Avenue, Boston"}, "ChIJVVWVYXR644kRDoSJBvnyiBA": {"geometry": {"location": {"lat": 42.350627, "lng": -71.0704834}, "viewport": {"northeast": {"lat": 42.3520161302915, "lng": -71.0689632197085}, "southwest": {"lat": 42.3493181697085, "lng": -71.07166118029151}}}, "icon": "https://maps.gstatic.com/mapfiles/place_api/icons/generic_business-71.png", "id": "fa342472109d2fffedac517b469d9b131d05442c", "name": "Advanz", "place_id": "ChIJVVWVYXR644kRDoSJBvnyiBA", "plus_code": {"compound_code": "9W2H+7R Boston, Massachusetts, United States", "global_code": "87JC9W2H+7R"}, "reference": "ChIJVVWVYXR644kRDoSJBvnyiBA", "scope": "GOOGLE", "types": ["point_of_interest", "establishment"], "vicinity": "75 Arlington Street #500, Boston"}, "ChIJ054lYnR644kRHVYxOkkqDnw": {"geometry": {"location": {"lat": 42.350627, "lng": -71.0704834}, "viewport": {"northeast": {"lat": 42.3521495802915, "lng": -71.0692221697085}, "southwest": {"lat": 42.3494516197085, "lng": -71.0719201302915}}}, "icon": "https://maps.gstatic.com/mapfiles/place_api/icons/generic_business-71.png", "id": "887148833e9f70ac31111726f573ddc5a1aa9eb5", "name": "Vollmer Associates", "place_id": "ChIJ054lYnR644kRHVYxOkkqDnw", "plus_code": {"compound_code": "9W2H+7R Boston, Massachusetts, United States", "global_code": "87JC9W2H+7R"}, "reference": "ChIJ054lYnR644kRHVYxOkkqDnw", "scope": "GOOGLE", "types": ["point_of_interest", "establishment"], "vicinity": "6 Saint James Avenue, Boston"}, "ChIJVVWVYXR644kR_hkCPOMUPCg": {"geometry": {"location": {"lat": 42.350627, "lng": -71.0704834}, "viewport": {"northeast": {"lat": 42.3520161302915, "lng": -71.0689632197085}, "southwest": {"lat": 42.3493181697085, "lng": -71.07166118029151}}}, "icon": "https://maps.gstatic.com/mapfiles/place_api/icons/generic_business-71.png", "id": "931d667383465880d356cd2c9d6050ccb01d8782", "name": "Jawsbury", "opening_hours": {"open_now": true}, "place_id": "ChIJVVWVYXR644kR_hkCPOMUPCg", "plus_code": {"compound_code": "9W2H+7R Boston, Massachusetts, United States", "global_code": "87JC9W2H+7R"}, "reference": "ChIJVVWVYXR644kR_hkCPOMUPCg", "scope": "GOOGLE", "types": ["point_of_interest", "establishment"], "vicinity": "75 Arlington Street, Boston"}, "ChIJD8aHKmp744kR1byN2x9SQWY": {"geometry": {"location": {"lat": 42.350627, "lng": -71.0704834}, "viewport": {"northeast": {"lat": 42.3520161302915, "lng": -71.0689632197085}, "southwest": {"lat": 42.3493181697085, "lng": -71.07166118029151}}}, "icon": "https://maps.gstatic.com/mapfiles/place_api/icons/generic_business-71.png", "id": "cdc2478d26a48c865f1617d6ecb60b4e03ac62a1", "name": "Stuck On Start Coaching", "opening_hours": {"open_now": true}, "place_id": "ChIJD8aHKmp744kR1byN2x9SQWY", "plus_code": {"compound_code": "9W2H+7R Boston, Massachusetts, United States", "global_code": "87JC9W2H+7R"}, "reference": "ChIJD8aHKmp744kR1byN2x9SQWY", "scope": "GOOGLE", "types": ["point_of_interest", "establishment"], "vicinity": "75 Arlington Street #500, Boston"}, "ChIJlQmUAMx544kRLrblmBotwvA": {"geometry": {"location": {"lat": 42.35061, "lng": -71.070497}, "viewport": {"northeast": {"lat": 42.35200133029149, "lng": -71.06896731970849}, "southwest": {"lat": 42.34930336970849, "lng": -71.07166528029151}}}, "icon": "https://maps.gstatic.com/mapfiles/place_api/icons/generic_business-71.png", "id": "ef6b1afbbdcd46294d50e28fc88470a557897e94", "name": "Relo Redac, Inc. \u30dc\u30b9\u30c8\u30f3 \u30aa\u30d5\u30a3\u30b9", "place_id": "ChIJlQmUAMx544kRLrblmBotwvA", "plus_code": {"compound_code": "9W2H+6R Boston, Massachusetts, United States", "global_code": "87JC9W2H+6R"}, "reference": "ChIJlQmUAMx544kRLrblmBotwvA", "scope": "GOOGLE", "types": ["real_estate_agency", "point_of_interest", "establishment"], "vicinity": "75 Arlington Street #500, Boston"}, "ChIJQ1vsvN1744kRR7jWf1cWfH0": {"geometry": {"location": {"lat": 42.35061, "lng": -71.070497}, "viewport": {"northeast": {"lat": 42.35200133029149, "lng": -71.06896731970849}, "southwest": {"lat": 42.34930336970849, "lng": -71.07166528029151}}}, "icon": "https://maps.gstatic.com/mapfiles/place_api/icons/generic_business-71.png", "id": "0f9c8f306a4e62539a888e51bdb1c5e39e122283", "name": "New York Fine Art Appraisers", "photos": [{"height": 768, "html_attributions": ["<a href=\"https://maps.google.com/maps/contrib/108233825153406402698/photos\">New York Fine Art Appraisers</a>"], "photo_reference": "CmRaAAAA1HVO3H0YXZ7DWOUlD18TXasZFAx2X5-4DOQana-p4eLWW2cd5y0-55lcvhF1W_iS8YG4fbNVqh6DCfBHQeunofDa-cGlGZnccMeT4aZBjPj_pTspS4-NHsGzXC_fr6yTEhAah3bQpY9MwfxU4ugIOYFwGhT56KFZ74jQV2lg8I3oV11VDdQKzQ", "width": 1024}], "place_id": "ChIJQ1vsvN1744kRR7jWf1cWfH0", "plus_code": {"compound_code": "9W2H+6R Boston, Massachusetts, United States", "global_code": "87JC9W2H+6R"}, "reference": "ChIJQ1vsvN1744kRR7jWf1cWfH0", "scope": "GOOGLE", "types": ["finance", "point_of_interest", "establishment"], "vicinity": "75 Arlington Street #500, Boston"}, "ChIJwZ14fet244kRwM5ZPzkVsno": {"geometry": {"location": {"lat": 42.35061, "lng": -71.070497}, "viewport": {"northeast": {"lat": 42.35200133029149, "lng": -71.06896731970849}, "southwest": {"lat": 42.34930336970849, "lng": -71.07166528029151}}}, "icon": "https://maps.gstatic.com/mapfiles/place_api/icons/generic_business-71.png", "id": "93a5aadd2c64f27c12dd4ad7193beb9b6d4bff5e", "name": "DroneBoston LLC", "opening_hours": {"open_now": true}, "photos": [{"height": 3648, "html_attributions": ["<a href=\"https://maps.google.com/maps/contrib/104628808905759036713/photos\">DroneBoston LLC</a>"], "photo_reference": "CmRaAAAAuOdw3b8OjZlVbSEYl-Cc5C_toHnhrIDZMg7ir77ubmp5qce4c3pwqLnMFtKckhnVUuoIwV-wRHajP8h_r6oupdM3GCh1nJf6FMlWi8TmtthT76WQC5rnJhRFk6UtK8crEhDWWTPUzQ2KusgnYwV98a54GhT2LQ32hVq7zc2K_FuY_ehrHgihJw", "width": 4864}], "place_id": "ChIJwZ14fet244kRwM5ZPzkVsno", "plus_code": {"compound_code": "9W2H+6R Boston, Massachusetts, United States", "global_code": "87JC9W2H+6R"}, "rating": 5, "reference": "ChIJwZ14fet244kRwM5ZPzkVsno", "scope": "GOOGLE", "types": ["real_estate_agency", "general_contractor", "point_of_interest", "establishment"], "user_ratings_total": 20, "vicinity": "75 Arlington Street #5089, Boston"}, "ChIJBXnsYXR644kRF_Fd3Mpo8Gs": {"geometry": {"location": {"lat": 42.35061009999999, "lng": -71.0704971}, "viewport": {"northeast": {"lat": 42.35200143029149, "lng": -71.06896741970849}, "southwest": {"lat": 42.3493034697085, "lng": -71.07166538029149}}}, "icon": "https://maps.gstatic.com/mapfiles/place_api/icons/generic_business-71.png", "id": "b2f05b39d6d577461722094bed47296bcf41cc94", "name": "ATON Partners", "place_id": "ChIJBXnsYXR644kRF_Fd3Mpo8Gs", "plus_code": {"compound_code": "9W2H+6R Boston, Massachusetts, United States", "global_code": "87JC9W2H+6R"}, "reference": "ChIJBXnsYXR644kRF_Fd3Mpo8Gs", "scope": "GOOGLE", "types": ["finance", "point_of_interest", "establishment"], "vicinity": "75 Arlington Street #500, Boston"}, "ChIJiQ2UGTx744kRZlwFs4KNjxw": {"geometry": {"location": {"lat": 42.3506101, "lng": -71.07049719999999}, "viewport": {"northeast": {"lat": 42.35200143029149, "lng": -71.06896746970848}, "southwest": {"lat": 42.3493034697085, "lng": -71.07166543029149}}}, "icon": "https://maps.gstatic.com/mapfiles/place_api/icons/generic_business-71.png", "id": "00e38dacfbffe6ef36909fd921566251a668905c", "name": "Kristen Ihde, PsyD LLC", "opening_hours": {"open_now": true}, "place_id": "ChIJiQ2UGTx744kRZlwFs4KNjxw", "plus_code": {"compound_code": "9W2H+6R Boston, Massachusetts, United States", "global_code": "87JC9W2H+6R"}, "reference": "ChIJiQ2UGTx744kRZlwFs4KNjxw", "scope": "GOOGLE", "types": ["health", "point_of_interest", "establishment"], "vicinity": "75 Arlington Street, Boston"}, "ChIJZWER3-p744kRoNViQ6oH8kY": {"geometry": {"location": {"lat": 42.3506101, "lng": -71.07049719999999}, "viewport": {"northeast": {"lat": 42.35200143029149, "lng": -71.06896746970848}, "southwest": {"lat": 42.3493034697085, "lng": -71.07166543029149}}}, "icon": "https://maps.gstatic.com/mapfiles/place_api/icons/generic_business-71.png", "id": "6f4221fd3c031bee354bc7fc37ce0ea189ce879e", "name": "Skin Mastery", "opening_hours": {"open_now": true}, "place_id": "ChIJZWER3-p744kRoNViQ6oH8kY", "plus_code": {"compound_code": "9W2H+6R Boston, Massachusetts, United States", "global_code": "87JC9W2H+6R"}, "reference": "ChIJZWER3-p744kRoNViQ6oH8kY", "scope": "GOOGLE", "types": ["beauty_salon", "spa", "point_of_interest", "establishment"], "vicinity": "75 Arlington Street #500, Boston"}, "ChIJsdW0cyB744kR5PQJgtZumic": {"geometry": {"location": {"lat": 42.3506101, "lng": -71.07049719999999}, "viewport": {"northeast": {"lat": 42.35200143029149, "lng": -71.06896746970848}, "southwest": {"lat": 42.3493034697085, "lng": -71.07166543029149}}}, "icon": "https://maps.gstatic.com/mapfiles/place_api/icons/generic_business-71.png", "id": "e56f6f0af11170b5a6d96c3b98958045863b5986", "name": "Macmillan Learning", "opening_hours": {"open_now": true}, "place_id": "ChIJsdW0cyB744kR5PQJgtZumic", "plus_code": {"compound_code": "9W2H+6R Boston, Massachusetts, United States", "global_code": "87JC9W2H+6R"}, "reference": "ChIJsdW0cyB744kR5PQJgtZumic", "scope": "GOOGLE", "types": ["point_of_interest", "establishment"], "vicinity": "75 Arlington Street #8000, Boston"}, "ChIJz3jmuHR644kROSUHwpgz9jU": {"geometry": {"location": {"lat": 42.3506101, "lng": -71.07049719999999}, "viewport": {"northeast": {"lat": 42.35200143029149, "lng": -71.06896746970848}, "southwest": {"lat": 42.3493034697085, "lng": -71.07166543029149}}}, "icon": "https://maps.gstatic.com/mapfiles/place_api/icons/generic_business-71.png", "id": "e3fb9e150aab06e61676998d49dadd806e755a3d", "name": "Haiti Development Institute", "place_id": "ChIJz3jmuHR644kROSUHwpgz9jU", "plus_code": {"compound_code": "9W2H+6R Boston, Massachusetts, United States", "global_code": "87JC9W2H+6R"}, "reference": "ChIJz3jmuHR644kROSUHwpgz9jU", "scope": "GOOGLE", "types": ["point_of_interest", "establishment"], "vicinity": "75 Arlington Street, Boston"}}