{"ChIJGzE9DS1l44kRoOhiASS_fHg": {"geometry": {"location": {"lat": 42.3600825, "lng": -71.0588801}, "viewport": {"northeast": {"lat": 42.40081989999999, "lng": -70.749455}, "southwest": {"lat": 42.22788, "lng": -71.191113}}}, "icon": "https://maps.gstatic.com/mapfiles/place_api/icons/geocode-71.png", "id": "06755c25d2b34d13942a4713971756a55b870ced", "name": "Boston", "photos": [{"height": 3024, "html_attributions": ["<a href=\"https://maps.google.com/maps/contrib/104670289779338733432/photos\">Natalia Zalucean</a>"], "photo_reference": "CmRaAAAAQaKF_idiRDiu_VkrJp1HLJPq8PaMIvB00roVH8xJBI-xbvENM_HJHKU3-_te4GtoR3G0-OqVkMyWk00eDsnKG3k9h4NWe-PTXaeZT3D2mKn2y9hnJUCG336BFten1ocQEhAzwxX0Iq5utIwQXfLzg2idGhSLeIE4TAxRoAD7qRyRTb0mZJ6bIQ", "width": 4032}], "place_id": "ChIJGzE9DS1l44kRoOhiASS_fHg", "reference": "ChIJGzE9DS1l44kRoOhiASS_fHg", "scope": "GOOGLE", "types": ["locality", "political"], "vicinity": "Boston"}, "ChIJPbS_0Zpw44kRd3B6sQjmJmU": {"geometry": {"location": {"lat": 42.35588649999999, "lng": -71.0522501}, "viewport": {"northeast": {"lat": 42.3570973302915, "lng": -71.05108866970849}, "southwest": {"lat": 42.3543993697085, "lng": -71.0537866302915}}}, "icon": "https://maps.gstatic.com/mapfiles/place_api/icons/generic_business-71.png", "id": "653f2d87d5f978e5340fb4d9803dae0e191c8282", "name": "Freed Nancy A", "place_id": "ChIJPbS_0Zpw44kRd3B6sQjmJmU", "plus_code": {"compound_code": "9W4X+93 Boston, Massachusetts, United States", "global_code": "87JC9W4X+93"}, "reference": "ChIJPbS_0Zpw44kRd3B6sQjmJmU", "scope": "GOOGLE", "types": ["lawyer", "point_of_interest", "establishment"], "vicinity": "1 International Place, Boston"}, "ChIJ2x1UlINw44kR-YR1vq6PSj8": {"geometry": {"location": {"lat": 42.3559753, "lng": -71.0521512}, "viewport": {"northeast": {"lat": 42.3571457302915, "lng": -71.0510446197085}, "southwest": {"lat": 42.3544477697085, "lng": -71.05374258029151}}}, "icon": "https://maps.gstatic.com/mapfiles/place_api/icons/generic_business-71.png", "id": "dcf6eec1ea0973c0905e6e7565af0ae3323da2f5", "name": "Everis USA", "place_id": "ChIJ2x1UlINw44kR-YR1vq6PSj8", "plus_code": {"compound_code": "9W4X+94 Boston, Massachusetts, United States", "global_code": "87JC9W4X+94"}, "rating": 5, "reference": "ChIJ2x1UlINw44kR-YR1vq6PSj8", "scope": "GOOGLE", "types": ["point_of_interest", "establishment"], "user_ratings_total": 1, "vicinity": "Oliver Street, Boston"}, "ChIJZSO0RIFw44kRMwtkx6QJp2U": {"geometry": {"location": {"lat": 42.3559219, "lng": -71.05497679999999}, "viewport": {"northeast": {"lat": 42.3595222, "lng": -71.05148729999999}, "southwest": {"lat": 42.351489, "lng": -71.0593777}}}, "icon": "https://maps.gstatic.com/mapfiles/place_api/icons/geocode-71.png", "id": "a299437eec467c3c4fb5ec448e81048caef8aacf", "name": "Financial District", "photos": [{"height": 2403, "html_attributions": ["<a href=\"https://maps.google.com/maps/contrib/115111503217500241431/photos\">Jane Wong</a>"], "photo_reference": "CmRaAAAAFdkGwyqSQBfS2OOtYIWPQKGmUcoULLN5hmhkQdkpRzOVYV51nAg2HwGIrjT3vtwE9ShVyhQcZWbhMmLhH1Amu_M4C-W_b5xiGDn7gd5WSD33pyayKrp0E_kLB2eWelMZEhB-o42s8qEZrFmBNTW55t9jGhRSdv81EXjUTXVObvQtpH-xSWBUlA", "width": 3206}], "place_id": "ChIJZSO0RIFw44kRMwtkx6QJp2U", "reference": "ChIJZSO0RIFw44kRMwtkx6QJp2U", "scope": "GOOGLE", "types": ["neighborhood", "political"], "vicinity": "Boston"}}