{"ChIJGzE9DS1l44kRoOhiASS_fHg": {"geometry": {"location": {"lat": 42.3600825, "lng": -71.0588801}, "viewport": {"northeast": {"lat": 42.40081989999999, "lng": -70.749455}, "southwest": {"lat": 42.22788, "lng": -71.191113}}}, "icon": "https://maps.gstatic.com/mapfiles/place_api/icons/geocode-71.png", "id": "06755c25d2b34d13942a4713971756a55b870ced", "name": "Boston", "photos": [{"height": 3024, "html_attributions": ["<a href=\"https://maps.google.com/maps/contrib/104670289779338733432/photos\">Natalia Zalucean</a>"], "photo_reference": "CmRaAAAAIrHviOAp_ZZTrvMbbImq5Q915ThLIMfTzp1QbVyKInuMjtKfq3xWLzjJ-NTIpdox_J0GPTZ_37so4mTmhFxnPAZFHNJ4G2icySXr48woRzwKy4pd-fzmztkUb6ar1peDEhBcH-rtMPN6Nxzw7YevbVvIGhS55qdGfKT5fvZF5MirkCzI2IDNIQ", "width": 4032}], "place_id": "ChIJGzE9DS1l44kRoOhiASS_fHg", "reference": "ChIJGzE9DS1l44kRoOhiASS_fHg", "scope": "GOOGLE", "types": ["locality", "political"], "vicinity": "Boston"}, "ChIJU78Iqplw44kRyeHzH78R6To": {"geometry": {"location": {"lat": 42.3607351, "lng": -71.0622429}, "viewport": {"northeast": {"lat": 42.36227058029149, "lng": -71.06082126970848}, "southwest": {"lat": 42.35957261970849, "lng": -71.0635192302915}}}, "icon": "https://maps.gstatic.com/mapfiles/place_api/icons/generic_business-71.png", "id": "1249e630ea1253396097093f7fd321e3cfd989f5", "name": "American Student Assistance: Frost Donna E", "place_id": "ChIJU78Iqplw44kRyeHzH78R6To", "plus_code": {"compound_code": "9W6Q+74 Boston, Massachusetts, United States", "global_code": "87JC9W6Q+74"}, "reference": "ChIJU78Iqplw44kRyeHzH78R6To", "scope": "GOOGLE", "types": ["point_of_interest", "establishment"], "vicinity": "100 Cambridge Street # 403, Boston"}, "ChIJU78Iqplw44kRj_JFN-IOgNk": {"geometry": {"location": {"lat": 42.3607351, "lng": -71.0622429}, "viewport": {"northeast": {"lat": 42.36227058029149, "lng": -71.06082126970848}, "southwest": {"lat": 42.35957261970849, "lng": -71.0635192302915}}}, "icon": "https://maps.gstatic.com/mapfiles/place_api/icons/generic_business-71.png", "id": "6fd3d9ec87e1e6abe7941b326a64061b5974d79a", "name": "American Student Assistance: Thomas Linda", "place_id": "ChIJU78Iqplw44kRj_JFN-IOgNk", "plus_code": {"compound_code": "9W6Q+74 Boston, Massachusetts, United States", "global_code": "87JC9W6Q+74"}, "reference": "ChIJU78Iqplw44kRj_JFN-IOgNk", "scope": "GOOGLE", "types": ["point_of_interest", "establishment"], "vicinity": "100 Cambridge Street # 404, Boston"}, "ChIJPbS_0Zpw44kRd2GrtgEzScs": {"geometry": {"location": {"lat": 42.36072670000001, "lng": -71.0621717}, "viewport": {"northeast": {"lat": 42.3622572802915, "lng": -71.0607435197085}, "southwest": {"lat": 42.3595593197085, "lng": -71.0634414802915}}}, "icon": "https://maps.gstatic.com/mapfiles/place_api/icons/generic_business-71.png", "id": "c23a5682e41bccfd321ed513572857a835fe2030", "name": "Hendricks Therese", "place_id": "ChIJPbS_0Zpw44kRd2GrtgEzScs", "plus_code": {"compound_code": "9W6Q+74 Boston, Massachusetts, United States", "global_code": "87JC9W6Q+74"}, "reference": "ChIJPbS_0Zpw44kRd2GrtgEzScs", "scope": "GOOGLE", "types": ["lawyer", "point_of_interest", "establishment"], "vicinity": "100 Cambridge Street, Boston"}, "ChIJPbS_0Zpw44kRZ2biZUb4LcQ": {"geometry": {"location": {"lat": 42.36072670000001, "lng": -71.0621717}, "viewport": {"northeast": {"lat": 42.3622572802915, "lng": -71.0607435197085}, "southwest": {"lat": 42.3595593197085, "lng": -71.0634414802915}}}, "icon": "https://maps.gstatic.com/mapfiles/place_api/icons/generic_business-71.png", "id": "ad35f14dff1b87f5f210efe065a542df467db86f", "name": "Saunders Thomas", "place_id": "ChIJPbS_0Zpw44kRZ2biZUb4LcQ", "plus_code": {"compound_code": "9W6Q+74 Boston, Massachusetts, United States", "global_code": "87JC9W6Q+74"}, "reference": "ChIJPbS_0Zpw44kRZ2biZUb4LcQ", "scope": "GOOGLE", "types": ["lawyer", "point_of_interest", "establishment"], "vicinity": "100 Cambridge Street, Boston"}, "ChIJPbS_0Zpw44kR2lNtD4GLOV8": {"geometry": {"location": {"lat": 42.36072670000001, "lng": -71.0621717}, "viewport": {"northeast": {"lat": 42.3622572802915, "lng": -71.0607435197085}, "southwest": {"lat": 42.3595593197085, "lng": -71.0634414802915}}}, "icon": "https://maps.gstatic.com/mapfiles/place_api/icons/generic_business-71.png", "id": "eb51a77bccb03073b297d3cf2c63659ccc756006", "name": "Oliverio Michael", "place_id": "ChIJPbS_0Zpw44kR2lNtD4GLOV8", "plus_code": {"compound_code": "9W6Q+74 Boston, Massachusetts, United States", "global_code": "87JC9W6Q+74"}, "reference": "ChIJPbS_0Zpw44kR2lNtD4GLOV8", "scope": "GOOGLE", "types": ["lawyer", "point_of_interest", "establishment"], "vicinity": "100 Cambridge Street, Boston"}, "ChIJT84qgp5w44kR2MRBT4FBDq0": {"geometry": {"location": {"lat": 42.3587999, "lng": -71.0707389}, "viewport": {"northeast": {"lat": 42.3611918, "lng": -71.0604501}, "southwest": {"lat": 42.3554044, "lng": -71.0730243}}}, "icon": "https://maps.gstatic.com/mapfiles/place_api/icons/geocode-71.png", "id": "fac7126b486af397364666a201134b34436961e1", "name": "Beacon Hill", "photos": [{"height": 533, "html_attributions": ["<a href=\"https://maps.google.com/maps/contrib/107493965504695166609/photos\">Alan Pembshaw</a>"], "photo_reference": "CmRaAAAAXYVzNmua0CU-0ukGYGVV6Ka6ADRBfydL_wug1giKYRLRqqoqcQejNgKGItipxrt5GLNaAG-zB1GhvqxES66giyfIJlH3o8Ja4WkagJojaH6ULo7AbIk6BCuYZIcwxDoOEhCAtcrW8qxoGtCqByHmk-SHGhTg3ySkh07WCXEuTkTlsqUKbXSpgQ", "width": 799}], "place_id": "ChIJT84qgp5w44kR2MRBT4FBDq0", "reference": "ChIJT84qgp5w44kR2MRBT4FBDq0", "scope": "GOOGLE", "types": ["neighborhood", "political"], "vicinity": "Boston"}}