{"ChIJGzE9DS1l44kRoOhiASS_fHg": {"geometry": {"location": {"lat": 42.3600825, "lng": -71.0588801}, "viewport": {"northeast": {"lat": 42.40081989999999, "lng": -70.749455}, "southwest": {"lat": 42.22788, "lng": -71.191113}}}, "icon": "https://maps.gstatic.com/mapfiles/place_api/icons/geocode-71.png", "id": "06755c25d2b34d13942a4713971756a55b870ced", "name": "Boston", "photos": [{"height": 3024, "html_attributions": ["<a href=\"https://maps.google.com/maps/contrib/104670289779338733432/photos\">Natalia Zalucean</a>"], "photo_reference": "CmRaAAAAYyJbg2Rx8P5MieRwHZreZPz4JFvWUYzBb7dcMcIb8CTD59nKII05ihBTsG60_ZSdAgI80d-8gsVxberzF2C845waSmf-LFTlHOdoHL__Fvqy0mBcWbsTPJ2KU8ayRZh_EhCu93UBIFNmruHVVZyq2GUaGhReFavZLViwyB_9rlEC2LUhrLTjlQ", "width": 4032}], "place_id": "ChIJGzE9DS1l44kRoOhiASS_fHg", "reference": "ChIJGzE9DS1l44kRoOhiASS_fHg", "scope": "GOOGLE", "types": ["locality", "political"], "vicinity": "Boston"}, "ChIJs3zNhdN544kRv-fTk4dWORg": {"geometry": {"location": {"lat": 42.35514609999999, "lng": -71.0630006}, "viewport": {"northeast": {"lat": 42.3564456302915, "lng": -71.0616971197085}, "southwest": {"lat": 42.3537476697085, "lng": -71.0643950802915}}}, "icon": "https://maps.gstatic.com/mapfiles/place_api/icons/generic_business-71.png", "id": "add8268cd4f9c8aa561677ed2a8872c58012d755", "name": "Bridge Over Troubled Waters Inc", "opening_hours": {"open_now": false}, "photos": [{"height": 3024, "html_attributions": ["<a href=\"https://maps.google.com/maps/contrib/100697350679527463457/photos\">Roland Whyte</a>"], "photo_reference": "CmRaAAAAVhtiywehnNFLuEn8Gbs6YFLDDvF7PfwUM-HYqeFAOkH-iX85C6PgDuxGGk9TtODiS-VMHoPUJlI8JVi2foClqHe1CAsjXIQQxsbORpN15bYaqsTGSNKj-PB8SiY8K6guEhAi3GWVDz5qRA6znY9_IdbNGhRpmg41bmIROt8JobkAkmXb-6g6Ag", "width": 4032}], "place_id": "ChIJs3zNhdN544kRv-fTk4dWORg", "plus_code": {"compound_code": "9W4P+3Q Boston, Massachusetts, United States", "global_code": "87JC9W4P+3Q"}, "rating": 4.3, "reference": "ChIJs3zNhdN544kRv-fTk4dWORg", "scope": "GOOGLE", "types": ["point_of_interest", "establishment"], "user_ratings_total": 22, "vicinity": "47 West Street, Boston"}, "ChIJC3yBIoNw44kRTLQCUX7w3J8": {"geometry": {"location": {"lat": 42.35549580000001, "lng": -71.0594338}, "viewport": {"northeast": {"lat": 42.3580143, "lng": -71.0572826}, "southwest": {"lat": 42.3531629, "lng": -71.0633258}}}, "icon": "https://maps.gstatic.com/mapfiles/place_api/icons/geocode-71.png", "id": "b17444457334b229c72e82dab5a3242f1d0e2a61", "name": "Downtown Crossing", "photos": [{"height": 3120, "html_attributions": ["<a href=\"https://maps.google.com/maps/contrib/111777007894721839306/photos\">verona mantova</a>"], "photo_reference": "CmRaAAAAe-NB_OovDWyiPWKzMxxMQXvUlsyZi8UeNkzpt2cpT3KuG1AiRQmwzO9IFjNxUSnXYSG2DGY3ZKOj8tBq9Stgq2Cv3fwBssGWkh4lodU_WrNcR83J7_q3jwv3bsaE25FYEhAi9PESZ8m7Ck_9scUBjNThGhQxF8nesk4thptY2HgtKjN45KxjCQ", "width": 4160}], "place_id": "ChIJC3yBIoNw44kRTLQCUX7w3J8", "reference": "ChIJC3yBIoNw44kRTLQCUX7w3J8", "scope": "GOOGLE", "types": ["neighborhood", "political"], "vicinity": "Boston"}}