{"ChIJX8wwy6Vw44kRh2xoiWSOOsU": {"geometry": {"location": {"lat": 42.3736158, "lng": -71.10973349999999}, "viewport": {"northeast": {"lat": 42.4043839, "lng": -71.06548719999999}, "southwest": {"lat": 42.3523968, "lng": -71.16033209999999}}}, "icon": "https://maps.gstatic.com/mapfiles/place_api/icons/geocode-71.png", "id": "6d2faadca7159347cc68b047055a94b00fec6032", "name": "Cambridge", "photos": [{"height": 2000, "html_attributions": ["<a href=\"https://maps.google.com/maps/contrib/115519834423791060860/photos\">Luca Raggi</a>"], "photo_reference": "CmRaAAAAzHjorEJvtC8bYXy8n5tEwkvMAw4gzEnsFFQi5QkQwevnM3YvwYhg_24RIexUUtP8IR5m61fq32w4THcHPREXKym1kDoZkf8tEamcbVbXbcth26NjarjR_MHHuq8vlN6uEhBb9n2GvArDqqkSu6Bapt73GhSxDsFUPl70fLZxzhTgAH7uIAXcZA", "width": 3008}], "place_id": "ChIJX8wwy6Vw44kRh2xoiWSOOsU", "reference": "ChIJX8wwy6Vw44kRh2xoiWSOOsU", "scope": "GOOGLE", "types": ["locality", "political"], "vicinity": "Cambridge"}, "ChIJn9QPAL1w44kRbAr2EvmgGRw": {"geometry": {"location": {"lat": 42.3682962, "lng": -71.0765241}, "viewport": {"northeast": {"lat": 42.3696451802915, "lng": -71.07517511970849}, "southwest": {"lat": 42.3669472197085, "lng": -71.07787308029151}}}, "icon": "https://maps.gstatic.com/mapfiles/place_api/icons/restaurant-71.png", "id": "19e1a167618d255662d8aa8ddf1efe38fcde966b", "name": "Taco Bell", "opening_hours": {"open_now": true}, "photos": [{"height": 4608, "html_attributions": ["<a href=\"https://maps.google.com/maps/contrib/113808942229463633554/photos\">Yvonne Weber</a>"], "photo_reference": "CmRaAAAAOsHnH1nUac2Lch6cpOibnSYzzpPCFEjbc8aFGVso9Utm9cEE9i8JLp8UrvMZWnK1jUY5D_WSrrb3LwNNCaW6f-6zf6Sg68NC85q3EaTixLGkA_qL_wf42ieyeSuFGV8rEhBsVtICZls315RCdu8INdSWGhRdrwZ2_3qKFBjVdoTsQ4ZXRxpjBA", "width": 3456}], "place_id": "ChIJn9QPAL1w44kRbAr2EvmgGRw", "plus_code": {"compound_code": "9W9F+89 Cambridge, Massachusetts, United States", "global_code": "87JC9W9F+89"}, "rating": 3.7, "reference": "ChIJn9QPAL1w44kRbAr2EvmgGRw", "scope": "GOOGLE", "types": ["meal_takeaway", "store", "restaurant", "point_of_interest", "food", "establishment"], "user_ratings_total": 53, "vicinity": "100 Cambridgeside Place, Cambridge"}, "ChIJX0_537tw44kRQ_plMiY4Oho": {"geometry": {"location": {"lat": 42.3683353, "lng": -71.08246129999999}, "viewport": {"northeast": {"lat": 42.3752941, "lng": -71.06452879999999}, "southwest": {"lat": 42.361597, "lng": -71.0897255}}}, "icon": "https://maps.gstatic.com/mapfiles/place_api/icons/geocode-71.png", "id": "64e7e90b90c07d648f3466a5f81dbcabb2b0e866", "name": "East Cambridge", "photos": [{"height": 1071, "html_attributions": ["<a href=\"https://maps.google.com/maps/contrib/118253407214278338022/photos\">Marko L\u00f5oke</a>"], "photo_reference": "CmRaAAAAZEsD4qJBewDYXdBknE0k7G1uK6JNVZRqpt1uST0JJ3TwQITuFw0ndlBjZIkpz3hOHrZCzG07KsAyRUM-mL89M_MrIX1C7Ik6BEJzOW88GXo0Owb1mMv7c-q3vnvN9qpZEhBnhBHuXNGQyz_HyyWNWZnKGhQpLW0o3hmm4IVNDhySsz4aGP7Pmg", "width": 1600}], "place_id": "ChIJX0_537tw44kRQ_plMiY4Oho", "reference": "ChIJX0_537tw44kRQ_plMiY4Oho", "scope": "GOOGLE", "types": ["neighborhood", "political"], "vicinity": "Cambridge"}}