{"ChIJGzE9DS1l44kRoOhiASS_fHg": {"geometry": {"location": {"lat": 42.3600825, "lng": -71.0588801}, "viewport": {"northeast": {"lat": 42.40081989999999, "lng": -70.749455}, "southwest": {"lat": 42.22788, "lng": -71.191113}}}, "icon": "https://maps.gstatic.com/mapfiles/place_api/icons/geocode-71.png", "id": "06755c25d2b34d13942a4713971756a55b870ced", "name": "Boston", "photos": [{"height": 3024, "html_attributions": ["<a href=\"https://maps.google.com/maps/contrib/104670289779338733432/photos\">Natalia Zalucean</a>"], "photo_reference": "CmRaAAAANL4aA_96hlECWcU5Nitk5cW0UQkcD49_muftWr7qoFdRggVkajhzyaputfJRaCaGl5DCWlvLh_Efw4WexpJqzANw5nrbu8-lw1wPxrF9IlaetB6jN7Qf16OvlmDJIehHEhCGVQTr5RBi76g7I4AWLhmqGhQiUiEqXCc9ExtYBpr8aYxgP0yAhw", "width": 4032}], "place_id": "ChIJGzE9DS1l44kRoOhiASS_fHg", "reference": "ChIJGzE9DS1l44kRoOhiASS_fHg", "scope": "GOOGLE", "types": ["locality", "political"], "vicinity": "Boston"}, "ChIJYVdYIoJw44kRYzNQEIzm3tM": {"geometry": {"location": {"lat": 42.3533208, "lng": -71.0563203}, "viewport": {"northeast": {"lat": 42.35474913029149, "lng": -71.0550479197085}, "southwest": {"lat": 42.3520511697085, "lng": -71.0577458802915}}}, "icon": "https://maps.gstatic.com/mapfiles/place_api/icons/generic_business-71.png", "id": "53714db520b6503762bccbae4f5a6a6ea7551779", "name": "Financial Perspectives Inc", "place_id": "ChIJYVdYIoJw44kRYzNQEIzm3tM", "plus_code": {"compound_code": "9W3V+8F Boston, Massachusetts, United States", "global_code": "87JC9W3V+8F"}, "reference": "ChIJYVdYIoJw44kRYzNQEIzm3tM", "scope": "GOOGLE", "types": ["finance", "point_of_interest", "establishment"], "vicinity": "175 Federal Street # 6, Boston"}, "ChIJYVdYIoJw44kRuaq4iqIHVvA": {"geometry": {"location": {"lat": 42.3534404, "lng": -71.0563155}, "viewport": {"northeast": {"lat": 42.3548299302915, "lng": -71.05500566970849}, "southwest": {"lat": 42.3521319697085, "lng": -71.0577036302915}}}, "icon": "https://maps.gstatic.com/mapfiles/place_api/icons/generic_business-71.png", "id": "65093d72447bfa966874801cbafc31270e0cada1", "name": "C Change Investments", "place_id": "ChIJYVdYIoJw44kRuaq4iqIHVvA", "plus_code": {"compound_code": "9W3V+9F Boston, Massachusetts, United States", "global_code": "87JC9W3V+9F"}, "reference": "ChIJYVdYIoJw44kRuaq4iqIHVvA", "scope": "GOOGLE", "types": ["finance", "point_of_interest", "establishment"], "vicinity": "175 Federal Street # 1440, Boston"}, "ChIJYVdYIoJw44kRA1XhtOLm3Mo": {"geometry": {"location": {"lat": 42.3533208, "lng": -71.0563203}, "viewport": {"northeast": {"lat": 42.35474913029149, "lng": -71.0550479197085}, "southwest": {"lat": 42.3520511697085, "lng": -71.0577458802915}}}, "icon": "https://maps.gstatic.com/mapfiles/place_api/icons/generic_business-71.png", "id": "0b11898ee9e6e3d73c5b14b66d8b0359f741f83f", "name": "John Lawler Fx", "place_id": "ChIJYVdYIoJw44kRA1XhtOLm3Mo", "plus_code": {"compound_code": "9W3V+8F Boston, Massachusetts, United States", "global_code": "87JC9W3V+8F"}, "reference": "ChIJYVdYIoJw44kRA1XhtOLm3Mo", "scope": "GOOGLE", "types": ["lawyer", "point_of_interest", "establishment"], "vicinity": "175 Federal Street, Boston"}, "ChIJYVdYIoJw44kReoZEosUrKjM": {"geometry": {"location": {"lat": 42.3534404, "lng": -71.0563155}, "viewport": {"northeast": {"lat": 42.3548299302915, "lng": -71.05500566970849}, "southwest": {"lat": 42.3521319697085, "lng": -71.0577036302915}}}, "icon": "https://maps.gstatic.com/mapfiles/place_api/icons/generic_business-71.png", "id": "99ef144cc7f158f6eeaf99083021bccd486612e8", "name": "Kelly Martin Malone", "place_id": "ChIJYVdYIoJw44kReoZEosUrKjM", "plus_code": {"compound_code": "9W3V+9F Boston, Massachusetts, United States", "global_code": "87JC9W3V+9F"}, "reference": "ChIJYVdYIoJw44kReoZEosUrKjM", "scope": "GOOGLE", "types": ["lawyer", "point_of_interest", "establishment"], "vicinity": "175 Federal Street, Boston"}, "ChIJYVdYIoJw44kRrV4Mrgtc4ZA": {"geometry": {"location": {"lat": 42.3533208, "lng": -71.0563203}, "viewport": {"northeast": {"lat": 42.35474913029149, "lng": -71.0550479197085}, "southwest": {"lat": 42.3520511697085, "lng": -71.0577458802915}}}, "icon": "https://maps.gstatic.com/mapfiles/place_api/icons/generic_business-71.png", "id": "09128136964db81fb904536dbd5622b5ffc19995", "name": "I Star Financial Inc", "place_id": "ChIJYVdYIoJw44kRrV4Mrgtc4ZA", "plus_code": {"compound_code": "9W3V+8F Boston, Massachusetts, United States", "global_code": "87JC9W3V+8F"}, "reference": "ChIJYVdYIoJw44kRrV4Mrgtc4ZA", "scope": "GOOGLE", "types": ["real_estate_agency", "point_of_interest", "establishment"], "vicinity": "175 Federal Street # 8, Boston"}, "ChIJYVdYIoJw44kRn-TPO6cBfWw": {"geometry": {"location": {"lat": 42.3533208, "lng": -71.0563203}, "viewport": {"northeast": {"lat": 42.35474913029149, "lng": -71.0550479197085}, "southwest": {"lat": 42.3520511697085, "lng": -71.0577458802915}}}, "icon": "https://maps.gstatic.com/mapfiles/place_api/icons/generic_business-71.png", "id": "cdbed627c14267c68b1fa2dd00c0349ed1140e97", "name": "Braintree Capital Partners", "photos": [{"height": 963, "html_attributions": ["<a href=\"https://maps.google.com/maps/contrib/106628825097286144918/photos\">Braintree Capital Partners</a>"], "photo_reference": "CmRaAAAAE3ZJFvUhua6J0h0g6sk_GTAbE1h6gkr7MWyuoMnhD8TMHkon-S-6CK95yQkZixPpkZx7f2KLQ5Gx5k8sji8wGP4MyG8YU6v0cKsQD5wvUMwECGyBzMqiMRliOLPoe7ggEhByiNwu_FZlUvX7n0qNAK0fGhSlZpsTbMEUtFazBV9nUhzz9nV1pQ", "width": 1614}], "place_id": "ChIJYVdYIoJw44kRn-TPO6cBfWw", "plus_code": {"compound_code": "9W3V+8F Boston, Massachusetts, United States", "global_code": "87JC9W3V+8F"}, "rating": 5, "reference": "ChIJYVdYIoJw44kRn-TPO6cBfWw", "scope": "GOOGLE", "types": ["finance", "point_of_interest", "establishment"], "user_ratings_total": 1, "vicinity": "175 Federal Street, 5th Floor, Boston"}, "ChIJYVdYIoJw44kRTyW9xbXy6pw": {"geometry": {"location": {"lat": 42.3533208, "lng": -71.0563203}, "viewport": {"northeast": {"lat": 42.35474913029149, "lng": -71.0550479197085}, "southwest": {"lat": 42.3520511697085, "lng": -71.0577458802915}}}, "icon": "https://maps.gstatic.com/mapfiles/place_api/icons/generic_business-71.png", "id": "ba31da45747e3bf9e38207e123d6ebb6c30aef09", "name": "John N Fabrizio Associates", "place_id": "ChIJYVdYIoJw44kRTyW9xbXy6pw", "plus_code": {"compound_code": "9W3V+8F Boston, Massachusetts, United States", "global_code": "87JC9W3V+8F"}, "reference": "ChIJYVdYIoJw44kRTyW9xbXy6pw", "scope": "GOOGLE", "types": ["point_of_interest", "establishment"], "vicinity": "175 Federal Street, Boston"}, "ChIJYVdYIoJw44kRhzn4jDDEl2I": {"geometry": {"location": {"lat": 42.3533208, "lng": -71.0563203}, "viewport": {"northeast": {"lat": 42.35474913029149, "lng": -71.0550479197085}, "southwest": {"lat": 42.3520511697085, "lng": -71.0577458802915}}}, "icon": "https://maps.gstatic.com/mapfiles/place_api/icons/generic_business-71.png", "id": "2beab3b737160e59d1226018c686b8fa698ca173", "name": "Digital Equipment Corporation", "place_id": "ChIJYVdYIoJw44kRhzn4jDDEl2I", "plus_code": {"compound_code": "9W3V+8F Boston, Massachusetts, United States", "global_code": "87JC9W3V+8F"}, "reference": "ChIJYVdYIoJw44kRhzn4jDDEl2I", "scope": "GOOGLE", "types": ["point_of_interest", "establishment"], "vicinity": "175 Federal Street, Boston"}, "ChIJYVdYIoJw44kREsuHCrqWV9E": {"geometry": {"location": {"lat": 42.3534404, "lng": -71.0563155}, "viewport": {"northeast": {"lat": 42.3548299302915, "lng": -71.05500566970849}, "southwest": {"lat": 42.3521319697085, "lng": -71.0577036302915}}}, "icon": "https://maps.gstatic.com/mapfiles/place_api/icons/generic_business-71.png", "id": "1cf972298ddd61ac5710fdbdd8479c7a947373cf", "name": "Safeharbor Consulting & Management: Finnegan Brent", "place_id": "ChIJYVdYIoJw44kREsuHCrqWV9E", "plus_code": {"compound_code": "9W3V+9F Boston, Massachusetts, United States", "global_code": "87JC9W3V+9F"}, "reference": "ChIJYVdYIoJw44kREsuHCrqWV9E", "scope": "GOOGLE", "types": ["insurance_agency", "point_of_interest", "establishment"], "vicinity": "175 Federal Street # 725, Boston"}, "ChIJZSO0RIFw44kRMwtkx6QJp2U": {"geometry": {"location": {"lat": 42.3559219, "lng": -71.05497679999999}, "viewport": {"northeast": {"lat": 42.3595222, "lng": -71.05148729999999}, "southwest": {"lat": 42.351489, "lng": -71.0593777}}}, "icon": "https://maps.gstatic.com/mapfiles/place_api/icons/geocode-71.png", "id": "a299437eec467c3c4fb5ec448e81048caef8aacf", "name": "Financial District", "photos": [{"height": 2403, "html_attributions": ["<a href=\"https://maps.google.com/maps/contrib/115111503217500241431/photos\">Jane Wong</a>"], "photo_reference": "CmRaAAAApEKVU61-6Hse5DXeM1EqzSl_VVPGfVNrRxuWr97dn4UNXsb9fdMeho_zbUPw1KY4agB9PzfBwiF87gbTiNQDqfKp0Vx6sw9bRSa-1dGRe2s2Sw86UKbyP_qzU-dG_am2EhA0ctfDTvdlR3S46Wiu5AMeGhQyH0EL0Ayd3pLOEggptWzfCa4xmQ", "width": 3206}], "place_id": "ChIJZSO0RIFw44kRMwtkx6QJp2U", "reference": "ChIJZSO0RIFw44kRMwtkx6QJp2U", "scope": "GOOGLE", "types": ["neighborhood", "political"], "vicinity": "Boston"}}