{"ChIJS0zf6nh644kRhTzWXyx0cjU": {"geometry": {"location": {"lat": 42.3509349, "lng": -71.057377}, "viewport": {"northeast": {"lat": 42.35228388029149, "lng": -71.05602801970849}, "southwest": {"lat": 42.3495859197085, "lng": -71.0587259802915}}}, "icon": "https://maps.gstatic.com/mapfiles/place_api/icons/geocode-71.png", "id": "8514622c914260fe39a53a978fcf3f837e2ef6d8", "name": "144-96 South St", "place_id": "ChIJS0zf6nh644kRhTzWXyx0cjU", "reference": "ChIJS0zf6nh644kRhTzWXyx0cjU", "scope": "GOOGLE", "types": ["route"], "vicinity": "Boston"}, "ChIJxV-hlXh644kRAlzS-i5SeGw": {"geometry": {"location": {"lat": 42.3511431, "lng": -71.0573158}, "viewport": {"northeast": {"lat": 42.3524893802915, "lng": -71.0559429697085}, "southwest": {"lat": 42.3497914197085, "lng": -71.0586409302915}}}, "icon": "https://maps.gstatic.com/mapfiles/place_api/icons/generic_business-71.png", "id": "1799ff22af926c846cb2822940606e0d816d7461", "name": "Seeley David", "place_id": "ChIJxV-hlXh644kRAlzS-i5SeGw", "plus_code": {"compound_code": "9W2V+F3 Boston, Massachusetts, United States", "global_code": "87JC9W2V+F3"}, "reference": "ChIJxV-hlXh644kRAlzS-i5SeGw", "scope": "GOOGLE", "types": ["point_of_interest", "establishment"], "vicinity": "102 South Street #4, Boston"}, "ChIJTau8lXh644kRL8NUMDHuQjw": {"geometry": {"location": {"lat": 42.35114290000001, "lng": -71.05731589999999}, "viewport": {"northeast": {"lat": 42.3524891802915, "lng": -71.0559430197085}, "southwest": {"lat": 42.3497912197085, "lng": -71.0586409802915}}}, "icon": "https://maps.gstatic.com/mapfiles/place_api/icons/generic_business-71.png", "id": "1581503142b84e86a10e6d833788cf53ef30cca2", "name": "Filament Group", "photos": [{"height": 2048, "html_attributions": ["<a href=\"https://maps.google.com/maps/contrib/100802764461312940448/photos\">Jennifer Jones</a>"], "photo_reference": "CmRaAAAAkt9ID2FZHFk1jzIxjMAKMtKU4eUfcYeBs0aHn4vxH5YSSZX1wlzBWxuEWPAkVvadjKpAP9Unl3Hx5YD1jnKw24ibEvDUauDW1WVHbQ_KVZBBFKOaXTmQTE9IElzCs93mEhCWdKjciGWGIlL1v_wPWhN9GhT4cmkmwKBod4zzBQ2edMvkmxR2gg", "width": 1536}], "place_id": "ChIJTau8lXh644kRL8NUMDHuQjw", "plus_code": {"compound_code": "9W2V+F3 Boston, Massachusetts, United States", "global_code": "87JC9W2V+F3"}, "reference": "ChIJTau8lXh644kRL8NUMDHuQjw", "scope": "GOOGLE", "types": ["point_of_interest", "establishment"], "vicinity": "102 South Street #3, Boston"}, "ChIJo8ZMvnh644kR3ivZbTKMBsU": {"geometry": {"location": {"lat": 42.3510844, "lng": -71.0572942}, "viewport": {"northeast": {"lat": 42.3524343802915, "lng": -71.0559541697085}, "southwest": {"lat": 42.3497364197085, "lng": -71.0586521302915}}}, "icon": "https://maps.gstatic.com/mapfiles/place_api/icons/restaurant-71.png", "id": "4f8d2494510762180378d5779c88f3d65dea4c44", "name": "The Kitchen Caf\u00e9", "opening_hours": {"open_now": false}, "photos": [{"height": 3024, "html_attributions": ["<a href=\"https://maps.google.com/maps/contrib/109614864366507130427/photos\">The Kitchen Caf\u00e9</a>"], "photo_reference": "CmRaAAAAW32AeQixeFC2NX7s07bj_SO-dMG5QQ3qYsoQkPQBI0XVUepMbYUGbyGL3vPFwVZnVLZZTn2Rn0iMI2mhA795SFBfZW1LxSldSHtxo2n5NbFHokxoWaXUu1o-YYSgj4dDEhB_ggd0lmhGNptr2N3gr0ZmGhS26boCBMyBdqDIFsYJEn5RuVyY_w", "width": 4032}], "place_id": "ChIJo8ZMvnh644kR3ivZbTKMBsU", "plus_code": {"compound_code": "9W2V+C3 Boston, Massachusetts, United States", "global_code": "87JC9W2V+C3"}, "rating": 4.9, "reference": "ChIJo8ZMvnh644kR3ivZbTKMBsU", "scope": "GOOGLE", "types": ["cafe", "store", "restaurant", "point_of_interest", "food", "establishment"], "user_ratings_total": 73, "vicinity": "104 South Street, Boston"}, "ChIJGzE9DS1l44kRoOhiASS_fHg": {"geometry": {"location": {"lat": 42.3600825, "lng": -71.0588801}, "viewport": {"northeast": {"lat": 42.40081989999999, "lng": -70.749455}, "southwest": {"lat": 42.22788, "lng": -71.191113}}}, "icon": "https://maps.gstatic.com/mapfiles/place_api/icons/geocode-71.png", "id": "06755c25d2b34d13942a4713971756a55b870ced", "name": "Boston", "photos": [{"height": 3024, "html_attributions": ["<a href=\"https://maps.google.com/maps/contrib/104670289779338733432/photos\">Natalia Zalucean</a>"], "photo_reference": "CmRaAAAA6hXOcxVha_xs7QE4cvUify0BFJDCpMzOHomr6Hai4G87G_Rj-E6d8KLwxOJlAupJu-jQhp5gIsx7_iwQp228RmG-VwyjYHnwGEg1diaS0GF-vwJZBSeKjDc5ajKpR-XkEhBbf1D6hrHJ88IXNklr2Wa5GhR0UL3C_YeFelft-A39ntfDfk8zjw", "width": 4032}], "place_id": "ChIJGzE9DS1l44kRoOhiASS_fHg", "reference": "ChIJGzE9DS1l44kRoOhiASS_fHg", "scope": "GOOGLE", "types": ["locality", "political"], "vicinity": "Boston"}}