{"ChIJhZirQQB544kRB9LbXEfedZQ": {"geometry": {"location": {"lat": 42.33176419999999, "lng": -71.1211635}, "viewport": {"northeast": {"lat": 42.3518109, "lng": -71.1056969}, "southwest": {"lat": 42.29459689999999, "lng": -71.1789959}}}, "icon": "https://maps.gstatic.com/mapfiles/place_api/icons/geocode-71.png", "id": "92986b2d1f69af2f2a7e29d34ced8adfa8573beb", "name": "Brookline", "photos": [{"height": 651, "html_attributions": ["<a href=\"https://maps.google.com/maps/contrib/114772942214832951419/photos\">Michael Ahn</a>"], "photo_reference": "CmRaAAAAIwSXntWcu4Dg0fgbQV0ClBxENBdgGTAruayNWJim1WvCM5utrjJn5AKneJKfTtUqVuv6sV12lJTvsOqmVrh0-mOYSmUBG149jUVGyh_33sjYunT90ZIeyS9e9YPOCCfGEhARWkZYYbuPoj0ksI-FBdIzGhRAsf5orrrWZHzeDnjt9RHW52V_HQ", "width": 1608}], "place_id": "ChIJhZirQQB544kRB9LbXEfedZQ", "reference": "ChIJhZirQQB544kRB9LbXEfedZQ", "scope": "GOOGLE", "types": ["locality", "political"], "vicinity": "Brookline"}, "ChIJUxUAwf5444kRkwbDz3oqU24": {"geometry": {"location": {"lat": 42.3259703, "lng": -71.1497595}, "viewport": {"northeast": {"lat": 42.3271752802915, "lng": -71.14839636970848}, "southwest": {"lat": 42.3244773197085, "lng": -71.1510943302915}}}, "icon": "https://maps.gstatic.com/mapfiles/place_api/icons/generic_business-71.png", "id": "8f5110199b6123b2935eb9bb860ab582130a360a", "name": "Dr. Larisa E. Connors, MD", "place_id": "ChIJUxUAwf5444kRkwbDz3oqU24", "plus_code": {"compound_code": "8VG2+93 Brookline, Massachusetts, United States", "global_code": "87JC8VG2+93"}, "reference": "ChIJUxUAwf5444kRkwbDz3oqU24", "scope": "GOOGLE", "types": ["doctor", "health", "point_of_interest", "establishment"], "vicinity": "850 Boylston Street, Chestnut Hill"}, "ChIJUxUAwf5444kRJ4jKft52PM4": {"geometry": {"location": {"lat": 42.3259703, "lng": -71.1497327}, "viewport": {"northeast": {"lat": 42.3271759802915, "lng": -71.1483696197085}, "southwest": {"lat": 42.3244780197085, "lng": -71.15106758029151}}}, "icon": "https://maps.gstatic.com/mapfiles/place_api/icons/generic_business-71.png", "id": "89d860d97e9330f73fc729addd12ccaf6db68070", "name": "Brigham and Women's Hospital Division of Rheumatology, Immunology and Allergy", "opening_hours": {"open_now": true}, "place_id": "ChIJUxUAwf5444kRJ4jKft52PM4", "plus_code": {"compound_code": "8VG2+94 Brookline, Massachusetts, United States", "global_code": "87JC8VG2+94"}, "rating": 3.5, "reference": "ChIJUxUAwf5444kRJ4jKft52PM4", "scope": "GOOGLE", "types": ["doctor", "health", "point_of_interest", "establishment"], "user_ratings_total": 6, "vicinity": "850 Boylston Street, Chestnut Hill"}, "ChIJ37JgWv5444kRzywNo5Mrvy8": {"geometry": {"location": {"lat": 42.32596040000001, "lng": -71.1497353}, "viewport": {"northeast": {"lat": 42.3271709302915, "lng": -71.1483727197085}, "southwest": {"lat": 42.3244729697085, "lng": -71.15107068029151}}}, "icon": "https://maps.gstatic.com/mapfiles/place_api/icons/generic_business-71.png", "id": "ec0161fd7a6a945a3a96b491f9cce77b96aceefe", "name": "Dr. Manisha Thakuria, MD", "place_id": "ChIJ37JgWv5444kRzywNo5Mrvy8", "plus_code": {"compound_code": "8VG2+94 Brookline, Massachusetts, United States", "global_code": "87JC8VG2+94"}, "reference": "ChIJ37JgWv5444kRzywNo5Mrvy8", "scope": "GOOGLE", "types": ["doctor", "health", "point_of_interest", "establishment"], "vicinity": "850 Boylston Street #402, Chestnut Hill"}, "ChIJx67X3eR444kRooYmUfRSJ0o": {"geometry": {"location": {"lat": 42.32250330000001, "lng": -71.155249}, "viewport": {"northeast": {"lat": 42.326606, "lng": -71.14264589999999}, "southwest": {"lat": 42.313249, "lng": -71.16411889999999}}}, "icon": "https://maps.gstatic.com/mapfiles/place_api/icons/geocode-71.png", "id": "261f6fecaf3979bf76921c1b6fe181c960a9e652", "name": "Woodland Heath", "place_id": "ChIJx67X3eR444kRooYmUfRSJ0o", "reference": "ChIJx67X3eR444kRooYmUfRSJ0o", "scope": "GOOGLE", "types": ["neighborhood", "political"], "vicinity": "Brookline"}}