{"ChIJ-Y4X0oNw44kR9RjLjMtq8TY": {"geometry": {"location": {"lat": 42.3546459, "lng": -71.0563707}, "viewport": {"northeast": {"lat": 42.35599488029149, "lng": -71.05502171970849}, "southwest": {"lat": 42.3532969197085, "lng": -71.05771968029151}}}, "icon": "https://maps.gstatic.com/mapfiles/place_api/icons/geocode-71.png", "id": "1e88073e5c4391333b86fa12e6dd7fd0c79c0128", "name": "140-120 Federal St", "place_id": "ChIJ-Y4X0oNw44kR9RjLjMtq8TY", "reference": "ChIJ-Y4X0oNw44kR9RjLjMtq8TY", "scope": "GOOGLE", "types": ["route"], "vicinity": "Boston"}, "ChIJbanY6YNw44kRrh3Gk5FDXI8": {"geometry": {"location": {"lat": 42.3547708, "lng": -71.056393}, "viewport": {"northeast": {"lat": 42.3561237802915, "lng": -71.0550017697085}, "southwest": {"lat": 42.3534258197085, "lng": -71.0576997302915}}}, "icon": "https://maps.gstatic.com/mapfiles/place_api/icons/bank_dollar-71.png", "id": "d1e44b739c6cceb3339cb4e427f7f4d50f5cd4d1", "name": "Capital Bankcard", "place_id": "ChIJbanY6YNw44kRrh3Gk5FDXI8", "plus_code": {"compound_code": "9W3V+WC Boston, Massachusetts, United States", "global_code": "87JC9W3V+WC"}, "reference": "ChIJbanY6YNw44kRrh3Gk5FDXI8", "scope": "GOOGLE", "types": ["bank", "finance", "point_of_interest", "establishment"], "vicinity": "2nd Floor, Federal Street, Boston"}, "ChIJU2hMAoRw44kRMyybZOuRGXk": {"geometry": {"location": {"lat": 42.3547707, "lng": -71.056393}, "viewport": {"northeast": {"lat": 42.3561196802915, "lng": -71.0550440197085}, "southwest": {"lat": 42.3534217197085, "lng": -71.05774198029151}}}, "icon": "https://maps.gstatic.com/mapfiles/place_api/icons/generic_business-71.png", "id": "6a2faf7792d682a4136dfa5e9e03f5f58860c5d5", "name": "Conn Kavanaugh Rosenthal Peisch & Ford, LLP: George M. Ford", "place_id": "ChIJU2hMAoRw44kRMyybZOuRGXk", "plus_code": {"compound_code": "9W3V+WC Boston, Massachusetts, United States", "global_code": "87JC9W3V+WC"}, "reference": "ChIJU2hMAoRw44kRMyybZOuRGXk", "scope": "GOOGLE", "types": ["lawyer", "point_of_interest", "establishment"], "vicinity": "One Federal Street 15th Floor, Boston"}, "ChIJGzE9DS1l44kRoOhiASS_fHg": {"geometry": {"location": {"lat": 42.3600825, "lng": -71.0588801}, "viewport": {"northeast": {"lat": 42.40081989999999, "lng": -70.749455}, "southwest": {"lat": 42.22788, "lng": -71.191113}}}, "icon": "https://maps.gstatic.com/mapfiles/place_api/icons/geocode-71.png", "id": "06755c25d2b34d13942a4713971756a55b870ced", "name": "Boston", "photos": [{"height": 3024, "html_attributions": ["<a href=\"https://maps.google.com/maps/contrib/104670289779338733432/photos\">Natalia Zalucean</a>"], "photo_reference": "CmRaAAAA3Z9qL0okJkrh33dZB5Fn0lGZE9VXWn4fHqw2cb8POXXMLsfc9Br7VEXo0Bxn7JjJz5FH2whmDvu22Yyxog6fLpvjGl1y3cuPpQF19JBJuHAu_fDY47zdk-SaQIyLlhwFEhCNQKSC1ox5xlMcouGMBHPyGhTRekPa1YZ3Ihs9dCJt77glhrED3A", "width": 4032}], "place_id": "ChIJGzE9DS1l44kRoOhiASS_fHg", "reference": "ChIJGzE9DS1l44kRoOhiASS_fHg", "scope": "GOOGLE", "types": ["locality", "political"], "vicinity": "Boston"}}