{"ChIJGzE9DS1l44kRoOhiASS_fHg": {"geometry": {"location": {"lat": 42.3600825, "lng": -71.0588801}, "viewport": {"northeast": {"lat": 42.40081989999999, "lng": -70.749455}, "southwest": {"lat": 42.22788, "lng": -71.191113}}}, "icon": "https://maps.gstatic.com/mapfiles/place_api/icons/geocode-71.png", "id": "06755c25d2b34d13942a4713971756a55b870ced", "name": "Boston", "photos": [{"height": 3024, "html_attributions": ["<a href=\"https://maps.google.com/maps/contrib/104670289779338733432/photos\">Natalia Zalucean</a>"], "photo_reference": "CmRaAAAA1TVUma1NR6dGcpTzDIMAY3JL-Ha8dI028NtBjICQwExpvYH-jVnH_y2YQiN_U5IAuo3tKytjLM_H2RFuFbX_ggn5HuF_45qYRGD27Ro_1lPIrj1RFeEqAhiZQ0qxCPXCEhCfvPCeJjeDyCxvQSAPVZv-GhSPzcyzLm3m5q-l4aLhBQuETq8jTw", "width": 4032}], "place_id": "ChIJGzE9DS1l44kRoOhiASS_fHg", "reference": "ChIJGzE9DS1l44kRoOhiASS_fHg", "scope": "GOOGLE", "types": ["locality", "political"], "vicinity": "Boston"}, "ChIJgQUvPIx544kRFforlKC8ldo": {"geometry": {"location": {"lat": 42.33754099999999, "lng": -71.104968}, "viewport": {"northeast": {"lat": 42.3389580802915, "lng": -71.10357196970851}, "southwest": {"lat": 42.3362601197085, "lng": -71.10626993029152}}}, "icon": "https://maps.gstatic.com/mapfiles/place_api/icons/generic_business-71.png", "id": "51c3d68da100b106529ad480d25694a35ffc3be7", "name": "Pediatric Learning Disabilities Program", "opening_hours": {"open_now": false}, "photos": [{"height": 270, "html_attributions": ["<a href=\"https://maps.google.com/maps/contrib/103117255561403459446/photos\">Pediatric Learning Disabilities Program</a>"], "photo_reference": "CmRaAAAA907Opa_uzW_ls7XasyIhurMt1WFgxIusSV_bqxFDVF-ArmQSF1Nz-sGZf2qU_8S7CmdHv1C0BVWxOugLRNLRgu4uXx0JqYJaysMVe1K703xuhXghv8NSwTEZeqfwTSGDEhBGgjHzBhqhFPrlwwTcXuZdGhSF_fvGh_-ecZkqTeriA8VFSOlF1A", "width": 480}], "place_id": "ChIJgQUvPIx544kRFforlKC8ldo", "plus_code": {"compound_code": "8VQW+22 Boston, Massachusetts, United States", "global_code": "87JC8VQW+22"}, "reference": "ChIJgQUvPIx544kRFforlKC8ldo", "scope": "GOOGLE", "types": ["health", "point_of_interest", "establishment"], "vicinity": "Children's Hospital, 300 Longwood Avenue, Boston"}, "ChIJgQUvPIx544kRKilyyf6CAyQ": {"geometry": {"location": {"lat": 42.3375417, "lng": -71.1050508}, "viewport": {"northeast": {"lat": 42.3389708802915, "lng": -71.1036464197085}, "southwest": {"lat": 42.3362729197085, "lng": -71.1063443802915}}}, "icon": "https://maps.gstatic.com/mapfiles/place_api/icons/generic_business-71.png", "id": "afa72f8ccb1aa45446f506f1ae5e1a8675894741", "name": "Pediatric Neurogenetics Program", "place_id": "ChIJgQUvPIx544kRKilyyf6CAyQ", "plus_code": {"compound_code": "8VQV+2X Boston, Massachusetts, United States", "global_code": "87JC8VQV+2X"}, "reference": "ChIJgQUvPIx544kRKilyyf6CAyQ", "scope": "GOOGLE", "types": ["doctor", "health", "point_of_interest", "establishment"], "vicinity": "Fegan, Boston Children's Hospital, F11, 300 Longwood Avenue, Boston"}, "ChIJAfp8Lh5644kR9PDAZN8nEK8": {"geometry": {"location": {"lat": 42.3428653, "lng": -71.1002881}, "viewport": {"northeast": {"lat": 42.3522779, "lng": -71.0818948}, "southwest": {"lat": 42.332897, "lng": -71.11159599999999}}}, "icon": "https://maps.gstatic.com/mapfiles/place_api/icons/geocode-71.png", "id": "4ca9d423ad416930d3a49da3f2de6540df27b390", "name": "Fenway/Kenmore", "photos": [{"height": 1536, "html_attributions": ["<a href=\"https://maps.google.com/maps/contrib/108749372735406640710/photos\">Joshua Arkin</a>"], "photo_reference": "CmRaAAAAQ931Rax55ZJPGaip2r2dbBSUhulhlTIHoKd3KQNCD47SPaToVNfPET6kt2WuDdgMs3U1BtK7DLyRSX6BNgxxkLsF4LUsrUgiVmQkNur3cgAZlPnFl1c1vHsklBJ_AhDMEhCnlhFweD62qcS0OMWA5rsrGhQ6jSxiKWczQ0DtPVAmZ0ftDIE-0Q", "width": 2048}], "place_id": "ChIJAfp8Lh5644kR9PDAZN8nEK8", "reference": "ChIJAfp8Lh5644kR9PDAZN8nEK8", "scope": "GOOGLE", "types": ["neighborhood", "political"], "vicinity": "Boston"}}