{"ChIJGzE9DS1l44kRoOhiASS_fHg": {"geometry": {"location": {"lat": 42.3600825, "lng": -71.0588801}, "viewport": {"northeast": {"lat": 42.40081989999999, "lng": -70.749455}, "southwest": {"lat": 42.22788, "lng": -71.191113}}}, "icon": "https://maps.gstatic.com/mapfiles/place_api/icons/geocode-71.png", "id": "06755c25d2b34d13942a4713971756a55b870ced", "name": "Boston", "photos": [{"height": 3024, "html_attributions": ["<a href=\"https://maps.google.com/maps/contrib/104670289779338733432/photos\">Natalia Zalucean</a>"], "photo_reference": "CmRaAAAAvSk55VgQeIp6lLOCJZHi6ysMW8B8iHEbD5LerpuF1mcTfcPvN5qtqFjsA0sfKY7xt0u3ZDa8nmhuY8543X-CBDWoeP3ezDRdc1x8iUqFgZZgof-_N2O7JPi5yJv41DViEhA8ufsf7saGfEBziLThIMAtGhRLy6nmoGaRzz_PRJdU9SnRD02TNQ", "width": 4032}], "place_id": "ChIJGzE9DS1l44kRoOhiASS_fHg", "reference": "ChIJGzE9DS1l44kRoOhiASS_fHg", "scope": "GOOGLE", "types": ["locality", "political"], "vicinity": "Boston"}, "ChIJwelwpmp644kRKQBCyN2S4Fc": {"geometry": {"location": {"lat": 42.3362671, "lng": -71.0723436}, "viewport": {"northeast": {"lat": 42.3376160802915, "lng": -71.07099461970849}, "southwest": {"lat": 42.3349181197085, "lng": -71.0736925802915}}}, "icon": "https://maps.gstatic.com/mapfiles/place_api/icons/generic_business-71.png", "id": "384845c3fede411b349e1dcabeacb5fdba010a4a", "name": "Dr. Mir M. Alikhan, MD", "place_id": "ChIJwelwpmp644kRKQBCyN2S4Fc", "plus_code": {"compound_code": "8WPH+G3 Boston, Massachusetts, United States", "global_code": "87JC8WPH+G3"}, "reference": "ChIJwelwpmp644kRKQBCyN2S4Fc", "scope": "GOOGLE", "types": ["doctor", "health", "point_of_interest", "establishment"], "vicinity": "72 East Concord Street, Boston, MA 02118, Boston"}, "ChIJwelwpmp644kRJZzFfJxC_bo": {"geometry": {"location": {"lat": 42.3362671, "lng": -71.0723436}, "viewport": {"northeast": {"lat": 42.33750198029151, "lng": -71.07117261970849}, "southwest": {"lat": 42.33480401970851, "lng": -71.07387058029151}}}, "icon": "https://maps.gstatic.com/mapfiles/place_api/icons/generic_business-71.png", "id": "fe264dafeb9f47bf1dca0da6c58de473f9e59087", "name": "Glassman Seth R MD", "place_id": "ChIJwelwpmp644kRJZzFfJxC_bo", "plus_code": {"compound_code": "8WPH+G3 Boston, Massachusetts, United States", "global_code": "87JC8WPH+G3"}, "reference": "ChIJwelwpmp644kRJZzFfJxC_bo", "scope": "GOOGLE", "types": ["doctor", "health", "point_of_interest", "establishment"], "vicinity": "72 East Concord Street, Boston"}, "ChIJwelwpmp644kRkW1BM_KT1z4": {"geometry": {"location": {"lat": 42.3362671, "lng": -71.0723436}, "viewport": {"northeast": {"lat": 42.33750198029151, "lng": -71.07117261970849}, "southwest": {"lat": 42.33480401970851, "lng": -71.07387058029151}}}, "icon": "https://maps.gstatic.com/mapfiles/place_api/icons/generic_business-71.png", "id": "6b1732164bfb75956f46fc18ec7ee7fb4e502616", "name": "Lindsay Farrer, PhD", "place_id": "ChIJwelwpmp644kRkW1BM_KT1z4", "plus_code": {"compound_code": "8WPH+G3 Boston, Massachusetts, United States", "global_code": "87JC8WPH+G3"}, "reference": "ChIJwelwpmp644kRkW1BM_KT1z4", "scope": "GOOGLE", "types": ["doctor", "health", "point_of_interest", "establishment"], "vicinity": "72 East Concord Street, Boston"}, "ChIJL-EcfGp644kRNGNGuB1rfJA": {"geometry": {"location": {"lat": 42.3362671, "lng": -71.0723436}, "viewport": {"northeast": {"lat": 42.33750198029151, "lng": -71.07117261970849}, "southwest": {"lat": 42.33480401970851, "lng": -71.07387058029151}}}, "icon": "https://maps.gstatic.com/mapfiles/place_api/icons/generic_business-71.png", "id": "fc58e5ec6b11ca56dc7ef931db4360b9b4b4314b", "name": "Boston School-Med Rheumatology: Simms Robert W MD", "place_id": "ChIJL-EcfGp644kRNGNGuB1rfJA", "plus_code": {"compound_code": "8WPH+G3 Boston, Massachusetts, United States", "global_code": "87JC8WPH+G3"}, "reference": "ChIJL-EcfGp644kRNGNGuB1rfJA", "scope": "GOOGLE", "types": ["doctor", "health", "point_of_interest", "establishment"], "vicinity": "72 East Concord Street, Boston"}, "ChIJfeltpmp644kR2-5DpDESNXI": {"geometry": {"location": {"lat": 42.3362671, "lng": -71.0723436}, "viewport": {"northeast": {"lat": 42.33750198029151, "lng": -71.07117261970849}, "southwest": {"lat": 42.33480401970851, "lng": -71.07387058029151}}}, "icon": "https://maps.gstatic.com/mapfiles/place_api/icons/generic_business-71.png", "id": "822857759d6c49fe40678f4170a3752125df5f50", "name": "Skinner Martha M MD", "place_id": "ChIJfeltpmp644kR2-5DpDESNXI", "plus_code": {"compound_code": "8WPH+G3 Boston, Massachusetts, United States", "global_code": "87JC8WPH+G3"}, "reference": "ChIJfeltpmp644kR2-5DpDESNXI", "scope": "GOOGLE", "types": ["doctor", "health", "point_of_interest", "establishment"], "vicinity": "72 East Concord Street, Boston"}, "ChIJwelwpmp644kRBY7SN4sGjlw": {"geometry": {"location": {"lat": 42.3362671, "lng": -71.0723436}, "viewport": {"northeast": {"lat": 42.33750198029151, "lng": -71.07117261970849}, "southwest": {"lat": 42.33480401970851, "lng": -71.07387058029151}}}, "icon": "https://maps.gstatic.com/mapfiles/place_api/icons/generic_business-71.png", "id": "baedb3ad81866ddbab51df9a478cc4a91ccec402", "name": "O'Connell Rosemary A MD", "place_id": "ChIJwelwpmp644kRBY7SN4sGjlw", "plus_code": {"compound_code": "8WPH+G3 Boston, Massachusetts, United States", "global_code": "87JC8WPH+G3"}, "reference": "ChIJwelwpmp644kRBY7SN4sGjlw", "scope": "GOOGLE", "types": ["doctor", "health", "point_of_interest", "establishment"], "vicinity": "72 East Concord Street, Boston"}, "ChIJ--hwpmp644kRal4urz0v1BY": {"geometry": {"location": {"lat": 42.3362671, "lng": -71.0723436}, "viewport": {"northeast": {"lat": 42.33750198029151, "lng": -71.07117261970849}, "southwest": {"lat": 42.33480401970851, "lng": -71.07387058029151}}}, "icon": "https://maps.gstatic.com/mapfiles/place_api/icons/generic_business-71.png", "id": "f39a652ec27ea1c6bebd758139cb48ead409c975", "name": "Jiwani Ali Z MD", "place_id": "ChIJ--hwpmp644kRal4urz0v1BY", "plus_code": {"compound_code": "8WPH+G3 Boston, Massachusetts, United States", "global_code": "87JC8WPH+G3"}, "reference": "ChIJ--hwpmp644kRal4urz0v1BY", "scope": "GOOGLE", "types": ["doctor", "health", "point_of_interest", "establishment"], "vicinity": "72 East Concord Street, Boston"}, "ChIJwelwpmp644kRxgMHZvzCz28": {"geometry": {"location": {"lat": 42.3362671, "lng": -71.0723436}, "viewport": {"northeast": {"lat": 42.33750198029151, "lng": -71.07117261970849}, "southwest": {"lat": 42.33480401970851, "lng": -71.07387058029151}}}, "icon": "https://maps.gstatic.com/mapfiles/place_api/icons/generic_business-71.png", "id": "403019b171bde1ed64185d26a04a69391c379785", "name": "Capelson Roberta", "place_id": "ChIJwelwpmp644kRxgMHZvzCz28", "plus_code": {"compound_code": "8WPH+G3 Boston, Massachusetts, United States", "global_code": "87JC8WPH+G3"}, "reference": "ChIJwelwpmp644kRxgMHZvzCz28", "scope": "GOOGLE", "types": ["doctor", "health", "point_of_interest", "establishment"], "vicinity": "72 East Concord Street # E220, Boston"}, "ChIJwelwpmp644kRJdW7XAX4jDY": {"geometry": {"location": {"lat": 42.3362671, "lng": -71.0723436}, "viewport": {"northeast": {"lat": 42.33750198029151, "lng": -71.07117261970849}, "southwest": {"lat": 42.33480401970851, "lng": -71.07387058029151}}}, "icon": "https://maps.gstatic.com/mapfiles/place_api/icons/generic_business-71.png", "id": "f3edcdba4fe0913b3401796aaa3bbd301bc8f370", "name": "Chalmers Karen A", "place_id": "ChIJwelwpmp644kRJdW7XAX4jDY", "plus_code": {"compound_code": "8WPH+G3 Boston, Massachusetts, United States", "global_code": "87JC8WPH+G3"}, "reference": "ChIJwelwpmp644kRJdW7XAX4jDY", "scope": "GOOGLE", "types": ["doctor", "health", "point_of_interest", "establishment"], "vicinity": "72 East Concord Street # 220, Boston"}, "ChIJfeltpmp644kRmd2HihFZY6o": {"geometry": {"location": {"lat": 42.3362671, "lng": -71.0723436}, "viewport": {"northeast": {"lat": 42.33750198029151, "lng": -71.07117261970849}, "southwest": {"lat": 42.33480401970851, "lng": -71.07387058029151}}}, "icon": "https://maps.gstatic.com/mapfiles/place_api/icons/generic_business-71.png", "id": "7e815a71e3b8ffdf8613868f3aa55ab187ee5b2d", "name": "Freiman Marc R MD", "place_id": "ChIJfeltpmp644kRmd2HihFZY6o", "plus_code": {"compound_code": "8WPH+G3 Boston, Massachusetts, United States", "global_code": "87JC8WPH+G3"}, "reference": "ChIJfeltpmp644kRmd2HihFZY6o", "scope": "GOOGLE", "types": ["doctor", "health", "point_of_interest", "establishment"], "vicinity": "72 East Concord Street, Boston"}, "ChIJs17Comp644kRg-xJ9XGTG2E": {"geometry": {"location": {"lat": 42.336221, "lng": -71.0721884}, "viewport": {"northeast": {"lat": 42.3374355302915, "lng": -71.07104316970849}, "southwest": {"lat": 42.3347375697085, "lng": -71.0737411302915}}}, "icon": "https://maps.gstatic.com/mapfiles/place_api/icons/generic_business-71.png", "id": "0444c1fc57d40118fae3ded9205541b661d7203b", "name": "Good Grief Program at Boston Medical Center", "place_id": "ChIJs17Comp644kRg-xJ9XGTG2E", "plus_code": {"compound_code": "8WPH+F4 Boston, Massachusetts, United States", "global_code": "87JC8WPH+F4"}, "reference": "ChIJs17Comp644kRg-xJ9XGTG2E", "scope": "GOOGLE", "types": ["health", "point_of_interest", "establishment"], "vicinity": "72 East Concord Street #426, Boston"}, "ChIJ28p2uBR644kRGOnQAcK4Txc": {"geometry": {"location": {"lat": 42.3388111, "lng": -71.0765188}, "viewport": {"northeast": {"lat": 42.347756, "lng": -71.0607948}, "southwest": {"lat": 42.331455, "lng": -71.09079799999999}}}, "icon": "https://maps.gstatic.com/mapfiles/place_api/icons/geocode-71.png", "id": "bf793a5ca0b5e36b87cfa6836ddba9f86f2af360", "name": "South End", "photos": [{"height": 2736, "html_attributions": ["<a href=\"https://maps.google.com/maps/contrib/110185226650349094791/photos\">Alex Harm</a>"], "photo_reference": "CmRaAAAAmlPAN8ZzSYg-1d5RHbnaoXftCA1auJ3LZIBOSbtwkczGrxfgjou6jUH_CuJYl2XK871ytyb12NJYfvWntUSD5a7-TPBuBt3IJ2cv319IPi5-MVwSBXrovYNctPfr_BkOEhDk2Xc-jWDr1pw067lOf_3UGhRhUxvLlzW4giZt3tkdBVAHe-B8gw", "width": 3648}], "place_id": "ChIJ28p2uBR644kRGOnQAcK4Txc", "reference": "ChIJ28p2uBR644kRGOnQAcK4Txc", "scope": "GOOGLE", "types": ["neighborhood", "political"], "vicinity": "Boston"}}