{"ChIJmSD8XXR644kRcso_Duu2X3A": {"geometry": {"location": {"lat": 42.35081810000001, "lng": -71.0701885}, "viewport": {"northeast": {"lat": 42.3521670302915, "lng": -71.06883956970849}, "southwest": {"lat": 42.3494690697085, "lng": -71.0715375302915}}}, "icon": "https://maps.gstatic.com/mapfiles/place_api/icons/geocode-71.png", "id": "5b646ee6020828d9070ae6cb2779bbbc1da29b4c", "name": "70-38 Arlington St", "place_id": "ChIJmSD8XXR644kRcso_Duu2X3A", "reference": "ChIJmSD8XXR644kRcso_Duu2X3A", "scope": "GOOGLE", "types": ["route"], "vicinity": "Boston"}, "ChIJEVvPZnR644kRFds7xmUoDSw": {"geometry": {"location": {"lat": 42.350593, "lng": -71.07016}, "viewport": {"northeast": {"lat": 42.3519469302915, "lng": -71.06878981970851}, "southwest": {"lat": 42.3492489697085, "lng": -71.07148778029152}}}, "icon": "https://maps.gstatic.com/mapfiles/place_api/icons/generic_business-71.png", "id": "cddf3def50ed7a78c5b36edf00bf7264a4ed8f9f", "name": "Boston Design and Interiors, Inc.", "opening_hours": {"open_now": true}, "photos": [{"height": 936, "html_attributions": ["<a href=\"https://maps.google.com/maps/contrib/108443170212451072513/photos\">Boston Design and Interiors, Inc.</a>"], "photo_reference": "CmRaAAAATyo4hxosvZL9tqfZigC3y0upTtNRWFCvPM1TBPQsA8tYBGkKv5-_aKxXnG1fRtepXwFmOy8g48Jg4hbS-b4qQ5F89vz44Fa8EWa4w9tw7_mZft66We0obocCsLSBjTWlEhDEJL54lWQNMFv-_Y1fVeHUGhTemKG-oGWPEEQNGXQFVAgvfjNfAQ", "width": 1211}], "place_id": "ChIJEVvPZnR644kRFds7xmUoDSw", "plus_code": {"compound_code": "9W2H+6W Boston, Massachusetts, United States", "global_code": "87JC9W2H+6W"}, "rating": 5, "reference": "ChIJEVvPZnR644kRFds7xmUoDSw", "scope": "GOOGLE", "types": ["general_contractor", "point_of_interest", "establishment"], "user_ratings_total": 2, "vicinity": "75 Arlington Street #500, Boston"}, "ChIJIVrPZnR644kRKRNQm331JWA": {"geometry": {"location": {"lat": 42.350593, "lng": -71.07016}, "viewport": {"northeast": {"lat": 42.3519469302915, "lng": -71.06878981970851}, "southwest": {"lat": 42.3492489697085, "lng": -71.07148778029152}}}, "icon": "https://maps.gstatic.com/mapfiles/place_api/icons/generic_business-71.png", "id": "2f42f947f999d17a03c8cf24dec9fdecd3643666", "name": "Law Offices of Shaun A. Hannafin, LLC", "opening_hours": {"open_now": true}, "photos": [{"height": 390, "html_attributions": ["<a href=\"https://maps.google.com/maps/contrib/113816321476874327878/photos\">Law Offices of Shaun A. Hannafin, LLC</a>"], "photo_reference": "CmRaAAAA10Va7XoZc8OZqa-KURWFm-H8Se1bLKOz5WZubzRVPZJ8GTjKmYhgl_DuhES-euzD12W_USUzV_sP73XVttXtF7WtB3VmFMyEjDSKnyf35swtB_upmpLulbde3ykvIb9iEhDXijsUw0Pd_miTbdcwmEtsGhRXPU5IDwIpOr6usRawakxXXG3UrA", "width": 500}], "place_id": "ChIJIVrPZnR644kRKRNQm331JWA", "plus_code": {"compound_code": "9W2H+6W Boston, Massachusetts, United States", "global_code": "87JC9W2H+6W"}, "rating": 5, "reference": "ChIJIVrPZnR644kRKRNQm331JWA", "scope": "GOOGLE", "types": ["lawyer", "point_of_interest", "establishment"], "user_ratings_total": 14, "vicinity": "75 Arlington Street #500, Boston"}, "ChIJGzE9DS1l44kRoOhiASS_fHg": {"geometry": {"location": {"lat": 42.3600825, "lng": -71.0588801}, "viewport": {"northeast": {"lat": 42.40081989999999, "lng": -70.749455}, "southwest": {"lat": 42.22788, "lng": -71.191113}}}, "icon": "https://maps.gstatic.com/mapfiles/place_api/icons/geocode-71.png", "id": "06755c25d2b34d13942a4713971756a55b870ced", "name": "Boston", "photos": [{"height": 3024, "html_attributions": ["<a href=\"https://maps.google.com/maps/contrib/104670289779338733432/photos\">Natalia Zalucean</a>"], "photo_reference": "CmRaAAAAs1noxe1P7T68j20fRtX_TB2ywaFk6vs4o2JCeBRPcdWzDEwY3ddZWOK1Pv2PXiYOaKSgCJUKUzbcHT0xzdQqdKI4n59JZsdtSThsgyP1XjtiIUr47E54ES-kWSHMvC3uEhCgbsKXUOPnQGXlLrs00CThGhQp5H6Lgiw5A51_rHTC-LZyzFcyUw", "width": 4032}], "place_id": "ChIJGzE9DS1l44kRoOhiASS_fHg", "reference": "ChIJGzE9DS1l44kRoOhiASS_fHg", "scope": "GOOGLE", "types": ["locality", "political"], "vicinity": "Boston"}}