{"ChIJGzE9DS1l44kRoOhiASS_fHg": {"geometry": {"location": {"lat": 42.3600825, "lng": -71.0588801}, "viewport": {"northeast": {"lat": 42.40081989999999, "lng": -70.749455}, "southwest": {"lat": 42.22788, "lng": -71.191113}}}, "icon": "https://maps.gstatic.com/mapfiles/place_api/icons/geocode-71.png", "id": "06755c25d2b34d13942a4713971756a55b870ced", "name": "Boston", "photos": [{"height": 3024, "html_attributions": ["<a href=\"https://maps.google.com/maps/contrib/104670289779338733432/photos\">Natalia Zalucean</a>"], "photo_reference": "CmRaAAAABGcaZ9Yo7JqQk25qeKQ9WwC4El7nSsV2jLZg3SG9Cwl3PL2YW01hDEFb-Z8YEIye_MmKyWCuwMxUkJY547lsVvNyKFdHXSTDfuNKUrSPqX31kiveUYxNWbWby8S4PS2cEhAZnKVSobM6NDMkiy1F9K0zGhQAQyBO4u8rLxmPjd3zd-4dwpFr6A", "width": 4032}], "place_id": "ChIJGzE9DS1l44kRoOhiASS_fHg", "reference": "ChIJGzE9DS1l44kRoOhiASS_fHg", "scope": "GOOGLE", "types": ["locality", "political"], "vicinity": "Boston"}, "ChIJqdweawt644kRNW1jP0gl9rg": {"geometry": {"location": {"lat": 42.35150700000001, "lng": -71.076444}, "viewport": {"northeast": {"lat": 42.3529309802915, "lng": -71.0751319197085}, "southwest": {"lat": 42.3502330197085, "lng": -71.0778298802915}}}, "icon": "https://maps.gstatic.com/mapfiles/place_api/icons/generic_business-71.png", "id": "341fc1a63687155e41d8a6e3736b72e32da48d77", "name": "Studio 9", "opening_hours": {"open_now": true}, "photos": [{"height": 3024, "html_attributions": ["<a href=\"https://maps.google.com/maps/contrib/107646752483012872494/photos\">Cog nomen</a>"], "photo_reference": "CmRaAAAAQGZVxZYSa_aX4Ln1mx7b1L5qoO7FH2eLERU-aVM92QjU65-ey8AEZiv5vDXDYWgUBwBy80iuGfAHcFLFauONrCNNGxeTgdgw7sZ3RTuk4HeBSOeHNcDrfUxkVJ_WgIhREhC1fd7zBIij_TJoZpNjvZniGhQ7DIQjs7DDlZL_c9qgCcH3aWyrBQ", "width": 3024}], "place_id": "ChIJqdweawt644kRNW1jP0gl9rg", "plus_code": {"compound_code": "9W2F+JC Boston, Massachusetts, United States", "global_code": "87JC9W2F+JC"}, "rating": 3.5, "reference": "ChIJqdweawt644kRNW1jP0gl9rg", "scope": "GOOGLE", "types": ["beauty_salon", "hair_care", "point_of_interest", "establishment"], "user_ratings_total": 4, "vicinity": "121 Newbury Street Floor 2, Boston"}, "ChIJAUQndgt644kReLlajlq2_p0": {"geometry": {"location": {"lat": 42.3514861, "lng": -71.0765145}, "viewport": {"northeast": {"lat": 42.35291093029149, "lng": -71.0752028197085}, "southwest": {"lat": 42.35021296970849, "lng": -71.07790078029151}}}, "icon": "https://maps.gstatic.com/mapfiles/place_api/icons/generic_business-71.png", "id": "23c5690ab8bd16bcb4b665e7bc4c9f6c3ed98a5a", "name": "NB Laser", "opening_hours": {"open_now": true}, "photos": [{"height": 2048, "html_attributions": ["<a href=\"https://maps.google.com/maps/contrib/118106141367821115405/photos\">NB Laser &amp; Massage</a>"], "photo_reference": "CmRaAAAA_SdfGJNKsPrDm_Qv2DuFU4xL3jFAGNK95jrXZ-YS7oH92gaUwJY8MS2uvZIEIHbc2dUPNVwVuV-GaEleH9--sX-Jn33lpMVDWaQQrwxkXvsPMfCC93Bx6LYy9QBGO6EWEhBzWa59UQC3lNp6QExK6GOuGhSi6N-qdsOeIpl-q5IX5Vp5q7vdTQ", "width": 1536}], "place_id": "ChIJAUQndgt644kReLlajlq2_p0", "plus_code": {"compound_code": "9W2F+H9 Boston, Massachusetts, United States", "global_code": "87JC9W2F+H9"}, "rating": 3.2, "reference": "ChIJAUQndgt644kReLlajlq2_p0", "scope": "GOOGLE", "types": ["beauty_salon", "hair_care", "health", "point_of_interest", "establishment"], "user_ratings_total": 11, "vicinity": "123 Newbury Street, 2nd Floor, Boston"}, "ChIJdTzJdwt644kRw1iOIz3l70c": {"geometry": {"location": {"lat": 42.3514861, "lng": -71.0765145}, "viewport": {"northeast": {"lat": 42.3527161302915, "lng": -71.07510616970849}, "southwest": {"lat": 42.3500181697085, "lng": -71.0778041302915}}}, "icon": "https://maps.gstatic.com/mapfiles/place_api/icons/generic_business-71.png", "id": "6b1bcac485a2aec9a1c73e027c4adb8b0e72416e", "name": "Marketvision Direct Inc", "place_id": "ChIJdTzJdwt644kRw1iOIz3l70c", "plus_code": {"compound_code": "9W2F+H9 Boston, Massachusetts, United States", "global_code": "87JC9W2F+H9"}, "reference": "ChIJdTzJdwt644kRw1iOIz3l70c", "scope": "GOOGLE", "types": ["point_of_interest", "establishment"], "vicinity": "123 Newbury Street # 3, Boston"}, "ChIJAUQndgt644kRTvipLzT9xP8": {"geometry": {"location": {"lat": 42.35144439999999, "lng": -71.0765565}, "viewport": {"northeast": {"lat": 42.35268773029149, "lng": -71.07515481970849}, "southwest": {"lat": 42.34998976970849, "lng": -71.0778527802915}}}, "icon": "https://maps.gstatic.com/mapfiles/place_api/icons/shopping-71.png", "id": "38b472cc315dc96b1ab2ce6f4b28ae5e59987126", "name": "AUrate New York", "opening_hours": {"open_now": true}, "photos": [{"height": 1536, "html_attributions": ["<a href=\"https://maps.google.com/maps/contrib/112378280509801521668/photos\">AUrate New York</a>"], "photo_reference": "CmRaAAAAtqFLqJA1GoZLr6NbdjANE3nGg694swUN-0x1PGpnbeTx5Rae2JqlaFpHqXb9wzpFYcgrVKqZwRVh4JC4lT78pEpVHdwJLa-oUVPkf5ZR3BBVWaMm8rdliUFlBi8ULq0lEhDa0oDpMn7iuctf7o59okllGhT5J-x6KkQovIXiNVdJbpjmYdHjJA", "width": 1542}], "place_id": "ChIJAUQndgt644kRTvipLzT9xP8", "plus_code": {"compound_code": "9W2F+H9 Boston, Massachusetts, United States", "global_code": "87JC9W2F+H9"}, "rating": 5, "reference": "ChIJAUQndgt644kRTvipLzT9xP8", "scope": "GOOGLE", "types": ["jewelry_store", "store", "point_of_interest", "establishment"], "user_ratings_total": 46, "vicinity": "123 Newbury Street, Boston"}, "ChIJKZoKcQt644kRl-2y9ACyDYo": {"geometry": {"location": {"lat": 42.35144439999999, "lng": -71.0765565}, "viewport": {"northeast": {"lat": 42.35268773029149, "lng": -71.07515481970849}, "southwest": {"lat": 42.34998976970849, "lng": -71.0778527802915}}}, "icon": "https://maps.gstatic.com/mapfiles/place_api/icons/generic_business-71.png", "id": "79bf2f852cbcfd6adf8e9355e395b1e608d70975", "name": "Salon George De Mello", "opening_hours": {"open_now": true}, "photos": [{"height": 640, "html_attributions": ["<a href=\"https://maps.google.com/maps/contrib/103065196022565675977/photos\">Salon George De Mello</a>"], "photo_reference": "CmRaAAAAbFVosh7eHvQknnnon-BzaNb9c2DPj9CbPM0NFEAQSZg4SI9ltx8byqxG4M5Kif22w8pImjy_xltPwkBbazf-5__F2JPx6qZNo0zS3BiEPiiZ8OGMYRCDPU2UfY7gQEUEEhAyCzZdJjQjPqDGUakMdKs-GhS0E9ooG7pWzB8wajrjZwfqSzLijw", "width": 960}], "place_id": "ChIJKZoKcQt644kRl-2y9ACyDYo", "plus_code": {"compound_code": "9W2F+H9 Boston, Massachusetts, United States", "global_code": "87JC9W2F+H9"}, "rating": 5, "reference": "ChIJKZoKcQt644kRl-2y9ACyDYo", "scope": "GOOGLE", "types": ["beauty_salon", "hair_care", "store", "point_of_interest", "establishment"], "user_ratings_total": 4, "vicinity": "123 Newbury Street, Boston"}, "ChIJmzosdgt644kR3PLyurcKq1E": {"geometry": {"location": {"lat": 42.35144500000001, "lng": -71.076487}, "viewport": {"northeast": {"lat": 42.3526964302915, "lng": -71.0750893197085}, "southwest": {"lat": 42.3499984697085, "lng": -71.0777872802915}}}, "icon": "https://maps.gstatic.com/mapfiles/place_api/icons/generic_business-71.png", "id": "131d0e644def9b409b0f857f9a2a317b9a286d6e", "name": "CXO Communication", "place_id": "ChIJmzosdgt644kR3PLyurcKq1E", "plus_code": {"compound_code": "9W2F+HC Boston, Massachusetts, United States", "global_code": "87JC9W2F+HC"}, "reference": "ChIJmzosdgt644kR3PLyurcKq1E", "scope": "GOOGLE", "types": ["point_of_interest", "establishment"], "vicinity": "123 Newbury Street, Boston"}, "ChIJeWaDnQt644kR-7Ned5cezfw": {"geometry": {"location": {"lat": 42.3514861, "lng": -71.0765145}, "viewport": {"northeast": {"lat": 42.3527161302915, "lng": -71.07510616970849}, "southwest": {"lat": 42.3500181697085, "lng": -71.0778041302915}}}, "icon": "https://maps.gstatic.com/mapfiles/place_api/icons/generic_business-71.png", "id": "e119950baa6e1baa6b64ed62031773ff78665d00", "name": "Colette", "place_id": "ChIJeWaDnQt644kR-7Ned5cezfw", "plus_code": {"compound_code": "9W2F+H9 Boston, Massachusetts, United States", "global_code": "87JC9W2F+H9"}, "reference": "ChIJeWaDnQt644kR-7Ned5cezfw", "scope": "GOOGLE", "types": ["point_of_interest", "establishment"], "vicinity": "123 Newbury Street, Boston"}, "ChIJi90MnQt644kRjUrRdvnODcc": {"geometry": {"location": {"lat": 42.35144439999999, "lng": -71.0765565}, "viewport": {"northeast": {"lat": 42.35268773029149, "lng": -71.07515481970849}, "southwest": {"lat": 42.34998976970849, "lng": -71.0778527802915}}}, "icon": "https://maps.gstatic.com/mapfiles/place_api/icons/shopping-71.png", "id": "1400cd425195dfb01cb966f0f5b8c8f1ce09af1e", "name": "State & Liberty Clothing Co.", "opening_hours": {"open_now": true}, "place_id": "ChIJi90MnQt644kRjUrRdvnODcc", "plus_code": {"compound_code": "9W2F+H9 Boston, Massachusetts, United States", "global_code": "87JC9W2F+H9"}, "rating": 5, "reference": "ChIJi90MnQt644kRjUrRdvnODcc", "scope": "GOOGLE", "types": ["clothing_store", "store", "point_of_interest", "establishment"], "user_ratings_total": 5, "vicinity": "125 Newbury Street, Boston"}, "ChIJsfUV-A5644kRxFubWZLMo7w": {"geometry": {"location": {"lat": 42.35026480000001, "lng": -71.0809757}, "viewport": {"northeast": {"lat": 42.356983, "lng": -71.07028989999999}, "southwest": {"lat": 42.341597, "lng": -71.0932962}}}, "icon": "https://maps.gstatic.com/mapfiles/place_api/icons/geocode-71.png", "id": "33919fd9e49b0cde06af64b330ab949ba88171ff", "name": "Back Bay", "photos": [{"height": 3936, "html_attributions": ["<a href=\"https://maps.google.com/maps/contrib/102900160723668849003/photos\">Jim Stanford</a>"], "photo_reference": "CmRaAAAAwwNKOCI8TxVXaGYDOeP9HLwWkkszoj2kDyYlKNPwnKvranz-HBeGbDVJif5u6YLvTRRM4LV_GrHafLXLgKvuXX-0fY4O0OcKASw_fnr9phSIP00DMgGMFkaAHjJnWHUoEhBCLIH8O6jH5Hp_foZb6S2sGhQtXIgK8dxdgWbhMWpOs8wZrxw9eA", "width": 5248}], "place_id": "ChIJsfUV-A5644kRxFubWZLMo7w", "reference": "ChIJsfUV-A5644kRxFubWZLMo7w", "scope": "GOOGLE", "types": ["neighborhood", "political"], "vicinity": "Boston"}}