{"ChIJGzE9DS1l44kRoOhiASS_fHg": {"geometry": {"location": {"lat": 42.3600825, "lng": -71.0588801}, "viewport": {"northeast": {"lat": 42.40081989999999, "lng": -70.749455}, "southwest": {"lat": 42.22788, "lng": -71.191113}}}, "icon": "https://maps.gstatic.com/mapfiles/place_api/icons/geocode-71.png", "id": "06755c25d2b34d13942a4713971756a55b870ced", "name": "Boston", "photos": [{"height": 3024, "html_attributions": ["<a href=\"https://maps.google.com/maps/contrib/104670289779338733432/photos\">Natalia Zalucean</a>"], "photo_reference": "CmRaAAAA9CusbDvoyXocU283yqhSrDK9MxwD37EOUZh8xhoZsNvmIja2U2VaOC_6S_fe9Hei_Xt6_z03RAyL2W7POWGVAWeTsMKmE1SPwipVgZj6e6QVxIusJ_eBgzbB1PumEkGcEhDSt1z2HjQ5fGFHYvfpenW9GhQY2BjpSI5QmGKNPcdA3le3OOfnkw", "width": 4032}], "place_id": "ChIJGzE9DS1l44kRoOhiASS_fHg", "reference": "ChIJGzE9DS1l44kRoOhiASS_fHg", "scope": "GOOGLE", "types": ["locality", "political"], "vicinity": "Boston"}, "ChIJV1INkol644kROJscjdF8bvQ": {"geometry": {"location": {"lat": 42.3368002, "lng": -71.04806529999999}, "viewport": {"northeast": {"lat": 42.33821013029149, "lng": -71.04664311970849}, "southwest": {"lat": 42.33551216970849, "lng": -71.0493410802915}}}, "icon": "https://maps.gstatic.com/mapfiles/place_api/icons/generic_business-71.png", "id": "cefd3d75a53a1fd5a62fab36a08bb44fdb30f8d0", "name": "South Boston Community Health Center", "opening_hours": {"open_now": true}, "place_id": "ChIJV1INkol644kROJscjdF8bvQ", "plus_code": {"compound_code": "8XP2+PQ Boston, Massachusetts, United States", "global_code": "87JC8XP2+PQ"}, "rating": 3.5, "reference": "ChIJV1INkol644kROJscjdF8bvQ", "scope": "GOOGLE", "types": ["hospital", "health", "point_of_interest", "establishment"], "user_ratings_total": 50, "vicinity": "409 West Broadway, Boston"}, "ChIJG6MSj4l644kRmokyOA2sTAs": {"geometry": {"location": {"lat": 42.33687200000001, "lng": -71.048057}, "viewport": {"northeast": {"lat": 42.33826043029151, "lng": -71.04666101970848}, "southwest": {"lat": 42.33556246970851, "lng": -71.0493589802915}}}, "icon": "https://maps.gstatic.com/mapfiles/place_api/icons/bus-71.png", "id": "e993c2b8d91a47165c72e1731d5ef25eac013551", "name": "W Broadway @ F St", "place_id": "ChIJG6MSj4l644kRmokyOA2sTAs", "plus_code": {"compound_code": "8XP2+PQ Boston, Massachusetts, United States", "global_code": "87JC8XP2+PQ"}, "reference": "ChIJG6MSj4l644kRmokyOA2sTAs", "scope": "GOOGLE", "types": ["bus_station", "transit_station", "point_of_interest", "establishment"], "vicinity": "United States"}, "ChIJySFSPZJ644kRQd1ylK2wP54": {"geometry": {"location": {"lat": 42.3381437, "lng": -71.0475773}, "viewport": {"northeast": {"lat": 42.3551665, "lng": -71.0091984}, "southwest": {"lat": 42.32115, "lng": -71.0652948}}}, "icon": "https://maps.gstatic.com/mapfiles/place_api/icons/geocode-71.png", "id": "56a2680fff3ada55ed539f65fc2e901a748193c6", "name": "South Boston", "photos": [{"height": 1836, "html_attributions": ["<a href=\"https://maps.google.com/maps/contrib/100381122114234243821/photos\">Gary Stephens</a>"], "photo_reference": "CmRaAAAAjEfwxhtBeHLdsc5cC31FAtr2GfwSVV_rER59nKffhKmouLw9wXUI21sauyhnS_JkNeRO6Xdti5ogj_xb3PXeVXgDGBhNHzmMu3L9lkxD8mg2syZCQSiHAHGcejpM_pOAEhAAhA0ff-udCSXVaeXuIeW3GhSbOlHIlnL53ZOecb68AyM5WKG0SQ", "width": 3264}], "place_id": "ChIJySFSPZJ644kRQd1ylK2wP54", "reference": "ChIJySFSPZJ644kRQd1ylK2wP54", "scope": "GOOGLE", "types": ["neighborhood", "political"], "vicinity": "Boston"}}