{"ChIJGzE9DS1l44kRoOhiASS_fHg": {"geometry": {"location": {"lat": 42.3600825, "lng": -71.0588801}, "viewport": {"northeast": {"lat": 42.40081989999999, "lng": -70.749455}, "southwest": {"lat": 42.22788, "lng": -71.191113}}}, "icon": "https://maps.gstatic.com/mapfiles/place_api/icons/geocode-71.png", "id": "06755c25d2b34d13942a4713971756a55b870ced", "name": "Boston", "photos": [{"height": 3024, "html_attributions": ["<a href=\"https://maps.google.com/maps/contrib/104670289779338733432/photos\">Natalia Zalucean</a>"], "photo_reference": "CmRaAAAAdYW_LnzRMEbfbTmCwMaBAUxMbptWLqgocazXJEbT9jjP83zBh-G3e7cnlsBsfIT0FksB29y1PbCyD6c16Li0HUpAycGYmcUp8Oiyk_9dayZQZUji1clo8kZUAjL3E8SKEhDW5zyZCC4SbAowimQe4kQ1GhRi4mvsv9wH2nzCJTnCzRXV9H4COA", "width": 4032}], "place_id": "ChIJGzE9DS1l44kRoOhiASS_fHg", "reference": "ChIJGzE9DS1l44kRoOhiASS_fHg", "scope": "GOOGLE", "types": ["locality", "political"], "vicinity": "Boston"}, "ChIJJxbYVoVw44kRVhIJH_-MbiU": {"geometry": {"location": {"lat": 42.3618008, "lng": -71.0621801}, "viewport": {"northeast": {"lat": 42.3630705802915, "lng": -71.06072681970849}, "southwest": {"lat": 42.36037261970851, "lng": -71.06342478029151}}}, "icon": "https://maps.gstatic.com/mapfiles/place_api/icons/generic_business-71.png", "id": "f5cc2829489ee7b5eb2dc07df73a05a7e4728d64", "name": "Burns James A MD", "place_id": "ChIJJxbYVoVw44kRVhIJH_-MbiU", "plus_code": {"compound_code": "9W6Q+P4 Boston, Massachusetts, United States", "global_code": "87JC9W6Q+P4"}, "rating": 5, "reference": "ChIJJxbYVoVw44kRVhIJH_-MbiU", "scope": "GOOGLE", "types": ["doctor", "health", "point_of_interest", "establishment"], "user_ratings_total": 3, "vicinity": "11, 1 Bowdoin Street, Boston"}, "ChIJCUIssJpw44kRAHeUtfgSIzg": {"geometry": {"location": {"lat": 42.3618224, "lng": -71.0621869}, "viewport": {"northeast": {"lat": 42.3632523802915, "lng": -71.06073006970848}, "southwest": {"lat": 42.3605544197085, "lng": -71.0634280302915}}}, "icon": "https://maps.gstatic.com/mapfiles/place_api/icons/generic_business-71.png", "id": "8fc1807b95399e6736ef95542acbea98235dfe29", "name": "The Clay Center for Young Healthy Minds", "place_id": "ChIJCUIssJpw44kRAHeUtfgSIzg", "plus_code": {"compound_code": "9W6Q+P4 Boston, Massachusetts, United States", "global_code": "87JC9W6Q+P4"}, "reference": "ChIJCUIssJpw44kRAHeUtfgSIzg", "scope": "GOOGLE", "types": ["point_of_interest", "establishment"], "vicinity": "1 Bowdoin Street, Boston"}, "ChIJW60DJYNw44kRmL2Ehm4t0Bg": {"geometry": {"location": {"lat": 42.3557089, "lng": -71.05720529999999}, "viewport": {"northeast": {"lat": 42.36839699999999, "lng": -71.04779599999999}, "southwest": {"lat": 42.342797, "lng": -71.072996}}}, "icon": "https://maps.gstatic.com/mapfiles/place_api/icons/geocode-71.png", "id": "bc27dcccb31ae90e36c262f557a1c09193ec777d", "name": "Downtown", "photos": [{"height": 629, "html_attributions": ["<a href=\"https://maps.google.com/maps/contrib/111777007894721839306/photos\">verona mantova</a>"], "photo_reference": "CmRaAAAAIjhVT7DKtE8DDbPoR9KdYfvBI1b-2jJ8MXE-OjZDGD-0qXHsugpFvoGEY3xlRSqhhol2o49ynu7BYC7gTezclbYEMn07qD-9lJhyqT0GXBzTBEvEmlsi0xP9kkDvTpUdEhAcjqVN5EO-yTA2vfD3nLQwGhQ7MUYYJ0sgnb-ScDQWlEWmwDDh3A", "width": 1000}], "place_id": "ChIJW60DJYNw44kRmL2Ehm4t0Bg", "reference": "ChIJW60DJYNw44kRmL2Ehm4t0Bg", "scope": "GOOGLE", "types": ["neighborhood", "political"], "vicinity": "Boston"}}