{"ChIJNSVeWYJw44kRf8mVSE4NO2w": {"geometry": {"location": {"lat": 42.35387710000001, "lng": -71.0583047}, "viewport": {"northeast": {"lat": 42.35522608029149, "lng": -71.0569557697085}, "southwest": {"lat": 42.3525281197085, "lng": -71.0596537302915}}}, "icon": "https://maps.gstatic.com/mapfiles/place_api/icons/geocode-71.png", "id": "1e865df2e4b119fe4c49adb611ebf62da048a3e9", "name": "88-66 Summer St", "place_id": "ChIJNSVeWYJw44kRf8mVSE4NO2w", "reference": "ChIJNSVeWYJw44kRf8mVSE4NO2w", "scope": "GOOGLE", "types": ["route"], "vicinity": "Boston"}, "ChIJ4_XrWIJw44kR0P0e92pcZyM": {"geometry": {"location": {"lat": 42.35378, "lng": -71.05815}, "viewport": {"northeast": {"lat": 42.3551503802915, "lng": -71.05677541970849}, "southwest": {"lat": 42.35245241970851, "lng": -71.05947338029151}}}, "icon": "https://maps.gstatic.com/mapfiles/place_api/icons/generic_business-71.png", "id": "d55f4e280ce7236fe3c77f0175466adaade6dc93", "name": "Boston Online Marketing", "opening_hours": {"open_now": true}, "photos": [{"height": 768, "html_attributions": ["<a href=\"https://maps.google.com/maps/contrib/101676338816330983549/photos\">Boston Online Marketing</a>"], "photo_reference": "CmRaAAAAnEuUvl5MOQRE-sqibF2S26U4IcXLNW-YPkTakmeQfCaBM9_Dk17FA8ufKg0cWEffB1xzkg_z6wr0yePwnKzoAE5ONMTemfzQZXBD3VL92DK0Oqdx2C7KcMayeJamIXrAEhAwUfd0j6WsiqRsFxIZkwXkGhTCZSwY5VtFX2vvXBwxBW0vXTN09w", "width": 1024}], "place_id": "ChIJ4_XrWIJw44kR0P0e92pcZyM", "plus_code": {"compound_code": "9W3R+GP Boston, Massachusetts, United States", "global_code": "87JC9W3R+GP"}, "reference": "ChIJ4_XrWIJw44kR0P0e92pcZyM", "scope": "GOOGLE", "types": ["point_of_interest", "establishment"], "vicinity": "101 Summer St, 4th Floor, Boston"}, "ChIJGzE9DS1l44kRoOhiASS_fHg": {"geometry": {"location": {"lat": 42.3600825, "lng": -71.0588801}, "viewport": {"northeast": {"lat": 42.40081989999999, "lng": -70.749455}, "southwest": {"lat": 42.22788, "lng": -71.191113}}}, "icon": "https://maps.gstatic.com/mapfiles/place_api/icons/geocode-71.png", "id": "06755c25d2b34d13942a4713971756a55b870ced", "name": "Boston", "photos": [{"height": 3024, "html_attributions": ["<a href=\"https://maps.google.com/maps/contrib/104670289779338733432/photos\">Natalia Zalucean</a>"], "photo_reference": "CmRaAAAAdL1rqEBa3QGKNP04A7zNSBISXBIrJmDCTey5898X79PUpeoY6mg42fy_ywJ46BfHuLz9c6amR137EWIe29gzZjjDxd9-qyUoI58zlPy-Sf86_1PSR-GJqkZcUE_yD3hsEhA6VQvoKuxAR92YAxot_ZghGhTVSk-7lCS7WvdiaVFEWg-B-u-dJQ", "width": 4032}], "place_id": "ChIJGzE9DS1l44kRoOhiASS_fHg", "reference": "ChIJGzE9DS1l44kRoOhiASS_fHg", "scope": "GOOGLE", "types": ["locality", "political"], "vicinity": "Boston"}}