{"ChIJGzE9DS1l44kRoOhiASS_fHg": {"geometry": {"location": {"lat": 42.3600825, "lng": -71.0588801}, "viewport": {"northeast": {"lat": 42.40081989999999, "lng": -70.749455}, "southwest": {"lat": 42.22788, "lng": -71.191113}}}, "icon": "https://maps.gstatic.com/mapfiles/place_api/icons/geocode-71.png", "id": "06755c25d2b34d13942a4713971756a55b870ced", "name": "Boston", "photos": [{"height": 3024, "html_attributions": ["<a href=\"https://maps.google.com/maps/contrib/104670289779338733432/photos\">Natalia Zalucean</a>"], "photo_reference": "CmRaAAAAuo7gpRqKdZYRWApJvfwAcrpeJXfwgnAjeojWjkEsF7DaMp_PzNYZMb8XGXygte9wE6mMxNf8nsVpa4PhzXTG5wtc4Fhnj0S2TNTd_Ieys411xhpLiY-jCsAt_qTcOr1FEhCuAOebQoDyBhXwtnIxrThrGhSNqoHdCKxZrRJxKXjNjF18oIm4XQ", "width": 4032}], "place_id": "ChIJGzE9DS1l44kRoOhiASS_fHg", "reference": "ChIJGzE9DS1l44kRoOhiASS_fHg", "scope": "GOOGLE", "types": ["locality", "political"], "vicinity": "Boston"}, "ChIJTYeHlINw44kR3TRsZft6zDo": {"geometry": {"location": {"lat": 42.35617269999999, "lng": -71.0575303}, "viewport": {"northeast": {"lat": 42.35752308029149, "lng": -71.0560904697085}, "southwest": {"lat": 42.35482511970849, "lng": -71.0587884302915}}}, "icon": "https://maps.gstatic.com/mapfiles/place_api/icons/generic_business-71.png", "id": "60563b6961edf11121e0f1a6b5728712a392c868", "name": "Ackerman Law Offices", "opening_hours": {"open_now": false}, "place_id": "ChIJTYeHlINw44kR3TRsZft6zDo", "plus_code": {"compound_code": "9W4R+FX Boston, Massachusetts, United States", "global_code": "87JC9W4R+FX"}, "reference": "ChIJTYeHlINw44kR3TRsZft6zDo", "scope": "GOOGLE", "types": ["lawyer", "point_of_interest", "establishment"], "vicinity": "185 Devonshire Street, Boston"}, "ChIJ48VflINw44kRZ5lUimIJuqA": {"geometry": {"location": {"lat": 42.35617269999999, "lng": -71.0575303}, "viewport": {"northeast": {"lat": 42.35752308029149, "lng": -71.0560904697085}, "southwest": {"lat": 42.35482511970849, "lng": -71.0587884302915}}}, "icon": "https://maps.gstatic.com/mapfiles/place_api/icons/generic_business-71.png", "id": "7cd6b049532fc5474419d51f1cd40bea3f4fb5e5", "name": "C. Henry Fasoldt, Attorney at Law", "opening_hours": {"open_now": true}, "photos": [{"height": 300, "html_attributions": ["<a href=\"https://maps.google.com/maps/contrib/117918074090781786651/photos\">C. Henry Fasoldt, Attorney at Law</a>"], "photo_reference": "CmRaAAAA28Mxrdfa4PnGlrmWfnSwAFy3PnbDVcdgr15lWF_Riq10Jt0elfb9EEEcAaodnF8AGNAOid7imuzErXar1s47sY36J-Q65l64IPaIM_LCoLFVjqaYYZNZWTtwGL9MMM3qEhAUqK3N6fGBBzasHGZ4Iq4bGhQ7ULnNom67_jnpcIA9fzZ4COGW0Q", "width": 250}], "place_id": "ChIJ48VflINw44kRZ5lUimIJuqA", "plus_code": {"compound_code": "9W4R+FX Boston, Massachusetts, United States", "global_code": "87JC9W4R+FX"}, "rating": 5, "reference": "ChIJ48VflINw44kRZ5lUimIJuqA", "scope": "GOOGLE", "types": ["lawyer", "point_of_interest", "establishment"], "user_ratings_total": 1, "vicinity": "185 Devonshire Street #302, Boston"}, "ChIJo0VXlINw44kRYEaB486LM6k": {"geometry": {"location": {"lat": 42.35617269999999, "lng": -71.0575303}, "viewport": {"northeast": {"lat": 42.35752308029149, "lng": -71.0560904697085}, "southwest": {"lat": 42.35482511970849, "lng": -71.0587884302915}}}, "icon": "https://maps.gstatic.com/mapfiles/place_api/icons/generic_business-71.png", "id": "8f000e813e1f700ae431e089bcc037473f426830", "name": "All Business Communications", "place_id": "ChIJo0VXlINw44kRYEaB486LM6k", "plus_code": {"compound_code": "9W4R+FX Boston, Massachusetts, United States", "global_code": "87JC9W4R+FX"}, "reference": "ChIJo0VXlINw44kRYEaB486LM6k", "scope": "GOOGLE", "types": ["point_of_interest", "establishment"], "vicinity": "185 Devonshire Street, Boston"}, "ChIJj_tWlINw44kR-Ima43x42L8": {"geometry": {"location": {"lat": 42.35617269999999, "lng": -71.0575303}, "viewport": {"northeast": {"lat": 42.35752308029149, "lng": -71.0560904697085}, "southwest": {"lat": 42.35482511970849, "lng": -71.0587884302915}}}, "icon": "https://maps.gstatic.com/mapfiles/place_api/icons/generic_business-71.png", "id": "eb6c08ab216d9af5e95c489241c0fceb9d1c0cfb", "name": "Law Office of Susan M. Costa, PC", "opening_hours": {"open_now": false}, "place_id": "ChIJj_tWlINw44kR-Ima43x42L8", "plus_code": {"compound_code": "9W4R+FX Boston, Massachusetts, United States", "global_code": "87JC9W4R+FX"}, "reference": "ChIJj_tWlINw44kR-Ima43x42L8", "scope": "GOOGLE", "types": ["lawyer", "point_of_interest", "establishment"], "vicinity": "185 Devonshire Street, Boston"}, "ChIJ2x1UlINw44kRs-trMk1teXo": {"geometry": {"location": {"lat": 42.35617269999999, "lng": -71.0575303}, "viewport": {"northeast": {"lat": 42.35752308029149, "lng": -71.0560904697085}, "southwest": {"lat": 42.35482511970849, "lng": -71.0587884302915}}}, "icon": "https://maps.gstatic.com/mapfiles/place_api/icons/generic_business-71.png", "id": "98441af0e9e56e5db00428ae3f283fa750c97804", "name": "Cirigliano & Associates", "place_id": "ChIJ2x1UlINw44kRs-trMk1teXo", "plus_code": {"compound_code": "9W4R+FX Boston, Massachusetts, United States", "global_code": "87JC9W4R+FX"}, "reference": "ChIJ2x1UlINw44kRs-trMk1teXo", "scope": "GOOGLE", "types": ["lawyer", "point_of_interest", "establishment"], "vicinity": "185 Devonshire Street # 302, Boston"}, "ChIJ2x1UlINw44kRQRE3oKRVmH4": {"geometry": {"location": {"lat": 42.35617269999999, "lng": -71.0575303}, "viewport": {"northeast": {"lat": 42.35752308029149, "lng": -71.0560904697085}, "southwest": {"lat": 42.35482511970849, "lng": -71.0587884302915}}}, "icon": "https://maps.gstatic.com/mapfiles/place_api/icons/generic_business-71.png", "id": "0f4625bc03576585548e0020b22fd3711cc8a5bc", "name": "Carla Salvucci Law Office", "place_id": "ChIJ2x1UlINw44kRQRE3oKRVmH4", "plus_code": {"compound_code": "9W4R+FX Boston, Massachusetts, United States", "global_code": "87JC9W4R+FX"}, "reference": "ChIJ2x1UlINw44kRQRE3oKRVmH4", "scope": "GOOGLE", "types": ["point_of_interest", "establishment"], "vicinity": "185 Devonshire Street # 302, Boston"}, "ChIJzyphGoRw44kRgzT1ihPT_kw": {"geometry": {"location": {"lat": 42.35617269999999, "lng": -71.0575303}, "viewport": {"northeast": {"lat": 42.35752308029149, "lng": -71.0560904697085}, "southwest": {"lat": 42.35482511970849, "lng": -71.0587884302915}}}, "icon": "https://maps.gstatic.com/mapfiles/place_api/icons/generic_business-71.png", "id": "f56d7fc06e4275c619cc1d5bb4730cd56e0dc53a", "name": "Iarrobino Associates", "place_id": "ChIJzyphGoRw44kRgzT1ihPT_kw", "plus_code": {"compound_code": "9W4R+FX Boston, Massachusetts, United States", "global_code": "87JC9W4R+FX"}, "reference": "ChIJzyphGoRw44kRgzT1ihPT_kw", "scope": "GOOGLE", "types": ["point_of_interest", "establishment"], "vicinity": "185 Devonshire Street, Boston"}, "ChIJe0IZ9YRw44kRDIaNKEfnvbQ": {"geometry": {"location": {"lat": 42.35617269999999, "lng": -71.0575303}, "viewport": {"northeast": {"lat": 42.35752308029149, "lng": -71.0560904697085}, "southwest": {"lat": 42.35482511970849, "lng": -71.0587884302915}}}, "icon": "https://maps.gstatic.com/mapfiles/place_api/icons/generic_business-71.png", "id": "ed24ad583fc77ec2d96ba2d940ba54b856c78806", "name": "Rowell Levy Psyd", "place_id": "ChIJe0IZ9YRw44kRDIaNKEfnvbQ", "plus_code": {"compound_code": "9W4R+FX Boston, Massachusetts, United States", "global_code": "87JC9W4R+FX"}, "reference": "ChIJe0IZ9YRw44kRDIaNKEfnvbQ", "scope": "GOOGLE", "types": ["health", "point_of_interest", "establishment"], "vicinity": "185 Devonshire Street, Boston"}, "ChIJk6t4jINw44kRbZ-L-e6nr_Q": {"geometry": {"location": {"lat": 42.35617269999999, "lng": -71.0575303}, "viewport": {"northeast": {"lat": 42.3577994302915, "lng": -71.05617506970849}, "southwest": {"lat": 42.3551014697085, "lng": -71.05887303029151}}}, "icon": "https://maps.gstatic.com/mapfiles/place_api/icons/generic_business-71.png", "id": "9c4ba359f81463c91e90132b3b81e99a0753c8fe", "name": "Collective: The Audience Engine", "place_id": "ChIJk6t4jINw44kRbZ-L-e6nr_Q", "plus_code": {"compound_code": "9W4R+FX Boston, Massachusetts, United States", "global_code": "87JC9W4R+FX"}, "reference": "ChIJk6t4jINw44kRbZ-L-e6nr_Q", "scope": "GOOGLE", "types": ["point_of_interest", "establishment"], "vicinity": "45 Milk Street 5th floor, Boston"}, "ChIJo0VXlINw44kROQ_qXryHPAA": {"geometry": {"location": {"lat": 42.35617269999999, "lng": -71.0575303}, "viewport": {"northeast": {"lat": 42.35752308029149, "lng": -71.0560904697085}, "southwest": {"lat": 42.35482511970849, "lng": -71.0587884302915}}}, "icon": "https://maps.gstatic.com/mapfiles/place_api/icons/generic_business-71.png", "id": "480dedfe7d56d2d5a7fd7a3e1f7b743644759eb2", "name": "Fink Law LLC", "photos": [{"height": 612, "html_attributions": ["<a href=\"https://maps.google.com/maps/contrib/105984988650675580153/photos\">Fink Law LLC</a>"], "photo_reference": "CmRaAAAAIxoV8KY-EnkmKKVDWGZFAidsQTt2XAvy9gostsb0bOSqSw0iaXo-xGRbXe2voZBoaaUibdH7trPOc8WJfvtQlE7vVF72eEucbgnUpv8Qd22peia6Jrq4yFZI_cHsjThQEhCBvvpO7smYuS_a_rMf8fBRGhQG5whw3wo00GmPlvAQuY4BTtGk9A", "width": 792}], "place_id": "ChIJo0VXlINw44kROQ_qXryHPAA", "plus_code": {"compound_code": "9W4R+FX Boston, Massachusetts, United States", "global_code": "87JC9W4R+FX"}, "reference": "ChIJo0VXlINw44kROQ_qXryHPAA", "scope": "GOOGLE", "types": ["lawyer", "point_of_interest", "establishment"], "vicinity": "185 Devonshire Street, Boston"}, "ChIJr823MGt544kRB_qqYEH6qR0": {"geometry": {"location": {"lat": 42.35617269999999, "lng": -71.0575303}, "viewport": {"northeast": {"lat": 42.35752308029149, "lng": -71.0560904697085}, "southwest": {"lat": 42.35482511970849, "lng": -71.0587884302915}}}, "icon": "https://maps.gstatic.com/mapfiles/place_api/icons/generic_business-71.png", "id": "733888e0ca98e293f265fa7e66da36d8e67463c4", "name": "Steven M Key Law Office", "place_id": "ChIJr823MGt544kRB_qqYEH6qR0", "plus_code": {"compound_code": "9W4R+FX Boston, Massachusetts, United States", "global_code": "87JC9W4R+FX"}, "reference": "ChIJr823MGt544kRB_qqYEH6qR0", "scope": "GOOGLE", "types": ["lawyer", "point_of_interest", "establishment"], "vicinity": "185 Devonshire Street # 302, Boston"}, "ChIJS9bwk4Nw44kRerjJSDtjPls": {"geometry": {"location": {"lat": 42.3560797, "lng": -71.0575191}, "viewport": {"northeast": {"lat": 42.35743068029149, "lng": -71.05608306970849}, "southwest": {"lat": 42.35473271970849, "lng": -71.0587810302915}}}, "icon": "https://maps.gstatic.com/mapfiles/place_api/icons/generic_business-71.png", "id": "d0b751f4dbd334802d51a9962d57022c1ebb6c2c", "name": "susannah flaherty", "place_id": "ChIJS9bwk4Nw44kRerjJSDtjPls", "plus_code": {"compound_code": "9W4R+CX Boston, Massachusetts, United States", "global_code": "87JC9W4R+CX"}, "reference": "ChIJS9bwk4Nw44kRerjJSDtjPls", "scope": "GOOGLE", "types": ["point_of_interest", "establishment"], "vicinity": "185 Devonshire Street, Boston"}, "ChIJ2x1UlINw44kR7gNI_x_ILMo": {"geometry": {"location": {"lat": 42.35617269999999, "lng": -71.0575303}, "viewport": {"northeast": {"lat": 42.35752308029149, "lng": -71.0560904697085}, "southwest": {"lat": 42.35482511970849, "lng": -71.0587884302915}}}, "icon": "https://maps.gstatic.com/mapfiles/place_api/icons/generic_business-71.png", "id": "399f08cac7ecca201d18cf2efef4f6f219c253cb", "name": "Laura Fenn Attorney", "place_id": "ChIJ2x1UlINw44kR7gNI_x_ILMo", "plus_code": {"compound_code": "9W4R+FX Boston, Massachusetts, United States", "global_code": "87JC9W4R+FX"}, "reference": "ChIJ2x1UlINw44kR7gNI_x_ILMo", "scope": "GOOGLE", "types": ["lawyer", "point_of_interest", "establishment"], "vicinity": "185 Devonshire Street # 302, Boston"}, "ChIJTYeHlINw44kRh4TZ7IPNoyU": {"geometry": {"location": {"lat": 42.35617269999999, "lng": -71.0575303}, "viewport": {"northeast": {"lat": 42.35752308029149, "lng": -71.0560904697085}, "southwest": {"lat": 42.35482511970849, "lng": -71.0587884302915}}}, "icon": "https://maps.gstatic.com/mapfiles/place_api/icons/generic_business-71.png", "id": "d627947b33ba226c28b77dd56f30eeaf9807b1a4", "name": "Patrick J Iarrobino PC: Iarrobino Patrick J", "place_id": "ChIJTYeHlINw44kRh4TZ7IPNoyU", "plus_code": {"compound_code": "9W4R+FX Boston, Massachusetts, United States", "global_code": "87JC9W4R+FX"}, "reference": "ChIJTYeHlINw44kRh4TZ7IPNoyU", "scope": "GOOGLE", "types": ["lawyer", "point_of_interest", "establishment"], "vicinity": "185 Devonshire Street # 501, Boston"}, "ChIJC3yBIoNw44kRTLQCUX7w3J8": {"geometry": {"location": {"lat": 42.35549580000001, "lng": -71.0594338}, "viewport": {"northeast": {"lat": 42.3580143, "lng": -71.0572826}, "southwest": {"lat": 42.3531629, "lng": -71.0633258}}}, "icon": "https://maps.gstatic.com/mapfiles/place_api/icons/geocode-71.png", "id": "b17444457334b229c72e82dab5a3242f1d0e2a61", "name": "Downtown Crossing", "photos": [{"height": 3120, "html_attributions": ["<a href=\"https://maps.google.com/maps/contrib/111777007894721839306/photos\">verona mantova</a>"], "photo_reference": "CmRaAAAALsXIVTIGXCjjrW6_BXaC-GJ9Le4UVONAsXd51hDdUNQGpGCX9tYqcfKxbpcLvvY9OcWvWXRgJ--xdEJp9LhzEAX4alULpfwhzIEPOn2f-M6joJc7YDY8aFxcVszxqcHeEhAux_vlgJXB4HPQCvP6r9vjGhR8GzzG6-v2IhSRn6cy3JMFbZVCaA", "width": 4160}], "place_id": "ChIJC3yBIoNw44kRTLQCUX7w3J8", "reference": "ChIJC3yBIoNw44kRTLQCUX7w3J8", "scope": "GOOGLE", "types": ["neighborhood", "political"], "vicinity": "Boston"}}