{"ChIJGzE9DS1l44kRoOhiASS_fHg": {"geometry": {"location": {"lat": 42.3600825, "lng": -71.0588801}, "viewport": {"northeast": {"lat": 42.40081989999999, "lng": -70.749455}, "southwest": {"lat": 42.22788, "lng": -71.191113}}}, "icon": "https://maps.gstatic.com/mapfiles/place_api/icons/geocode-71.png", "id": "06755c25d2b34d13942a4713971756a55b870ced", "name": "Boston", "photos": [{"height": 3024, "html_attributions": ["<a href=\"https://maps.google.com/maps/contrib/104670289779338733432/photos\">Natalia Zalucean</a>"], "photo_reference": "CmRaAAAAYyiR7n_shprejHtye-zVvZ8QkUqsYcVsSJW-Yo70p8M2D7mJnORH5rvofydV0GNc1mtUvFsFIchqbJEJb021qEP3JKTIo9FbRjWyRZ4h-xu59jyRAC6Oe6ga22iV4boLEhC9qeWaZWofAlmKhd65vxDxGhQEzgtpI-y6VTwTt29CAW7ZzNR58A", "width": 4032}], "place_id": "ChIJGzE9DS1l44kRoOhiASS_fHg", "reference": "ChIJGzE9DS1l44kRoOhiASS_fHg", "scope": "GOOGLE", "types": ["locality", "political"], "vicinity": "Boston"}, "ChIJu0ewrlxw44kRQZLY_MbIH_M": {"geometry": {"location": {"lat": 42.334498, "lng": -71.07393800000001}, "viewport": {"northeast": {"lat": 42.3357566302915, "lng": -71.07273686970849}, "southwest": {"lat": 42.3330586697085, "lng": -71.0754348302915}}}, "icon": "https://maps.gstatic.com/mapfiles/place_api/icons/generic_business-71.png", "id": "dd8a75e0661456521a02454cba7f69179c1247f6", "name": "Magnolia Venegas, DMD", "place_id": "ChIJu0ewrlxw44kRQZLY_MbIH_M", "plus_code": {"compound_code": "8WMG+QC Boston, Massachusetts, United States", "global_code": "87JC8WMG+QC"}, "reference": "ChIJu0ewrlxw44kRQZLY_MbIH_M", "scope": "GOOGLE", "types": ["dentist", "health", "point_of_interest", "establishment"], "vicinity": "850 Harrison Avenue 5th floor, Boston"}, "ChIJYc90jD9644kRnUdWwVh87Hc": {"geometry": {"location": {"lat": 42.334498, "lng": -71.07393800000001}, "viewport": {"northeast": {"lat": 42.3357566302915, "lng": -71.07273686970849}, "southwest": {"lat": 42.3330586697085, "lng": -71.0754348302915}}}, "icon": "https://maps.gstatic.com/mapfiles/place_api/icons/generic_business-71.png", "id": "19ae761d5a3a745406c3599874ff3007413d9992", "name": "Kelsey A Perkins, NP", "place_id": "ChIJYc90jD9644kRnUdWwVh87Hc", "plus_code": {"compound_code": "8WMG+QC Boston, Massachusetts, United States", "global_code": "87JC8WMG+QC"}, "reference": "ChIJYc90jD9644kRnUdWwVh87Hc", "scope": "GOOGLE", "types": ["doctor", "health", "point_of_interest", "establishment"], "vicinity": "850 Harrison Avenue 4th floor, Boston"}, "ChIJX8uhUR1644kRBop7thSW9bg": {"geometry": {"location": {"lat": 42.334498, "lng": -71.07393800000001}, "viewport": {"northeast": {"lat": 42.3357566302915, "lng": -71.07273686970849}, "southwest": {"lat": 42.3330586697085, "lng": -71.0754348302915}}}, "icon": "https://maps.gstatic.com/mapfiles/place_api/icons/generic_business-71.png", "id": "74e0fa76595a563f615bde3d8bf918917c57d2d6", "name": "Mehrdad Dehpanah, DMD", "place_id": "ChIJX8uhUR1644kRBop7thSW9bg", "plus_code": {"compound_code": "8WMG+QC Boston, Massachusetts, United States", "global_code": "87JC8WMG+QC"}, "reference": "ChIJX8uhUR1644kRBop7thSW9bg", "scope": "GOOGLE", "types": ["dentist", "health", "point_of_interest", "establishment"], "vicinity": "850 Harrison Avenue 5th floor, Boston"}, "ChIJtUtNiT9644kRzR38S3J41F4": {"geometry": {"location": {"lat": 42.334498, "lng": -71.07393800000001}, "viewport": {"northeast": {"lat": 42.3357566302915, "lng": -71.07273686970849}, "southwest": {"lat": 42.3330586697085, "lng": -71.0754348302915}}}, "icon": "https://maps.gstatic.com/mapfiles/place_api/icons/generic_business-71.png", "id": "0fc26600415a69c369dbe6b0cf8f1e4f2fc7c3cb", "name": "Baby Steps Program at Boston Medical Center", "place_id": "ChIJtUtNiT9644kRzR38S3J41F4", "plus_code": {"compound_code": "8WMG+QC Boston, Massachusetts, United States", "global_code": "87JC8WMG+QC"}, "reference": "ChIJtUtNiT9644kRzR38S3J41F4", "scope": "GOOGLE", "types": ["doctor", "health", "point_of_interest", "establishment"], "vicinity": "850 Harrison Avenue 6th floor, Boston"}, "ChIJtUtNiT9644kRkh0zJ7ngYJU": {"geometry": {"location": {"lat": 42.334498, "lng": -71.07393800000001}, "viewport": {"northeast": {"lat": 42.3357566302915, "lng": -71.07273686970849}, "southwest": {"lat": 42.3330586697085, "lng": -71.0754348302915}}}, "icon": "https://maps.gstatic.com/mapfiles/place_api/icons/generic_business-71.png", "id": "ae9b04f9ff42a120b5ee979f51a35f4b0d2e8f70", "name": "Yawkey Cafeteria", "opening_hours": {"open_now": true}, "place_id": "ChIJtUtNiT9644kRkh0zJ7ngYJU", "plus_code": {"compound_code": "8WMG+QC Boston, Massachusetts, United States", "global_code": "87JC8WMG+QC"}, "rating": 3, "reference": "ChIJtUtNiT9644kRkh0zJ7ngYJU", "scope": "GOOGLE", "types": ["point_of_interest", "establishment"], "user_ratings_total": 2, "vicinity": "850 Harrison Avenue 2nd floor, Boston"}, "ChIJtUtNiT9644kR1VDV0joP2pQ": {"geometry": {"location": {"lat": 42.334498, "lng": -71.07393800000001}, "viewport": {"northeast": {"lat": 42.3357566302915, "lng": -71.07273686970849}, "southwest": {"lat": 42.3330586697085, "lng": -71.0754348302915}}}, "icon": "https://maps.gstatic.com/mapfiles/place_api/icons/generic_business-71.png", "id": "fe4a11aeac72d3762917f3a8c2cea4196d035c9c", "name": "Faster Paths to Treatment at Boston Medical Center", "opening_hours": {"open_now": true}, "place_id": "ChIJtUtNiT9644kR1VDV0joP2pQ", "plus_code": {"compound_code": "8WMG+QC Boston, Massachusetts, United States", "global_code": "87JC8WMG+QC"}, "reference": "ChIJtUtNiT9644kR1VDV0joP2pQ", "scope": "GOOGLE", "types": ["health", "point_of_interest", "establishment"], "vicinity": "850 Harrison Avenue 1st floor, Boston"}, "ChIJtUtNiT9644kRL37N1MFG06k": {"geometry": {"location": {"lat": 42.334498, "lng": -71.07393800000001}, "viewport": {"northeast": {"lat": 42.3357566302915, "lng": -71.07273686970849}, "southwest": {"lat": 42.3330586697085, "lng": -71.0754348302915}}}, "icon": "https://maps.gstatic.com/mapfiles/place_api/icons/generic_business-71.png", "id": "1a48f85f444819b2fdfa6539345e2f34272c230d", "name": "Pediatric Nutrition and Fitness for Life Program at Boston Medical Center", "place_id": "ChIJtUtNiT9644kRL37N1MFG06k", "plus_code": {"compound_code": "8WMG+QC Boston, Massachusetts, United States", "global_code": "87JC8WMG+QC"}, "reference": "ChIJtUtNiT9644kRL37N1MFG06k", "scope": "GOOGLE", "types": ["health", "point_of_interest", "establishment"], "vicinity": "850 Harrison Avenue 6th floor, Boston"}, "ChIJtUtNiT9644kRP6ndUovQmFo": {"geometry": {"location": {"lat": 42.334498, "lng": -71.07393800000001}, "viewport": {"northeast": {"lat": 42.3357566302915, "lng": -71.07273686970849}, "southwest": {"lat": 42.3330586697085, "lng": -71.0754348302915}}}, "icon": "https://maps.gstatic.com/mapfiles/place_api/icons/generic_business-71.png", "id": "85b7a188b54e37949d09ac2f1860350978852737", "name": "Grow Clinic at Boston Medical Center", "place_id": "ChIJtUtNiT9644kRP6ndUovQmFo", "plus_code": {"compound_code": "8WMG+QC Boston, Massachusetts, United States", "global_code": "87JC8WMG+QC"}, "reference": "ChIJtUtNiT9644kRP6ndUovQmFo", "scope": "GOOGLE", "types": ["health", "point_of_interest", "establishment"], "vicinity": "850 Harrison Avenue 6th floor, Boston"}, "ChIJtUtNiT9644kRquxz18VBOAQ": {"geometry": {"location": {"lat": 42.334498, "lng": -71.07393800000001}, "viewport": {"northeast": {"lat": 42.3357566302915, "lng": -71.07273686970849}, "southwest": {"lat": 42.3330586697085, "lng": -71.0754348302915}}}, "icon": "https://maps.gstatic.com/mapfiles/place_api/icons/generic_business-71.png", "id": "9405585de2fe5e9772d153c8d366fa4d4db2054e", "name": "Preventive Food Pantry at Boston Medical Center", "opening_hours": {"open_now": true}, "place_id": "ChIJtUtNiT9644kRquxz18VBOAQ", "plus_code": {"compound_code": "8WMG+QC Boston, Massachusetts, United States", "global_code": "87JC8WMG+QC"}, "rating": 3.5, "reference": "ChIJtUtNiT9644kRquxz18VBOAQ", "scope": "GOOGLE", "types": ["point_of_interest", "food", "establishment"], "user_ratings_total": 2, "vicinity": "850 Harrison Avenue 2nd floor, Boston"}, "ChIJTQkyij9644kREeCiTOcTODk": {"geometry": {"location": {"lat": 42.334498, "lng": -71.07393800000001}, "viewport": {"northeast": {"lat": 42.3357566302915, "lng": -71.07273686970849}, "southwest": {"lat": 42.3330586697085, "lng": -71.0754348302915}}}, "icon": "https://maps.gstatic.com/mapfiles/place_api/icons/doctor-71.png", "id": "8fb6626fe696eb3a343314599f398f42d48966fb", "name": "Obstetrics at Boston Medical Center", "opening_hours": {"open_now": true}, "place_id": "ChIJTQkyij9644kREeCiTOcTODk", "plus_code": {"compound_code": "8WMG+QC Boston, Massachusetts, United States", "global_code": "87JC8WMG+QC"}, "reference": "ChIJTQkyij9644kREeCiTOcTODk", "scope": "GOOGLE", "types": ["hospital", "point_of_interest", "establishment"], "vicinity": "850 Harrison Avenue 5th floor, Boston"}, "ChIJ8-h0jD9644kRrUc-YDBK7BE": {"geometry": {"location": {"lat": 42.334498, "lng": -71.07393800000001}, "viewport": {"northeast": {"lat": 42.3357566302915, "lng": -71.07273686970849}, "southwest": {"lat": 42.3330586697085, "lng": -71.0754348302915}}}, "icon": "https://maps.gstatic.com/mapfiles/place_api/icons/generic_business-71.png", "id": "f93dff2d640c5d545dd849464c584870cd02bd58", "name": "Radhika Chigurupati, DMD", "place_id": "ChIJ8-h0jD9644kRrUc-YDBK7BE", "plus_code": {"compound_code": "8WMG+QC Boston, Massachusetts, United States", "global_code": "87JC8WMG+QC"}, "rating": 4, "reference": "ChIJ8-h0jD9644kRrUc-YDBK7BE", "scope": "GOOGLE", "types": ["doctor", "health", "point_of_interest", "establishment"], "user_ratings_total": 3, "vicinity": "850 Harrison Avenue 6th floor, Boston"}, "ChIJtUtNiT9644kRBXeRnooBtmc": {"geometry": {"location": {"lat": 42.334498, "lng": -71.07393800000001}, "viewport": {"northeast": {"lat": 42.3357566302915, "lng": -71.07273686970849}, "southwest": {"lat": 42.3330586697085, "lng": -71.0754348302915}}}, "icon": "https://maps.gstatic.com/mapfiles/place_api/icons/school-71.png", "id": "221b9f700c1c58a2166cb2f6fd035f3b5608cba8", "name": "The Teaching Kitchen at Boston Medical Center", "photos": [{"height": 1150, "html_attributions": ["<a href=\"https://maps.google.com/maps/contrib/115694810590982099886/photos\">The Teaching Kitchen at Boston Medical Center</a>"], "photo_reference": "CmRaAAAAvo_38JfzeL5TXOOsYCjgKpkfwwztIMxRLwy1IgF6FQ3LZSSmmW_WS7hkRhYjCQ272LwXzoMhacrdvuM_Ifzj18AtYzfxiXsg9KL-QFyCSx_9K6Qle33vhDU7hWZFIGBfEhA286Y794UKEG2cqYaJV7z-GhRMdaIWbl12FiM0UKAjTFwH7YjH5Q", "width": 2048}], "place_id": "ChIJtUtNiT9644kRBXeRnooBtmc", "plus_code": {"compound_code": "8WMG+QC Boston, Massachusetts, United States", "global_code": "87JC8WMG+QC"}, "reference": "ChIJtUtNiT9644kRBXeRnooBtmc", "scope": "GOOGLE", "types": ["point_of_interest", "food", "establishment"], "vicinity": "850 Harrison Avenue 2nd floor, Boston"}, "ChIJtUtNiT9644kRhF-i94McclY": {"geometry": {"location": {"lat": 42.334498, "lng": -71.07393800000001}, "viewport": {"northeast": {"lat": 42.3357566302915, "lng": -71.07273686970849}, "southwest": {"lat": 42.3330586697085, "lng": -71.0754348302915}}}, "icon": "https://maps.gstatic.com/mapfiles/place_api/icons/generic_business-71.png", "id": "47b47ea0081af7dfdbc957d1639abdf3a5bccdeb", "name": "Breastfeeding and Lactation Services at Boston Medical Center", "opening_hours": {"open_now": true}, "place_id": "ChIJtUtNiT9644kRhF-i94McclY", "plus_code": {"compound_code": "8WMG+QC Boston, Massachusetts, United States", "global_code": "87JC8WMG+QC"}, "reference": "ChIJtUtNiT9644kRhF-i94McclY", "scope": "GOOGLE", "types": ["health", "point_of_interest", "establishment"], "vicinity": "850 Harrison Avenue 5th floor, Boston"}, "ChIJYc90jD9644kREta0UaODrvc": {"geometry": {"location": {"lat": 42.334498, "lng": -71.07393800000001}, "viewport": {"northeast": {"lat": 42.3357566302915, "lng": -71.07273686970849}, "southwest": {"lat": 42.3330586697085, "lng": -71.0754348302915}}}, "icon": "https://maps.gstatic.com/mapfiles/place_api/icons/generic_business-71.png", "id": "43f8b90b521d3f5ce4371ac8ffc159598be1ff0a", "name": "Lauren K Graber, MD", "place_id": "ChIJYc90jD9644kREta0UaODrvc", "plus_code": {"compound_code": "8WMG+QC Boston, Massachusetts, United States", "global_code": "87JC8WMG+QC"}, "reference": "ChIJYc90jD9644kREta0UaODrvc", "scope": "GOOGLE", "types": ["doctor", "health", "point_of_interest", "establishment"], "vicinity": "850 Harrison Avenue 4th floor, Boston"}, "ChIJ28p2uBR644kRGOnQAcK4Txc": {"geometry": {"location": {"lat": 42.3388111, "lng": -71.0765188}, "viewport": {"northeast": {"lat": 42.347756, "lng": -71.0607948}, "southwest": {"lat": 42.331455, "lng": -71.09079799999999}}}, "icon": "https://maps.gstatic.com/mapfiles/place_api/icons/geocode-71.png", "id": "bf793a5ca0b5e36b87cfa6836ddba9f86f2af360", "name": "South End", "photos": [{"height": 2736, "html_attributions": ["<a href=\"https://maps.google.com/maps/contrib/110185226650349094791/photos\">Alex Harm</a>"], "photo_reference": "CmRaAAAA5fNvFWRc5WkGySJSfbY8dV-WJvgtZdtOs8g_EuE9ujR6zUUBOeYHpvepZtShx9RPL6gPCoxnrnSYuDJMtz0ePw6l4LY6pRXwauwGXmIzvJkHH8sh9NV1HMaZHPiKFDbCEhCrBAiwWeUxHCQgU2l2rvfKGhRhnCiiRGq5IKWq6ibHNTKnrk-8aQ", "width": 3648}], "place_id": "ChIJ28p2uBR644kRGOnQAcK4Txc", "reference": "ChIJ28p2uBR644kRGOnQAcK4Txc", "scope": "GOOGLE", "types": ["neighborhood", "political"], "vicinity": "Boston"}}