{"ChIJGzE9DS1l44kRoOhiASS_fHg": {"geometry": {"location": {"lat": 42.3600825, "lng": -71.0588801}, "viewport": {"northeast": {"lat": 42.40081989999999, "lng": -70.749455}, "southwest": {"lat": 42.22788, "lng": -71.191113}}}, "icon": "https://maps.gstatic.com/mapfiles/place_api/icons/geocode-71.png", "id": "06755c25d2b34d13942a4713971756a55b870ced", "name": "Boston", "photos": [{"height": 3024, "html_attributions": ["<a href=\"https://maps.google.com/maps/contrib/104670289779338733432/photos\">Natalia Zalucean</a>"], "photo_reference": "CmRaAAAAFdKHhtkd9QzzxSI486arWNTTKBREsAxxy8unMnhHW08rOGGzTfzVQfQbwPDT1-xVJvpsjBIftRnvtzEeIbDqgf8fDpAcfV8YnQRU_qB2WyT6apQuYRQcvzeLUsJg22JaEhDNO0HQGhcDRBXvHXattBaiGhQsyEbWTVysdeW9aap_mdDoPzXj8Q", "width": 4032}], "place_id": "ChIJGzE9DS1l44kRoOhiASS_fHg", "reference": "ChIJGzE9DS1l44kRoOhiASS_fHg", "scope": "GOOGLE", "types": ["locality", "political"], "vicinity": "Boston"}, "ChIJrWXleDV444kRdztYx7Fx33s": {"geometry": {"location": {"lat": 42.34885519999999, "lng": -71.1475039}, "viewport": {"northeast": {"lat": 42.3502944302915, "lng": -71.14629186970849}, "southwest": {"lat": 42.3475964697085, "lng": -71.14898983029151}}}, "icon": "https://maps.gstatic.com/mapfiles/place_api/icons/generic_business-71.png", "id": "5fc1cdbb289c9e91b0af62b6507ee632915464e1", "name": "Stephen Gutting, MD", "opening_hours": {"open_now": true}, "photos": [{"height": 390, "html_attributions": ["<a href=\"https://maps.google.com/maps/contrib/114175155315999055829/photos\">Stephen Gutting, MD</a>"], "photo_reference": "CmRaAAAAWiwvafbv7ZGdVSJhH5SCAO7upqWdDHNExrUeNIyqIamgqAL73BswHajTPjiHypOSx_vvMvcvG30u0svaNcwVgMszXbp7krjGvdBZUT-8wOE783YcWN6xR2xUpNy-PtQ9EhBDmiJcuZvQ8XjIS7p9thfDGhQMHbVQEMzcVnW4d8HHPio8IvJqGw", "width": 390}], "place_id": "ChIJrWXleDV444kRdztYx7Fx33s", "plus_code": {"compound_code": "8VX2+GX Boston, Massachusetts, United States", "global_code": "87JC8VX2+GX"}, "rating": 3.5, "reference": "ChIJrWXleDV444kRdztYx7Fx33s", "scope": "GOOGLE", "types": ["doctor", "health", "point_of_interest", "establishment"], "user_ratings_total": 4, "vicinity": "736 Cambridge Street, Brighton"}, "ChIJrWXleDV444kRAbYQQ6rJ2eA": {"geometry": {"location": {"lat": 42.3488413, "lng": -71.1475387}, "viewport": {"northeast": {"lat": 42.35028748029149, "lng": -71.1463092697085}, "southwest": {"lat": 42.34758951970849, "lng": -71.1490072302915}}}, "icon": "https://maps.gstatic.com/mapfiles/place_api/icons/generic_business-71.png", "id": "cdd303c8fc58ac950ee0d3d374c4a97694800fc6", "name": "Sanjay Shetty, MD", "opening_hours": {"open_now": true}, "photos": [{"height": 390, "html_attributions": ["<a href=\"https://maps.google.com/maps/contrib/109001972394529068309/photos\">Sanjay Shetty, MD</a>"], "photo_reference": "CmRaAAAASAp6_PikQ-BRB-q9J14xXrd-h8iF9bTG2oLJgpvEXYg7xdEsNOjayHNDbPEaw_U0tu92M9caP1i1HHl0OOpI2CcxQq-E-kKZXIX79A1FIyWrWhAHqPrBU2mKvf3lxig5EhCVeHdaFnPq_rG59muUwq2mGhRXUkPaoZ0ok9BZxPRfrp63vTu4Rw", "width": 390}], "place_id": "ChIJrWXleDV444kRAbYQQ6rJ2eA", "plus_code": {"compound_code": "8VX2+GX Boston, Massachusetts, United States", "global_code": "87JC8VX2+GX"}, "reference": "ChIJrWXleDV444kRAbYQQ6rJ2eA", "scope": "GOOGLE", "types": ["health", "point_of_interest", "establishment"], "vicinity": "736 Cambridge Street, Brighton"}, "ChIJrWXleDV444kRZjaa4SvXaC8": {"geometry": {"location": {"lat": 42.348867, "lng": -71.1475323}, "viewport": {"northeast": {"lat": 42.3503003302915, "lng": -71.1463060697085}, "southwest": {"lat": 42.3476023697085, "lng": -71.14900403029151}}}, "icon": "https://maps.gstatic.com/mapfiles/place_api/icons/generic_business-71.png", "id": "714deb2a90cb034a5242e0b52f283c4d4ba8d0d8", "name": "Dr. Michael Orlov, MD", "opening_hours": {"open_now": true}, "photos": [{"height": 390, "html_attributions": ["<a href=\"https://maps.google.com/maps/contrib/108811154887553385225/photos\">Dr. Michael Orlov, MD</a>"], "photo_reference": "CmRaAAAAaO9LSFqNI5AAWuJxE2n8yuteBJp95FSXAu6aN2fXTfV_A013vGsHD1xfq0kY2hC3L7Z-b9Az1mBvnXl5ZmDu8Yj-afRLEAl52691a1yPyl8WTWUGnQGImlnsU3Dn7-wQEhCHc94puefkxgl7iQAchazcGhT6S3iGy0dIpjpuxytgQB6L90s90g", "width": 390}], "place_id": "ChIJrWXleDV444kRZjaa4SvXaC8", "plus_code": {"compound_code": "8VX2+GX Boston, Massachusetts, United States", "global_code": "87JC8VX2+GX"}, "rating": 5, "reference": "ChIJrWXleDV444kRZjaa4SvXaC8", "scope": "GOOGLE", "types": ["doctor", "health", "point_of_interest", "establishment"], "user_ratings_total": 1, "vicinity": "736 Cambridge Street, Brighton"}, "ChIJrWXleDV444kRnIt7seFGoVg": {"geometry": {"location": {"lat": 42.3488542, "lng": -71.1475567}, "viewport": {"northeast": {"lat": 42.35029393029149, "lng": -71.14631826970849}, "southwest": {"lat": 42.34759596970849, "lng": -71.1490162302915}}}, "icon": "https://maps.gstatic.com/mapfiles/place_api/icons/generic_business-71.png", "id": "074d4872b476478db5d6b15287ea908a5f0456f7", "name": "Dr. Phoebe Olhava, MD", "opening_hours": {"open_now": true}, "photos": [{"height": 390, "html_attributions": ["<a href=\"https://maps.google.com/maps/contrib/106384356237411061816/photos\">Dr. Phoebe Olhava, MD</a>"], "photo_reference": "CmRaAAAAmElC2egBeObXoa-LaHeMDEtct-01HoHiS0Z84PKM0RRDLlMBANsmsTjNAll4U7zFBNbP66pSDD3lTZXPq94RdG-VFuZwBANNntOVna3oZ8stfCssrZgC84KmCrvPpCa0EhAP-00RiaDdU_LXRvzq2UWRGhQ0jdoc9dLlanppl5PpeN7SjwmLgQ", "width": 390}], "place_id": "ChIJrWXleDV444kRnIt7seFGoVg", "plus_code": {"compound_code": "8VX2+GX Boston, Massachusetts, United States", "global_code": "87JC8VX2+GX"}, "reference": "ChIJrWXleDV444kRnIt7seFGoVg", "scope": "GOOGLE", "types": ["health", "point_of_interest", "establishment"], "vicinity": "736 Cambridge Street, Brighton"}, "ChIJrWXleDV444kRH81l02T3a9g": {"geometry": {"location": {"lat": 42.34886119999999, "lng": -71.1475293}, "viewport": {"northeast": {"lat": 42.3502974302915, "lng": -71.1463045697085}, "southwest": {"lat": 42.3475994697085, "lng": -71.14900253029151}}}, "icon": "https://maps.gstatic.com/mapfiles/place_api/icons/generic_business-71.png", "id": "3197b3f4b64f9d19e6ed0d8619669fd37c9db0cd", "name": "Monica Chavez, MD", "photos": [{"height": 390, "html_attributions": ["<a href=\"https://maps.google.com/maps/contrib/105801083576735897084/photos\">Monica Chavez, MD</a>"], "photo_reference": "CmRaAAAAHnjijY_SYe8NFhNH2oWwD2jE34GwtLjxF1QPwmlI_d9yOPu6IBBbisXDjTblad4K-Zzvzc-dck6GfDb7aWNlA6gOSuDT7tB1EanxjwgxWFLV8pF5AhLli-gJspcRK2QnEhALew2V_xNjg7xljBjYz0viGhRwnf2ecZTngwSHWe3CGtxUPzvQtg", "width": 390}], "place_id": "ChIJrWXleDV444kRH81l02T3a9g", "plus_code": {"compound_code": "8VX2+GX Boston, Massachusetts, United States", "global_code": "87JC8VX2+GX"}, "reference": "ChIJrWXleDV444kRH81l02T3a9g", "scope": "GOOGLE", "types": ["doctor", "health", "point_of_interest", "establishment"], "vicinity": "736 Cambridge Street, Brighton"}, "ChIJNdevhEp444kR2QdQjCF0UxM": {"geometry": {"location": {"lat": 42.34885329999999, "lng": -71.14756129999999}, "viewport": {"northeast": {"lat": 42.35029348029149, "lng": -71.1463205697085}, "southwest": {"lat": 42.34759551970849, "lng": -71.1490185302915}}}, "icon": "https://maps.gstatic.com/mapfiles/place_api/icons/generic_business-71.png", "id": "fa1a4414747cec19ddffaedbbeb37bb3ef0aaa79", "name": "Nicole Pecquex, MD", "opening_hours": {"open_now": true}, "photos": [{"height": 390, "html_attributions": ["<a href=\"https://maps.google.com/maps/contrib/111803560112715746458/photos\">Nicole Pecquex, MD</a>"], "photo_reference": "CmRaAAAAj833EcU1SfzGjWZZxEb8Lg-Chj9wHlhs8HwGf0hHqxa7DlG5escNaolQWlqaufAf8r2gyI3wwznB97fu8uuSxyzJui3D8LA4tawNjw0t_3TZsPg5rbY9hNQdqvAszSoGEhCRRxuErQ9tyBBEK9IqJ7egGhR3O1KaZlUNxNXvnGr7O56jZWHmjA", "width": 390}], "place_id": "ChIJNdevhEp444kR2QdQjCF0UxM", "plus_code": {"compound_code": "8VX2+GX Boston, Massachusetts, United States", "global_code": "87JC8VX2+GX"}, "rating": 5, "reference": "ChIJNdevhEp444kR2QdQjCF0UxM", "scope": "GOOGLE", "types": ["doctor", "health", "point_of_interest", "establishment"], "user_ratings_total": 1, "vicinity": "11 Nevins Street Suite 407, Brighton"}, "ChIJOSVPeTV444kRIhHOiJk0uhg": {"geometry": {"location": {"lat": 42.34885519999999, "lng": -71.14751729999999}, "viewport": {"northeast": {"lat": 42.3502944302915, "lng": -71.14629856970848}, "southwest": {"lat": 42.3475964697085, "lng": -71.1489965302915}}}, "icon": "https://maps.gstatic.com/mapfiles/place_api/icons/generic_business-71.png", "id": "7a7b3a243a19e4c8d401750a4746564a44e465e7", "name": "Kaitlyn Hajjar, PA", "opening_hours": {"open_now": true}, "photos": [{"height": 390, "html_attributions": ["<a href=\"https://maps.google.com/maps/contrib/107799120038167501773/photos\">Kaitlyn Hajjar, PA</a>"], "photo_reference": "CmRaAAAA1kKdJAZ6a45kf0QbRfn6VSN8e6XTJFhsyc5XjUOTyyiex6tHL0LDazAa05blDMuMNpqUpVShDLb3oLab6nITj_k_wFetksxEBhpOBLOJbSBe7vzXFLBSOvi5ZLwJUWy_EhCkH2je8dfEQJeE3e3q74sHGhSQz33oV-WC3BYdQdD3nI2s2NXbfg", "width": 390}], "place_id": "ChIJOSVPeTV444kRIhHOiJk0uhg", "plus_code": {"compound_code": "8VX2+GX Boston, Massachusetts, United States", "global_code": "87JC8VX2+GX"}, "reference": "ChIJOSVPeTV444kRIhHOiJk0uhg", "scope": "GOOGLE", "types": ["doctor", "health", "point_of_interest", "establishment"], "vicinity": "St. Margaret's Center, 736 Cambridge Street, Brighton"}, "ChIJ3c5JeTV444kRyomTu_SkDjM": {"geometry": {"location": {"lat": 42.3488553, "lng": -71.14753979999999}, "viewport": {"northeast": {"lat": 42.3502944802915, "lng": -71.14630981970849}, "southwest": {"lat": 42.3475965197085, "lng": -71.1490077802915}}}, "icon": "https://maps.gstatic.com/mapfiles/place_api/icons/generic_business-71.png", "id": "50b78e96aec0c61e25592acd506dc0f5625bf40f", "name": "William Capasso, PA", "opening_hours": {"open_now": true}, "photos": [{"height": 390, "html_attributions": ["<a href=\"https://maps.google.com/maps/contrib/100602149270906240394/photos\">William Capasso, PA</a>"], "photo_reference": "CmRaAAAAiElzsSpU3tiGzQt1nxBH3nssjqE4NhobzPKw6HZtHU1ESMkazJ9dLCoY-3n_H8-5x5vyKhXic2rRnY86h3XR5Zq6BaNVkp7NgWfm84QLaSNgnWHqkkEkP3bvvIS6PNpUEhCVNvQ8LIYm2RGGZgFADZImGhS_KpiH3Y5PObiSScY3imdi72nedQ", "width": 390}], "place_id": "ChIJ3c5JeTV444kRyomTu_SkDjM", "plus_code": {"compound_code": "8VX2+GX Boston, Massachusetts, United States", "global_code": "87JC8VX2+GX"}, "reference": "ChIJ3c5JeTV444kRyomTu_SkDjM", "scope": "GOOGLE", "types": ["doctor", "health", "point_of_interest", "establishment"], "vicinity": "736 Cambridge Street, Brighton"}, "ChIJSddJeTV444kRqrtQx3Q_wIo": {"geometry": {"location": {"lat": 42.3488553, "lng": -71.1475425}, "viewport": {"northeast": {"lat": 42.3502944802915, "lng": -71.14631116970848}, "southwest": {"lat": 42.3475965197085, "lng": -71.1490091302915}}}, "icon": "https://maps.gstatic.com/mapfiles/place_api/icons/generic_business-71.png", "id": "b156196d488e7243dc7d6287d77802386c2610f6", "name": "Douglas Mathisen - SMG", "place_id": "ChIJSddJeTV444kRqrtQx3Q_wIo", "plus_code": {"compound_code": "8VX2+GX Boston, Massachusetts, United States", "global_code": "87JC8VX2+GX"}, "reference": "ChIJSddJeTV444kRqrtQx3Q_wIo", "scope": "GOOGLE", "types": ["doctor", "health", "point_of_interest", "establishment"], "vicinity": "736 Cambridge Street, Brighton"}, "ChIJrWXleDV444kRahsDja5SmcQ": {"geometry": {"location": {"lat": 42.3488531, "lng": -71.1475481}, "viewport": {"northeast": {"lat": 42.3502854802915, "lng": -71.1463181197085}, "southwest": {"lat": 42.3475875197085, "lng": -71.1490160802915}}}, "icon": "https://maps.gstatic.com/mapfiles/place_api/icons/generic_business-71.png", "id": "82f6591498f4d1dec1c0362a8818cda5a23f0e72", "name": "Katherine Grieco, DO", "opening_hours": {"open_now": true}, "photos": [{"height": 390, "html_attributions": ["<a href=\"https://maps.google.com/maps/contrib/116589450105639428236/photos\">Katherine Grieco, DO</a>"], "photo_reference": "CmRaAAAAMp7oarINoX5vsj0gdBP_vtNI6vseZuxqO7ko03GnMs7eOwufqy5MV8cTPHtXUF3SWTdcjNu62-RU4tQzjp91psylh_tj-eIBGEr0nKSoihL1A9t_Q7YkFnHDr5cpJyQiEhBs9ISXvgsIl9A2Y9PU-aj6GhQJaZDwEFeK8lY7dJwFHwI51jTa3Q", "width": 390}], "place_id": "ChIJrWXleDV444kRahsDja5SmcQ", "plus_code": {"compound_code": "8VX2+GX Boston, Massachusetts, United States", "global_code": "87JC8VX2+GX"}, "reference": "ChIJrWXleDV444kRahsDja5SmcQ", "scope": "GOOGLE", "types": ["health", "point_of_interest", "establishment"], "vicinity": "736 Cambridge Street, Brighton"}, "ChIJj9Q1eTV444kRDjl6uyEvMu0": {"geometry": {"location": {"lat": 42.3488492, "lng": -71.1475548}, "viewport": {"northeast": {"lat": 42.3502914302915, "lng": -71.14631731970849}, "southwest": {"lat": 42.3475934697085, "lng": -71.1490152802915}}}, "icon": "https://maps.gstatic.com/mapfiles/place_api/icons/generic_business-71.png", "id": "61561632f135b12497ab5067c749e95595717131", "name": "Dr. Justin Massengale, MD", "opening_hours": {"open_now": true}, "photos": [{"height": 390, "html_attributions": ["<a href=\"https://maps.google.com/maps/contrib/112155009103972902147/photos\">Dr. Justin Massengale, MD</a>"], "photo_reference": "CmRaAAAAUPyBBFcwcQubg8iP0jblrdX9kn3jy1k2Cx_oXWoV9eJBXHfRh-CKHoja4kcNulw_3AFg0bY0_exDlMEuUEXCzgbGHNzIu132m-ozZb0aWPAQsbWv2OY2nIl_7Z7hLr9EEhDTwskw49i-05d3juLYGT8yGhT_bAvWNsIAYoUkhWIcQI5Xg862iw", "width": 390}], "place_id": "ChIJj9Q1eTV444kRDjl6uyEvMu0", "plus_code": {"compound_code": "8VX2+GX Boston, Massachusetts, United States", "global_code": "87JC8VX2+GX"}, "reference": "ChIJj9Q1eTV444kRDjl6uyEvMu0", "scope": "GOOGLE", "types": ["doctor", "health", "point_of_interest", "establishment"], "vicinity": "736 Cambridge Street, Brighton"}, "ChIJdf03eTV444kRIP6YnPNUF-o": {"geometry": {"location": {"lat": 42.3488651, "lng": -71.14754409999999}, "viewport": {"northeast": {"lat": 42.3502993802915, "lng": -71.14631196970849}, "southwest": {"lat": 42.3476014197085, "lng": -71.14900993029151}}}, "icon": "https://maps.gstatic.com/mapfiles/place_api/icons/generic_business-71.png", "id": "52a11cda00df98ce2a9f780ce21994c32b4b71e7", "name": "Swetal Patel, MD", "photos": [{"height": 390, "html_attributions": ["<a href=\"https://maps.google.com/maps/contrib/112888006511351359068/photos\">Swetal Patel, MD</a>"], "photo_reference": "CmRaAAAAfX18jXg5ewkcfWl9vuOTgooahcEXkzGaYeJZIofFBAcJl1B_ZV43iDCKqGT8w0pK9C1hDU4CFFkLxSNFkdnoiNdWuaMtAL4ej73tF_W03y4VALNO8vxMv6VCu7-m9staEhDmK8K-LTzl8RwYnuQrjW3uGhTCVU7njgLp_fkFiOP1r-5HgULezw", "width": 390}], "place_id": "ChIJdf03eTV444kRIP6YnPNUF-o", "plus_code": {"compound_code": "8VX2+GX Boston, Massachusetts, United States", "global_code": "87JC8VX2+GX"}, "reference": "ChIJdf03eTV444kRIP6YnPNUF-o", "scope": "GOOGLE", "types": ["doctor", "health", "point_of_interest", "establishment"], "vicinity": "736 Cambridge Street, Brighton"}, "ChIJrWXleDV444kRxjGQU5ydVrg": {"geometry": {"location": {"lat": 42.3488471, "lng": -71.1475554}, "viewport": {"northeast": {"lat": 42.3502824802915, "lng": -71.14632176970849}, "southwest": {"lat": 42.3475845197085, "lng": -71.1490197302915}}}, "icon": "https://maps.gstatic.com/mapfiles/place_api/icons/generic_business-71.png", "id": "77ae1bbfd204468742006524a831e1322ab6b0c5", "name": "Michael Bakerman, MD", "photos": [{"height": 390, "html_attributions": ["<a href=\"https://maps.google.com/maps/contrib/111828247025955660983/photos\">Michael Bakerman, MD</a>"], "photo_reference": "CmRaAAAAck4nWPB8bp7F3v7wr1b69QRMzPRr1aZGuHCx_A-LzUPnFmVuimbiv3qimFU4X0F-CHpcSw7-ffknBZcnNu1Rnk2Ko1PyhyL1m-4OCQb1nr5rrfB1xoJpqahp1YRJuaqDEhDj0iH38kJ_mbDndiMHh_VkGhSAb8oHfg8xr8gUEi2h_xQ4iNZzsQ", "width": 390}], "place_id": "ChIJrWXleDV444kRxjGQU5ydVrg", "plus_code": {"compound_code": "8VX2+GX Boston, Massachusetts, United States", "global_code": "87JC8VX2+GX"}, "reference": "ChIJrWXleDV444kRxjGQU5ydVrg", "scope": "GOOGLE", "types": ["doctor", "health", "point_of_interest", "establishment"], "vicinity": "736 Cambridge Street, Brighton"}, "ChIJrWXleDV444kREYkax5QoNzI": {"geometry": {"location": {"lat": 42.3488513, "lng": -71.1475588}, "viewport": {"northeast": {"lat": 42.35028458029149, "lng": -71.14632346970848}, "southwest": {"lat": 42.34758661970849, "lng": -71.14902143029148}}}, "icon": "https://maps.gstatic.com/mapfiles/place_api/icons/generic_business-71.png", "id": "08f95500894849a7e4b4999ef31031cceccf739f", "name": "Sukran Ergin-Yanmaz, MD", "opening_hours": {"open_now": true}, "place_id": "ChIJrWXleDV444kREYkax5QoNzI", "plus_code": {"compound_code": "8VX2+GX Boston, Massachusetts, United States", "global_code": "87JC8VX2+GX"}, "reference": "ChIJrWXleDV444kREYkax5QoNzI", "scope": "GOOGLE", "types": ["doctor", "health", "point_of_interest", "establishment"], "vicinity": "736 Cambridge Street, Brighton"}, "ChIJEZA2eTV444kRQfVUFJBJ_4E": {"geometry": {"location": {"lat": 42.34885329999999, "lng": -71.1475586}, "viewport": {"northeast": {"lat": 42.3502855802915, "lng": -71.14632336970848}, "southwest": {"lat": 42.3475876197085, "lng": -71.14902133029149}}}, "icon": "https://maps.gstatic.com/mapfiles/place_api/icons/generic_business-71.png", "id": "a3b0cfb399185f8790d8ddff91fd6d05137b7a8f", "name": "Geetanjali Kulkarni, MD", "photos": [{"height": 315, "html_attributions": ["<a href=\"https://maps.google.com/maps/contrib/107690837400442603198/photos\">Geetanjali Kulkarni, MD</a>"], "photo_reference": "CmRaAAAAt5Hxr93qRlEs6vXKQhefGx2wcUQYEazpqVPil1cCE8PvfcnAJvkZMN00mhJy6Ty5KxsaRSWpjDhExElyB8gPv61R8ak-jpkAbP9PHTxmfwAZ5jn-CPjPsZLQyhXa8zTFEhBAZsW9LUTF2URlAErbPokGGhTjfRafxBGYfH2dPLRwcD4QjO5KKw", "width": 560}], "place_id": "ChIJEZA2eTV444kRQfVUFJBJ_4E", "plus_code": {"compound_code": "8VX2+GX Boston, Massachusetts, United States", "global_code": "87JC8VX2+GX"}, "reference": "ChIJEZA2eTV444kRQfVUFJBJ_4E", "scope": "GOOGLE", "types": ["doctor", "health", "point_of_interest", "establishment"], "vicinity": "736 Cambridge Street, Brighton"}, "ChIJrWXleDV444kRkoWEyA2LKW0": {"geometry": {"location": {"lat": 42.348875, "lng": -71.1475253}, "viewport": {"northeast": {"lat": 42.35029643029149, "lng": -71.14630671970848}, "southwest": {"lat": 42.34759846970849, "lng": -71.1490046802915}}}, "icon": "https://maps.gstatic.com/mapfiles/place_api/icons/generic_business-71.png", "id": "36ac2e1d6c8228c7f7debe369d2716022bb7e53b", "name": "Joshua Kyle, MD", "photos": [{"height": 390, "html_attributions": ["<a href=\"https://maps.google.com/maps/contrib/103491516052759843989/photos\">Joshua Kyle, MD</a>"], "photo_reference": "CmRaAAAAxfcvjx5_m39vljHPR-rmcohZ3SAy_brDXqHUP0S3WtE_XfVVXZ8ijT_yrLMya8kOTfY-9rI9u2CR09FPGUbGuRHfzrhNrw5KCY1Vc5T9A4gumoHWK-z_AnESrjjUFTFuEhA0-NuU_05z22hm1bH-VXZIGhQZBR8uuhaLxhsK7ltRorgCh8k5Dg", "width": 390}], "place_id": "ChIJrWXleDV444kRkoWEyA2LKW0", "plus_code": {"compound_code": "8VX2+GX Boston, Massachusetts, United States", "global_code": "87JC8VX2+GX"}, "reference": "ChIJrWXleDV444kRkoWEyA2LKW0", "scope": "GOOGLE", "types": ["doctor", "health", "point_of_interest", "establishment"], "vicinity": "736 Cambridge Street, Brighton"}, "ChIJrWXleDV444kRNQR4k___GZY": {"geometry": {"location": {"lat": 42.3488662, "lng": -71.147547}, "viewport": {"northeast": {"lat": 42.3502920302915, "lng": -71.14631756970849}, "southwest": {"lat": 42.3475940697085, "lng": -71.1490155302915}}}, "icon": "https://maps.gstatic.com/mapfiles/place_api/icons/generic_business-71.png", "id": "4cbb5e8ffed38b78da348466d6e9ae3d40ee894e", "name": "James Perkins, MD", "photos": [{"height": 390, "html_attributions": ["<a href=\"https://maps.google.com/maps/contrib/117050602448758310577/photos\">James Perkins, MD</a>"], "photo_reference": "CmRaAAAAEgihIbaqOakgbGLqvrWo-s8Y7zE14te9haOwqJSRDX4GvVuF8q6Q4WXTJPYBNeQy0aWSQ6-Ux0_LbBb5Jm60W1q-U4vE6O7eWG_aOIYuVriSPgH1Ny5hZQXgInUqIQxhEhAtTSJIj3y9dTRmnuiRFWrGGhSBJYn59Yav-fGGrpsSjCOa0ihUOg", "width": 390}], "place_id": "ChIJrWXleDV444kRNQR4k___GZY", "plus_code": {"compound_code": "8VX2+GX Boston, Massachusetts, United States", "global_code": "87JC8VX2+GX"}, "reference": "ChIJrWXleDV444kRNQR4k___GZY", "scope": "GOOGLE", "types": ["doctor", "health", "point_of_interest", "establishment"], "vicinity": "736 Cambridge Street, Brighton"}, "ChIJYzhFeTV444kROMIbX5i6h3Q": {"geometry": {"location": {"lat": 42.3488644, "lng": -71.14750099999999}, "viewport": {"northeast": {"lat": 42.3502990302915, "lng": -71.14629041970849}, "southwest": {"lat": 42.3476010697085, "lng": -71.1489883802915}}}, "icon": "https://maps.gstatic.com/mapfiles/place_api/icons/generic_business-71.png", "id": "0a3a60cd55139581240a3ad457ebac8d9d5e5bc6", "name": "Jessica Distefano, PA", "opening_hours": {"open_now": true}, "photos": [{"height": 390, "html_attributions": ["<a href=\"https://maps.google.com/maps/contrib/118144806402428881586/photos\">Jessica Distefano, PA</a>"], "photo_reference": "CmRaAAAAT87UvgfH2IxtAKGZkAUKI32eTRaUlT-sCFl-pXP2pPKKv22zAYqSsFjuW4C-RPxi1gYOGSReyDSfNzvQ2tIikMEWvW_ig_tlO-G0oNBZKkh_dW9dj68qTEVv-sbYfDRnEhA-zNNpQE5ei9ZSwLScgZ9ZGhRpc7ZrnyZzCTGVS5NQEejMtiDCSw", "width": 390}], "place_id": "ChIJYzhFeTV444kROMIbX5i6h3Q", "plus_code": {"compound_code": "8VX2+GX Boston, Massachusetts, United States", "global_code": "87JC8VX2+GX"}, "reference": "ChIJYzhFeTV444kROMIbX5i6h3Q", "scope": "GOOGLE", "types": ["doctor", "health", "point_of_interest", "establishment"], "vicinity": "11 Nevins Street Suite 306, Brighton"}, "ChIJxTFcO0h444kRGCt654rYf_0": {"geometry": {"location": {"lat": 42.3463503, "lng": -71.1626756}, "viewport": {"northeast": {"lat": 42.3601961, "lng": -71.1225359}, "southwest": {"lat": 42.33009699999999, "lng": -71.1747978}}}, "icon": "https://maps.gstatic.com/mapfiles/place_api/icons/geocode-71.png", "id": "cee0d4f1baeb40007d9b85efae58477902c37b34", "name": "Brighton", "photos": [{"height": 480, "html_attributions": ["<a href=\"https://maps.google.com/maps/contrib/102865163631671690431/photos\">Boston poet</a>"], "photo_reference": "CmRaAAAAvCyBqi_YqXF8MeJL4ehhvvQQu0NrlKudwmxtxIEwZlHrIuvc2EUpy9iRoc4yOB7SNbjdp53zx-apo5EsuDDr6msQ4ZTmKJeO-Swzr2RPZIxz_pPlgGnoTyrsHJlRHlJpEhCHAL699lSUpzoam6geZ0IdGhTNyS3oqfeg8FqmcDdrSy3_bhPaXg", "width": 480}], "place_id": "ChIJxTFcO0h444kRGCt654rYf_0", "reference": "ChIJxTFcO0h444kRGCt654rYf_0", "scope": "GOOGLE", "types": ["neighborhood", "locality", "political"], "vicinity": "Boston"}, "ChIJrWXleDV444kRzoVkZK-YzHY": {"geometry": {"location": {"lat": 42.34886119999999, "lng": -71.1475588}, "viewport": {"northeast": {"lat": 42.35028953029149, "lng": -71.14632346970848}, "southwest": {"lat": 42.3475915697085, "lng": -71.14902143029148}}}, "icon": "https://maps.gstatic.com/mapfiles/place_api/icons/generic_business-71.png", "id": "2689d738aa16989d8ff16587c4561d2cfd165baa", "name": "James Whynot, MD", "photos": [{"height": 390, "html_attributions": ["<a href=\"https://maps.google.com/maps/contrib/105142153183440699811/photos\">James Whynot, MD</a>"], "photo_reference": "CmRaAAAAYsqWuY2VhYQGsCX7-d9-z7Hmg3zrh-Mg5GHO_XAd_k9UBUw_xQaNswrmxbuA4T-onLrFfSf--RANsMShriA64spkB6XIGQFRzU24v1B26BLTvTCctzSGMYv9MhaCT-WGEhAm4D8BsizhMKM8ebqX3lHKGhRlsNpSJXHYEGahZTlmjoD9qkMt8w", "width": 390}], "place_id": "ChIJrWXleDV444kRzoVkZK-YzHY", "plus_code": {"compound_code": "8VX2+GX Boston, Massachusetts, United States", "global_code": "87JC8VX2+GX"}, "reference": "ChIJrWXleDV444kRzoVkZK-YzHY", "scope": "GOOGLE", "types": ["doctor", "health", "point_of_interest", "establishment"], "vicinity": "736 Cambridge Street, Brighton"}}