{"ChIJGzE9DS1l44kRoOhiASS_fHg": {"geometry": {"location": {"lat": 42.3600825, "lng": -71.0588801}, "viewport": {"northeast": {"lat": 42.40081989999999, "lng": -70.749455}, "southwest": {"lat": 42.22788, "lng": -71.191113}}}, "icon": "https://maps.gstatic.com/mapfiles/place_api/icons/geocode-71.png", "id": "06755c25d2b34d13942a4713971756a55b870ced", "name": "Boston", "photos": [{"height": 3024, "html_attributions": ["<a href=\"https://maps.google.com/maps/contrib/104670289779338733432/photos\">Natalia Zalucean</a>"], "photo_reference": "CmRaAAAAL9WhwZ1_bdhsX290qgnOqVuzpOA6sgrvpQjlyp-W2wI476k2OUrYDTc3w1zYIh3cg6ahTo6jApjfnyTovapGDtNFyHh4r2q_kMnFxOMkzn1VWcSjaqWKTEUUslJwp_m0EhCW3nUJ1JrHMWIA_gwYVOZ4GhSNZOavOSNPOvir0eH11cS3EkEjQA", "width": 4032}], "place_id": "ChIJGzE9DS1l44kRoOhiASS_fHg", "reference": "ChIJGzE9DS1l44kRoOhiASS_fHg", "scope": "GOOGLE", "types": ["locality", "political"], "vicinity": "Boston"}, "ChIJYwUvPIx544kRB8xgjo4vTVU": {"geometry": {"location": {"lat": 42.3374763, "lng": -71.1050051}, "viewport": {"northeast": {"lat": 42.3389245802915, "lng": -71.1035875197085}, "southwest": {"lat": 42.3362266197085, "lng": -71.10628548029152}}}, "icon": "https://maps.gstatic.com/mapfiles/place_api/icons/generic_business-71.png", "id": "5461d8d6dd93405edc18331728011e3692fa7259", "name": "Preeti Mokka, OD", "photos": [{"height": 270, "html_attributions": ["<a href=\"https://maps.google.com/maps/contrib/110193828412564108147/photos\">Preeti Mokka, OD</a>"], "photo_reference": "CmRaAAAAsLdLk-YCow83e7N0PBauAgUw1bUUuVf5YyfLx7ek9x47DEOwXiP3DKZhl5gTwWWcXtZz_Y1l8Usj0cJPt1j6LE_UhxCBTs9gYoGSksmxoVP1kegxeILYWPSz5h8gwVvnEhDRzfDadtbWG2-TFnUei2ZBGhSwOMqus70s0Wguy0ZgAt_nbFID3w", "width": 480}], "place_id": "ChIJYwUvPIx544kRB8xgjo4vTVU", "plus_code": {"compound_code": "8VPV+XX Boston, Massachusetts, United States", "global_code": "87JC8VPV+XX"}, "reference": "ChIJYwUvPIx544kRB8xgjo4vTVU", "scope": "GOOGLE", "types": ["hospital", "doctor", "health", "point_of_interest", "establishment"], "vicinity": "300 Longwood Avenue Boston Children's Hospital Department of Ophthalmology, Boston"}, "ChIJAfp8Lh5644kR9PDAZN8nEK8": {"geometry": {"location": {"lat": 42.3428653, "lng": -71.1002881}, "viewport": {"northeast": {"lat": 42.3522779, "lng": -71.0818948}, "southwest": {"lat": 42.332897, "lng": -71.11159599999999}}}, "icon": "https://maps.gstatic.com/mapfiles/place_api/icons/geocode-71.png", "id": "4ca9d423ad416930d3a49da3f2de6540df27b390", "name": "Fenway/Kenmore", "photos": [{"height": 1536, "html_attributions": ["<a href=\"https://maps.google.com/maps/contrib/108749372735406640710/photos\">Joshua Arkin</a>"], "photo_reference": "CmRaAAAAK3AELKzZSJTYhhmEcXWfClT_pwa_z5XSi8UxGSRJWhgYsqIgATVBUtaQE5TEXlxP2Jx1GBQFqH-nLoMWWbtVunzaLRmOGsWkNpkINAbT-svYAC0EmMYyZHvIHtEvaMgqEhCv10TlIyc_MGYI2_np1u9OGhRVqM08AY3w02xEm55yxSqdvQAFJw", "width": 2048}], "place_id": "ChIJAfp8Lh5644kR9PDAZN8nEK8", "reference": "ChIJAfp8Lh5644kR9PDAZN8nEK8", "scope": "GOOGLE", "types": ["neighborhood", "political"], "vicinity": "Boston"}}