{"ChIJGzE9DS1l44kRoOhiASS_fHg": {"geometry": {"location": {"lat": 42.3600825, "lng": -71.0588801}, "viewport": {"northeast": {"lat": 42.40081989999999, "lng": -70.749455}, "southwest": {"lat": 42.22788, "lng": -71.191113}}}, "icon": "https://maps.gstatic.com/mapfiles/place_api/icons/geocode-71.png", "id": "06755c25d2b34d13942a4713971756a55b870ced", "name": "Boston", "photos": [{"height": 3024, "html_attributions": ["<a href=\"https://maps.google.com/maps/contrib/104670289779338733432/photos\">Natalia Zalucean</a>"], "photo_reference": "CmRaAAAAuFSZX70jc9Mp1rRB6d9qGuy3h8EVPxk4ULRM4ewFxNn8PUiUuxe0NYfb9IgkWAPzLNEH4wWHYY4ZZdBi7haec-bCb0XOsVDv_DBH28VIRMIudvlQYiAIsSwCiYFocCWSEhDdQnSO65dvBsuVIJTurDZqGhRBTXSHqPAZ7D4qAio88CgYfdIWkQ", "width": 4032}], "place_id": "ChIJGzE9DS1l44kRoOhiASS_fHg", "reference": "ChIJGzE9DS1l44kRoOhiASS_fHg", "scope": "GOOGLE", "types": ["locality", "political"], "vicinity": "Boston"}, "ChIJZxwzz4Nw44kRulJwu1x-1vI": {"geometry": {"location": {"lat": 42.3550283, "lng": -71.05670529999999}, "viewport": {"northeast": {"lat": 42.35638978029151, "lng": -71.05522471970849}, "southwest": {"lat": 42.35369181970851, "lng": -71.0579226802915}}}, "icon": "https://maps.gstatic.com/mapfiles/place_api/icons/generic_business-71.png", "id": "dbe9bb17252f9e7ce6ae82e453bc848db95b5ad0", "name": "PVA Consulting Group", "opening_hours": {"open_now": false}, "place_id": "ChIJZxwzz4Nw44kRulJwu1x-1vI", "plus_code": {"compound_code": "9W4V+28 Boston, Massachusetts, United States", "global_code": "87JC9W4V+28"}, "reference": "ChIJZxwzz4Nw44kRulJwu1x-1vI", "scope": "GOOGLE", "types": ["point_of_interest", "establishment"], "vicinity": "101 Federal Street #1900, Boston"}, "ChIJZSO0RIFw44kRMwtkx6QJp2U": {"geometry": {"location": {"lat": 42.3559219, "lng": -71.05497679999999}, "viewport": {"northeast": {"lat": 42.3595222, "lng": -71.05148729999999}, "southwest": {"lat": 42.351489, "lng": -71.0593777}}}, "icon": "https://maps.gstatic.com/mapfiles/place_api/icons/geocode-71.png", "id": "a299437eec467c3c4fb5ec448e81048caef8aacf", "name": "Financial District", "photos": [{"height": 2403, "html_attributions": ["<a href=\"https://maps.google.com/maps/contrib/115111503217500241431/photos\">Jane Wong</a>"], "photo_reference": "CmRaAAAA6qTmdAJw4AJ2yx1Lw1hY3tjo4NlIz6ieGYD8xYXDmJrWTXF21V694THc61fujhsIjrvUnS_kXYVW1dpWC72TpGCxIoNs2wul6B_tt62QSkeWl9hgHDMUl4X0Rcf2QYidEhBJv_i_mBSfD5nG9Oirr8CpGhQO-4bfQqNFY0IAQEO664kUb7Rlog", "width": 3206}], "place_id": "ChIJZSO0RIFw44kRMwtkx6QJp2U", "reference": "ChIJZSO0RIFw44kRMwtkx6QJp2U", "scope": "GOOGLE", "types": ["neighborhood", "political"], "vicinity": "Boston"}}