{"ChIJGzE9DS1l44kRoOhiASS_fHg": {"geometry": {"location": {"lat": 42.3600825, "lng": -71.0588801}, "viewport": {"northeast": {"lat": 42.40081989999999, "lng": -70.749455}, "southwest": {"lat": 42.22788, "lng": -71.191113}}}, "icon": "https://maps.gstatic.com/mapfiles/place_api/icons/geocode-71.png", "id": "06755c25d2b34d13942a4713971756a55b870ced", "name": "Boston", "photos": [{"height": 3024, "html_attributions": ["<a href=\"https://maps.google.com/maps/contrib/104670289779338733432/photos\">Natalia Zalucean</a>"], "photo_reference": "CmRaAAAAKlErQm3SsvLPct0KVvcYLuByEScy77dZuOIc8kQyLEd5xtoTPfWJiIOXWJDsKEMxTUV1nPC_F9cFS55fRgviotS8tbUj8i1q-PeB0PQQ8Qihfl-LgEfaL860RPhY28mwEhD0cG0pZaBZ-ZWAEfqh_ITeGhQwkGH7fgFkRHkXrU-pK6LwV-Nahg", "width": 4032}], "place_id": "ChIJGzE9DS1l44kRoOhiASS_fHg", "reference": "ChIJGzE9DS1l44kRoOhiASS_fHg", "scope": "GOOGLE", "types": ["locality", "political"], "vicinity": "Boston"}, "ChIJK2kOXo5544kRflNmQLnl8J0": {"geometry": {"location": {"lat": 42.3361172, "lng": -71.1069839}, "viewport": {"northeast": {"lat": 42.3373200802915, "lng": -71.1058111697085}, "southwest": {"lat": 42.33462211970851, "lng": -71.10850913029151}}}, "icon": "https://maps.gstatic.com/mapfiles/place_api/icons/generic_business-71.png", "id": "b587e9665eca14651cf632dc743f267b4cd611f9", "name": "Brigham Medical Specialties", "place_id": "ChIJK2kOXo5544kRflNmQLnl8J0", "plus_code": {"compound_code": "8VPV+C6 Boston, Massachusetts, United States", "global_code": "87JC8VPV+C6"}, "reference": "ChIJK2kOXo5544kRflNmQLnl8J0", "scope": "GOOGLE", "types": ["health", "point_of_interest", "establishment"], "vicinity": "75 Francis Street, Boston"}, "ChIJAfp8Lh5644kR9PDAZN8nEK8": {"geometry": {"location": {"lat": 42.3428653, "lng": -71.1002881}, "viewport": {"northeast": {"lat": 42.3522779, "lng": -71.0818948}, "southwest": {"lat": 42.332897, "lng": -71.11159599999999}}}, "icon": "https://maps.gstatic.com/mapfiles/place_api/icons/geocode-71.png", "id": "4ca9d423ad416930d3a49da3f2de6540df27b390", "name": "Fenway/Kenmore", "photos": [{"height": 1536, "html_attributions": ["<a href=\"https://maps.google.com/maps/contrib/108749372735406640710/photos\">Joshua Arkin</a>"], "photo_reference": "CmRaAAAAgxrWKMTm_kFRymamcKIVJkCguoc4j2llBLSOQwX-7DgpQRwn2_UMsomDIUbxUhdybyMaO5_nbUJl8KV87SYc4D5M6RyTaEHM6pk-DtXYYE46obB2BF_pNNd0lPQm7bSAEhCB98oQUXuI6kHnFCd5BvwlGhSOFAjMfCRWma5dKVl-ESYAb_LnJw", "width": 2048}], "place_id": "ChIJAfp8Lh5644kR9PDAZN8nEK8", "reference": "ChIJAfp8Lh5644kR9PDAZN8nEK8", "scope": "GOOGLE", "types": ["neighborhood", "political"], "vicinity": "Boston"}}