{"ChIJGzE9DS1l44kRoOhiASS_fHg": {"geometry": {"location": {"lat": 42.3600825, "lng": -71.0588801}, "viewport": {"northeast": {"lat": 42.40081989999999, "lng": -70.749455}, "southwest": {"lat": 42.22788, "lng": -71.191113}}}, "icon": "https://maps.gstatic.com/mapfiles/place_api/icons/geocode-71.png", "id": "06755c25d2b34d13942a4713971756a55b870ced", "name": "Boston", "photos": [{"height": 3024, "html_attributions": ["<a href=\"https://maps.google.com/maps/contrib/104670289779338733432/photos\">Natalia Zalucean</a>"], "photo_reference": "CmRaAAAAAAGaKgXWY307Ew8CbBgAmyCmvITjto6r3CFIWhRR9TZ1SpQp-OrfNgD0ThY6i4oAZEa1Ct3NFdrT-l7zr0odcWc2XCPB66xCGP2LcK06ffZrpIR5Qcw_HY5q7-2tmNhwEhCLq7U7fAO0wjg-t6Hr65R3GhQzmRL3mpDoXI1Ksu1DJeagd1XclA", "width": 4032}], "place_id": "ChIJGzE9DS1l44kRoOhiASS_fHg", "reference": "ChIJGzE9DS1l44kRoOhiASS_fHg", "scope": "GOOGLE", "types": ["locality", "political"], "vicinity": "Boston"}, "ChIJq5Rd3XR644kR-yDkQua24OA": {"geometry": {"location": {"lat": 42.3518126, "lng": -71.0721831}, "viewport": {"northeast": {"lat": 42.35301688029149, "lng": -71.0707623697085}, "southwest": {"lat": 42.35031891970849, "lng": -71.07346033029152}}}, "icon": "https://maps.gstatic.com/mapfiles/place_api/icons/generic_business-71.png", "id": "754311be2b23f6830dd11aa653f1d5b65e05f641", "name": "Sassoon Hair Salon Boston", "opening_hours": {"open_now": true}, "photos": [{"height": 2480, "html_attributions": ["<a href=\"https://maps.google.com/maps/contrib/104872942036470644178/photos\">Sassoon Salon</a>"], "photo_reference": "CmRaAAAARbmd8n5y3T-jT0asWrkVKmGy8QQzSMaL-vh-Eqd1zd83Eq2S2HQZlPA_A1r6RfjyKToO_KaT62BjjaohD8gmVue1YmZVkgjvIDGi1wC-IiClLrm1pX5IRD3jIqWYj3W2EhCpRRyfrtwIs7naPX330S9JGhTHeQrOWQ6qU-xbWiwLVeECh21ibw", "width": 1754}], "place_id": "ChIJq5Rd3XR644kR-yDkQua24OA", "plus_code": {"compound_code": "9W2H+P4 Boston, Massachusetts, United States", "global_code": "87JC9W2H+P4"}, "rating": 3.6, "reference": "ChIJq5Rd3XR644kR-yDkQua24OA", "scope": "GOOGLE", "types": ["beauty_salon", "hair_care", "point_of_interest", "establishment"], "user_ratings_total": 25, "vicinity": "399 Boylston Street, Boston"}, "ChIJkyUI6HR644kRI9t4dD3ONrw": {"geometry": {"location": {"lat": 42.3518126, "lng": -71.0721831}, "viewport": {"northeast": {"lat": 42.35301688029149, "lng": -71.0707623697085}, "southwest": {"lat": 42.35031891970849, "lng": -71.07346033029152}}}, "icon": "https://maps.gstatic.com/mapfiles/place_api/icons/generic_business-71.png", "id": "a4d0397caca3dfb1484adec792a426f0701be04e", "name": "Ngam Distribution LP", "place_id": "ChIJkyUI6HR644kRI9t4dD3ONrw", "plus_code": {"compound_code": "9W2H+P4 Boston, Massachusetts, United States", "global_code": "87JC9W2H+P4"}, "reference": "ChIJkyUI6HR644kRI9t4dD3ONrw", "scope": "GOOGLE", "types": ["point_of_interest", "establishment"], "vicinity": "399 Boylston Street # 1300, Boston"}, "ChIJkyUI6HR644kR0dI7VhBMFr8": {"geometry": {"location": {"lat": 42.3518126, "lng": -71.0721831}, "viewport": {"northeast": {"lat": 42.35301688029149, "lng": -71.0707623697085}, "southwest": {"lat": 42.35031891970849, "lng": -71.07346033029152}}}, "icon": "https://maps.gstatic.com/mapfiles/place_api/icons/generic_business-71.png", "id": "c209d1d08c140752b3d3c9ee2b6328409434921e", "name": "Ngam Advisors LP", "place_id": "ChIJkyUI6HR644kR0dI7VhBMFr8", "plus_code": {"compound_code": "9W2H+P4 Boston, Massachusetts, United States", "global_code": "87JC9W2H+P4"}, "reference": "ChIJkyUI6HR644kR0dI7VhBMFr8", "scope": "GOOGLE", "types": ["point_of_interest", "establishment"], "vicinity": "399 Boylston Street # 1300, Boston"}, "ChIJq5Rd3XR644kRqXiDeOYl-18": {"geometry": {"location": {"lat": 42.3518126, "lng": -71.0721831}, "viewport": {"northeast": {"lat": 42.35301688029149, "lng": -71.0707623697085}, "southwest": {"lat": 42.35031891970849, "lng": -71.07346033029152}}}, "icon": "https://maps.gstatic.com/mapfiles/place_api/icons/generic_business-71.png", "id": "a98bf63b400831c6fc66f7727f274a2cdce72799", "name": "Erm Consulting & Engrg Inc", "place_id": "ChIJq5Rd3XR644kRqXiDeOYl-18", "plus_code": {"compound_code": "9W2H+P4 Boston, Massachusetts, United States", "global_code": "87JC9W2H+P4"}, "reference": "ChIJq5Rd3XR644kRqXiDeOYl-18", "scope": "GOOGLE", "types": ["point_of_interest", "establishment"], "vicinity": "399 Boylston Street # 600, Boston"}, "ChIJq5Rd3XR644kR9XuWZ3XdSCQ": {"geometry": {"location": {"lat": 42.3518126, "lng": -71.0721831}, "viewport": {"northeast": {"lat": 42.35301688029149, "lng": -71.0707623697085}, "southwest": {"lat": 42.35031891970849, "lng": -71.07346033029152}}}, "icon": "https://maps.gstatic.com/mapfiles/place_api/icons/generic_business-71.png", "id": "0c441ec5940d461acc364cd79746f020895eaf9d", "name": "Back Bay Advisors", "place_id": "ChIJq5Rd3XR644kR9XuWZ3XdSCQ", "plus_code": {"compound_code": "9W2H+P4 Boston, Massachusetts, United States", "global_code": "87JC9W2H+P4"}, "reference": "ChIJq5Rd3XR644kR9XuWZ3XdSCQ", "scope": "GOOGLE", "types": ["point_of_interest", "establishment"], "vicinity": "399 Boylston Street, Boston"}, "ChIJq5Rd3XR644kRLzzxCHEEIbo": {"geometry": {"location": {"lat": 42.3518126, "lng": -71.0721831}, "viewport": {"northeast": {"lat": 42.35301688029149, "lng": -71.0707623697085}, "southwest": {"lat": 42.35031891970849, "lng": -71.07346033029152}}}, "icon": "https://maps.gstatic.com/mapfiles/place_api/icons/generic_business-71.png", "id": "3ee06088f3fa702aa2e48e5ae6cc54125105f013", "name": "Horenstein Realty Services LP", "place_id": "ChIJq5Rd3XR644kRLzzxCHEEIbo", "plus_code": {"compound_code": "9W2H+P4 Boston, Massachusetts, United States", "global_code": "87JC9W2H+P4"}, "reference": "ChIJq5Rd3XR644kRLzzxCHEEIbo", "scope": "GOOGLE", "types": ["point_of_interest", "establishment"], "vicinity": "399 Boylston Street, Boston"}, "ChIJ4w8H6HR644kRofOu71nz2wU": {"geometry": {"location": {"lat": 42.3518126, "lng": -71.0721831}, "viewport": {"northeast": {"lat": 42.35301688029149, "lng": -71.0707623697085}, "southwest": {"lat": 42.35031891970849, "lng": -71.07346033029152}}}, "icon": "https://maps.gstatic.com/mapfiles/place_api/icons/shopping-71.png", "id": "6eb6189bf5e87615f97282a40c248b1ecf6c56c8", "name": "Time Inc", "place_id": "ChIJ4w8H6HR644kRofOu71nz2wU", "plus_code": {"compound_code": "9W2H+P4 Boston, Massachusetts, United States", "global_code": "87JC9W2H+P4"}, "reference": "ChIJ4w8H6HR644kRofOu71nz2wU", "scope": "GOOGLE", "types": ["clothing_store", "store", "point_of_interest", "establishment"], "vicinity": "399 Boylston Street, Boston"}, "ChIJq5Rd3XR644kRnprjFPMguYw": {"geometry": {"location": {"lat": 42.3518126, "lng": -71.0721831}, "viewport": {"northeast": {"lat": 42.35301688029149, "lng": -71.0707623697085}, "southwest": {"lat": 42.35031891970849, "lng": -71.07346033029152}}}, "icon": "https://maps.gstatic.com/mapfiles/place_api/icons/generic_business-71.png", "id": "eb481d11a33a08125ad62d22c708537bf8eae641", "name": "DST Systems Inc", "opening_hours": {"open_now": true}, "place_id": "ChIJq5Rd3XR644kRnprjFPMguYw", "plus_code": {"compound_code": "9W2H+P4 Boston, Massachusetts, United States", "global_code": "87JC9W2H+P4"}, "reference": "ChIJq5Rd3XR644kRnprjFPMguYw", "scope": "GOOGLE", "types": ["point_of_interest", "establishment"], "vicinity": "399 Boylston Street, Boston"}, "ChIJkyUI6HR644kR6sWC1ITDkko": {"geometry": {"location": {"lat": 42.3518126, "lng": -71.0721831}, "viewport": {"northeast": {"lat": 42.35301688029149, "lng": -71.0707623697085}, "southwest": {"lat": 42.35031891970849, "lng": -71.07346033029152}}}, "icon": "https://maps.gstatic.com/mapfiles/place_api/icons/generic_business-71.png", "id": "8a5a960b97ed7d89393d6d9a1190a4404a882e75", "name": "Provar Llc", "place_id": "ChIJkyUI6HR644kR6sWC1ITDkko", "plus_code": {"compound_code": "9W2H+P4 Boston, Massachusetts, United States", "global_code": "87JC9W2H+P4"}, "reference": "ChIJkyUI6HR644kR6sWC1ITDkko", "scope": "GOOGLE", "types": ["point_of_interest", "establishment"], "vicinity": "399 Boylston Street, Boston"}, "ChIJq5Rd3XR644kR68dcnyOaYng": {"geometry": {"location": {"lat": 42.3518126, "lng": -71.0721831}, "viewport": {"northeast": {"lat": 42.35301688029149, "lng": -71.0707623697085}, "southwest": {"lat": 42.35031891970849, "lng": -71.07346033029152}}}, "icon": "https://maps.gstatic.com/mapfiles/place_api/icons/generic_business-71.png", "id": "f4b71c1b8d62457a17d8903688f24081411c9f45", "name": "Copley Real Estate Advisors", "place_id": "ChIJq5Rd3XR644kR68dcnyOaYng", "plus_code": {"compound_code": "9W2H+P4 Boston, Massachusetts, United States", "global_code": "87JC9W2H+P4"}, "reference": "ChIJq5Rd3XR644kR68dcnyOaYng", "scope": "GOOGLE", "types": ["real_estate_agency", "point_of_interest", "establishment"], "vicinity": "399 Boylston Street, Boston"}, "ChIJJxUW3XR644kRkbZ_5JM2H40": {"geometry": {"location": {"lat": 42.3518126, "lng": -71.0721831}, "viewport": {"northeast": {"lat": 42.35301688029149, "lng": -71.0707623697085}, "southwest": {"lat": 42.35031891970849, "lng": -71.07346033029152}}}, "icon": "https://maps.gstatic.com/mapfiles/place_api/icons/generic_business-71.png", "id": "05ebdfd7775a9ead4566104fe2fcc7f3ca26426a", "name": "LibbyHoopes, P.C.", "opening_hours": {"open_now": true}, "photos": [{"height": 540, "html_attributions": ["<a href=\"https://maps.google.com/maps/contrib/105686736709388434497/photos\">LibbyHoopes, P.C.</a>"], "photo_reference": "CmRaAAAAnPKfxi3C2qCNjhdgjHekS8hd38e9Qv2QuWm4eLPxkzQnRI8IbwopQxA7gn9-uY0oLWoQU-Knw0mpo4eT9CHa1QKSw8P8dL53crCGy2z9BhcFpdX33dr5D1u4ys4Z1RPIEhAnyhQ2qNHW5fAnqTDmkQszGhTfljvEcsxJduuCKYpALMQhd4jsiw", "width": 541}], "place_id": "ChIJJxUW3XR644kRkbZ_5JM2H40", "plus_code": {"compound_code": "9W2H+P4 Boston, Massachusetts, United States", "global_code": "87JC9W2H+P4"}, "reference": "ChIJJxUW3XR644kRkbZ_5JM2H40", "scope": "GOOGLE", "types": ["lawyer", "point_of_interest", "establishment"], "vicinity": "399 Boylston Street, Boston"}, "ChIJJxUW3XR644kRTFGm-psfB0Y": {"geometry": {"location": {"lat": 42.3518126, "lng": -71.0721831}, "viewport": {"northeast": {"lat": 42.35301688029149, "lng": -71.0707623697085}, "southwest": {"lat": 42.35031891970849, "lng": -71.07346033029152}}}, "icon": "https://maps.gstatic.com/mapfiles/place_api/icons/generic_business-71.png", "id": "f3947098984414a6d6a52b29635b79d23ee3440d", "name": "Docent Health", "opening_hours": {"open_now": true}, "photos": [{"height": 506, "html_attributions": ["<a href=\"https://maps.google.com/maps/contrib/102608484943527249442/photos\">Docent Health</a>"], "photo_reference": "CmRaAAAAKapqQ5HageXV1D0DfoeM0hILiTfWuiFGv8tFm-Y3g68UplL5gJ4spx-jMIH5tmXzw7K8e35E1UjmG_x4rll0A4EcO77jPAWy__kllhCGWjSDnpOy9qfu1mqtXtUYK_iUEhCQJgWTN0V_eVnqtz4CPRGVGhQY4YCIH3DAKnaBD748y-dcHuV33w", "width": 506}], "place_id": "ChIJJxUW3XR644kRTFGm-psfB0Y", "plus_code": {"compound_code": "9W2H+P4 Boston, Massachusetts, United States", "global_code": "87JC9W2H+P4"}, "rating": 5, "reference": "ChIJJxUW3XR644kRTFGm-psfB0Y", "scope": "GOOGLE", "types": ["point_of_interest", "establishment"], "user_ratings_total": 2, "vicinity": "399 Boylston Street, Boston"}, "ChIJJxUW3XR644kRNp43vWo7AH0": {"geometry": {"location": {"lat": 42.351813, "lng": -71.072183}, "viewport": {"northeast": {"lat": 42.35301713029149, "lng": -71.07076216970849}, "southwest": {"lat": 42.3503191697085, "lng": -71.0734601302915}}}, "icon": "https://maps.gstatic.com/mapfiles/place_api/icons/generic_business-71.png", "id": "ba731d31da97c899cd70431fc477a163b2832cb7", "name": "Awesome Videomakers", "place_id": "ChIJJxUW3XR644kRNp43vWo7AH0", "plus_code": {"compound_code": "9W2H+P4 Boston, Massachusetts, United States", "global_code": "87JC9W2H+P4"}, "rating": 5, "reference": "ChIJJxUW3XR644kRNp43vWo7AH0", "scope": "GOOGLE", "types": ["point_of_interest", "establishment"], "user_ratings_total": 1, "vicinity": "399 Boylston Street, Boston"}, "ChIJq5Rd3XR644kRepiMPhZBAKk": {"geometry": {"location": {"lat": 42.3518126, "lng": -71.0721831}, "viewport": {"northeast": {"lat": 42.35301688029149, "lng": -71.0707623697085}, "southwest": {"lat": 42.35031891970849, "lng": -71.07346033029152}}}, "icon": "https://maps.gstatic.com/mapfiles/place_api/icons/generic_business-71.png", "id": "c01854a03964daee3a8d261360b73cf7a2e94478", "name": "CDC Nvest Funds", "place_id": "ChIJq5Rd3XR644kRepiMPhZBAKk", "plus_code": {"compound_code": "9W2H+P4 Boston, Massachusetts, United States", "global_code": "87JC9W2H+P4"}, "reference": "ChIJq5Rd3XR644kRepiMPhZBAKk", "scope": "GOOGLE", "types": ["finance", "point_of_interest", "establishment"], "vicinity": "399 Boylston Street # 500, Boston"}, "ChIJc3pn3XR644kRe7W9ViVyWbE": {"geometry": {"location": {"lat": 42.351813, "lng": -71.072183}, "viewport": {"northeast": {"lat": 42.35301713029149, "lng": -71.07076216970849}, "southwest": {"lat": 42.3503191697085, "lng": -71.0734601302915}}}, "icon": "https://maps.gstatic.com/mapfiles/place_api/icons/generic_business-71.png", "id": "d308970553ddfd397f5cd943ca5597d7783c109a", "name": "Workbar - Back Bay", "opening_hours": {"open_now": true}, "photos": [{"height": 455, "html_attributions": ["<a href=\"https://maps.google.com/maps/contrib/113715759072279932394/photos\">Workbar - Back Bay</a>"], "photo_reference": "CmRaAAAAYGwMhIIbDKDNYtomSJUrFralUmzyBfiX-E6PpWnaGCYp_A7TMinFZeQW1_Z4kfKsh3Ynu2u8mnyA9Fmt7p2xJfGrEe2MtFobMjO_LaN8uUiDFXKhl-MxJZNP0YTLMEJgEhB-TTbzPzoKpdaQupl20BAqGhR62cZqGSnhO_NhTAlrNYUv5co7Wg", "width": 700}], "place_id": "ChIJc3pn3XR644kRe7W9ViVyWbE", "plus_code": {"compound_code": "9W2H+P4 Boston, Massachusetts, United States", "global_code": "87JC9W2H+P4"}, "rating": 4.7, "reference": "ChIJc3pn3XR644kRe7W9ViVyWbE", "scope": "GOOGLE", "types": ["point_of_interest", "establishment"], "user_ratings_total": 7, "vicinity": "F6, 399 Boylston Street, Boston"}, "ChIJJxUW3XR644kRmZoCuryyP7g": {"geometry": {"location": {"lat": 42.3518126, "lng": -71.0721831}, "viewport": {"northeast": {"lat": 42.35301688029149, "lng": -71.0707623697085}, "southwest": {"lat": 42.35031891970849, "lng": -71.07346033029152}}}, "icon": "https://maps.gstatic.com/mapfiles/place_api/icons/generic_business-71.png", "id": "d4ca03f089b01a6617c7d04a71acbda62991cdfc", "name": "399 Boylston", "photos": [{"height": 1960, "html_attributions": ["<a href=\"https://maps.google.com/maps/contrib/104133033519977497436/photos\">Christopher M Carter</a>"], "photo_reference": "CmRaAAAAd2vPkqb0iRf-BXSUls2XkEpgm0GBDU709JPeUcNVhbaJ3TzWxD21VuLVf2cVPhnq99DI_FTNT_Bm4FtBFGuEGJQWy2pVlGCqPsC_oqHZrb_J9TouCFdc-vrwWRSuGGeLEhCGFJ00265eGhjZyMc5T04CGhT12e2umDvyQqEsgGCcWyg_hvAqtQ", "width": 4032}], "place_id": "ChIJJxUW3XR644kRmZoCuryyP7g", "plus_code": {"compound_code": "9W2H+P4 Boston, Massachusetts, United States", "global_code": "87JC9W2H+P4"}, "rating": 5, "reference": "ChIJJxUW3XR644kRmZoCuryyP7g", "scope": "GOOGLE", "types": ["point_of_interest", "establishment"], "user_ratings_total": 1, "vicinity": "399 Boylston Street, Boston"}, "ChIJJxUW3XR644kRs1CvdK8_nrY": {"geometry": {"location": {"lat": 42.3518126, "lng": -71.0721831}, "viewport": {"northeast": {"lat": 42.35301688029149, "lng": -71.0707623697085}, "southwest": {"lat": 42.35031891970849, "lng": -71.07346033029152}}}, "icon": "https://maps.gstatic.com/mapfiles/place_api/icons/cafe-71.png", "id": "b5716a3ac2bb570f8d26418a0ceebc49e9b6e1a7", "name": "Tatte Bakery & Cafe", "opening_hours": {"open_now": true}, "photos": [{"height": 3024, "html_attributions": ["<a href=\"https://maps.google.com/maps/contrib/101392688570724933664/photos\">Grgrvs Yprvsk</a>"], "photo_reference": "CmRaAAAAc-Sv_Aqj18_rvZw5-3Q7H9noFHVmfEF-Tf1VDYhPZQoNEVIGocBFQwRVtthvuIBq8L0wW0j-nvig0hgnAenPENY6zxycdxKV4dc6TbnaW8v17l4FbBJ62-ot5a4pPakVEhAezDiugpJorD8E8T1AmDyJGhRyWr6gfOq7ivhCVuS6kIE4b5S0cQ", "width": 4032}], "place_id": "ChIJJxUW3XR644kRs1CvdK8_nrY", "plus_code": {"compound_code": "9W2H+P4 Boston, Massachusetts, United States", "global_code": "87JC9W2H+P4"}, "price_level": 2, "rating": 4.5, "reference": "ChIJJxUW3XR644kRs1CvdK8_nrY", "scope": "GOOGLE", "types": ["cafe", "point_of_interest", "food", "establishment"], "user_ratings_total": 300, "vicinity": "399 Boylston Street, Boston"}, "ChIJsfUV-A5644kRxFubWZLMo7w": {"geometry": {"location": {"lat": 42.35026480000001, "lng": -71.0809757}, "viewport": {"northeast": {"lat": 42.356983, "lng": -71.07028989999999}, "southwest": {"lat": 42.341597, "lng": -71.0932962}}}, "icon": "https://maps.gstatic.com/mapfiles/place_api/icons/geocode-71.png", "id": "33919fd9e49b0cde06af64b330ab949ba88171ff", "name": "Back Bay", "photos": [{"height": 3936, "html_attributions": ["<a href=\"https://maps.google.com/maps/contrib/102900160723668849003/photos\">Jim Stanford</a>"], "photo_reference": "CmRaAAAAHCumukbpNNLxZU9cjb5giIDFlDSwM5lIZcSi-GEHW6bY7nNlrmHugPNSddbLOqJ0FU-ypCXb_KIzCuTBufHUjzUJKFHfMCpwdZMdzLQtGFKzSREGFxaT-rYWUkJ06Zr7EhC_T-bngSrg1hU6CdljHMyUGhSlVHkJiRSWIPjVWnRCEqJqDwhH0w", "width": 5248}], "place_id": "ChIJsfUV-A5644kRxFubWZLMo7w", "reference": "ChIJsfUV-A5644kRxFubWZLMo7w", "scope": "GOOGLE", "types": ["neighborhood", "political"], "vicinity": "Boston"}}