{"ChIJGzE9DS1l44kRoOhiASS_fHg": {"geometry": {"location": {"lat": 42.3600825, "lng": -71.0588801}, "viewport": {"northeast": {"lat": 42.40081989999999, "lng": -70.749455}, "southwest": {"lat": 42.22788, "lng": -71.191113}}}, "icon": "https://maps.gstatic.com/mapfiles/place_api/icons/geocode-71.png", "id": "06755c25d2b34d13942a4713971756a55b870ced", "name": "Boston", "photos": [{"height": 3024, "html_attributions": ["<a href=\"https://maps.google.com/maps/contrib/104670289779338733432/photos\">Natalia Zalucean</a>"], "photo_reference": "CmRaAAAAjGZudgx2tpafjcdTEFFQFmvx0nuBj3YhaSB50L6WUySApaRnJq7CSdUjcrv-Zt1bRBNIi-YvTYeVJmfBqRcwOvPRjZByQVGu7j-xV72NgAMDFAoe5deKxn27CThQQCYxEhByO4goGR1MY02rHdmOn3GFGhQQk4mtK6YD_eHQiaslZBzC0Oma6w", "width": 4032}], "place_id": "ChIJGzE9DS1l44kRoOhiASS_fHg", "reference": "ChIJGzE9DS1l44kRoOhiASS_fHg", "scope": "GOOGLE", "types": ["locality", "political"], "vicinity": "Boston"}, "ChIJOYiq2Il744kRxsfrgxWkNGU": {"geometry": {"location": {"lat": 42.2775284, "lng": -71.0657366}, "viewport": {"northeast": {"lat": 42.2789052302915, "lng": -71.06456796970849}, "southwest": {"lat": 42.2762072697085, "lng": -71.0672659302915}}}, "icon": "https://maps.gstatic.com/mapfiles/place_api/icons/generic_business-71.png", "id": "bf59b511708f4b2e497907ba471adb2d8fb30d1c", "name": "Dr. Alfredo Martija, MD", "opening_hours": {"open_now": true}, "photos": [{"height": 315, "html_attributions": ["<a href=\"https://maps.google.com/maps/contrib/111830045127594907955/photos\">Dr. Alfredo Martija, MD</a>"], "photo_reference": "CmRaAAAAlavPYV8oCaziHMvcZrzZGtA0xS7GHuW_yoCNxxpMcQ85N4Lc57CYpBpjD25lvkH6L_SoxCx1rCK0_hr9thR81wgiSBAspkFRjFTrL9AqIFf4BcsgKP2OAji547ck4B3mEhB2mRqW-aUyD79tCc0-dZRsGhR0BtRkmn1rUwDcvTzi1iVWtky_Mg", "width": 560}], "place_id": "ChIJOYiq2Il744kRxsfrgxWkNGU", "plus_code": {"compound_code": "7WHM+2P Boston, Massachusetts, United States", "global_code": "87JC7WHM+2P"}, "reference": "ChIJOYiq2Il744kRxsfrgxWkNGU", "scope": "GOOGLE", "types": ["doctor", "health", "point_of_interest", "establishment"], "vicinity": "2100 Dorchester Avenue, Dorchester Center"}, "ChIJO0VTJ3Z844kRB6b5laRKUcM": {"geometry": {"location": {"lat": 42.2775059, "lng": -71.0657445}, "viewport": {"northeast": {"lat": 42.2788818302915, "lng": -71.0645753197085}, "southwest": {"lat": 42.2761838697085, "lng": -71.0672732802915}}}, "icon": "https://maps.gstatic.com/mapfiles/place_api/icons/generic_business-71.png", "id": "5ddb08cde26d15db2f56842f2d0dd2431622449f", "name": "Matthew Bevers, MD", "photos": [{"height": 390, "html_attributions": ["<a href=\"https://maps.google.com/maps/contrib/113289599834441293356/photos\">Matthew Bevers, MD</a>"], "photo_reference": "CmRaAAAAmcoVChLwwYxr4EpgaSrTeA5-T4_WTw-U0_GKzDNtvhjXVs0ITelVmWRHYfZFOFDXPbEY2hSCYKHGW8XveFlyrfd-Fiams5mC459-GdLBiVZuMXwMbfGxEXEDCTMOCE11EhC6CFRHM6awDvYSC-B05Ps0GhRvsAuGEAKNh23pEf6FjigZXYTzZA", "width": 390}], "place_id": "ChIJO0VTJ3Z844kRB6b5laRKUcM", "plus_code": {"compound_code": "7WHM+2P Boston, Massachusetts, United States", "global_code": "87JC7WHM+2P"}, "reference": "ChIJO0VTJ3Z844kRB6b5laRKUcM", "scope": "GOOGLE", "types": ["doctor", "health", "point_of_interest", "establishment"], "vicinity": "2100 Dorchester Avenue Suite 2214, Dorchester Center"}, "ChIJs4veGkl644kROEK8ix2v_oY": {"geometry": {"location": {"lat": 42.30163049999999, "lng": -71.067605}, "viewport": {"northeast": {"lat": 42.3358969, "lng": -71.0325551}, "southwest": {"lat": 42.267598, "lng": -71.0800369}}}, "icon": "https://maps.gstatic.com/mapfiles/place_api/icons/geocode-71.png", "id": "9e12301fdeebf54c1266b9986602466425a9c326", "name": "Dorchester", "photos": [{"height": 1944, "html_attributions": ["<a href=\"https://maps.google.com/maps/contrib/118366960396286562471/photos\">Michael Laferriere</a>"], "photo_reference": "CmRaAAAAm7_EqKGxOwQI18-oZ_2EJWOfPUoy13OnonlEmY_1xOKXco5sLOKH4e0jn5PU4qD35e6StlR12kX_K3UC3bqHSpRrlG6qDKQ_7KHhzr8hLFHxgJVicJu715gD-V5H30KAEhCzg64pVDqsGjSJ9VyMN2O-GhQNtEHcBzG793yjKuMg5xWufLkY4w", "width": 2592}], "place_id": "ChIJs4veGkl644kROEK8ix2v_oY", "reference": "ChIJs4veGkl644kROEK8ix2v_oY", "scope": "GOOGLE", "types": ["neighborhood", "political"], "vicinity": "Dorchester Center"}}