{"ChIJGzE9DS1l44kRoOhiASS_fHg": {"geometry": {"location": {"lat": 42.3600825, "lng": -71.0588801}, "viewport": {"northeast": {"lat": 42.40081989999999, "lng": -70.749455}, "southwest": {"lat": 42.22788, "lng": -71.191113}}}, "icon": "https://maps.gstatic.com/mapfiles/place_api/icons/geocode-71.png", "id": "06755c25d2b34d13942a4713971756a55b870ced", "name": "Boston", "photos": [{"height": 3024, "html_attributions": ["<a href=\"https://maps.google.com/maps/contrib/104670289779338733432/photos\">Natalia Zalucean</a>"], "photo_reference": "CmRaAAAAI-WZqkbEgitwIKBpLlJvWw-Om0sIU3Fz8GJe_bYZESTZiv3THe_1KRG7wvGxpUv6SD5qOvf5ok5liEABsDEi18RtaHQExl38VrBSR6HO1B_Rz4v8CxRglIhAt_yWmSAWEhADkkJeXNlGOStMYDRa5A8RGhRkbiaezU1-PocWFUWoz0TxO2WnkQ", "width": 4032}], "place_id": "ChIJGzE9DS1l44kRoOhiASS_fHg", "reference": "ChIJGzE9DS1l44kRoOhiASS_fHg", "scope": "GOOGLE", "types": ["locality", "political"], "vicinity": "Boston"}, "ChIJS0D2t3R644kRWtnG5xVdYkM": {"geometry": {"location": {"lat": 42.3504073, "lng": -71.0772917}, "viewport": {"northeast": {"lat": 42.35161963029149, "lng": -71.0758814197085}, "southwest": {"lat": 42.3489216697085, "lng": -71.0785793802915}}}, "icon": "https://maps.gstatic.com/mapfiles/place_api/icons/bank_dollar-71.png", "id": "bc6777342c9a3e9370cccf69ea60b2af45c093e7", "name": "Citizens Bank", "opening_hours": {"open_now": false}, "photos": [{"height": 1039, "html_attributions": ["<a href=\"https://maps.google.com/maps/contrib/108223157380149324998/photos\">Anna Witas</a>"], "photo_reference": "CmRaAAAAUzJdx0T_Ppz-Eo0TKuHvIteAG8oKVdSgoVy9JNrlMAny7HWZjHftK2BQdlnJp-RePXHFceaNR8wOthot7NGJAK1hxIp4iOQhh4wM4XMcntlts27pBwPcaniqVw0AKl0uEhClWaswfELd4YGYZaMTiKUbGhTSyz2usmrQgqPkSYfPrcfMLQitvw", "width": 1600}], "place_id": "ChIJS0D2t3R644kRWtnG5xVdYkM", "plus_code": {"compound_code": "9W2F+53 Boston, Massachusetts, United States", "global_code": "87JC9W2F+53"}, "rating": 2.7, "reference": "ChIJS0D2t3R644kRWtnG5xVdYkM", "scope": "GOOGLE", "types": ["bank", "atm", "finance", "point_of_interest", "establishment"], "user_ratings_total": 9, "vicinity": "607 Boylston Street, Boston"}, "ChIJsfUV-A5644kRxFubWZLMo7w": {"geometry": {"location": {"lat": 42.35026480000001, "lng": -71.0809757}, "viewport": {"northeast": {"lat": 42.356983, "lng": -71.07028989999999}, "southwest": {"lat": 42.341597, "lng": -71.0932962}}}, "icon": "https://maps.gstatic.com/mapfiles/place_api/icons/geocode-71.png", "id": "33919fd9e49b0cde06af64b330ab949ba88171ff", "name": "Back Bay", "photos": [{"height": 3936, "html_attributions": ["<a href=\"https://maps.google.com/maps/contrib/102900160723668849003/photos\">Jim Stanford</a>"], "photo_reference": "CmRaAAAA0JDTgtI17LK0Z5QCmBb26DC2p4DFI1J-LyBPWsEvKitQEU34L98l2uThxR64kjwE4ZVWiLz01hRQY8jTH84j3kO3e7cCc7nSYOYUnCAUkbbPRQpypHBJAs93cSrwxp1zEhDYeMv-ywHcTg-JdEJLmRQaGhQftuv-RQqSDb7VfYYTrndG9cGhYQ", "width": 5248}], "place_id": "ChIJsfUV-A5644kRxFubWZLMo7w", "reference": "ChIJsfUV-A5644kRxFubWZLMo7w", "scope": "GOOGLE", "types": ["neighborhood", "political"], "vicinity": "Boston"}}