{"ChIJGzE9DS1l44kRoOhiASS_fHg": {"geometry": {"location": {"lat": 42.3600825, "lng": -71.0588801}, "viewport": {"northeast": {"lat": 42.40081989999999, "lng": -70.749455}, "southwest": {"lat": 42.22788, "lng": -71.191113}}}, "icon": "https://maps.gstatic.com/mapfiles/place_api/icons/geocode-71.png", "id": "06755c25d2b34d13942a4713971756a55b870ced", "name": "Boston", "photos": [{"height": 3024, "html_attributions": ["<a href=\"https://maps.google.com/maps/contrib/104670289779338733432/photos\">Natalia Zalucean</a>"], "photo_reference": "CmRaAAAAlqKogmrgad_iGJ15eRnZhxXtUok82uCwo7ilPef5nvGlLgcvfRube4hoqETJ7wBBpElQnAXN-xZxebtWAZJmk-xnwugc4FMUmqbgEg99UEe8uZyrlvzgEAXLNmpxE27mEhD0ycQhSfiZ7HoXF8clzfD8GhSmqMskFUoIOKpLRkiQj299RTkohQ", "width": 4032}], "place_id": "ChIJGzE9DS1l44kRoOhiASS_fHg", "reference": "ChIJGzE9DS1l44kRoOhiASS_fHg", "scope": "GOOGLE", "types": ["locality", "political"], "vicinity": "Boston"}, "ChIJn13PWoNw44kRG5kzofMvl0c": {"geometry": {"location": {"lat": 42.3571159, "lng": -71.0608831}, "viewport": {"northeast": {"lat": 42.35841843029149, "lng": -71.0595657697085}, "southwest": {"lat": 42.35572046970849, "lng": -71.0622637302915}}}, "icon": "https://maps.gstatic.com/mapfiles/place_api/icons/restaurant-71.png", "id": "ee500cfbc42bc500febd167c0fb3e2a90f474a8a", "name": "Silvertone Bar & Grill", "opening_hours": {"open_now": true}, "photos": [{"height": 3036, "html_attributions": ["<a href=\"https://maps.google.com/maps/contrib/116716204391483366731/photos\">Jack Fader</a>"], "photo_reference": "CmRaAAAAYnTVoN6lbe_BmUvM8wnQ79oHWYRVrL7VKJErNUJIupDFPUwIViR7TawDhHy9N3wfQ6snTiAsLlzw0yJ0kIbgAverVAH1Uq-ck9fXqm_MWj5YaFmCAZNkOpIGEKyixrbtEhD6T5XLmLvH_w4Zs8oIVeIsGhSneQyJPuqE9vVQytxFbDzFYpccwg", "width": 4048}], "place_id": "ChIJn13PWoNw44kRG5kzofMvl0c", "plus_code": {"compound_code": "9W4Q+RJ Boston, Massachusetts, United States", "global_code": "87JC9W4Q+RJ"}, "price_level": 2, "rating": 4.3, "reference": "ChIJn13PWoNw44kRG5kzofMvl0c", "scope": "GOOGLE", "types": ["bar", "restaurant", "point_of_interest", "food", "establishment"], "user_ratings_total": 499, "vicinity": "69 Bromfield Street, Boston"}, "ChIJmbtcV4Nw44kRsLClpuXiSaU": {"geometry": {"location": {"lat": 42.357115, "lng": -71.0608731}, "viewport": {"northeast": {"lat": 42.3585451302915, "lng": -71.05966816970849}, "southwest": {"lat": 42.3558471697085, "lng": -71.0623661302915}}}, "icon": "https://maps.gstatic.com/mapfiles/place_api/icons/atm-71.png", "id": "fdd603e9f6a995f498e89fc315cec45103b0fb5f", "name": "Access to Money", "place_id": "ChIJmbtcV4Nw44kRsLClpuXiSaU", "plus_code": {"compound_code": "9W4Q+RM Boston, Massachusetts, United States", "global_code": "87JC9W4Q+RM"}, "reference": "ChIJmbtcV4Nw44kRsLClpuXiSaU", "scope": "GOOGLE", "types": ["atm", "finance", "point_of_interest", "establishment"], "vicinity": "100 Tremont Street, Boston"}, "ChIJs-osUYNw44kRUPUgtn-TQI0": {"geometry": {"location": {"lat": 42.357115, "lng": -71.0608731}, "viewport": {"northeast": {"lat": 42.3585451302915, "lng": -71.05966816970849}, "southwest": {"lat": 42.3558471697085, "lng": -71.0623661302915}}}, "icon": "https://maps.gstatic.com/mapfiles/place_api/icons/generic_business-71.png", "id": "6f11fde50507e44985f132eb33e6ba7363fe47b2", "name": "Marcos Law Offices", "place_id": "ChIJs-osUYNw44kRUPUgtn-TQI0", "plus_code": {"compound_code": "9W4Q+RM Boston, Massachusetts, United States", "global_code": "87JC9W4Q+RM"}, "reference": "ChIJs-osUYNw44kRUPUgtn-TQI0", "scope": "GOOGLE", "types": ["lawyer", "point_of_interest", "establishment"], "vicinity": "101 Tremont Street, Boston"}, "ChIJgS91WoNw44kReY53St95nj8": {"geometry": {"location": {"lat": 42.357115, "lng": -71.0608731}, "viewport": {"northeast": {"lat": 42.3585451302915, "lng": -71.05966816970849}, "southwest": {"lat": 42.3558471697085, "lng": -71.0623661302915}}}, "icon": "https://maps.gstatic.com/mapfiles/place_api/icons/generic_business-71.png", "id": "25e56e0a947904bf2c9a433465e2b7b00ec37bc6", "name": "Shomali & Richmond Optometrist", "opening_hours": {"open_now": false}, "place_id": "ChIJgS91WoNw44kReY53St95nj8", "plus_code": {"compound_code": "9W4Q+RM Boston, Massachusetts, United States", "global_code": "87JC9W4Q+RM"}, "reference": "ChIJgS91WoNw44kReY53St95nj8", "scope": "GOOGLE", "types": ["store", "health", "point_of_interest", "establishment"], "vicinity": "18 Tremont Street #702, Boston"}, "ChIJUQLpCCN644kRleL6ZRWHVdM": {"geometry": {"location": {"lat": 42.3571343, "lng": -71.0608767}, "viewport": {"northeast": {"lat": 42.3585602302915, "lng": -71.05966431970849}, "southwest": {"lat": 42.3558622697085, "lng": -71.06236228029151}}}, "icon": "https://maps.gstatic.com/mapfiles/place_api/icons/generic_business-71.png", "id": "fd9fd9f5b9b10f636f8e99cb1febb8831dacf69e", "name": "African Community Health Initiatives", "place_id": "ChIJUQLpCCN644kRleL6ZRWHVdM", "plus_code": {"compound_code": "9W4Q+VJ Boston, Massachusetts, United States", "global_code": "87JC9W4Q+VJ"}, "reference": "ChIJUQLpCCN644kRleL6ZRWHVdM", "scope": "GOOGLE", "types": ["health", "point_of_interest", "establishment"], "vicinity": "101 Tremont Street Suite 415, Boston"}, "ChIJeR1yWoNw44kRFLaZLCWho44": {"geometry": {"location": {"lat": 42.3571343, "lng": -71.0608767}, "viewport": {"northeast": {"lat": 42.3585602302915, "lng": -71.05966431970849}, "southwest": {"lat": 42.3558622697085, "lng": -71.06236228029151}}}, "icon": "https://maps.gstatic.com/mapfiles/place_api/icons/generic_business-71.png", "id": "271a2c3eeda3f6763e798bcbc02abf17f04933e8", "name": "Crane Therapeutic Services", "place_id": "ChIJeR1yWoNw44kRFLaZLCWho44", "plus_code": {"compound_code": "9W4Q+VJ Boston, Massachusetts, United States", "global_code": "87JC9W4Q+VJ"}, "reference": "ChIJeR1yWoNw44kRFLaZLCWho44", "scope": "GOOGLE", "types": ["health", "point_of_interest", "establishment"], "vicinity": "101 Tremont Street #1111, Boston"}, "ChIJC3yBIoNw44kRTLQCUX7w3J8": {"geometry": {"location": {"lat": 42.35549580000001, "lng": -71.0594338}, "viewport": {"northeast": {"lat": 42.3580143, "lng": -71.0572826}, "southwest": {"lat": 42.3531629, "lng": -71.0633258}}}, "icon": "https://maps.gstatic.com/mapfiles/place_api/icons/geocode-71.png", "id": "b17444457334b229c72e82dab5a3242f1d0e2a61", "name": "Downtown Crossing", "photos": [{"height": 3120, "html_attributions": ["<a href=\"https://maps.google.com/maps/contrib/111777007894721839306/photos\">verona mantova</a>"], "photo_reference": "CmRaAAAA9oxbyOWn5gl2ExuDbXmG3yp8tz8N1RU4XTPh6vZ4anTOdSiEZrOhUIzaBUZH_nvq5zt3znF1mrIie2Kd4ijCWCvju25mloHUFCGG7KFm_qwLSW4Hv3E-7wIL6-CoEtINEhAIgOcQgstbBkMIHYOLNEjgGhS2yi7Tf1Om7HdQrGPuwjAdySonDg", "width": 4160}], "place_id": "ChIJC3yBIoNw44kRTLQCUX7w3J8", "reference": "ChIJC3yBIoNw44kRTLQCUX7w3J8", "scope": "GOOGLE", "types": ["neighborhood", "political"], "vicinity": "Boston"}}