{"ChIJGzE9DS1l44kRoOhiASS_fHg": {"geometry": {"location": {"lat": 42.3600825, "lng": -71.0588801}, "viewport": {"northeast": {"lat": 42.40081989999999, "lng": -70.749455}, "southwest": {"lat": 42.22788, "lng": -71.191113}}}, "icon": "https://maps.gstatic.com/mapfiles/place_api/icons/geocode-71.png", "id": "06755c25d2b34d13942a4713971756a55b870ced", "name": "Boston", "photos": [{"height": 3024, "html_attributions": ["<a href=\"https://maps.google.com/maps/contrib/104670289779338733432/photos\">Natalia Zalucean</a>"], "photo_reference": "CmRaAAAAFF89t3fOcAlNqA9_FV5azidGIyXgrnofXSR0Hud8Bt-AjFoXnCdbdhqT4o3UK4Iz2NBb6GJU9Ltx3FAtSa9mqwesX1Zv6hI_f0Qd1nbwZa9iIc-eHMh_pPgjgtiAtG-oEhBoSzXidALk8le7oxsQNOUDGhTF4XF7tphKcZvKNSiZo-SEym52bA", "width": 4032}], "place_id": "ChIJGzE9DS1l44kRoOhiASS_fHg", "reference": "ChIJGzE9DS1l44kRoOhiASS_fHg", "scope": "GOOGLE", "types": ["locality", "political"], "vicinity": "Boston"}, "ChIJCRW2OoJw44kRagV09ol5Xrc": {"geometry": {"location": {"lat": 42.353739, "lng": -71.05649629999999}, "viewport": {"northeast": {"lat": 42.3551013302915, "lng": -71.0550049197085}, "southwest": {"lat": 42.3524033697085, "lng": -71.0577028802915}}}, "icon": "https://maps.gstatic.com/mapfiles/place_api/icons/generic_business-71.png", "id": "8b24250b96e0d62a4b6ae301e8bde66992f7280a", "name": "Hackett Feinberg, P.C.", "opening_hours": {"open_now": true}, "place_id": "ChIJCRW2OoJw44kRagV09ol5Xrc", "plus_code": {"compound_code": "9W3V+FC Boston, Massachusetts, United States", "global_code": "87JC9W3V+FC"}, "reference": "ChIJCRW2OoJw44kRagV09ol5Xrc", "scope": "GOOGLE", "types": ["point_of_interest", "establishment"], "vicinity": "155 Federal Street, Boston"}, "ChIJZSO0RIFw44kRMwtkx6QJp2U": {"geometry": {"location": {"lat": 42.3559219, "lng": -71.05497679999999}, "viewport": {"northeast": {"lat": 42.3595222, "lng": -71.05148729999999}, "southwest": {"lat": 42.351489, "lng": -71.0593777}}}, "icon": "https://maps.gstatic.com/mapfiles/place_api/icons/geocode-71.png", "id": "a299437eec467c3c4fb5ec448e81048caef8aacf", "name": "Financial District", "photos": [{"height": 2403, "html_attributions": ["<a href=\"https://maps.google.com/maps/contrib/115111503217500241431/photos\">Jane Wong</a>"], "photo_reference": "CmRaAAAA5I98hTV9DA81Q0hWPpod6Mm2jMaev4Xd5j38RddhxO9mcWypgxcSC4d5Iobridrpc7yrRCmntV1FYRHgIT7dPDEpNTeicWzEXhDkUbUQwebl0-Lyp7wPmr4Dqg29m54WEhCQ5L9oBcuCfkkbAp979qQcGhQW2jc4ElPgz0ro_1zLJflsUk7aXA", "width": 3206}], "place_id": "ChIJZSO0RIFw44kRMwtkx6QJp2U", "reference": "ChIJZSO0RIFw44kRMwtkx6QJp2U", "scope": "GOOGLE", "types": ["neighborhood", "political"], "vicinity": "Boston"}}