{"ChIJGzE9DS1l44kRoOhiASS_fHg": {"geometry": {"location": {"lat": 42.3600825, "lng": -71.0588801}, "viewport": {"northeast": {"lat": 42.40081989999999, "lng": -70.749455}, "southwest": {"lat": 42.22788, "lng": -71.191113}}}, "icon": "https://maps.gstatic.com/mapfiles/place_api/icons/geocode-71.png", "id": "06755c25d2b34d13942a4713971756a55b870ced", "name": "Boston", "photos": [{"height": 3024, "html_attributions": ["<a href=\"https://maps.google.com/maps/contrib/104670289779338733432/photos\">Natalia Zalucean</a>"], "photo_reference": "CmRaAAAAJRg_n1BJH05SGCpi0owbgXoMOMo8cMS-wIys4pyl4pQj1KruKKVi7PJB-OxnqRMbgE8m1RuNjuPikRX18hbuSp5GFsEilcSIF0yCngIefeAkFjOylKkvchE9gvbS3kZXEhBZUi2cYNnLrueevxuCG7qiGhRFREp29YfB2109ViV6SWKZHiuDpg", "width": 4032}], "place_id": "ChIJGzE9DS1l44kRoOhiASS_fHg", "reference": "ChIJGzE9DS1l44kRoOhiASS_fHg", "scope": "GOOGLE", "types": ["locality", "political"], "vicinity": "Boston"}, "ChIJA_c0BIJw44kRPkValnj0nDw": {"geometry": {"location": {"lat": 42.3592454, "lng": -71.0574839}, "viewport": {"northeast": {"lat": 42.3603958302915, "lng": -71.05612496970849}, "southwest": {"lat": 42.35769786970851, "lng": -71.0588229302915}}}, "icon": "https://maps.gstatic.com/mapfiles/place_api/icons/generic_business-71.png", "id": "f942b0811e951c97cfb84ad2813c940d806678ce", "name": "Hinckley Allen", "place_id": "ChIJA_c0BIJw44kRPkValnj0nDw", "plus_code": {"compound_code": "9W5V+M2 Boston, Massachusetts, United States", "global_code": "87JC9W5V+M2"}, "reference": "ChIJA_c0BIJw44kRPkValnj0nDw", "scope": "GOOGLE", "types": ["point_of_interest", "establishment"], "vicinity": "28 State Street, Boston"}, "ChIJUcXXSoRw44kRMgp7drwupmk": {"geometry": {"location": {"lat": 42.3592454, "lng": -71.0574839}, "viewport": {"northeast": {"lat": 42.3603958302915, "lng": -71.05612496970849}, "southwest": {"lat": 42.35769786970851, "lng": -71.0588229302915}}}, "icon": "https://maps.gstatic.com/mapfiles/place_api/icons/generic_business-71.png", "id": "bebecf614e12bf549313a449fb36879326a39178", "name": "Boston Computer Forensics", "opening_hours": {"open_now": true}, "photos": [{"height": 1000, "html_attributions": ["<a href=\"https://maps.google.com/maps/contrib/100423517167960095556/photos\">Boston Computer Forensics</a>"], "photo_reference": "CmRaAAAAPlsFLJSW3-wBpuDj89nA5K7FinK5BbLVu9jGSxxIqkGbBOX2AiM7ouQDv030zuZf4_g3_cSPxqN2PgrWjj8LK9JACQOzGiaU597hU4Xc2fC_hmPJq_afezDc3O_8ulPmEhCYqScLHDV4erY9y6qaSazkGhSKmrXAV2-Px2AWe9JNvxLScyzGSQ", "width": 1000}], "place_id": "ChIJUcXXSoRw44kRMgp7drwupmk", "plus_code": {"compound_code": "9W5V+M2 Boston, Massachusetts, United States", "global_code": "87JC9W5V+M2"}, "reference": "ChIJUcXXSoRw44kRMgp7drwupmk", "scope": "GOOGLE", "types": ["point_of_interest", "establishment"], "vicinity": "28 State Street, Boston"}, "ChIJaxM98INw44kRz9fUEEZQ52g": {"geometry": {"location": {"lat": 42.3592454, "lng": -71.0574839}, "viewport": {"northeast": {"lat": 42.3603958302915, "lng": -71.05612496970849}, "southwest": {"lat": 42.35769786970851, "lng": -71.0588229302915}}}, "icon": "https://maps.gstatic.com/mapfiles/place_api/icons/generic_business-71.png", "id": "2a334fb23c2a39e0b73e6f51a3e1396d45d653c1", "name": "Revenue Architects", "opening_hours": {"open_now": false}, "photos": [{"height": 490, "html_attributions": ["<a href=\"https://maps.google.com/maps/contrib/107417557828875855981/photos\">Revenue Architects</a>"], "photo_reference": "CmRaAAAA9ebhR1OG-3z7R6X4jzGiLKQBQQ2IpuM-Dpzlwd8mA1nSaiMKaBYB79AvLGSTHMrsgEicW8U8q5pIxEfYpPdJsPPEeIuB1-inyf390tyWZs4dqGfaOkbHO2rGFfJVFrAPEhDjTWU7kr1Vmq1AMIbhLKU9GhQsny-j9GCYgWWPaGHokjxJHaPdIw", "width": 1500}], "place_id": "ChIJaxM98INw44kRz9fUEEZQ52g", "plus_code": {"compound_code": "9W5V+M2 Boston, Massachusetts, United States", "global_code": "87JC9W5V+M2"}, "reference": "ChIJaxM98INw44kRz9fUEEZQ52g", "scope": "GOOGLE", "types": ["point_of_interest", "establishment"], "vicinity": "28 State Street, Suite 2202 State Street 22nd floor, Boston"}, "ChIJS9iwtIVw44kRuYzn00p-eoA": {"geometry": {"location": {"lat": 42.3592454, "lng": -71.0574839}, "viewport": {"northeast": {"lat": 42.3603958302915, "lng": -71.05612496970849}, "southwest": {"lat": 42.35769786970851, "lng": -71.0588229302915}}}, "icon": "https://maps.gstatic.com/mapfiles/place_api/icons/generic_business-71.png", "id": "b14ba7289a4bac11a915da72e1af13a6889b6424", "name": "Thomas E Michael", "place_id": "ChIJS9iwtIVw44kRuYzn00p-eoA", "plus_code": {"compound_code": "9W5V+M2 Boston, Massachusetts, United States", "global_code": "87JC9W5V+M2"}, "reference": "ChIJS9iwtIVw44kRuYzn00p-eoA", "scope": "GOOGLE", "types": ["lawyer", "point_of_interest", "establishment"], "vicinity": "28 State Street, Boston"}, "ChIJS9iwtIVw44kR0yfnyHKOxbk": {"geometry": {"location": {"lat": 42.3592454, "lng": -71.0574839}, "viewport": {"northeast": {"lat": 42.3603958302915, "lng": -71.05612496970849}, "southwest": {"lat": 42.35769786970851, "lng": -71.0588229302915}}}, "icon": "https://maps.gstatic.com/mapfiles/place_api/icons/generic_business-71.png", "id": "6c2c526a0110534026ce2600246ed45e1de811c6", "name": "David H. Travers", "place_id": "ChIJS9iwtIVw44kR0yfnyHKOxbk", "plus_code": {"compound_code": "9W5V+M2 Boston, Massachusetts, United States", "global_code": "87JC9W5V+M2"}, "reference": "ChIJS9iwtIVw44kR0yfnyHKOxbk", "scope": "GOOGLE", "types": ["lawyer", "point_of_interest", "establishment"], "vicinity": "28 State Street, Boston"}, "ChIJgbwT-oNw44kRN9i1Tipm68U": {"geometry": {"location": {"lat": 42.3592454, "lng": -71.0574839}, "viewport": {"northeast": {"lat": 42.3603958302915, "lng": -71.05612496970849}, "southwest": {"lat": 42.35769786970851, "lng": -71.0588229302915}}}, "icon": "https://maps.gstatic.com/mapfiles/place_api/icons/generic_business-71.png", "id": "e632b152087e12032d761d5d408ecf427cb3d630", "name": "Boston Insurance Brokerage", "place_id": "ChIJgbwT-oNw44kRN9i1Tipm68U", "plus_code": {"compound_code": "9W5V+M2 Boston, Massachusetts, United States", "global_code": "87JC9W5V+M2"}, "reference": "ChIJgbwT-oNw44kRN9i1Tipm68U", "scope": "GOOGLE", "types": ["insurance_agency", "point_of_interest", "establishment"], "vicinity": "28 State Street #2202, Boston"}, "ChIJS9iwtIVw44kR8wwSEZ6wLTI": {"geometry": {"location": {"lat": 42.3592454, "lng": -71.0574839}, "viewport": {"northeast": {"lat": 42.3603958302915, "lng": -71.05612496970849}, "southwest": {"lat": 42.35769786970851, "lng": -71.0588229302915}}}, "icon": "https://maps.gstatic.com/mapfiles/place_api/icons/generic_business-71.png", "id": "6d10736f3c048d7c57c1ae0c619ed72c7c8dc730", "name": "David J. Rubin", "place_id": "ChIJS9iwtIVw44kR8wwSEZ6wLTI", "plus_code": {"compound_code": "9W5V+M2 Boston, Massachusetts, United States", "global_code": "87JC9W5V+M2"}, "reference": "ChIJS9iwtIVw44kR8wwSEZ6wLTI", "scope": "GOOGLE", "types": ["lawyer", "point_of_interest", "establishment"], "vicinity": "28 State Street, Boston"}, "ChIJS9iwtIVw44kRIwWMftrpE6A": {"geometry": {"location": {"lat": 42.3592454, "lng": -71.0574839}, "viewport": {"northeast": {"lat": 42.3603958302915, "lng": -71.05612496970849}, "southwest": {"lat": 42.35769786970851, "lng": -71.0588229302915}}}, "icon": "https://maps.gstatic.com/mapfiles/place_api/icons/generic_business-71.png", "id": "cdbf86f62777a6e753a5b41f6d35e4bb25f16ae9", "name": "Robert V. Lizza", "place_id": "ChIJS9iwtIVw44kRIwWMftrpE6A", "plus_code": {"compound_code": "9W5V+M2 Boston, Massachusetts, United States", "global_code": "87JC9W5V+M2"}, "reference": "ChIJS9iwtIVw44kRIwWMftrpE6A", "scope": "GOOGLE", "types": ["lawyer", "point_of_interest", "establishment"], "vicinity": "28 State Street, Boston"}, "ChIJzyphGoRw44kRJyZF4r0Mbxs": {"geometry": {"location": {"lat": 42.359245, "lng": -71.057484}, "viewport": {"northeast": {"lat": 42.3603956302915, "lng": -71.0561250697085}, "southwest": {"lat": 42.35769766970851, "lng": -71.0588230302915}}}, "icon": "https://maps.gstatic.com/mapfiles/place_api/icons/generic_business-71.png", "id": "a29be8d97289e34f6a44fc7777fef11fd2b5c37a", "name": "Neumeier Capital Management, Inc.", "opening_hours": {"open_now": false}, "place_id": "ChIJzyphGoRw44kRJyZF4r0Mbxs", "plus_code": {"compound_code": "9W5V+M2 Boston, Massachusetts, United States", "global_code": "87JC9W5V+M2"}, "reference": "ChIJzyphGoRw44kRJyZF4r0Mbxs", "scope": "GOOGLE", "types": ["finance", "point_of_interest", "establishment"], "vicinity": "28 State Street, State Street #2202, Boston"}, "ChIJ5dT364Bw44kRb9bpDAji_rQ": {"geometry": {"location": {"lat": 42.3592454, "lng": -71.0574839}, "viewport": {"northeast": {"lat": 42.3603958302915, "lng": -71.05612496970849}, "southwest": {"lat": 42.35769786970851, "lng": -71.0588229302915}}}, "icon": "https://maps.gstatic.com/mapfiles/place_api/icons/civic_building-71.png", "id": "1bb1e6ad0abe26d5b756e8dbb02e7126ec7bd5a8", "name": "Real Staffing", "opening_hours": {"open_now": false}, "place_id": "ChIJ5dT364Bw44kRb9bpDAji_rQ", "plus_code": {"compound_code": "9W5V+M2 Boston, Massachusetts, United States", "global_code": "87JC9W5V+M2"}, "rating": 1.8, "reference": "ChIJ5dT364Bw44kRb9bpDAji_rQ", "scope": "GOOGLE", "types": ["point_of_interest", "establishment"], "user_ratings_total": 5, "vicinity": "28 State Street #2304, Boston"}, "ChIJAQAAQIJ644kRPCw1evIhPG8": {"geometry": {"location": {"lat": 42.3592454, "lng": -71.0574839}, "viewport": {"northeast": {"lat": 42.3603958302915, "lng": -71.05612496970849}, "southwest": {"lat": 42.35769786970851, "lng": -71.0588229302915}}}, "icon": "https://maps.gstatic.com/mapfiles/place_api/icons/generic_business-71.png", "id": "375c781b155427b094ea1b506acbc88bb9ac7e1d", "name": "Menard Murphy & Walsh", "place_id": "ChIJAQAAQIJ644kRPCw1evIhPG8", "plus_code": {"compound_code": "9W5V+M2 Boston, Massachusetts, United States", "global_code": "87JC9W5V+M2"}, "reference": "ChIJAQAAQIJ644kRPCw1evIhPG8", "scope": "GOOGLE", "types": ["point_of_interest", "establishment"], "vicinity": "28 State Street, Boston"}, "ChIJYUOY2-h544kR_23zAYg5cOg": {"geometry": {"location": {"lat": 42.3592454, "lng": -71.0574839}, "viewport": {"northeast": {"lat": 42.3603958302915, "lng": -71.05612496970849}, "southwest": {"lat": 42.35769786970851, "lng": -71.0588229302915}}}, "icon": "https://maps.gstatic.com/mapfiles/place_api/icons/generic_business-71.png", "id": "1e87a3ce84f7c20a83b5ffc057618908af617638", "name": "ECOG-ACRIN", "place_id": "ChIJYUOY2-h544kR_23zAYg5cOg", "plus_code": {"compound_code": "9W5V+M2 Boston, Massachusetts, United States", "global_code": "87JC9W5V+M2"}, "reference": "ChIJYUOY2-h544kR_23zAYg5cOg", "scope": "GOOGLE", "types": ["point_of_interest", "establishment"], "vicinity": "28 State Street #1100, Boston"}, "ChIJUcXXSoRw44kRgluM0CepX-Y": {"geometry": {"location": {"lat": 42.3592454, "lng": -71.0574839}, "viewport": {"northeast": {"lat": 42.3603958302915, "lng": -71.05612496970849}, "southwest": {"lat": 42.35769786970851, "lng": -71.0588229302915}}}, "icon": "https://maps.gstatic.com/mapfiles/place_api/icons/generic_business-71.png", "id": "949d4e3c8ac0762010af525e1073b611436ff33e", "name": "David Barry Connolly", "place_id": "ChIJUcXXSoRw44kRgluM0CepX-Y", "plus_code": {"compound_code": "9W5V+M2 Boston, Massachusetts, United States", "global_code": "87JC9W5V+M2"}, "reference": "ChIJUcXXSoRw44kRgluM0CepX-Y", "scope": "GOOGLE", "types": ["point_of_interest", "establishment"], "vicinity": "28 State Street, Boston"}, "ChIJq6pqS4Rw44kRsGjCBQ1ze7c": {"geometry": {"location": {"lat": 42.3592454, "lng": -71.0574839}, "viewport": {"northeast": {"lat": 42.3603958302915, "lng": -71.05612496970849}, "southwest": {"lat": 42.35769786970851, "lng": -71.0588229302915}}}, "icon": "https://maps.gstatic.com/mapfiles/place_api/icons/generic_business-71.png", "id": "95a76dbcc8eb7cc878416a0870315246561149ee", "name": "Insperity", "opening_hours": {"open_now": false}, "place_id": "ChIJq6pqS4Rw44kRsGjCBQ1ze7c", "plus_code": {"compound_code": "9W5V+M2 Boston, Massachusetts, United States", "global_code": "87JC9W5V+M2"}, "reference": "ChIJq6pqS4Rw44kRsGjCBQ1ze7c", "scope": "GOOGLE", "types": ["point_of_interest", "establishment"], "vicinity": "28 State Street Suite 2201, Boston"}, "ChIJCcC07qJx44kRrcEmlyozfM0": {"geometry": {"location": {"lat": 42.3592454, "lng": -71.0574839}, "viewport": {"northeast": {"lat": 42.3603958302915, "lng": -71.05612496970849}, "southwest": {"lat": 42.35769786970851, "lng": -71.0588229302915}}}, "icon": "https://maps.gstatic.com/mapfiles/place_api/icons/generic_business-71.png", "id": "8cdeee01f677d31e78e701e53b62c66d43507131", "name": "Wilson Sonsini Goodrich & Rosati", "place_id": "ChIJCcC07qJx44kRrcEmlyozfM0", "plus_code": {"compound_code": "9W5V+M2 Boston, Massachusetts, United States", "global_code": "87JC9W5V+M2"}, "reference": "ChIJCcC07qJx44kRrcEmlyozfM0", "scope": "GOOGLE", "types": ["point_of_interest", "establishment"], "vicinity": "28 State Street 37th floor, Boston"}, "ChIJq6pqS4Rw44kRmEiECqyT9Zo": {"geometry": {"location": {"lat": 42.3592454, "lng": -71.0574839}, "viewport": {"northeast": {"lat": 42.3603958302915, "lng": -71.05612496970849}, "southwest": {"lat": 42.35769786970851, "lng": -71.0588229302915}}}, "icon": "https://maps.gstatic.com/mapfiles/place_api/icons/generic_business-71.png", "id": "9b8b18e9421f41b224120fb6b3c33f2925c9fab1", "name": "Daniel Heffernan - Citizens Bank, Home Mortgages", "opening_hours": {"open_now": false}, "photos": [{"height": 825, "html_attributions": ["<a href=\"https://maps.google.com/maps/contrib/117726716237701388010/photos\">Daniel Heffernan - Citizens Bank, Home Mortgages</a>"], "photo_reference": "CmRaAAAAuVJVtkKS8UEVoUD8-G-Np9_Tsr782NpKFuQESqDdA3dAscc5FxM0ugaCi5M5_8eaJSBlXOrCYE6dbI6uWKHPc8_EY2-tj05QOJZT2HndKVUGtaJ6kjbhHqRmXVf7GrWJEhDyb4p0FScudHH54DbLo9CtGhRWk3Jtw0CGYOkmIbU6G3tU3JJNcg", "width": 600}], "place_id": "ChIJq6pqS4Rw44kRmEiECqyT9Zo", "plus_code": {"compound_code": "9W5V+M2 Boston, Massachusetts, United States", "global_code": "87JC9W5V+M2"}, "reference": "ChIJq6pqS4Rw44kRmEiECqyT9Zo", "scope": "GOOGLE", "types": ["finance", "point_of_interest", "establishment"], "vicinity": "28 State Street 15th Floor, Boston"}, "ChIJU2IeEIVw44kRH9C7b6NI2o4": {"geometry": {"location": {"lat": 42.3604802, "lng": -71.0590624}, "viewport": {"northeast": {"lat": 42.3627586, "lng": -71.0524338}, "southwest": {"lat": 42.3588324, "lng": -71.0612372}}}, "icon": "https://maps.gstatic.com/mapfiles/place_api/icons/geocode-71.png", "id": "5b165efccc1c1de6da2d137152c0c93cc778a7e3", "name": "Government Center", "photos": [{"height": 3024, "html_attributions": ["<a href=\"https://maps.google.com/maps/contrib/104569846094635118150/photos\">Jordan Griffith</a>"], "photo_reference": "CmRaAAAAsvqyB3p4GYRt8FFSxvaZVgPRFWiEUKKBvU2Zfgax7MYvpqn5pOrOCLitTmOPZZLvOVkZgLlQSs3DxnQUiUqqFv6f37f3GTQ7e4F3MaNSpjtAmmMy5YY0jeC_59IwN7dFEhAZKDE9pO55WTs31Xa-Si2dGhQbH9X8AxzK6SsGJFAt1utm13Is8w", "width": 4032}], "place_id": "ChIJU2IeEIVw44kRH9C7b6NI2o4", "reference": "ChIJU2IeEIVw44kRH9C7b6NI2o4", "scope": "GOOGLE", "types": ["neighborhood", "political"], "vicinity": "Boston"}}