{"ChIJGzE9DS1l44kRoOhiASS_fHg": {"geometry": {"location": {"lat": 42.3600825, "lng": -71.0588801}, "viewport": {"northeast": {"lat": 42.40081989999999, "lng": -70.749455}, "southwest": {"lat": 42.22788, "lng": -71.191113}}}, "icon": "https://maps.gstatic.com/mapfiles/place_api/icons/geocode-71.png", "id": "06755c25d2b34d13942a4713971756a55b870ced", "name": "Boston", "photos": [{"height": 3024, "html_attributions": ["<a href=\"https://maps.google.com/maps/contrib/104670289779338733432/photos\">Natalia Zalucean</a>"], "photo_reference": "CmRaAAAANk8mqQq54ui4kLJEFCmRQuQmLWi33cxcJIHGKWGIkFeaMvFELafJ6U0SgY2pIhxeXiBR6pCoAwBZ6G9V36iK2fVf04iXCYFdq_6a4M45WYjalb3lYvStCVeUYEh-ljjtEhDDYRARCRqXcE2qySVYGT3aGhQTbIn6NBbvxAXRi8I6-BeDyvCjjQ", "width": 4032}], "place_id": "ChIJGzE9DS1l44kRoOhiASS_fHg", "reference": "ChIJGzE9DS1l44kRoOhiASS_fHg", "scope": "GOOGLE", "types": ["locality", "political"], "vicinity": "Boston"}, "ChIJhZEA439644kRyy8WhB1MA2w": {"geometry": {"location": {"lat": 42.3550404, "lng": -71.0567956}, "viewport": {"northeast": {"lat": 42.3564059802915, "lng": -71.05527161970849}, "southwest": {"lat": 42.35370801970851, "lng": -71.05796958029151}}}, "icon": "https://maps.gstatic.com/mapfiles/place_api/icons/generic_business-71.png", "id": "f1fa45ec657cd3b092ca8644429339c6df40c12c", "name": "Ingenico Mobile Solutions", "opening_hours": {"open_now": true}, "place_id": "ChIJhZEA439644kRyy8WhB1MA2w", "plus_code": {"compound_code": "9W4V+27 Boston, Massachusetts, United States", "global_code": "87JC9W4V+27"}, "rating": 2, "reference": "ChIJhZEA439644kRyy8WhB1MA2w", "scope": "GOOGLE", "types": ["point_of_interest", "establishment"], "user_ratings_total": 1, "vicinity": "101 Federal Street #700, Boston"}, "ChIJdXS24rFw44kRvAtNxU6NOLQ": {"geometry": {"location": {"lat": 42.3550076, "lng": -71.0567635}, "viewport": {"northeast": {"lat": 42.3563719802915, "lng": -71.0552525197085}, "southwest": {"lat": 42.3536740197085, "lng": -71.05795048029151}}}, "icon": "https://maps.gstatic.com/mapfiles/place_api/icons/generic_business-71.png", "id": "39eaa5685f321aae55b1beb484743011202bf057", "name": "Cosentini Associates", "place_id": "ChIJdXS24rFw44kRvAtNxU6NOLQ", "plus_code": {"compound_code": "9W4V+27 Boston, Massachusetts, United States", "global_code": "87JC9W4V+27"}, "reference": "ChIJdXS24rFw44kRvAtNxU6NOLQ", "scope": "GOOGLE", "types": ["point_of_interest", "establishment"], "vicinity": "101 Federal Street #600, Boston"}, "ChIJZSO0RIFw44kRMwtkx6QJp2U": {"geometry": {"location": {"lat": 42.3559219, "lng": -71.05497679999999}, "viewport": {"northeast": {"lat": 42.3595222, "lng": -71.05148729999999}, "southwest": {"lat": 42.351489, "lng": -71.0593777}}}, "icon": "https://maps.gstatic.com/mapfiles/place_api/icons/geocode-71.png", "id": "a299437eec467c3c4fb5ec448e81048caef8aacf", "name": "Financial District", "photos": [{"height": 2403, "html_attributions": ["<a href=\"https://maps.google.com/maps/contrib/115111503217500241431/photos\">Jane Wong</a>"], "photo_reference": "CmRaAAAAazIEnC2-z7UgQEZvq7R9f8cooNH5YxjYKTkFpfyvf8Mfn2iZ6p917PLkYiOLxrGFqUBTzLM_7rPAO5nUUAynAyNVRYruKjDNAS9B9t5ft7OMItUb3G4OUTIwY9WC95rnEhCDNJlHkmjSHikgzMbZ1OTQGhTco1Fdjx-PY915tX64R4aZGvfkAQ", "width": 3206}], "place_id": "ChIJZSO0RIFw44kRMwtkx6QJp2U", "reference": "ChIJZSO0RIFw44kRMwtkx6QJp2U", "scope": "GOOGLE", "types": ["neighborhood", "political"], "vicinity": "Boston"}}