{"ChIJGzE9DS1l44kRoOhiASS_fHg": {"geometry": {"location": {"lat": 42.3600825, "lng": -71.0588801}, "viewport": {"northeast": {"lat": 42.40081989999999, "lng": -70.749455}, "southwest": {"lat": 42.22788, "lng": -71.191113}}}, "icon": "https://maps.gstatic.com/mapfiles/place_api/icons/geocode-71.png", "id": "06755c25d2b34d13942a4713971756a55b870ced", "name": "Boston", "photos": [{"height": 3024, "html_attributions": ["<a href=\"https://maps.google.com/maps/contrib/104670289779338733432/photos\">Natalia Zalucean</a>"], "photo_reference": "CmRaAAAAnRLHd6nzh_e4NPtHutAcwcVgE7k2ri7kvaVNuLI1iUOr7AaO_W56TBNpJSoGRVbi-OoBTrxoPb-bj3VFrGCUdjjYFig0KevBVc2GUxM4kFQrVnxRMAiWoOstb7aA9Op8EhAwrRFmdsMctNi_7AFLsqKsGhSvzerrARc1RxsrEyoXV8VNxwCkaQ", "width": 4032}], "place_id": "ChIJGzE9DS1l44kRoOhiASS_fHg", "reference": "ChIJGzE9DS1l44kRoOhiASS_fHg", "scope": "GOOGLE", "types": ["locality", "political"], "vicinity": "Boston"}, "ChIJfbSAHppw44kRdRODJy_hoeA": {"geometry": {"location": {"lat": 42.3624828, "lng": -71.0674148}, "viewport": {"northeast": {"lat": 42.3638371802915, "lng": -71.06586206970849}, "southwest": {"lat": 42.3611392197085, "lng": -71.06856003029151}}}, "icon": "https://maps.gstatic.com/mapfiles/place_api/icons/school-71.png", "id": "acdc563a0e3033f547503ba74cc8dd10af494cd6", "name": "Wellman Center for Photomedicine", "place_id": "ChIJfbSAHppw44kRdRODJy_hoeA", "plus_code": {"compound_code": "9W6M+X2 Boston, Massachusetts, United States", "global_code": "87JC9W6M+X2"}, "reference": "ChIJfbSAHppw44kRdRODJy_hoeA", "scope": "GOOGLE", "types": ["school", "point_of_interest", "establishment"], "vicinity": "40 Blossom Street, Boston"}, "ChIJfbSAHppw44kRGrKy1KixJ9U": {"geometry": {"location": {"lat": 42.3624828, "lng": -71.0674148}, "viewport": {"northeast": {"lat": 42.3638371802915, "lng": -71.06586206970849}, "southwest": {"lat": 42.3611392197085, "lng": -71.06856003029151}}}, "icon": "https://maps.gstatic.com/mapfiles/place_api/icons/school-71.png", "id": "5acd76e34b51a7f8f442e8257a11782857ce27fa", "name": "OCT Research", "place_id": "ChIJfbSAHppw44kRGrKy1KixJ9U", "plus_code": {"compound_code": "9W6M+X2 Boston, Massachusetts, United States", "global_code": "87JC9W6M+X2"}, "reference": "ChIJfbSAHppw44kRGrKy1KixJ9U", "scope": "GOOGLE", "types": ["point_of_interest", "establishment"], "vicinity": "40 Blossom Street, Boston"}, "ChIJJe_sRpdw44kRiBoWvKeVYN4": {"geometry": {"location": {"lat": 42.36435789999999, "lng": -71.0661193}, "viewport": {"northeast": {"lat": 42.3683341, "lng": -71.0583927}, "southwest": {"lat": 42.36115789999999, "lng": -71.0736953}}}, "icon": "https://maps.gstatic.com/mapfiles/place_api/icons/geocode-71.png", "id": "b8678c0447cf0367b24babc43890d2888c389a7a", "name": "West End", "photos": [{"height": 1944, "html_attributions": ["<a href=\"https://maps.google.com/maps/contrib/118366960396286562471/photos\">Michael Laferriere</a>"], "photo_reference": "CmRaAAAAeyJzLHyV4ZK7SWUFDU6FqVsgz3LmgJgqobyoYteshebHEx-YEfzBeH6UmYYv4DSRG3aBpHWNv-EJzLbheZzTvTGQ1opqYzMxm4AyK6reb8jPLetr375eeOyHyyBMtIH7EhBdjbt14-WMwY5nRb2LRW__GhQmbtqcdBAT1IapnljsXml3ZepwEQ", "width": 2592}], "place_id": "ChIJJe_sRpdw44kRiBoWvKeVYN4", "reference": "ChIJJe_sRpdw44kRiBoWvKeVYN4", "scope": "GOOGLE", "types": ["neighborhood", "political"], "vicinity": "Boston"}}