{"ChIJGzE9DS1l44kRoOhiASS_fHg": {"geometry": {"location": {"lat": 42.3600825, "lng": -71.0588801}, "viewport": {"northeast": {"lat": 42.40081989999999, "lng": -70.749455}, "southwest": {"lat": 42.22788, "lng": -71.191113}}}, "icon": "https://maps.gstatic.com/mapfiles/place_api/icons/geocode-71.png", "id": "06755c25d2b34d13942a4713971756a55b870ced", "name": "Boston", "photos": [{"height": 3024, "html_attributions": ["<a href=\"https://maps.google.com/maps/contrib/104670289779338733432/photos\">Natalia Zalucean</a>"], "photo_reference": "CmRaAAAAUjga0Snyklvq8PXk6YgQswYeCQLmvZlfJ64_jWXJUv0OVD28639uebCIKiXXXQu2b-la4eYwNd1NCsIOIHUHQ3ZynSDUg3e2CW6PEQs8Zys3rgQ75sAVw1NUpZEPZydqEhDehorcU8ffUYSUgHp_X1msGhQXuqy4mRXnjUPGUjmIUpi3katGVA", "width": 4032}], "place_id": "ChIJGzE9DS1l44kRoOhiASS_fHg", "reference": "ChIJGzE9DS1l44kRoOhiASS_fHg", "scope": "GOOGLE", "types": ["locality", "political"], "vicinity": "Boston"}, "ChIJl-_9_kl444kRUy7PrOw47f0": {"geometry": {"location": {"lat": 42.3513344, "lng": -71.068929}, "viewport": {"northeast": {"lat": 42.35280393029149, "lng": -71.06761741970848}, "southwest": {"lat": 42.35010596970849, "lng": -71.0703153802915}}}, "icon": "https://maps.gstatic.com/mapfiles/place_api/icons/generic_business-71.png", "id": "b5995e540c38a3b51dd349aa521b6c36a0f094f6", "name": "MackeyRMS", "place_id": "ChIJl-_9_kl444kRUy7PrOw47f0", "plus_code": {"compound_code": "9W2J+GC Boston, Massachusetts, United States", "global_code": "87JC9W2J+GC"}, "reference": "ChIJl-_9_kl444kRUy7PrOw47f0", "scope": "GOOGLE", "types": ["point_of_interest", "establishment"], "vicinity": "20 Park Plaza #633, Boston"}, "ChIJ-TSLM3R644kRLey-Jhm54ts": {"geometry": {"location": {"lat": 42.35133399999999, "lng": -71.06891499999999}, "viewport": {"northeast": {"lat": 42.3528048302915, "lng": -71.06760381970848}, "southwest": {"lat": 42.3501068697085, "lng": -71.0703017802915}}}, "icon": "https://maps.gstatic.com/mapfiles/place_api/icons/school-71.png", "id": "c5a12d20dcfafb64b5b504479efb238e6417c31b", "name": "Arthur Murray Dance Studio Boston", "opening_hours": {"open_now": true}, "photos": [{"height": 1152, "html_attributions": ["<a href=\"https://maps.google.com/maps/contrib/101919597601947612453/photos\">Arthur Murray Dance Studio Boston</a>"], "photo_reference": "CmRaAAAAQcaoQhvdUXkfqqbk1E8lz-HJ2Sov1IvmtB-qwBgAArPCm9O5ZB3RUy_kHACpiWBaEHlk3CpulXpeMfyGNng6i7vx8gaK5Pzh7RHXSNpMGrn_IO6enpfmjKheXNE7Rx9zEhCDjROaj0dhPqKD82-VfIewGhRLG8kWKsb3lj6SKOs7WTjc6s6SSA", "width": 2048}], "place_id": "ChIJ-TSLM3R644kRLey-Jhm54ts", "plus_code": {"compound_code": "9W2J+GC Boston, Massachusetts, United States", "global_code": "87JC9W2J+GC"}, "rating": 4.8, "reference": "ChIJ-TSLM3R644kRLey-Jhm54ts", "scope": "GOOGLE", "types": ["point_of_interest", "school", "establishment"], "user_ratings_total": 20, "vicinity": "20 Park Plaza #330, Boston"}, "ChIJqRlRmA5644kRFGEbhqRsNp8": {"geometry": {"location": {"lat": 42.3513294, "lng": -71.0689273}, "viewport": {"northeast": {"lat": 42.35280143029149, "lng": -71.0676164697085}, "southwest": {"lat": 42.35010346970849, "lng": -71.0703144302915}}}, "icon": "https://maps.gstatic.com/mapfiles/place_api/icons/generic_business-71.png", "id": "f4049bc775933c1cb4aafb4cf58108a40000b7c1", "name": "Douglas Elliman Real Estate - Back Bay", "opening_hours": {"open_now": true}, "photos": [{"height": 353, "html_attributions": ["<a href=\"https://maps.google.com/maps/contrib/104069314935295744943/photos\">Douglas Elliman Real Estate - Back Bay</a>"], "photo_reference": "CmRaAAAA3zosIkahNv1fTbmAYBsZxSNX3rmpUdPperx4jDV7oWA4Mkg0CEmMbSmQyLB6Tc_yZvYmicJcKf1-_1QvNRCqzPV1vib-FNJSDssSYH4GNel3exfhhyuZCPkVpFPV4P9aEhBbGOuutiBBKlRZkp1PkpZ3GhSMJARcrECE0nO50sPE6C68-AQdow", "width": 851}], "place_id": "ChIJqRlRmA5644kRFGEbhqRsNp8", "plus_code": {"compound_code": "9W2J+GC Boston, Massachusetts, United States", "global_code": "87JC9W2J+GC"}, "reference": "ChIJqRlRmA5644kRFGEbhqRsNp8", "scope": "GOOGLE", "types": ["real_estate_agency", "point_of_interest", "establishment"], "vicinity": "20 Park Plaza #1101, Boston"}, "ChIJm3aSM3R644kRiJ3VmzP3Afk": {"geometry": {"location": {"lat": 42.3513588, "lng": -71.0689277}, "viewport": {"northeast": {"lat": 42.35281683029149, "lng": -71.06761251970849}, "southwest": {"lat": 42.3501188697085, "lng": -71.0703104802915}}}, "icon": "https://maps.gstatic.com/mapfiles/place_api/icons/generic_business-71.png", "id": "3e10d56ae48a14bc68d1babcd30c6b3d1d8daf1d", "name": "Serpa Law Office | Boston Criminal Lawyer", "opening_hours": {"open_now": true}, "photos": [{"height": 1720, "html_attributions": ["<a href=\"https://maps.google.com/maps/contrib/103730999385871422836/photos\">Serpa Law Office</a>"], "photo_reference": "CmRaAAAAgy90rtOYoaiw1CuxsS_hDJhUDQpOeoMynMizfnTDzLelPk7Wy-RXsU4P4XlcfmiYl0kN7x1r88cCk-_HMpQjnXjx9OEpcWqBWS-T_LXQU8YPGae_A-YC95Y2QZrNrgxREhDK9DxYC1Y01WSC3udyWE6oGhRnm-0vshoKYwWEKWWmkvNlcrSrsA", "width": 1371}], "place_id": "ChIJm3aSM3R644kRiJ3VmzP3Afk", "plus_code": {"compound_code": "9W2J+GC Boston, Massachusetts, United States", "global_code": "87JC9W2J+GC"}, "rating": 5, "reference": "ChIJm3aSM3R644kRiJ3VmzP3Afk", "scope": "GOOGLE", "types": ["lawyer", "point_of_interest", "establishment"], "user_ratings_total": 89, "vicinity": "20 Park Plaza Suite 400, Boston"}, "ChIJW60DJYNw44kRmL2Ehm4t0Bg": {"geometry": {"location": {"lat": 42.3557089, "lng": -71.05720529999999}, "viewport": {"northeast": {"lat": 42.36839699999999, "lng": -71.04779599999999}, "southwest": {"lat": 42.342797, "lng": -71.072996}}}, "icon": "https://maps.gstatic.com/mapfiles/place_api/icons/geocode-71.png", "id": "bc27dcccb31ae90e36c262f557a1c09193ec777d", "name": "Downtown", "photos": [{"height": 629, "html_attributions": ["<a href=\"https://maps.google.com/maps/contrib/111777007894721839306/photos\">verona mantova</a>"], "photo_reference": "CmRaAAAAahJ_a0remTcnIYUC-u8pL8DO0YhQz6hncT-jlmSybx3sSBCmU3HFAj6uoyl3VlEy8Ev8djQ3upXiCPvC8ecFFJx35juYDw5JZ1MtLnqpBSCa-73ow0MGjxiPfGTWtaTzEhDRzOVisvZNGs_eO0sZgOSpGhQ92qSyjM05_Csje4PzUq5WmM6rsg", "width": 1000}], "place_id": "ChIJW60DJYNw44kRmL2Ehm4t0Bg", "reference": "ChIJW60DJYNw44kRmL2Ehm4t0Bg", "scope": "GOOGLE", "types": ["neighborhood", "political"], "vicinity": "Boston"}}