{"ChIJGzE9DS1l44kRoOhiASS_fHg": {"geometry": {"location": {"lat": 42.3600825, "lng": -71.0588801}, "viewport": {"northeast": {"lat": 42.40081989999999, "lng": -70.749455}, "southwest": {"lat": 42.22788, "lng": -71.191113}}}, "icon": "https://maps.gstatic.com/mapfiles/place_api/icons/geocode-71.png", "id": "06755c25d2b34d13942a4713971756a55b870ced", "name": "Boston", "photos": [{"height": 3024, "html_attributions": ["<a href=\"https://maps.google.com/maps/contrib/104670289779338733432/photos\">Natalia Zalucean</a>"], "photo_reference": "CmRaAAAADZGLlmMp-XxyLQQkHq7K8ZbrFy4qjYBZOOtegVJ84fKxk8V9VJ9QgqxR5abdkf7Y1v3V9ma4Hw0ciEDC8DjpKhL4f0YHSSsQXWN4uQsCsyohR1MuPSXxe_MYjreiNrpFEhD_7bbhzt2kqRRkZbcXODpwGhQmQPtt6arxz45dngzYM3IHyQyNvA", "width": 4032}], "place_id": "ChIJGzE9DS1l44kRoOhiASS_fHg", "reference": "ChIJGzE9DS1l44kRoOhiASS_fHg", "scope": "GOOGLE", "types": ["locality", "political"], "vicinity": "Boston"}, "ChIJmwkvZQx644kRwcqqnPSRM8U": {"geometry": {"location": {"lat": 42.350435, "lng": -71.077288}, "viewport": {"northeast": {"lat": 42.3516352802915, "lng": -71.07587231970848}, "southwest": {"lat": 42.3489373197085, "lng": -71.0785702802915}}}, "icon": "https://maps.gstatic.com/mapfiles/place_api/icons/generic_business-71.png", "id": "760430223d7c8455d4e51e12c32f528c6281d271", "name": "MRI - The Boston Group", "opening_hours": {"open_now": true}, "photos": [{"height": 1129, "html_attributions": ["<a href=\"https://maps.google.com/maps/contrib/103779897621027043717/photos\">MRI - The Boston Group</a>"], "photo_reference": "CmRaAAAAriHA070MkBEmkTJJizb1Ig_9wo8MNoRLhRIqkftR2OnrPGmjGXFoSgFFLzgdMzqIwtOY4RQZhC02N-WdWoV5_ekmLeDe13DgcYUmme_EyTHckbnHjCBelzrBLSmwiNHkEhC7RPaWxj2oriLQswcq-0tiGhQxLBu3N2FJ2pQuIQiFu_AR-Mjq8g", "width": 1701}], "place_id": "ChIJmwkvZQx644kRwcqqnPSRM8U", "plus_code": {"compound_code": "9W2F+53 Boston, Massachusetts, United States", "global_code": "87JC9W2F+53"}, "reference": "ChIJmwkvZQx644kRwcqqnPSRM8U", "scope": "GOOGLE", "types": ["point_of_interest", "establishment"], "vicinity": "607 Boylston Street, Boston"}, "ChIJsfUV-A5644kRxFubWZLMo7w": {"geometry": {"location": {"lat": 42.35026480000001, "lng": -71.0809757}, "viewport": {"northeast": {"lat": 42.356983, "lng": -71.07028989999999}, "southwest": {"lat": 42.341597, "lng": -71.0932962}}}, "icon": "https://maps.gstatic.com/mapfiles/place_api/icons/geocode-71.png", "id": "33919fd9e49b0cde06af64b330ab949ba88171ff", "name": "Back Bay", "photos": [{"height": 3936, "html_attributions": ["<a href=\"https://maps.google.com/maps/contrib/102900160723668849003/photos\">Jim Stanford</a>"], "photo_reference": "CmRaAAAAK7HZplNponYs-aeNKHi8mLmuM25xrAzeOLYTRgPH7_VrIia9JQ-0lb_aoi7kh0OmK5ni5cH3Vmk2B5vVXDiecJAqXEjfnraaHfPSjGOkKVDXATauaPEoUepH-LEmXADiEhCnHbV3tpcSzdRL0qe0VPzyGhS250_8IZWDJjNUcNS8qxxKqHhYzA", "width": 5248}], "place_id": "ChIJsfUV-A5644kRxFubWZLMo7w", "reference": "ChIJsfUV-A5644kRxFubWZLMo7w", "scope": "GOOGLE", "types": ["neighborhood", "political"], "vicinity": "Boston"}}