{"ChIJGzE9DS1l44kRoOhiASS_fHg": {"geometry": {"location": {"lat": 42.3600825, "lng": -71.0588801}, "viewport": {"northeast": {"lat": 42.40081989999999, "lng": -70.749455}, "southwest": {"lat": 42.22788, "lng": -71.191113}}}, "icon": "https://maps.gstatic.com/mapfiles/place_api/icons/geocode-71.png", "id": "06755c25d2b34d13942a4713971756a55b870ced", "name": "Boston", "photos": [{"height": 3024, "html_attributions": ["<a href=\"https://maps.google.com/maps/contrib/104670289779338733432/photos\">Natalia Zalucean</a>"], "photo_reference": "CmRaAAAAQKeMx7znWUkM4YshQFOx17MGHYKMEv6Mco66oFUs8IjFwcWm3dQiU6-wcrxR94YPDbWTe0U2iA17VuebFhKyuNfxHA_3ZWPIKK4dj5rbNGFk0ikctX0P_sf7q4TxMYKnEhBVWwQMutnKKMG8yYAEowEnGhQ-Sur7DKSnqp-DneLBwbwp7T-9IQ", "width": 4032}], "place_id": "ChIJGzE9DS1l44kRoOhiASS_fHg", "reference": "ChIJGzE9DS1l44kRoOhiASS_fHg", "scope": "GOOGLE", "types": ["locality", "political"], "vicinity": "Boston"}, "ChIJxXJm3UNw44kRFD4ZWrHrdoc": {"geometry": {"location": {"lat": 42.3492016, "lng": -71.0500984}, "viewport": {"northeast": {"lat": 42.3506309802915, "lng": -71.0486451197085}, "southwest": {"lat": 42.3479330197085, "lng": -71.0513430802915}}}, "icon": "https://maps.gstatic.com/mapfiles/place_api/icons/generic_business-71.png", "id": "dea4c88c952c702c3b6e422d80e039f425640864", "name": "Webtilia - Digital Agency", "opening_hours": {"open_now": false}, "photos": [{"height": 814, "html_attributions": ["<a href=\"https://maps.google.com/maps/contrib/115521502807965415000/photos\">Webtilia - Digital Agency</a>"], "photo_reference": "CmRaAAAAeqbE3DTusGFVURJy3Qo4chV1Ngkm0w_3hkPPFoffd9owOQt0XpPjnHvzLaT3_Pr-ptdGJ8eessIf4RatM443SIVlt1YZZpk6THp9NBHOFjc2kvtblx1cWBQ0q5ejgzGFEhCdggt1jV3joRbFPKkd0uXpGhSi5GOTlzySNrIBXMwS-fSCUN4h1w", "width": 1445}], "place_id": "ChIJxXJm3UNw44kRFD4ZWrHrdoc", "plus_code": {"compound_code": "8WXX+MX Boston, Massachusetts, United States", "global_code": "87JC8WXX+MX"}, "rating": 5, "reference": "ChIJxXJm3UNw44kRFD4ZWrHrdoc", "scope": "GOOGLE", "types": ["point_of_interest", "establishment"], "user_ratings_total": 2, "vicinity": "51 Melcher Street, Boston"}, "ChIJ1TgXm45644kRNHLazzhKtjc": {"geometry": {"location": {"lat": 42.349202, "lng": -71.05009799999999}, "viewport": {"northeast": {"lat": 42.3506312302915, "lng": -71.04864496970849}, "southwest": {"lat": 42.3479332697085, "lng": -71.0513429302915}}}, "icon": "https://maps.gstatic.com/mapfiles/place_api/icons/generic_business-71.png", "id": "996483054d9737b3838c92e744ad8e5caff1698f", "name": "UrbanVillage Legal", "photos": [{"height": 1240, "html_attributions": ["<a href=\"https://maps.google.com/maps/contrib/111828122325487047489/photos\">UrbanVillage Legal</a>"], "photo_reference": "CmRaAAAAOjuH0qNBUaT_wfOHSYsiWOYLap4RpZ-h-nkJw_jklEjyqaww93nTYn_--Qfe01rN-dsCAG66NtGrQkdt0TrLekDX4LfQ0h-XxtdpLRnDKb_Iki1C3Cjyr5jBPSKAUzw7EhCqMC7AVCNFGnkEhKFCzMJ8GhQXz5xYbxWvEw61Cco5OqLAQwo61g", "width": 1920}], "place_id": "ChIJ1TgXm45644kRNHLazzhKtjc", "plus_code": {"compound_code": "8WXX+MX Boston, Massachusetts, United States", "global_code": "87JC8WXX+MX"}, "rating": 5, "reference": "ChIJ1TgXm45644kRNHLazzhKtjc", "scope": "GOOGLE", "types": ["lawyer", "point_of_interest", "establishment"], "user_ratings_total": 2, "vicinity": "51 Melcher Street, Boston"}, "ChIJ7xDu2X9644kRN5b5hchSccI": {"geometry": {"location": {"lat": 42.349202, "lng": -71.05009799999999}, "viewport": {"northeast": {"lat": 42.3506312302915, "lng": -71.04864496970849}, "southwest": {"lat": 42.3479332697085, "lng": -71.0513429302915}}}, "icon": "https://maps.gstatic.com/mapfiles/place_api/icons/generic_business-71.png", "id": "6616846c47f022811071f58e3662c0db346e0b44", "name": "Saxa Solutions", "opening_hours": {"open_now": false}, "place_id": "ChIJ7xDu2X9644kRN5b5hchSccI", "plus_code": {"compound_code": "8WXX+MX Boston, Massachusetts, United States", "global_code": "87JC8WXX+MX"}, "reference": "ChIJ7xDu2X9644kRN5b5hchSccI", "scope": "GOOGLE", "types": ["point_of_interest", "establishment"], "vicinity": "51 Melcher Street, Boston"}, "ChIJ1-3irnh644kRLrcqOPrhRYk": {"geometry": {"location": {"lat": 42.349202, "lng": -71.05009799999999}, "viewport": {"northeast": {"lat": 42.3506312302915, "lng": -71.04864496970849}, "southwest": {"lat": 42.3479332697085, "lng": -71.0513429302915}}}, "icon": "https://maps.gstatic.com/mapfiles/place_api/icons/generic_business-71.png", "id": "adb31f911120819bd31760f44f5ccddd56b9a7dd", "name": "Sandbox Banking", "opening_hours": {"open_now": true}, "photos": [{"height": 534, "html_attributions": ["<a href=\"https://maps.google.com/maps/contrib/104735969879646069238/photos\">Sandbox Banking</a>"], "photo_reference": "CmRaAAAAOZXO_TihzOQdVwCwvCuYuSbIwwcGN-LoIggQlVEuAjsMVXFCYUbR_iEPNizBIqzj0O_yQuFdakHSYAjHavupUhT6sfOm9dYzBqSCBE94tygbeG6JQWmTSMxF6Df_CYo8EhDkhsm0YXUWcLkXjVowUD6gGhQtrBIa5V35qonUjQkYh7zUaRYgoA", "width": 800}], "place_id": "ChIJ1-3irnh644kRLrcqOPrhRYk", "plus_code": {"compound_code": "8WXX+MX Boston, Massachusetts, United States", "global_code": "87JC8WXX+MX"}, "reference": "ChIJ1-3irnh644kRLrcqOPrhRYk", "scope": "GOOGLE", "types": ["point_of_interest", "establishment"], "vicinity": "51 Melcher Street, Boston"}, "ChIJC4HFDuhB24gRm-37sT1dvts": {"geometry": {"location": {"lat": 42.3492015, "lng": -71.05009849999999}, "viewport": {"northeast": {"lat": 42.35063093029149, "lng": -71.0486451697085}, "southwest": {"lat": 42.34793296970849, "lng": -71.0513431302915}}}, "icon": "https://maps.gstatic.com/mapfiles/place_api/icons/generic_business-71.png", "id": "2c350870cb9623b70483a77a0e4b81c65db1920d", "name": "The Injury Attorneys", "opening_hours": {"open_now": false}, "place_id": "ChIJC4HFDuhB24gRm-37sT1dvts", "plus_code": {"compound_code": "8WXX+MX Boston, Massachusetts, United States", "global_code": "87JC8WXX+MX"}, "reference": "ChIJC4HFDuhB24gRm-37sT1dvts", "scope": "GOOGLE", "types": ["lawyer", "point_of_interest", "establishment"], "vicinity": "Floor 1, 51 Melcher Street, Boston"}, "ChIJ7xDu2X9644kRZKEapILqdr8": {"geometry": {"location": {"lat": 42.3492016, "lng": -71.0500984}, "viewport": {"northeast": {"lat": 42.3506309802915, "lng": -71.0486451197085}, "southwest": {"lat": 42.3479330197085, "lng": -71.0513430802915}}}, "icon": "https://maps.gstatic.com/mapfiles/place_api/icons/generic_business-71.png", "id": "6acabaa6a6a644d1b387c827519286adbb935853", "name": "The Law Offices of Marc V. Veneziano", "place_id": "ChIJ7xDu2X9644kRZKEapILqdr8", "plus_code": {"compound_code": "8WXX+MX Boston, Massachusetts, United States", "global_code": "87JC8WXX+MX"}, "reference": "ChIJ7xDu2X9644kRZKEapILqdr8", "scope": "GOOGLE", "types": ["point_of_interest", "establishment"], "vicinity": "51 Melcher Street, Boston"}, "ChIJh2rrHn5644kRcW5vLTBZUAE": {"geometry": {"location": {"lat": 42.3492016, "lng": -71.0500984}, "viewport": {"northeast": {"lat": 42.35048443029149, "lng": -71.0488306197085}, "southwest": {"lat": 42.3477864697085, "lng": -71.0515285802915}}}, "icon": "https://maps.gstatic.com/mapfiles/place_api/icons/generic_business-71.png", "id": "c1a0cbd91dfca7ded3b8231c54cb811f000c8fc7", "name": "Guaranteed Rate of Boston", "opening_hours": {"open_now": false}, "place_id": "ChIJh2rrHn5644kRcW5vLTBZUAE", "plus_code": {"compound_code": "8WXX+MX Boston, Massachusetts, United States", "global_code": "87JC8WXX+MX"}, "reference": "ChIJh2rrHn5644kRcW5vLTBZUAE", "scope": "GOOGLE", "types": ["finance", "point_of_interest", "establishment"], "vicinity": "51 Melcher Street, Offices 121 219 239 & 245, Boston"}, "ChIJ7xDu2X9644kRcX6E7A4J0Dc": {"geometry": {"location": {"lat": 42.3492016, "lng": -71.0500984}, "viewport": {"northeast": {"lat": 42.3506309802915, "lng": -71.0486451197085}, "southwest": {"lat": 42.3479330197085, "lng": -71.0513430802915}}}, "icon": "https://maps.gstatic.com/mapfiles/place_api/icons/generic_business-71.png", "id": "17fc08b1b6b4bad5ec2dfe1d36900b4875b4b21c", "name": "Anderson Digital 2020", "place_id": "ChIJ7xDu2X9644kRcX6E7A4J0Dc", "plus_code": {"compound_code": "8WXX+MX Boston, Massachusetts, United States", "global_code": "87JC8WXX+MX"}, "reference": "ChIJ7xDu2X9644kRcX6E7A4J0Dc", "scope": "GOOGLE", "types": ["point_of_interest", "establishment"], "vicinity": "51 Melcher Street, Boston"}, "ChIJ7xDu2X9644kR62OMq8JDlvM": {"geometry": {"location": {"lat": 42.3492016, "lng": -71.0500984}, "viewport": {"northeast": {"lat": 42.3506309802915, "lng": -71.0486451197085}, "southwest": {"lat": 42.3479330197085, "lng": -71.0513430802915}}}, "icon": "https://maps.gstatic.com/mapfiles/place_api/icons/generic_business-71.png", "id": "93d7e80d52a6a5abddcde331332ff5d05e0e4f18", "name": "CGI Interactive", "place_id": "ChIJ7xDu2X9644kR62OMq8JDlvM", "plus_code": {"compound_code": "8WXX+MX Boston, Massachusetts, United States", "global_code": "87JC8WXX+MX"}, "reference": "ChIJ7xDu2X9644kR62OMq8JDlvM", "scope": "GOOGLE", "types": ["point_of_interest", "establishment"], "vicinity": "51 Melcher Street, Boston"}, "ChIJ7xDu2X9644kRDDP6Dg5aH9o": {"geometry": {"location": {"lat": 42.3492016, "lng": -71.0500984}, "viewport": {"northeast": {"lat": 42.35048443029149, "lng": -71.0488306197085}, "southwest": {"lat": 42.3477864697085, "lng": -71.0515285802915}}}, "icon": "https://maps.gstatic.com/mapfiles/place_api/icons/generic_business-71.png", "id": "efa69ce602738d98984fca48aa1502be655d67ab", "name": "Unreal Snacks", "place_id": "ChIJ7xDu2X9644kRDDP6Dg5aH9o", "plus_code": {"compound_code": "8WXX+MX Boston, Massachusetts, United States", "global_code": "87JC8WXX+MX"}, "reference": "ChIJ7xDu2X9644kRDDP6Dg5aH9o", "scope": "GOOGLE", "types": ["point_of_interest", "food", "establishment"], "vicinity": "51 Melcher Street, 7th Floor, Boston"}, "ChIJua692X9644kR7EQf2kGQIOQ": {"geometry": {"location": {"lat": 42.3492016, "lng": -71.0500984}, "viewport": {"northeast": {"lat": 42.3506309802915, "lng": -71.0486451197085}, "southwest": {"lat": 42.3479330197085, "lng": -71.0513430802915}}}, "icon": "https://maps.gstatic.com/mapfiles/place_api/icons/generic_business-71.png", "id": "f0cb627567784b394a6a49170770f00686b39452", "name": "cloudgration", "place_id": "ChIJua692X9644kR7EQf2kGQIOQ", "plus_code": {"compound_code": "8WXX+MX Boston, Massachusetts, United States", "global_code": "87JC8WXX+MX"}, "reference": "ChIJua692X9644kR7EQf2kGQIOQ", "scope": "GOOGLE", "types": ["point_of_interest", "establishment"], "vicinity": "51 Melcher Street, Boston"}, "ChIJua692X9644kRKEtRB87ICLM": {"geometry": {"location": {"lat": 42.3492016, "lng": -71.0500984}, "viewport": {"northeast": {"lat": 42.3506309802915, "lng": -71.0486451197085}, "southwest": {"lat": 42.3479330197085, "lng": -71.0513430802915}}}, "icon": "https://maps.gstatic.com/mapfiles/place_api/icons/generic_business-71.png", "id": "42fd493386f0c67763ec254098d9675d70f38ebd", "name": "Apliant", "place_id": "ChIJua692X9644kRKEtRB87ICLM", "plus_code": {"compound_code": "8WXX+MX Boston, Massachusetts, United States", "global_code": "87JC8WXX+MX"}, "rating": 2.5, "reference": "ChIJua692X9644kRKEtRB87ICLM", "scope": "GOOGLE", "types": ["insurance_agency", "point_of_interest", "establishment"], "user_ratings_total": 2, "vicinity": "51 Melcher Street, Boston"}, "ChIJ7xDu2X9644kR9eKT3EJ3LIc": {"geometry": {"location": {"lat": 42.3492016, "lng": -71.0500984}, "viewport": {"northeast": {"lat": 42.3506309802915, "lng": -71.0486451197085}, "southwest": {"lat": 42.3479330197085, "lng": -71.0513430802915}}}, "icon": "https://maps.gstatic.com/mapfiles/place_api/icons/school-71.png", "id": "0078ae21919980d99eb28f2db71bb162a87c6971", "name": "Tott Labs", "opening_hours": {"open_now": true}, "place_id": "ChIJ7xDu2X9644kR9eKT3EJ3LIc", "plus_code": {"compound_code": "8WXX+MX Boston, Massachusetts, United States", "global_code": "87JC8WXX+MX"}, "reference": "ChIJ7xDu2X9644kR9eKT3EJ3LIc", "scope": "GOOGLE", "types": ["point_of_interest", "establishment"], "vicinity": "51 Melcher Street, Boston"}, "ChIJ7xDu2X9644kRwMujTVqAzgU": {"geometry": {"location": {"lat": 42.3492016, "lng": -71.0500984}, "viewport": {"northeast": {"lat": 42.35048443029149, "lng": -71.0488306197085}, "southwest": {"lat": 42.3477864697085, "lng": -71.0515285802915}}}, "icon": "https://maps.gstatic.com/mapfiles/place_api/icons/generic_business-71.png", "id": "06b6538b332a80bde0ebaa487c417bbabb56ef9b", "name": "Xinnovation, Inc", "place_id": "ChIJ7xDu2X9644kRwMujTVqAzgU", "plus_code": {"compound_code": "8WXX+MX Boston, Massachusetts, United States", "global_code": "87JC8WXX+MX"}, "reference": "ChIJ7xDu2X9644kRwMujTVqAzgU", "scope": "GOOGLE", "types": ["point_of_interest", "establishment"], "vicinity": "51 Melcher Street, Floor 1, Boston"}, "ChIJ7xDu2X9644kR_uzS2La5Wv4": {"geometry": {"location": {"lat": 42.3492016, "lng": -71.0500984}, "viewport": {"northeast": {"lat": 42.3506309802915, "lng": -71.0486451197085}, "southwest": {"lat": 42.3479330197085, "lng": -71.0513430802915}}}, "icon": "https://maps.gstatic.com/mapfiles/place_api/icons/generic_business-71.png", "id": "a3b42b248d40c611bae22d43f1bdb7efc4abad43", "name": "HT2 Labs - Boston", "opening_hours": {"open_now": false}, "place_id": "ChIJ7xDu2X9644kR_uzS2La5Wv4", "plus_code": {"compound_code": "8WXX+MX Boston, Massachusetts, United States", "global_code": "87JC8WXX+MX"}, "reference": "ChIJ7xDu2X9644kR_uzS2La5Wv4", "scope": "GOOGLE", "types": ["point_of_interest", "establishment"], "vicinity": "51 Melcher Street Unit #221, Boston"}, "ChIJhRru2X9644kRhTVEtFtBjS0": {"geometry": {"location": {"lat": 42.349202, "lng": -71.050099}, "viewport": {"northeast": {"lat": 42.3504848302915, "lng": -71.0488312197085}, "southwest": {"lat": 42.3477868697085, "lng": -71.05152918029151}}}, "icon": "https://maps.gstatic.com/mapfiles/place_api/icons/generic_business-71.png", "id": "707cd87c27fdcaafafb82a0efe1fea62221cf2ae", "name": "East Coast Product", "opening_hours": {"open_now": true}, "photos": [{"height": 1080, "html_attributions": ["<a href=\"https://maps.google.com/maps/contrib/104335414655092117559/photos\">East Coast Product</a>"], "photo_reference": "CmRaAAAAFMRTiHECwzsvzKOJkEOt0jwjdgd5YToPO-AJWxSBZNQpbcRKl2gGyteH5QVRdHTsc9VZy0X9hDa2qVIGMpOuDi292QOjUMbYyxiAGIuefSk0XZEyChAOiigIR049TnEjEhC_QSolkjlZTLjoXlm4lQs_GhTpoNfFFQnYMtR40rvKaOsScItfOg", "width": 1920}], "place_id": "ChIJhRru2X9644kRhTVEtFtBjS0", "plus_code": {"compound_code": "8WXX+MX Boston, Massachusetts, United States", "global_code": "87JC8WXX+MX"}, "reference": "ChIJhRru2X9644kRhTVEtFtBjS0", "scope": "GOOGLE", "types": ["point_of_interest", "establishment"], "vicinity": "1st Floor, 51 Melcher St, Boston"}, "ChIJMzzX2H9644kR7q9RdG1BcTI": {"geometry": {"location": {"lat": 42.3492015, "lng": -71.05009849999999}, "viewport": {"northeast": {"lat": 42.35063093029149, "lng": -71.0486451697085}, "southwest": {"lat": 42.34793296970849, "lng": -71.0513431302915}}}, "icon": "https://maps.gstatic.com/mapfiles/place_api/icons/generic_business-71.png", "id": "9dc73449347701b5dd40e72c60872ca28ea9a517", "name": "Wizeo Headquarters", "place_id": "ChIJMzzX2H9644kR7q9RdG1BcTI", "plus_code": {"compound_code": "8WXX+MX Boston, Massachusetts, United States", "global_code": "87JC8WXX+MX"}, "reference": "ChIJMzzX2H9644kR7q9RdG1BcTI", "scope": "GOOGLE", "types": ["point_of_interest", "establishment"], "vicinity": "51 Melcher Street, Boston"}, "ChIJ-a692X9644kRyARdkhcu-a8": {"geometry": {"location": {"lat": 42.3492015, "lng": -71.05009849999999}, "viewport": {"northeast": {"lat": 42.35063093029149, "lng": -71.0486451697085}, "southwest": {"lat": 42.34793296970849, "lng": -71.0513431302915}}}, "icon": "https://maps.gstatic.com/mapfiles/place_api/icons/generic_business-71.png", "id": "cc99f6c2c2ff89e1800b4f5acbce0b6abfd50b46", "name": "DigiFX, LLC", "opening_hours": {"open_now": true}, "photos": [{"height": 2120, "html_attributions": ["<a href=\"https://maps.google.com/maps/contrib/107810088851924352199/photos\">DigiFX, LLC</a>"], "photo_reference": "CmRaAAAAw3gKzLZVOXLXlrZ_Rs9EEm4oBQDrndyezO5EKjz_B27ecQHK8KL6kapfYFsCECRlAybP9nmF1RfXLtCloKlUOHDKjti_dVxkQqvOh33e28b0H3BjenHdSesgz92k8X1IEhARM75nWi2-MzupaeYnxLFPGhQd_BTfcnPt1Bmdk92UkQBAkJOTuw", "width": 3316}], "place_id": "ChIJ-a692X9644kRyARdkhcu-a8", "plus_code": {"compound_code": "8WXX+MX Boston, Massachusetts, United States", "global_code": "87JC8WXX+MX"}, "reference": "ChIJ-a692X9644kRyARdkhcu-a8", "scope": "GOOGLE", "types": ["point_of_interest", "establishment"], "vicinity": "51 Melcher Street, Boston"}, "ChIJySFSPZJ644kRQd1ylK2wP54": {"geometry": {"location": {"lat": 42.3381437, "lng": -71.0475773}, "viewport": {"northeast": {"lat": 42.3551665, "lng": -71.0091984}, "southwest": {"lat": 42.32115, "lng": -71.0652948}}}, "icon": "https://maps.gstatic.com/mapfiles/place_api/icons/geocode-71.png", "id": "56a2680fff3ada55ed539f65fc2e901a748193c6", "name": "South Boston", "photos": [{"height": 1836, "html_attributions": ["<a href=\"https://maps.google.com/maps/contrib/100381122114234243821/photos\">Gary Stephens</a>"], "photo_reference": "CmRaAAAAWOIsn0v0HEow0jxJOQUDzLgbPtPB6N9zlaJNBCO5g3IVl4xbN5yvAygLdSZhe9mjaMR-g7JqubJxDAhzWpC3ljp8nfdbHrWEWqX6scgBr9wi2mI4ABVgYGyZ24jnnpDuEhALGaP0ibwYbjFn6tF5AE93GhT8fTFpPK4pp3srCRYGdsIUcPriiQ", "width": 3264}], "place_id": "ChIJySFSPZJ644kRQd1ylK2wP54", "reference": "ChIJySFSPZJ644kRQd1ylK2wP54", "scope": "GOOGLE", "types": ["neighborhood", "political"], "vicinity": "Boston"}, "ChIJj09ok3R644kRkaNfJtjjZjQ": {"geometry": {"location": {"lat": 42.3492015, "lng": -71.05009849999999}, "viewport": {"northeast": {"lat": 42.35063093029149, "lng": -71.0486451697085}, "southwest": {"lat": 42.34793296970849, "lng": -71.0513431302915}}}, "icon": "https://maps.gstatic.com/mapfiles/place_api/icons/school-71.png", "id": "71e52e4a89d6a26b15db003671088b052ead08d1", "name": "Testive SAT and ACT Prep", "opening_hours": {"open_now": false}, "photos": [{"height": 628, "html_attributions": ["<a href=\"https://maps.google.com/maps/contrib/112335879267011194678/photos\">Testive SAT and ACT Prep</a>"], "photo_reference": "CmRaAAAAKmGt3xKEkd5bto-ssKjdtgehV_9QmKdVfu_jC_lObli9l1nQBGLpvF5I8XYoXxNZjUjdpIqS56dNe6gSrSwEv3RHWOm_XQcN-5IbgGLTipHUGQXIxr-8Hr9pqwvfEjQ5EhCTyLt74qWchlI-QzEuX_XLGhT5VArKwyoXbVLkVbHQ6Q5RcPUyMw", "width": 1200}], "place_id": "ChIJj09ok3R644kRkaNfJtjjZjQ", "plus_code": {"compound_code": "8WXX+MX Boston, Massachusetts, United States", "global_code": "87JC8WXX+MX"}, "rating": 5, "reference": "ChIJj09ok3R644kRkaNfJtjjZjQ", "scope": "GOOGLE", "types": ["point_of_interest", "establishment"], "user_ratings_total": 23, "vicinity": "51 Melcher Street, Boston"}, "ChIJua692X9644kRT1iO5qhLRyQ": {"geometry": {"location": {"lat": 42.3492015, "lng": -71.05009849999999}, "viewport": {"northeast": {"lat": 42.35063093029149, "lng": -71.0486451697085}, "southwest": {"lat": 42.34793296970849, "lng": -71.0513431302915}}}, "icon": "https://maps.gstatic.com/mapfiles/place_api/icons/generic_business-71.png", "id": "af302ec73e890b4a79c2b6595a3fcfcbb2ea3d0f", "name": "first summit design", "place_id": "ChIJua692X9644kRT1iO5qhLRyQ", "plus_code": {"compound_code": "8WXX+MX Boston, Massachusetts, United States", "global_code": "87JC8WXX+MX"}, "reference": "ChIJua692X9644kRT1iO5qhLRyQ", "scope": "GOOGLE", "types": ["point_of_interest", "establishment"], "vicinity": "51 Melcher Street, Boston"}, "ChIJlT7X2H9644kRq68sTfPwgWo": {"geometry": {"location": {"lat": 42.3492015, "lng": -71.05009849999999}, "viewport": {"northeast": {"lat": 42.35063093029149, "lng": -71.0486451697085}, "southwest": {"lat": 42.34793296970849, "lng": -71.0513431302915}}}, "icon": "https://maps.gstatic.com/mapfiles/place_api/icons/generic_business-71.png", "id": "c73c9f3c333b6170fce4290533e20b10bb6ea480", "name": "SouthieMap", "opening_hours": {"open_now": false}, "photos": [{"height": 1365, "html_attributions": ["<a href=\"https://maps.google.com/maps/contrib/118022728069509884025/photos\">SouthieMap</a>"], "photo_reference": "CmRaAAAAcMIZ-pGNmXeuVNuCmyZbWa57i2dSJhCxg_oal3FTeZ1JdgjZIvODtKp9pm56VoXlLWEGweoG02MjiiTEvMMvjFqHqc3uj6uqCYi67oWvsXSLP5JgIn_JegxxPTqqVtzOEhCEWWADqEVla9Kaw20CIA5ZGhRA9nfXdjr230b7C82uQAdNWIFhOw", "width": 2048}], "place_id": "ChIJlT7X2H9644kRq68sTfPwgWo", "plus_code": {"compound_code": "8WXX+MX Boston, Massachusetts, United States", "global_code": "87JC8WXX+MX"}, "rating": 5, "reference": "ChIJlT7X2H9644kRq68sTfPwgWo", "scope": "GOOGLE", "types": ["real_estate_agency", "point_of_interest", "establishment"], "user_ratings_total": 6, "vicinity": "51 Melcher Street, Boston"}, "ChIJwRDu2X9644kRpxxOGCqnuPc": {"geometry": {"location": {"lat": 42.3492015, "lng": -71.05009849999999}, "viewport": {"northeast": {"lat": 42.35063093029149, "lng": -71.0486451697085}, "southwest": {"lat": 42.34793296970849, "lng": -71.0513431302915}}}, "icon": "https://maps.gstatic.com/mapfiles/place_api/icons/generic_business-71.png", "id": "f18be073e3b0561d8990670b1c2c8ed9b4bfa393", "name": "ProCourier, Inc.", "opening_hours": {"open_now": true}, "photos": [{"height": 424, "html_attributions": ["<a href=\"https://maps.google.com/maps/contrib/103724737236909107509/photos\">ProCourier, Inc.</a>"], "photo_reference": "CmRaAAAAPlVpZ9cgGaWI7rlQ7VgAxo_7aAHIsPuLSrHD84NUUV_JzOOLpz0dtPZKp_Xik2UGgZih2GJEaKObzkXrENqz79Y-m1z4hjx3k4lf4o4U5tPN_aHTciQe6rxro9CHlhc4EhBw9caoY7ENU9XLK7EQluXFGhR7UhuoRcMMbflWimKMJU7Fk04OTQ", "width": 754}], "place_id": "ChIJwRDu2X9644kRpxxOGCqnuPc", "plus_code": {"compound_code": "8WXX+MX Boston, Massachusetts, United States", "global_code": "87JC8WXX+MX"}, "rating": 3, "reference": "ChIJwRDu2X9644kRpxxOGCqnuPc", "scope": "GOOGLE", "types": ["point_of_interest", "establishment"], "user_ratings_total": 2, "vicinity": "51 Melcher Street, Boston"}, "ChIJo1zJiw9644kRdzmNJ-eW7Wc": {"geometry": {"location": {"lat": 42.3492015, "lng": -71.05009849999999}, "viewport": {"northeast": {"lat": 42.35063093029149, "lng": -71.0486451697085}, "southwest": {"lat": 42.34793296970849, "lng": -71.0513431302915}}}, "icon": "https://maps.gstatic.com/mapfiles/place_api/icons/generic_business-71.png", "id": "98b551c0ebd9a50bf1313104cf3ea2fecefc0bc9", "name": "MD + CO", "opening_hours": {"open_now": false}, "photos": [{"height": 1153, "html_attributions": ["<a href=\"https://maps.google.com/maps/contrib/100992803678869081222/photos\">MD + CO</a>"], "photo_reference": "CmRaAAAAmxPzrPM9sUF_TFe4hz3g_GcXa8ozRvb826yG8pRWvj-WkmpNHbypGjvdZLPQcc89JtDS6d32sRmmga24DJ4Ga5jX4usHSGy5ebLr3kqcIsZfjJjAz1-Vf2VicyPIhZJ9EhDjJOQEjtCltyMxIX39pvy7GhQYenXpSkEAjJsSzKfNOsvevOv_ig", "width": 2048}], "place_id": "ChIJo1zJiw9644kRdzmNJ-eW7Wc", "plus_code": {"compound_code": "8WXX+MX Boston, Massachusetts, United States", "global_code": "87JC8WXX+MX"}, "reference": "ChIJo1zJiw9644kRdzmNJ-eW7Wc", "scope": "GOOGLE", "types": ["point_of_interest", "establishment"], "vicinity": "51 Melcher Street #607, Boston"}, "ChIJtxHu2X9644kR8_kYTkbNWN8": {"geometry": {"location": {"lat": 42.349202, "lng": -71.05009799999999}, "viewport": {"northeast": {"lat": 42.3506312302915, "lng": -71.04864496970849}, "southwest": {"lat": 42.3479332697085, "lng": -71.0513429302915}}}, "icon": "https://maps.gstatic.com/mapfiles/place_api/icons/generic_business-71.png", "id": "d95a142bc5bd91083855740b44197cbc9b7d3865", "name": "Iterators LLC", "photos": [{"height": 300, "html_attributions": ["<a href=\"https://maps.google.com/maps/contrib/117346629930010917088/photos\">Iterators LLC</a>"], "photo_reference": "CmRaAAAAIL8ga2jquNh9qOmboarr_yXJduWoP1UjB7_rEqSYT4kIv1CTqqTYOSC_aPOM4Rv5t-RDeYO5bNomfzUtvwNa0fcxNO1i_qHrrfaQlV5hkHkoJRfElWKrrRhSozjInY3tEhDYkhISxeJx7QICxVRVM2E-GhRu4NlcsQIaFKqAkm7lmzDqcmvqLA", "width": 450}], "place_id": "ChIJtxHu2X9644kR8_kYTkbNWN8", "plus_code": {"compound_code": "8WXX+MX Boston, Massachusetts, United States", "global_code": "87JC8WXX+MX"}, "reference": "ChIJtxHu2X9644kR8_kYTkbNWN8", "scope": "GOOGLE", "types": ["point_of_interest", "establishment"], "vicinity": "51 Melcher Street #122, Boston"}, "ChIJtxHu2X9644kRKUbk0VDfI9E": {"geometry": {"location": {"lat": 42.349202, "lng": -71.05009799999999}, "viewport": {"northeast": {"lat": 42.35048463029149, "lng": -71.0488304197085}, "southwest": {"lat": 42.3477866697085, "lng": -71.0515283802915}}}, "icon": "https://maps.gstatic.com/mapfiles/place_api/icons/generic_business-71.png", "id": "b92ec134c660991c12a2ec2b7e06ce2a7b131cf7", "name": "Webtilia Studio", "opening_hours": {"open_now": false}, "photos": [{"height": 778, "html_attributions": ["<a href=\"https://maps.google.com/maps/contrib/113035577360757039646/photos\">Webtilia Studio</a>"], "photo_reference": "CmRaAAAAus4VsSnpck-BhJYqxbc45cD-727qUpkxRAfvyn_FPlB9vimya9St6dbxuNCRLUvSMzcZZFRW5bC6hcQ5xB2c2gJYvWwr5KGY17B8Sw4DANpU4j-MjQE1RGxEGgYupZ2XEhCHO0gX6VI2jTP9HdvvESebGhT28TQTzqK3OAxXCjyTWgQDivRv9g", "width": 1381}], "place_id": "ChIJtxHu2X9644kRKUbk0VDfI9E", "plus_code": {"compound_code": "8WXX+MX Boston, Massachusetts, United States", "global_code": "87JC8WXX+MX"}, "rating": 5, "reference": "ChIJtxHu2X9644kRKUbk0VDfI9E", "scope": "GOOGLE", "types": ["point_of_interest", "establishment"], "user_ratings_total": 4, "vicinity": "51 Melcher St. #632 Boston, MA, Boston"}, "ChIJ7xDu2X9644kRpqr1-8j4tbI": {"geometry": {"location": {"lat": 42.3492016, "lng": -71.0500984}, "viewport": {"northeast": {"lat": 42.3506309802915, "lng": -71.0486451197085}, "southwest": {"lat": 42.3479330197085, "lng": -71.0513430802915}}}, "icon": "https://maps.gstatic.com/mapfiles/place_api/icons/generic_business-71.png", "id": "216ac69bec0929a32a9556a04b60ae24668ed253", "name": "Driver8 Agency", "place_id": "ChIJ7xDu2X9644kRpqr1-8j4tbI", "plus_code": {"compound_code": "8WXX+MX Boston, Massachusetts, United States", "global_code": "87JC8WXX+MX"}, "reference": "ChIJ7xDu2X9644kRpqr1-8j4tbI", "scope": "GOOGLE", "types": ["point_of_interest", "establishment"], "vicinity": "51 Melcher Street, Boston"}, "ChIJ7xDu2X9644kRJoHY-2hPvVs": {"geometry": {"location": {"lat": 42.3492016, "lng": -71.0500984}, "viewport": {"northeast": {"lat": 42.35048443029149, "lng": -71.0488306197085}, "southwest": {"lat": 42.3477864697085, "lng": -71.0515285802915}}}, "icon": "https://maps.gstatic.com/mapfiles/place_api/icons/generic_business-71.png", "id": "93f71c14f0fb99a3a8bb45dd1091c0811011ff44", "name": "MEDCERT- USA, LLC", "opening_hours": {"open_now": true}, "photos": [{"height": 800, "html_attributions": ["<a href=\"https://maps.google.com/maps/contrib/113066758654415491231/photos\">MEDCERT- USA, LLC</a>"], "photo_reference": "CmRaAAAAM7agO3yLlh8t-fPRLXYntSk2Y0Kl32oaemVNDu6mCqz80pYDL6BRCbKWWyBP6nCqopgtADo9h3sz9dahQqHltDyd3FXem3DMH_ZhqI6FaXx2JzabyLQfJz5bMRoegUeSEhD2W7VU1xiMGf7_vM3bAe83GhQLGFgKfUeoWjADiyt8hwKa5E_G8g", "width": 1600}], "place_id": "ChIJ7xDu2X9644kRJoHY-2hPvVs", "plus_code": {"compound_code": "8WXX+MX Boston, Massachusetts, United States", "global_code": "87JC8WXX+MX"}, "rating": 5, "reference": "ChIJ7xDu2X9644kRJoHY-2hPvVs", "scope": "GOOGLE", "types": ["point_of_interest", "establishment"], "user_ratings_total": 1, "vicinity": "1st Floor WeWork Fort Point 51 Melcher Street, Boston, MA 02210, Boston"}, "ChIJ7xDu2X9644kR8kPbJ2ToFxU": {"geometry": {"location": {"lat": 42.3492016, "lng": -71.0500984}, "viewport": {"northeast": {"lat": 42.3506309802915, "lng": -71.0486451197085}, "southwest": {"lat": 42.3479330197085, "lng": -71.0513430802915}}}, "icon": "https://maps.gstatic.com/mapfiles/place_api/icons/generic_business-71.png", "id": "1d9976607e546badce6a1e047e75541b7b679645", "name": "Grand Image Art", "opening_hours": {"open_now": false}, "photos": [{"height": 559, "html_attributions": ["<a href=\"https://maps.google.com/maps/contrib/113532068551033741507/photos\">Grand Image Art</a>"], "photo_reference": "CmRaAAAAxyybTtWtvo1w_FCMkG-bQ9S7imGklqzuHvRYOkre7DFmdNRMpC6TgIzUdo95KtoKEBlvZt0DhkHbXmJFCnjV_RtxEZn_FFW9cU3pN2pf9OtoYuklELkiAJxh9RDdYvhLEhBOmh2vMeoZwzKQ0BKjlCYDGhQ94NmNjMqiyw2YWlnCl7kPoi1uZg", "width": 595}], "place_id": "ChIJ7xDu2X9644kR8kPbJ2ToFxU", "plus_code": {"compound_code": "8WXX+MX Boston, Massachusetts, United States", "global_code": "87JC8WXX+MX"}, "rating": 5, "reference": "ChIJ7xDu2X9644kR8kPbJ2ToFxU", "scope": "GOOGLE", "types": ["point_of_interest", "establishment"], "user_ratings_total": 1, "vicinity": "51 Melcher Street, Boston"}, "ChIJ7xDu2X9644kRubZgu9Xj_74": {"geometry": {"location": {"lat": 42.3492016, "lng": -71.0500984}, "viewport": {"northeast": {"lat": 42.3506309802915, "lng": -71.0486451197085}, "southwest": {"lat": 42.3479330197085, "lng": -71.0513430802915}}}, "icon": "https://maps.gstatic.com/mapfiles/place_api/icons/civic_building-71.png", "id": "a051aa5cb93bde4e8957cfbecf3c4fced2053a87", "name": "Digital Health Recruitment", "place_id": "ChIJ7xDu2X9644kRubZgu9Xj_74", "plus_code": {"compound_code": "8WXX+MX Boston, Massachusetts, United States", "global_code": "87JC8WXX+MX"}, "reference": "ChIJ7xDu2X9644kRubZgu9Xj_74", "scope": "GOOGLE", "types": ["point_of_interest", "establishment"], "vicinity": "51 Melcher Street, Boston"}, "ChIJ7xDu2X9644kRLVYyr3od4S8": {"geometry": {"location": {"lat": 42.3492016, "lng": -71.0500984}, "viewport": {"northeast": {"lat": 42.3506309802915, "lng": -71.0486451197085}, "southwest": {"lat": 42.3479330197085, "lng": -71.0513430802915}}}, "icon": "https://maps.gstatic.com/mapfiles/place_api/icons/generic_business-71.png", "id": "1a344bfd2f3d7088d7ea535551ee6ad1c37a7b0a", "name": "DWELLER INC.", "place_id": "ChIJ7xDu2X9644kRLVYyr3od4S8", "plus_code": {"compound_code": "8WXX+MX Boston, Massachusetts, United States", "global_code": "87JC8WXX+MX"}, "reference": "ChIJ7xDu2X9644kRLVYyr3od4S8", "scope": "GOOGLE", "types": ["real_estate_agency", "point_of_interest", "establishment"], "vicinity": "51 Melcher Street, Boston"}, "ChIJ7xDu2X9644kRxBRq3uXDFsA": {"geometry": {"location": {"lat": 42.3492016, "lng": -71.0500984}, "viewport": {"northeast": {"lat": 42.3506309802915, "lng": -71.0486451197085}, "southwest": {"lat": 42.3479330197085, "lng": -71.0513430802915}}}, "icon": "https://maps.gstatic.com/mapfiles/place_api/icons/generic_business-71.png", "id": "29cbebe7b22dccb5419973db81e139f697f1c314", "name": "Keyrenter Property Management Boston", "place_id": "ChIJ7xDu2X9644kRxBRq3uXDFsA", "plus_code": {"compound_code": "8WXX+MX Boston, Massachusetts, United States", "global_code": "87JC8WXX+MX"}, "reference": "ChIJ7xDu2X9644kRxBRq3uXDFsA", "scope": "GOOGLE", "types": ["point_of_interest", "establishment"], "vicinity": "51 Melcher Street Suite 232, Boston"}, "ChIJ7xDu2X9644kRR8qEZRqvl-0": {"geometry": {"location": {"lat": 42.3492016, "lng": -71.0500984}, "viewport": {"northeast": {"lat": 42.3506309802915, "lng": -71.0486451197085}, "southwest": {"lat": 42.3479330197085, "lng": -71.0513430802915}}}, "icon": "https://maps.gstatic.com/mapfiles/place_api/icons/generic_business-71.png", "id": "5c01bdd4ad233d591b6366eeab53aff4f7d87874", "name": "COVE MANUFACTURING", "place_id": "ChIJ7xDu2X9644kRR8qEZRqvl-0", "plus_code": {"compound_code": "8WXX+MX Boston, Massachusetts, United States", "global_code": "87JC8WXX+MX"}, "reference": "ChIJ7xDu2X9644kRR8qEZRqvl-0", "scope": "GOOGLE", "types": ["point_of_interest", "establishment"], "vicinity": "51 Melcher Street, Boston"}, "ChIJ7xDu2X9644kR0dmJxV8MUO8": {"geometry": {"location": {"lat": 42.3492016, "lng": -71.0500984}, "viewport": {"northeast": {"lat": 42.3506309802915, "lng": -71.0486451197085}, "southwest": {"lat": 42.3479330197085, "lng": -71.0513430802915}}}, "icon": "https://maps.gstatic.com/mapfiles/place_api/icons/generic_business-71.png", "id": "5f4536462a026ff189d94e80ff2fe718a2ef049d", "name": "Techstars Boston", "place_id": "ChIJ7xDu2X9644kR0dmJxV8MUO8", "plus_code": {"compound_code": "8WXX+MX Boston, Massachusetts, United States", "global_code": "87JC8WXX+MX"}, "reference": "ChIJ7xDu2X9644kR0dmJxV8MUO8", "scope": "GOOGLE", "types": ["finance", "point_of_interest", "establishment"], "vicinity": "51 Melcher Street, Boston"}, "ChIJ7xDu2X9644kRnQcpVmlN2kw": {"geometry": {"location": {"lat": 42.3492016, "lng": -71.0500984}, "viewport": {"northeast": {"lat": 42.3506309802915, "lng": -71.0486451197085}, "southwest": {"lat": 42.3479330197085, "lng": -71.0513430802915}}}, "icon": "https://maps.gstatic.com/mapfiles/place_api/icons/generic_business-71.png", "id": "6d015a30335932f2cb363f667241114acb14ed7e", "name": "Boston Recruiting Company", "place_id": "ChIJ7xDu2X9644kRnQcpVmlN2kw", "plus_code": {"compound_code": "8WXX+MX Boston, Massachusetts, United States", "global_code": "87JC8WXX+MX"}, "reference": "ChIJ7xDu2X9644kRnQcpVmlN2kw", "scope": "GOOGLE", "types": ["point_of_interest", "establishment"], "vicinity": "51 Melcher Street, Boston"}, "ChIJ7xDu2X9644kRrrbN5OgMc7c": {"geometry": {"location": {"lat": 42.3492016, "lng": -71.0500984}, "viewport": {"northeast": {"lat": 42.3506309802915, "lng": -71.0486451197085}, "southwest": {"lat": 42.3479330197085, "lng": -71.0513430802915}}}, "icon": "https://maps.gstatic.com/mapfiles/place_api/icons/generic_business-71.png", "id": "dd30f98353088a491422e5a3b9f602e445b431b8", "name": "Designs en Bois", "place_id": "ChIJ7xDu2X9644kRrrbN5OgMc7c", "plus_code": {"compound_code": "8WXX+MX Boston, Massachusetts, United States", "global_code": "87JC8WXX+MX"}, "reference": "ChIJ7xDu2X9644kRrrbN5OgMc7c", "scope": "GOOGLE", "types": ["point_of_interest", "establishment"], "vicinity": "51 Melcher Street, Boston"}, "ChIJua692X9644kRkxTb4ecXmvU": {"geometry": {"location": {"lat": 42.3492016, "lng": -71.0500984}, "viewport": {"northeast": {"lat": 42.3506309802915, "lng": -71.0486451197085}, "southwest": {"lat": 42.3479330197085, "lng": -71.0513430802915}}}, "icon": "https://maps.gstatic.com/mapfiles/place_api/icons/generic_business-71.png", "id": "c32f9a63c22df025f37b0a19928fec2a0bc9cae1", "name": "Muslim Justice League", "place_id": "ChIJua692X9644kRkxTb4ecXmvU", "plus_code": {"compound_code": "8WXX+MX Boston, Massachusetts, United States", "global_code": "87JC8WXX+MX"}, "reference": "ChIJua692X9644kRkxTb4ecXmvU", "scope": "GOOGLE", "types": ["point_of_interest", "establishment"], "vicinity": "51 Melcher Street, Boston"}, "ChIJ7xDu2X9644kRbG5U3xqUs7c": {"geometry": {"location": {"lat": 42.3492016, "lng": -71.0500984}, "viewport": {"northeast": {"lat": 42.35048443029149, "lng": -71.0488306197085}, "southwest": {"lat": 42.3477864697085, "lng": -71.0515285802915}}}, "icon": "https://maps.gstatic.com/mapfiles/place_api/icons/generic_business-71.png", "id": "2881c2366f3edfb1d6cf0cd1acd4a35d25777763", "name": "Hayes & O'Neill Structural Engineering Boston", "opening_hours": {"open_now": false}, "photos": [{"height": 2048, "html_attributions": ["<a href=\"https://maps.google.com/maps/contrib/106804064211988511097/photos\">Hayes &amp; O&#39;Neill Structural Engineering Boston</a>"], "photo_reference": "CmRaAAAAYO3ZX2ZzgPhu5IVOpUoEQXJFsxpVKjjT8t6uqKeJ1Qu_RapG21DX9MRBJfJfnSZ8AC8ojJCtmDZTbRCRkMG8IPaJxt8dZX0Wo7KlHz6ivW4P4SgVWdOFPF3n3wwj2XbnEhD0O_WtMWFg1KGIp-5roETgGhSV9Bq9q8jbUYu0OPrM4uP-pcz6qA", "width": 2048}], "place_id": "ChIJ7xDu2X9644kRbG5U3xqUs7c", "plus_code": {"compound_code": "8WXX+MX Boston, Massachusetts, United States", "global_code": "87JC8WXX+MX"}, "rating": 5, "reference": "ChIJ7xDu2X9644kRbG5U3xqUs7c", "scope": "GOOGLE", "types": ["point_of_interest", "establishment"], "user_ratings_total": 1, "vicinity": "51 Melcher St, Flr 1, Boston"}, "ChIJ7xDu2X9644kRBSICMp3hZTQ": {"geometry": {"location": {"lat": 42.3492016, "lng": -71.0500984}, "viewport": {"northeast": {"lat": 42.3506309802915, "lng": -71.0486451197085}, "southwest": {"lat": 42.3479330197085, "lng": -71.0513430802915}}}, "icon": "https://maps.gstatic.com/mapfiles/place_api/icons/generic_business-71.png", "id": "43810f3de15422910cae260580e5b614fc6ba930", "name": "The Bennett Law Firm", "place_id": "ChIJ7xDu2X9644kRBSICMp3hZTQ", "plus_code": {"compound_code": "8WXX+MX Boston, Massachusetts, United States", "global_code": "87JC8WXX+MX"}, "reference": "ChIJ7xDu2X9644kRBSICMp3hZTQ", "scope": "GOOGLE", "types": ["point_of_interest", "establishment"], "vicinity": "51 Melcher Street, Boston"}, "ChIJwxDu2X9644kRHX5fswqbb20": {"geometry": {"location": {"lat": 42.3492015, "lng": -71.0500984}, "viewport": {"northeast": {"lat": 42.35063093029149, "lng": -71.0486451197085}, "southwest": {"lat": 42.34793296970849, "lng": -71.0513430802915}}}, "icon": "https://maps.gstatic.com/mapfiles/place_api/icons/generic_business-71.png", "id": "0fc2b6ac67a69621b600b964eb7d04a1e48c010f", "name": "Insight Numerics", "opening_hours": {"open_now": false}, "photos": [{"height": 1125, "html_attributions": ["<a href=\"https://maps.google.com/maps/contrib/100660954249179052169/photos\">Insight Numerics</a>"], "photo_reference": "CmRaAAAAx4QY8-dl1wIO_vY6-scwPuREScGgwtLJ6oEwI1Rt8UsqEHmi90XuA6XmNpcCdtW69Bz_msO14c2mSjV8fJtOWZCWVQI0zhYx10VuZf6oL_tRU9WJHveVwbpTBQ2sii3lEhCQv1qikEzfIInwKJYJGcMfGhRWOWaRgMaJzDMCgiMuX7lqpX-SYg", "width": 1845}], "place_id": "ChIJwxDu2X9644kRHX5fswqbb20", "plus_code": {"compound_code": "8WXX+MX Boston, Massachusetts, United States", "global_code": "87JC8WXX+MX"}, "reference": "ChIJwxDu2X9644kRHX5fswqbb20", "scope": "GOOGLE", "types": ["point_of_interest", "establishment"], "vicinity": "51 Melcher Street, Boston"}, "ChIJwRDu2X9644kRsT_nbXhajVI": {"geometry": {"location": {"lat": 42.3492015, "lng": -71.05009849999999}, "viewport": {"northeast": {"lat": 42.35063093029149, "lng": -71.0486451697085}, "southwest": {"lat": 42.34793296970849, "lng": -71.0513431302915}}}, "icon": "https://maps.gstatic.com/mapfiles/place_api/icons/generic_business-71.png", "id": "1a5d32707bd4fcd6410508962453ce64a1ad09e9", "name": "Credibly", "opening_hours": {"open_now": true}, "place_id": "ChIJwRDu2X9644kRsT_nbXhajVI", "plus_code": {"compound_code": "8WXX+MX Boston, Massachusetts, United States", "global_code": "87JC8WXX+MX"}, "reference": "ChIJwRDu2X9644kRsT_nbXhajVI", "scope": "GOOGLE", "types": ["point_of_interest", "establishment"], "vicinity": "51 Melcher Street #642, Boston"}}