{"ChIJGzE9DS1l44kRoOhiASS_fHg": {"geometry": {"location": {"lat": 42.3600825, "lng": -71.0588801}, "viewport": {"northeast": {"lat": 42.40081989999999, "lng": -70.749455}, "southwest": {"lat": 42.22788, "lng": -71.191113}}}, "icon": "https://maps.gstatic.com/mapfiles/place_api/icons/geocode-71.png", "id": "06755c25d2b34d13942a4713971756a55b870ced", "name": "Boston", "photos": [{"height": 3024, "html_attributions": ["<a href=\"https://maps.google.com/maps/contrib/104670289779338733432/photos\">Natalia Zalucean</a>"], "photo_reference": "CmRaAAAAhrD_XyI0YboqGfpyPgmeoHLmGq9ChlW-KNnIESypF4z_ME18uI1HZ1ZpKStzRD-xGqAHCXIVXDcbvKJviOlgD6UbjjzOtWTRN809GYmalkdU-7PPUiqqXFC9H7ezsNKkEhAjITcAszhyAO5KsZ1LQZsFGhQ7IdClVRn35eEnHYopfUoUtUDnUA", "width": 4032}], "place_id": "ChIJGzE9DS1l44kRoOhiASS_fHg", "reference": "ChIJGzE9DS1l44kRoOhiASS_fHg", "scope": "GOOGLE", "types": ["locality", "political"], "vicinity": "Boston"}, "ChIJ9zj27It544kRNh0boRNZTJ8": {"geometry": {"location": {"lat": 42.33724590000001, "lng": -71.1021107}, "viewport": {"northeast": {"lat": 42.3384937802915, "lng": -71.10084206970849}, "southwest": {"lat": 42.3357958197085, "lng": -71.10354003029151}}}, "icon": "https://maps.gstatic.com/mapfiles/place_api/icons/generic_business-71.png", "id": "de90af651afadbdf2dc997e0be4621b7eaceefa7", "name": "Dr. Laura Safar", "place_id": "ChIJ9zj27It544kRNh0boRNZTJ8", "plus_code": {"compound_code": "8VPX+V5 Boston, Massachusetts, United States", "global_code": "87JC8VPX+V5"}, "reference": "ChIJ9zj27It544kRNh0boRNZTJ8", "scope": "GOOGLE", "types": ["doctor", "health", "point_of_interest", "establishment"], "vicinity": "221 Longwood Avenue Suite 442, Boston"}, "ChIJAfp8Lh5644kR9PDAZN8nEK8": {"geometry": {"location": {"lat": 42.3428653, "lng": -71.1002881}, "viewport": {"northeast": {"lat": 42.3522779, "lng": -71.0818948}, "southwest": {"lat": 42.332897, "lng": -71.11159599999999}}}, "icon": "https://maps.gstatic.com/mapfiles/place_api/icons/geocode-71.png", "id": "4ca9d423ad416930d3a49da3f2de6540df27b390", "name": "Fenway/Kenmore", "photos": [{"height": 1536, "html_attributions": ["<a href=\"https://maps.google.com/maps/contrib/108749372735406640710/photos\">Joshua Arkin</a>"], "photo_reference": "CmRaAAAADxxkSG1xEjUaNwiBo6q0f49NrrSPZJDCMBAgFZ8lD403T9TmQbFJ7Pt-yGa23TG8p332N4tA3GAYvaYaVFStQ5p7zSmjI7ZxxNoqGISF3hqgQhidu1EezhSk_-P6AomkEhCgw1hNiccLNDhUcAUWF3SRGhTAkhFWGWXogXVUnaFyRiIGjl1flw", "width": 2048}], "place_id": "ChIJAfp8Lh5644kR9PDAZN8nEK8", "reference": "ChIJAfp8Lh5644kR9PDAZN8nEK8", "scope": "GOOGLE", "types": ["neighborhood", "political"], "vicinity": "Boston"}}