{"ChIJGzE9DS1l44kRoOhiASS_fHg": {"geometry": {"location": {"lat": 42.3600825, "lng": -71.0588801}, "viewport": {"northeast": {"lat": 42.40081989999999, "lng": -70.749455}, "southwest": {"lat": 42.22788, "lng": -71.191113}}}, "icon": "https://maps.gstatic.com/mapfiles/place_api/icons/geocode-71.png", "id": "06755c25d2b34d13942a4713971756a55b870ced", "name": "Boston", "photos": [{"height": 3024, "html_attributions": ["<a href=\"https://maps.google.com/maps/contrib/104670289779338733432/photos\">Natalia Zalucean</a>"], "photo_reference": "CmRaAAAAJnOAPBIQqccMTlFGj62AjCTbWJpTXjdJHOcAjAuPEh5FtyieUXbWZLqVNJZPoGgkzK9oji2gHgCbuu93dQqftCY9DxWus4N_L0tJY6URrqv8Rm9Y-Ac6HRrpJAZLoPxYEhAkBrvfVs-3CfLXfZX0nbs3GhS1kKvRw6M4GclWb_Y5DWD0ndNVhw", "width": 4032}], "place_id": "ChIJGzE9DS1l44kRoOhiASS_fHg", "reference": "ChIJGzE9DS1l44kRoOhiASS_fHg", "scope": "GOOGLE", "types": ["locality", "political"], "vicinity": "Boston"}, "ChIJS9iwtIVw44kRLyFfpFTFpQY": {"geometry": {"location": {"lat": 42.3593231, "lng": -71.05740159999999}, "viewport": {"northeast": {"lat": 42.3604358802915, "lng": -71.05604076970849}, "southwest": {"lat": 42.3577379197085, "lng": -71.05873873029151}}}, "icon": "https://maps.gstatic.com/mapfiles/place_api/icons/generic_business-71.png", "id": "4fa1ab9cd30b4906f0683dacda1478918629f0c7", "name": "Linek Ernest V", "place_id": "ChIJS9iwtIVw44kRLyFfpFTFpQY", "plus_code": {"compound_code": "9W5V+P2 Boston, Massachusetts, United States", "global_code": "87JC9W5V+P2"}, "reference": "ChIJS9iwtIVw44kRLyFfpFTFpQY", "scope": "GOOGLE", "types": ["lawyer", "point_of_interest", "establishment"], "vicinity": "28 State Street, Boston"}, "ChIJU2IeEIVw44kRH9C7b6NI2o4": {"geometry": {"location": {"lat": 42.3604802, "lng": -71.0590624}, "viewport": {"northeast": {"lat": 42.3627586, "lng": -71.0524338}, "southwest": {"lat": 42.3588324, "lng": -71.0612372}}}, "icon": "https://maps.gstatic.com/mapfiles/place_api/icons/geocode-71.png", "id": "5b165efccc1c1de6da2d137152c0c93cc778a7e3", "name": "Government Center", "photos": [{"height": 3024, "html_attributions": ["<a href=\"https://maps.google.com/maps/contrib/104569846094635118150/photos\">Jordan Griffith</a>"], "photo_reference": "CmRaAAAAQJkKVnSdQRxb93nYCyj7T6GQOwn2QqpJl6biX2W0JJyFl-LrCJKHavSZ-ZZlfgi3tqH1vaivq9_pnv_uzT8diJBPF77dnWMA7dNmabs7el_bg-0opSzONNUlxJha6fK7EhC_iXVMw0ukkQ_ksbojr3LFGhTugqqATj6kFvdWEwcFs15F2O1tfg", "width": 4032}], "place_id": "ChIJU2IeEIVw44kRH9C7b6NI2o4", "reference": "ChIJU2IeEIVw44kRH9C7b6NI2o4", "scope": "GOOGLE", "types": ["neighborhood", "political"], "vicinity": "Boston"}}