{"ChIJGzE9DS1l44kRoOhiASS_fHg": {"geometry": {"location": {"lat": 42.3600825, "lng": -71.0588801}, "viewport": {"northeast": {"lat": 42.40081989999999, "lng": -70.749455}, "southwest": {"lat": 42.22788, "lng": -71.191113}}}, "icon": "https://maps.gstatic.com/mapfiles/place_api/icons/geocode-71.png", "id": "06755c25d2b34d13942a4713971756a55b870ced", "name": "Boston", "photos": [{"height": 3024, "html_attributions": ["<a href=\"https://maps.google.com/maps/contrib/104670289779338733432/photos\">Natalia Zalucean</a>"], "photo_reference": "CmRaAAAAjBgN5DAlgwQlTRuhfQJBrzdvhc6a2E4iG8FMAw5s-ExpvnUii6jrhuAZlZTCRhXEoBfn7H4_i-qKJrkx_zMsSD0VWbR2If6maln2PbdBreJafBW8DBn21vqjrnPouTs5EhA6IoDS8u7Vwzg25EcMW09gGhRUv6JsvNhkQPUwrGYMc_r1Mp1Mgg", "width": 4032}], "place_id": "ChIJGzE9DS1l44kRoOhiASS_fHg", "reference": "ChIJGzE9DS1l44kRoOhiASS_fHg", "scope": "GOOGLE", "types": ["locality", "political"], "vicinity": "Boston"}, "ChIJjxQm0oZw44kR4jKYyFKKMVc": {"geometry": {"location": {"lat": 42.355997, "lng": -71.054005}, "viewport": {"northeast": {"lat": 42.3575244802915, "lng": -71.0528405697085}, "southwest": {"lat": 42.3548265197085, "lng": -71.0555385302915}}}, "icon": "https://maps.gstatic.com/mapfiles/place_api/icons/generic_business-71.png", "id": "4ccfd1256cee3465b1a6dfd63b25c96afcd00ed2", "name": "Empower 2 Play", "opening_hours": {"open_now": true}, "photos": [{"height": 600, "html_attributions": ["<a href=\"https://maps.google.com/maps/contrib/114747471098352741487/photos\">Empower 2 Play</a>"], "photo_reference": "CmRaAAAAOKygKTIGLqED74ItIFEzc5Ub-MRSZSJQboPfoDkIFFt9-hFQ4cHfa77xczIjB4E-hTzrSIKrEvPn__1xw00o1e5gjbb0szGRghvfkTp3M069itRJSpDY0mqBDwRbRueJEhATsCLcxPKaIj1C5dYCP1kgGhS3AVEtmFFHWEMQHoM0whn4rUPpZQ", "width": 850}], "place_id": "ChIJjxQm0oZw44kR4jKYyFKKMVc", "plus_code": {"compound_code": "9W4W+99 Boston, Massachusetts, United States", "global_code": "87JC9W4W+99"}, "rating": 5, "reference": "ChIJjxQm0oZw44kR4jKYyFKKMVc", "scope": "GOOGLE", "types": ["point_of_interest", "establishment"], "user_ratings_total": 1, "vicinity": "26th Floor, 225 Franklin Street, Boston"}, "ChIJZSO0RIFw44kRMwtkx6QJp2U": {"geometry": {"location": {"lat": 42.3559219, "lng": -71.05497679999999}, "viewport": {"northeast": {"lat": 42.3595222, "lng": -71.05148729999999}, "southwest": {"lat": 42.351489, "lng": -71.0593777}}}, "icon": "https://maps.gstatic.com/mapfiles/place_api/icons/geocode-71.png", "id": "a299437eec467c3c4fb5ec448e81048caef8aacf", "name": "Financial District", "photos": [{"height": 2403, "html_attributions": ["<a href=\"https://maps.google.com/maps/contrib/115111503217500241431/photos\">Jane Wong</a>"], "photo_reference": "CmRaAAAAWxiaHVgrSuQSJM9QknIL0QFdTrXupThGv4V0J3FYu7z83c5CM-knmPD8BuICF8O_lvenzY8uiQ5RNH66jC9gH0CpqHl6JHBH5VYbdB20MxtQVYDCADTFHHPHEgdMfE30EhC_QFKA0Pit7Pa_yM78n5V2GhQu5KdrP-f5S4T-Wm6xkUebd1XMhA", "width": 3206}], "place_id": "ChIJZSO0RIFw44kRMwtkx6QJp2U", "reference": "ChIJZSO0RIFw44kRMwtkx6QJp2U", "scope": "GOOGLE", "types": ["neighborhood", "political"], "vicinity": "Boston"}}