{"ChIJGzE9DS1l44kRoOhiASS_fHg": {"geometry": {"location": {"lat": 42.3600825, "lng": -71.0588801}, "viewport": {"northeast": {"lat": 42.40081989999999, "lng": -70.749455}, "southwest": {"lat": 42.22788, "lng": -71.191113}}}, "icon": "https://maps.gstatic.com/mapfiles/place_api/icons/geocode-71.png", "id": "06755c25d2b34d13942a4713971756a55b870ced", "name": "Boston", "photos": [{"height": 3024, "html_attributions": ["<a href=\"https://maps.google.com/maps/contrib/104670289779338733432/photos\">Natalia Zalucean</a>"], "photo_reference": "CmRaAAAA3GKBzD2wUlSoRPiXFGRDxeN4of2Hk09AzY_seQsh4Jvtf3YqjPwwIzeLzGDn-gTGbgUNTwYMZBlwrrTTtF-Itm5DhaGh4xazr_N2OHExfoAp6cngW0BQnnZEXaDUzhvEEhAdfKW-MptC9b22hJuCEcLuGhQ0XakSe7gbs9ypkH9vFr3zOMcfLA", "width": 4032}], "place_id": "ChIJGzE9DS1l44kRoOhiASS_fHg", "reference": "ChIJGzE9DS1l44kRoOhiASS_fHg", "scope": "GOOGLE", "types": ["locality", "political"], "vicinity": "Boston"}, "ChIJNXY-fIJ644kRkvCieW_y56E": {"geometry": {"location": {"lat": 42.3489645, "lng": -71.0407695}, "viewport": {"northeast": {"lat": 42.3503857302915, "lng": -71.03959516970849}, "southwest": {"lat": 42.3476877697085, "lng": -71.0422931302915}}}, "icon": "https://maps.gstatic.com/mapfiles/place_api/icons/restaurant-71.png", "id": "c785d4b0ee7e66766cea64642772e3f48e15338b", "name": "Morton's The Steakhouse", "opening_hours": {"open_now": false}, "photos": [{"height": 1179, "html_attributions": ["<a href=\"https://maps.google.com/maps/contrib/115009857540637498676/photos\">Morton&#39;s The Steakhouse</a>"], "photo_reference": "CmRaAAAAw-1ytvPsmful4Lh9KT1Co4-SjP8LzxXx5kk-RJ4o-62Jo6KbeIkMIBkDiTI5YbQliM42bNma2ykCJXHouRA5dFHAhK2WpbBdUPd7YJzGyfa6DxPX6ixmK9MAOJ5QgR3fEhAD7ZA5MxKIARaYnT7xtPqQGhTS6MUyz6yimR_gb7BPb6IrQ_k-3w", "width": 1766}], "place_id": "ChIJNXY-fIJ644kRkvCieW_y56E", "plus_code": {"compound_code": "8XX5+HM Boston, Massachusetts, United States", "global_code": "87JC8XX5+HM"}, "price_level": 4, "rating": 4.5, "reference": "ChIJNXY-fIJ644kRkvCieW_y56E", "scope": "GOOGLE", "types": ["restaurant", "point_of_interest", "food", "establishment"], "user_ratings_total": 299, "vicinity": "2 Seaport Lane, Boston"}, "ChIJNXY-fIJ644kRxmRvK6AxSVA": {"geometry": {"location": {"lat": 42.3489645, "lng": -71.0407695}, "viewport": {"northeast": {"lat": 42.3503857302915, "lng": -71.03959516970849}, "southwest": {"lat": 42.3476877697085, "lng": -71.0422931302915}}}, "icon": "https://maps.gstatic.com/mapfiles/place_api/icons/shopping-71.png", "id": "4d84de7fd75dd7b62dae4826481f1817201075fd", "name": "Finesse Autos Inc.", "opening_hours": {"open_now": true}, "photos": [{"height": 404, "html_attributions": ["<a href=\"https://maps.google.com/maps/contrib/116022415011211371212/photos\">Finesse Autos Inc.</a>"], "photo_reference": "CmRaAAAAWx3fvYhtCttrkXQa-nawhfJCr2ltjd-J2Qdp2M2zGeST6GbGK0g2cQ71JBXcOy17381qJw2jo98aiJap3U8lgRjPhLadaNv8R-M0eXLttyTQnh2SaDm5lFLrjX74FCWEEhDAsDzSw3ymYiyjZS-5JGtcGhShcvc1_esa-RUc39NT6SBE9QP1Ew", "width": 365}], "place_id": "ChIJNXY-fIJ644kRxmRvK6AxSVA", "plus_code": {"compound_code": "8XX5+HM Boston, Massachusetts, United States", "global_code": "87JC8XX5+HM"}, "reference": "ChIJNXY-fIJ644kRxmRvK6AxSVA", "scope": "GOOGLE", "types": ["car_rental", "car_dealer", "store", "point_of_interest", "establishment"], "vicinity": "2 Seaport Lane, Boston"}, "ChIJpztth4J644kR6VkGzhtEt4Q": {"geometry": {"location": {"lat": 42.3489645, "lng": -71.0407695}, "viewport": {"northeast": {"lat": 42.3503857302915, "lng": -71.03959516970849}, "southwest": {"lat": 42.3476877697085, "lng": -71.0422931302915}}}, "icon": "https://maps.gstatic.com/mapfiles/place_api/icons/generic_business-71.png", "id": "fc3cae1aaf51531de79c5e3267972a4dfd71f9f2", "name": "WinBuyer", "place_id": "ChIJpztth4J644kR6VkGzhtEt4Q", "plus_code": {"compound_code": "8XX5+HM Boston, Massachusetts, United States", "global_code": "87JC8XX5+HM"}, "reference": "ChIJpztth4J644kR6VkGzhtEt4Q", "scope": "GOOGLE", "types": ["point_of_interest", "establishment"], "vicinity": "2 Seaport Lane, Boston"}, "ChIJNXY-fIJ644kRAYLC7xiCvxY": {"geometry": {"location": {"lat": 42.3489645, "lng": -71.0407695}, "viewport": {"northeast": {"lat": 42.3503857302915, "lng": -71.03959516970849}, "southwest": {"lat": 42.3476877697085, "lng": -71.0422931302915}}}, "icon": "https://maps.gstatic.com/mapfiles/place_api/icons/generic_business-71.png", "id": "ba018cff6f52a26f86ef831e5cb108e987c54bb9", "name": "Andrew R. McConville", "place_id": "ChIJNXY-fIJ644kRAYLC7xiCvxY", "plus_code": {"compound_code": "8XX5+HM Boston, Massachusetts, United States", "global_code": "87JC8XX5+HM"}, "reference": "ChIJNXY-fIJ644kRAYLC7xiCvxY", "scope": "GOOGLE", "types": ["lawyer", "point_of_interest", "establishment"], "vicinity": "2 International Pl, Boston"}, "ChIJySadXINw44kRUo7vCSnGMkI": {"geometry": {"location": {"lat": 42.3489645, "lng": -71.0407695}, "viewport": {"northeast": {"lat": 42.3503857302915, "lng": -71.03959516970849}, "southwest": {"lat": 42.3476877697085, "lng": -71.0422931302915}}}, "icon": "https://maps.gstatic.com/mapfiles/place_api/icons/generic_business-71.png", "id": "c17acb21cedf9f2381c5a66e31531501135ebadc", "name": "Proper Villains", "place_id": "ChIJySadXINw44kRUo7vCSnGMkI", "plus_code": {"compound_code": "8XX5+HM Boston, Massachusetts, United States", "global_code": "87JC8XX5+HM"}, "reference": "ChIJySadXINw44kRUo7vCSnGMkI", "scope": "GOOGLE", "types": ["point_of_interest", "establishment"], "vicinity": "2 Seaport Lane 7th floor, Boston"}, "ChIJAW8p4i9744kRhM-Cmy7yY2E": {"geometry": {"location": {"lat": 42.3489645, "lng": -71.0407695}, "viewport": {"northeast": {"lat": 42.3503857302915, "lng": -71.03959516970849}, "southwest": {"lat": 42.3476877697085, "lng": -71.0422931302915}}}, "icon": "https://maps.gstatic.com/mapfiles/place_api/icons/school-71.png", "id": "6b992500bd9bc2e426e1501e4217f304ad6a202a", "name": "U.S. News Global Education", "photos": [{"height": 372, "html_attributions": ["<a href=\"https://maps.google.com/maps/contrib/110429566626510859496/photos\">U.S. News Global Education</a>"], "photo_reference": "CmRaAAAA1SoO30XGFjvWbQnzQmqTbBkAo2Dec-LZDEuxWrrZfB6c_uZi5Wz_36xHmPMDd_sKJAk5UK6qiSEf6CPkNHGwHpHK0b1hNyakcnzDCRio7e8yRsXZWYa8oZKSUI1qFHPIEhD_DKwDEvly8SdC4Zkhs34gGhQUtOvnRDL9IPhLmaGmmudlPZkhLA", "width": 372}], "place_id": "ChIJAW8p4i9744kRhM-Cmy7yY2E", "plus_code": {"compound_code": "8XX5+HM Boston, Massachusetts, United States", "global_code": "87JC8XX5+HM"}, "rating": 5, "reference": "ChIJAW8p4i9744kRhM-Cmy7yY2E", "scope": "GOOGLE", "types": ["point_of_interest", "establishment"], "user_ratings_total": 1, "vicinity": "2 Seaport Lane #500, Boston"}, "ChIJySFSPZJ644kRQd1ylK2wP54": {"geometry": {"location": {"lat": 42.3381437, "lng": -71.0475773}, "viewport": {"northeast": {"lat": 42.3551665, "lng": -71.0091984}, "southwest": {"lat": 42.32115, "lng": -71.0652948}}}, "icon": "https://maps.gstatic.com/mapfiles/place_api/icons/geocode-71.png", "id": "56a2680fff3ada55ed539f65fc2e901a748193c6", "name": "South Boston", "photos": [{"height": 1836, "html_attributions": ["<a href=\"https://maps.google.com/maps/contrib/100381122114234243821/photos\">Gary Stephens</a>"], "photo_reference": "CmRaAAAAlIHB_lbXALrQ89FcRR7-SlTl3ftP-_-e0fXe7gguHz28nrE17zjr4yjnAAd7PIe9nJrZskwpIfoc2eP_EVLAuL1U1b0_WF7Ov74Lho3Np9_TFDtGAQst9l2nYfp_yAXGEhD5ITf2SaR4qZvR-iP3FzpGGhR1NHwfKvgTczjPKbbPAXjh5kw5wg", "width": 3264}], "place_id": "ChIJySFSPZJ644kRQd1ylK2wP54", "reference": "ChIJySFSPZJ644kRQd1ylK2wP54", "scope": "GOOGLE", "types": ["neighborhood", "political"], "vicinity": "Boston"}}