{"ChIJGzE9DS1l44kRoOhiASS_fHg": {"geometry": {"location": {"lat": 42.3600825, "lng": -71.0588801}, "viewport": {"northeast": {"lat": 42.40081989999999, "lng": -70.749455}, "southwest": {"lat": 42.22788, "lng": -71.191113}}}, "icon": "https://maps.gstatic.com/mapfiles/place_api/icons/geocode-71.png", "id": "06755c25d2b34d13942a4713971756a55b870ced", "name": "Boston", "photos": [{"height": 3024, "html_attributions": ["<a href=\"https://maps.google.com/maps/contrib/104670289779338733432/photos\">Natalia Zalucean</a>"], "photo_reference": "CmRaAAAAxHWOR86Hg7RuigtpBvCpgd3n8vSh17OH6LwELL7Ag8H197Qk3v6wNN32q_E8Oh4KoB0cXwQzFj24MMGnbC9W4NopQ-j__QPdVGGNKgaDjikatwKqa0yRbJm-1cJBHWBgEhA3RoXcOadZqBowu65ZL6SJGhSutmZ_hov1TjBNIjSH-RNvURxycw", "width": 4032}], "place_id": "ChIJGzE9DS1l44kRoOhiASS_fHg", "reference": "ChIJGzE9DS1l44kRoOhiASS_fHg", "scope": "GOOGLE", "types": ["locality", "political"], "vicinity": "Boston"}, "ChIJ5T8NOox544kRmbweHsBSxDU": {"geometry": {"location": {"lat": 42.33738719999999, "lng": -71.1049792}, "viewport": {"northeast": {"lat": 42.33886693029149, "lng": -71.1035398697085}, "southwest": {"lat": 42.33616896970849, "lng": -71.1062378302915}}}, "icon": "https://maps.gstatic.com/mapfiles/place_api/icons/generic_business-71.png", "id": "dd46f03d3d35143bafcae804172146996ca3699d", "name": "Claire McCarthy, MD", "photos": [{"height": 270, "html_attributions": ["<a href=\"https://maps.google.com/maps/contrib/102334358430476881370/photos\">Claire McCarthy, MD</a>"], "photo_reference": "CmRaAAAAEZT2xGVO9wm0yJ-BtLXoNE16miK9g_q4hXGBAsXNJ9EziMgy_Y2pZ0pKf4yOd3QRC7PUQudEiY0es718jSdYmAaHss26XdJU9QQUO4_F8Kq9cqNAXKo4CMbSyFEr7x0eEhBsX6Ze12pQdxf8cijd52onGhQX_cOQI3AWawahP5akK3W6arDL-A", "width": 480}], "place_id": "ChIJ5T8NOox544kRmbweHsBSxDU", "reference": "ChIJ5T8NOox544kRmbweHsBSxDU", "scope": "GOOGLE", "types": ["doctor", "health", "point_of_interest", "establishment"], "vicinity": "300 Longwood Avenue Boston Children's Hospital Children's Hospital Primary Care Center Boston MA 02115 US, 300 Longwood Avenue, Boston"}, "ChIJgQUvPIx544kRw0VGS-QuUUE": {"geometry": {"location": {"lat": 42.3373873, "lng": -71.10497389999999}, "viewport": {"northeast": {"lat": 42.3388662302915, "lng": -71.1035351697085}, "southwest": {"lat": 42.3361682697085, "lng": -71.1062331302915}}}, "icon": "https://maps.gstatic.com/mapfiles/place_api/icons/generic_business-71.png", "id": "5a8626e022c7985feb6e4510b618baf1375149e5", "name": "Muhammad Bakr Ghbeis, MD", "photos": [{"height": 270, "html_attributions": ["<a href=\"https://maps.google.com/maps/contrib/104036066813237420009/photos\">Muhammad Bakr Ghbeis, MD</a>"], "photo_reference": "CmRaAAAAxS5lWMMEzFAdniWdRntoR3iT9ZVAM0AejgEdjzcDTbGBp4swjeFCvdNhpCXwkxKMqBjKdXavd9gZTMcdOtEScl3LWFivlrMnvatF7lsVui4qFwE68afe547l2mc7unWkEhDsAIlgrz5m-63RUO-h1AT1GhRm_vSAj1tMdEEROhhwyu0uksCLcQ", "width": 480}], "place_id": "ChIJgQUvPIx544kRw0VGS-QuUUE", "reference": "ChIJgQUvPIx544kRw0VGS-QuUUE", "scope": "GOOGLE", "types": ["doctor", "health", "point_of_interest", "establishment"], "vicinity": "300 Longwood Avenue Boston Children's Hospital Department of Cardiology, Boston"}, "ChIJgQUvPIx544kR21a28KUPMiQ": {"geometry": {"location": {"lat": 42.3373928, "lng": -71.10496499999999}, "viewport": {"northeast": {"lat": 42.3388681802915, "lng": -71.1035286697085}, "southwest": {"lat": 42.3361702197085, "lng": -71.1062266302915}}}, "icon": "https://maps.gstatic.com/mapfiles/place_api/icons/generic_business-71.png", "id": "909766cab8a7a6ba52589327d2a8af1048c85da0", "name": "Pediatric Neuromotor Therapy Program", "photos": [{"height": 270, "html_attributions": ["<a href=\"https://maps.google.com/maps/contrib/109320347043376272939/photos\">Pediatric Neuromotor Therapy Program</a>"], "photo_reference": "CmRaAAAA0DVRm-AxkIIW4qwWTx1pnPjdS-NzR-HH_S5qJ3YIaPsWkQy7hyo1Z655iaL57XXHuSVV2HZ5kOp-hLa0p2bkD9cDlXRxptEdWwBSPhV9Xye5WrQzYUr-RbcRiFUviVOCEhDJNaPc-gSykWPw6CjosQbXGhT_5T29hG2EI_meSd9wU9w6BL7uRQ", "width": 480}], "place_id": "ChIJgQUvPIx544kR21a28KUPMiQ", "reference": "ChIJgQUvPIx544kR21a28KUPMiQ", "scope": "GOOGLE", "types": ["doctor", "health", "point_of_interest", "establishment"], "vicinity": "Children's Hospital, 300 Longwood Avenue, Boston"}, "ChIJAfp8Lh5644kR9PDAZN8nEK8": {"geometry": {"location": {"lat": 42.3428653, "lng": -71.1002881}, "viewport": {"northeast": {"lat": 42.3522779, "lng": -71.0818948}, "southwest": {"lat": 42.332897, "lng": -71.11159599999999}}}, "icon": "https://maps.gstatic.com/mapfiles/place_api/icons/geocode-71.png", "id": "4ca9d423ad416930d3a49da3f2de6540df27b390", "name": "Fenway/Kenmore", "photos": [{"height": 1536, "html_attributions": ["<a href=\"https://maps.google.com/maps/contrib/108749372735406640710/photos\">Joshua Arkin</a>"], "photo_reference": "CmRaAAAAfw7L2mBP5-o9ZN-IpPjBT9eYUeejZ--FAYOIKMC6uNVq_bhWbVKTBHMkRwNEtnDhl6fPxzmqKCMCFOzceNDB28kExi29adiq8ugeZjoXBjRsBLurdQaxGn6KWJ95rirPEhAi3KcB9BqAHHLFHB3QY61pGhT07Gf-dSYim0IVToX7JvUnZcTa0A", "width": 2048}], "place_id": "ChIJAfp8Lh5644kR9PDAZN8nEK8", "reference": "ChIJAfp8Lh5644kR9PDAZN8nEK8", "scope": "GOOGLE", "types": ["neighborhood", "political"], "vicinity": "Boston"}}