{"ChIJA-2qKIt9hYARZ5N1NdUVtHE": {"geometry": {"location": {"lat": 37.8043637, "lng": -122.2711137}, "viewport": {"northeast": {"lat": 37.88472489999999, "lng": -122.114775}, "southwest": {"lat": 37.6322259, "lng": -122.355881}}}, "icon": "https://maps.gstatic.com/mapfiles/place_api/icons/geocode-71.png", "id": "da4a4da21e013f9d3a24e8eee6d4f84de02148d3", "name": "Oakland", "photos": [{"height": 2848, "html_attributions": ["<a href=\"https://maps.google.com/maps/contrib/113300206259949994494/photos\">Cimino Alberto</a>"], "photo_reference": "CmRaAAAATkk4niJ_93YGgTdTIh91K9e337KlnzeH0OfmpRtfQu_K1q2avNOMW_Nh0ne5rUbQKhnLqd4SxYp3oJcvEe_PYocSsTWRlDNJBPRut7nHwY9HV-OJHX0l-NGH6M2_DQL0EhBJn-6ozsLzqWTPc6eLxVP-GhTrBC6M1nHsD-XwKushAPSZnYmAgQ", "width": 4256}], "place_id": "ChIJA-2qKIt9hYARZ5N1NdUVtHE", "reference": "ChIJA-2qKIt9hYARZ5N1NdUVtHE", "scope": "GOOGLE", "types": ["locality", "political"], "vicinity": "Oakland"}, "ChIJJdID72Z-hYARKNbsbjBcnBc": {"geometry": {"location": {"lat": 37.8452517, "lng": -122.2843616}, "viewport": {"northeast": {"lat": 37.8466047302915, "lng": -122.2829921697085}, "southwest": {"lat": 37.8439067697085, "lng": -122.2856901302915}}}, "icon": "https://maps.gstatic.com/mapfiles/place_api/icons/school-71.png", "id": "333a8108d7377ac139ecc9a35332d2438fa1c653", "name": "Aspire Berkeley Maynard Academy", "photos": [{"height": 480, "html_attributions": ["<a href=\"https://maps.google.com/maps/contrib/105201440276811736627/photos\">Anthony Anekwe</a>"], "photo_reference": "CmRaAAAA6sl7bA3kKr3JeYkGB46EG5JLKcl3XXlxaaM0_zZ2aJ8E3tKq7L4uRMRc0N_jzEmLyimQgD2Ju9PYnMzQQtdHYXa18kDFzOFFkUYPpTfX69NcbY0zKCbqyXUrqkYrZ8ICEhDTpbU2cRc5iKSvYbhuUM4sGhSWcMuHGwVTMDzhhlM-FaEHL3hZYg", "width": 640}], "place_id": "ChIJJdID72Z-hYARKNbsbjBcnBc", "plus_code": {"compound_code": "RPW8+47 Oakland, California, United States", "global_code": "849VRPW8+47"}, "rating": 4.6, "reference": "ChIJJdID72Z-hYARKNbsbjBcnBc", "scope": "GOOGLE", "types": ["point_of_interest", "school", "establishment"], "vicinity": "6200 San Pablo Avenue, Oakland"}, "ChIJXy9i1WB-hYAR-adBQVs2A6s": {"geometry": {"location": {"lat": 37.8467394, "lng": -122.2852601}, "viewport": {"northeast": {"lat": 37.84812873029149, "lng": -122.2837924197085}, "southwest": {"lat": 37.84543076970849, "lng": -122.2864903802915}}}, "icon": "https://maps.gstatic.com/mapfiles/place_api/icons/worship_general-71.png", "id": "b4cd3ad75facb9de40ab64737d7a5808d2888477", "name": "St. Columba Catholic Church", "photos": [{"height": 1152, "html_attributions": ["<a href=\"https://maps.google.com/maps/contrib/108178947336412932117/photos\">chuks azuh</a>"], "photo_reference": "CmRaAAAAYIPsmJiofKaoVBiTKTPq81KV1vh6V_AKvwvPFqNOCmST5aq9MfEw9qm_zuvnY15r70qNSPhSSE19qApncppyZALaA7dBEmVpQoas3qfSVqOj0KxUSUuMwQsXL0TUlpfoEhC7yun-4u7EbAC97tRwZglzGhSQsUgL9t2T5CGDaSVTe6gZ6UhWxg", "width": 2048}], "place_id": "ChIJXy9i1WB-hYAR-adBQVs2A6s", "plus_code": {"compound_code": "RPW7+MV Oakland, California, United States", "global_code": "849VRPW7+MV"}, "rating": 4.5, "reference": "ChIJXy9i1WB-hYAR-adBQVs2A6s", "scope": "GOOGLE", "types": ["church", "place_of_worship", "point_of_interest", "establishment"], "vicinity": "6401 San Pablo Avenue, Oakland"}, "ChIJdz-SzWZ-hYARxumafUavoUs": {"geometry": {"location": {"lat": 37.8466211, "lng": -122.2846236}, "viewport": {"northeast": {"lat": 37.8479502302915, "lng": -122.2833717197085}, "southwest": {"lat": 37.8452522697085, "lng": -122.2860696802915}}}, "icon": "https://maps.gstatic.com/mapfiles/place_api/icons/restaurant-71.png", "id": "22b347ad380bb54e0031af579ee907163fc7992d", "name": "James & the Giant Cupcake", "opening_hours": {"open_now": false}, "photos": [{"height": 3024, "html_attributions": ["<a href=\"https://maps.google.com/maps/contrib/111574532729357790876/photos\">Andrew Chang</a>"], "photo_reference": "CmRaAAAAwEZJb0iY_yymoeVncA8WSfhJSy_8m-swGOc_OEuZIt0k4Gk9Bihtra600I7NhDDR1tiDQ7ukpEvM0hkLkh3vtR6NmF5CePvfDS1QpVc9F_uZzIhVx-kLXmcHpGs5OnwPEhB1GKRuuMEp1lu2P-uRTDKZGhTfbqvcwXUsyj1FIal5vNWAL4ms7w", "width": 4032}], "place_id": "ChIJdz-SzWZ-hYARxumafUavoUs", "rating": 4.5, "reference": "ChIJdz-SzWZ-hYARxumafUavoUs", "scope": "GOOGLE", "types": ["bakery", "store", "point_of_interest", "food", "establishment"], "vicinity": "6326 San Pablo Avenue, Oakland"}, "ChIJT--At2B-hYAROuk6cZtUYpI": {"geometry": {"location": {"lat": 37.846595, "lng": -122.286459}, "viewport": {"northeast": {"lat": 37.8480566302915, "lng": -122.2851603697085}, "southwest": {"lat": 37.8453586697085, "lng": -122.2878583302915}}}, "icon": "https://maps.gstatic.com/mapfiles/place_api/icons/generic_business-71.png", "id": "0d9f5b9f93b77b1a67c7fb7e5dafc1af51dde27b", "name": "GRID Alternatives", "opening_hours": {"open_now": false}, "photos": [{"height": 3120, "html_attributions": ["<a href=\"https://maps.google.com/maps/contrib/109125250031175566185/photos\">Allen Williams</a>"], "photo_reference": "CmRZAAAAXv4egpFc338Q3K0QOoxjJUSK9evQiVagnHOAMg8xecJe-gGAukvU3Jf_9HnecQ2Ye_t4pTEMPd20zbVJHjqO9JLs74T-cYmqDNHceYtLZjcN0Olkct0rSGrNRbAwWc5BEhDb9MQASZ4yn54nlOnw4f1GGhTWp0Xc29K-gjt-bXNKGpAxIpB8nA", "width": 3120}], "place_id": "ChIJT--At2B-hYAROuk6cZtUYpI", "plus_code": {"compound_code": "RPW7+JC Oakland, California, United States", "global_code": "849VRPW7+JC"}, "rating": 4.4, "reference": "ChIJT--At2B-hYAROuk6cZtUYpI", "scope": "GOOGLE", "types": ["point_of_interest", "establishment"], "vicinity": "1171 Ocean Avenue #200, Oakland"}, "ChIJYUFytfN-hYARZHNvIZL1Ul8": {"geometry": {"location": {"lat": 37.8467367, "lng": -122.2846648}, "viewport": {"northeast": {"lat": 37.8480535302915, "lng": -122.2834077197085}, "southwest": {"lat": 37.8453555697085, "lng": -122.2861056802915}}}, "icon": "https://maps.gstatic.com/mapfiles/place_api/icons/shopping-71.png", "id": "72db18004838132b936a04e6e206993d9a24fdab", "name": "A Verb for Keeping Warm", "opening_hours": {"open_now": false}, "photos": [{"height": 2340, "html_attributions": ["<a href=\"https://maps.google.com/maps/contrib/111160564083103665222/photos\">Emmalee Carroll</a>"], "photo_reference": "CmRaAAAAlwaP_2kAJSw1eM2W7JH0V4bfQJYU9tSwaXtEYYWWjl-wc1_eTgjjHZMMyMQNaRrg-7q1NRzbRy10etw2QZ1d0leAH5VIyMR-vqjuSphamDntux7ey90N7p769vs4FlrCEhCiv9rtkJWG9txpDFHcuJsSGhTqK14LirnwfQCWEeZ8wyTHz5c6Jw", "width": 4160}], "place_id": "ChIJYUFytfN-hYARZHNvIZL1Ul8", "plus_code": {"compound_code": "RPW8+M4 Oakland, California, United States", "global_code": "849VRPW8+M4"}, "rating": 4.9, "reference": "ChIJYUFytfN-hYARZHNvIZL1Ul8", "scope": "GOOGLE", "types": ["store", "point_of_interest", "establishment"], "vicinity": "6328 San Pablo Avenue, Oakland"}, "ChIJXYcM3WZ-hYARXaVeI8ycSDc": {"geometry": {"location": {"lat": 37.8458563, "lng": -122.284859}, "viewport": {"northeast": {"lat": 37.84721913029149, "lng": -122.2834416697085}, "southwest": {"lat": 37.84452116970849, "lng": -122.2861396302915}}}, "icon": "https://maps.gstatic.com/mapfiles/place_api/icons/generic_business-71.png", "id": "015e94046d5b938121348e02592205cea7a9f28e", "name": "San Pablo Smog Test Only Center", "opening_hours": {"open_now": false}, "photos": [{"height": 2448, "html_attributions": ["<a href=\"https://maps.google.com/maps/contrib/116861227350020379655/photos\">Daniel Haaf</a>"], "photo_reference": "CmRaAAAAedjYtGNIN3UqODMMqs1kyflr1gRhtEq7H06jc6KDN-yoE-40-hQ0Nzk2Vmg_lqIBe8hCwO-43dvyubWU2UsWzCwly_H1ZOgunpB-yDV-ClVM_4Y_Vxrh2xyGJ1R9mY8EEhCHg4oCUhD-1bE9KKheg-9NGhTkqdMYZEZCgjQrb2HQYCJ43Fxf2A", "width": 3264}], "place_id": "ChIJXYcM3WZ-hYARXaVeI8ycSDc", "plus_code": {"compound_code": "RPW8+83 Oakland, California, United States", "global_code": "849VRPW8+83"}, "rating": 4.4, "reference": "ChIJXYcM3WZ-hYARXaVeI8ycSDc", "scope": "GOOGLE", "types": ["car_repair", "point_of_interest", "establishment"], "vicinity": "6305 San Pablo Avenue, Oakland"}, "ChIJBTah5mZ-hYARVn9pwn4NIAs": {"geometry": {"location": {"lat": 37.845288, "lng": -122.2846404}, "viewport": {"northeast": {"lat": 37.8466474302915, "lng": -122.2832393197085}, "southwest": {"lat": 37.84394946970851, "lng": -122.2859372802915}}}, "icon": "https://maps.gstatic.com/mapfiles/place_api/icons/generic_business-71.png", "id": "d3c78fbb22e839817b0afbcc154728ef0566f7fe", "name": "Credit Coach Inc", "place_id": "ChIJBTah5mZ-hYARVn9pwn4NIAs", "plus_code": {"compound_code": "RPW8+44 Oakland, California, United States", "global_code": "849VRPW8+44"}, "reference": "ChIJBTah5mZ-hYARVn9pwn4NIAs", "scope": "GOOGLE", "types": ["finance", "point_of_interest", "establishment"], "vicinity": "6231 San Pablo Avenue, Emeryville"}, "ChIJlXNlKWd-hYAROCUlL-4lzE4": {"geometry": {"location": {"lat": 37.8462189, "lng": -122.2854683}, "viewport": {"northeast": {"lat": 37.84761833029149, "lng": -122.2841423697085}, "southwest": {"lat": 37.84492036970849, "lng": -122.2868403302915}}}, "icon": "https://maps.gstatic.com/mapfiles/place_api/icons/cafe-71.png", "id": "53689f89041fcc3ab6d19fda96eb6f91c9d77659", "name": "\"Place\"", "place_id": "ChIJlXNlKWd-hYAROCUlL-4lzE4", "plus_code": {"compound_code": "RPW7+FR Oakland, California, United States", "global_code": "849VRPW7+FR"}, "reference": "ChIJlXNlKWd-hYAROCUlL-4lzE4", "scope": "GOOGLE", "types": ["cafe", "point_of_interest", "food", "establishment"], "vicinity": "1121 64th Street, Oakland"}, "ChIJ94NcKWd-hYARbElr0bsmnAM": {"geometry": {"location": {"lat": 37.8462171, "lng": -122.2855292}, "viewport": {"northeast": {"lat": 37.84760968029151, "lng": -122.2842001197085}, "southwest": {"lat": 37.84491171970851, "lng": -122.2868980802915}}}, "icon": "https://maps.gstatic.com/mapfiles/place_api/icons/generic_business-71.png", "id": "2d0ab110aa72e43bb703790305cd7c82227017a9", "name": "PLACE for Sustainable Living and Makerspace", "photos": [{"height": 3024, "html_attributions": ["<a href=\"https://maps.google.com/maps/contrib/110551861573256313018/photos\">Elaheh Ehsani</a>"], "photo_reference": "CmRaAAAA6qnhhHp-bu7P-jIOIfVJEU5YW4pgd2BEtt3_SVMyfCbtqd5eFTs3pRO_bMXiNWpEUOO7it43vK__VgLh0hopDY6mv-97bpOnh2hWd67cE9Yi_X9xpPsjRJKdvFr0kyBbEhAW9U8thrEDMf8E7itcoNy4GhSc1WPuaVSFXMRoS5qalJrHWG3hsw", "width": 4032}], "place_id": "ChIJ94NcKWd-hYARbElr0bsmnAM", "plus_code": {"compound_code": "RPW7+FQ Oakland, California, United States", "global_code": "849VRPW7+FQ"}, "rating": 4.3, "reference": "ChIJ94NcKWd-hYARbElr0bsmnAM", "scope": "GOOGLE", "types": ["point_of_interest", "establishment"], "vicinity": "1121 64th Street, Oakland"}, "ChIJPRkvKGd-hYARghB4yfEX4vM": {"geometry": {"location": {"lat": 37.8461965, "lng": -122.2849443}, "viewport": {"northeast": {"lat": 37.8475568302915, "lng": -122.2835384697085}, "southwest": {"lat": 37.8448588697085, "lng": -122.2862364302915}}}, "icon": "https://maps.gstatic.com/mapfiles/place_api/icons/generic_business-71.png", "id": "6772dfd18da904da90ddaf54c7fd10e5367145b5", "name": "Rock The Bike", "opening_hours": {"open_now": false}, "photos": [{"height": 4048, "html_attributions": ["<a href=\"https://maps.google.com/maps/contrib/114746475596600498774/photos\">Matt Sidor</a>"], "photo_reference": "CmRaAAAAsjpZnjAh7PABOjVQfGp3kUOGoB0Pha3kOuuH3y2FKLlaoC8b6babbp3HFkvSs-85uqibvCwTXCMWnN5rqKuheFGtbNXQ0Mk63NGAX63ekOJPhxJ3OQENzz_jXflrx5k8EhAWwHgsGxRnyEo0SZp1cH1UGhTEMfqq78pRDp5X0ZBbCPo-SifhSA", "width": 3036}], "place_id": "ChIJPRkvKGd-hYARghB4yfEX4vM", "plus_code": {"compound_code": "RPW8+F2 Oakland, California, United States", "global_code": "849VRPW8+F2"}, "rating": 5, "reference": "ChIJPRkvKGd-hYARghB4yfEX4vM", "scope": "GOOGLE", "types": ["point_of_interest", "establishment"], "vicinity": "6323 San Pablo Avenue, Oakland"}, "ChIJ4cwmzmZ-hYARktnyTzZ0tTE": {"geometry": {"location": {"lat": 37.84645099999999, "lng": -122.284514}, "viewport": {"northeast": {"lat": 37.84777503029149, "lng": -122.2832873697085}, "southwest": {"lat": 37.84507706970849, "lng": -122.2859853302915}}}, "icon": "https://maps.gstatic.com/mapfiles/place_api/icons/shopping-71.png", "id": "1400ed41e03124ba751759e36fbb995befdec5bc", "name": "Codacraft", "photos": [{"height": 2268, "html_attributions": ["<a href=\"https://maps.google.com/maps/contrib/110765016947635841252/photos\">Chris Gonsalves</a>"], "photo_reference": "CmRZAAAAfctLIf73xo9aI-johG7rjux_5_L18SSi8Yqr6N7HQmDYWfIeGRF7gX7BMDfZPlpn6GZNpr4rjvNE1SO4Lk7ST-MwkjOn6u_8agUdka3DQh5wOU9LVwnTD3HBWLbIcr-PEhAosM2OXYOMprEzHAfIzwa9GhRbAOyJmLNXqestku0MUYdezG9vnA", "width": 4032}], "place_id": "ChIJ4cwmzmZ-hYARktnyTzZ0tTE", "plus_code": {"compound_code": "RPW8+H5 Oakland, California, United States", "global_code": "849VRPW8+H5"}, "rating": 5, "reference": "ChIJ4cwmzmZ-hYARktnyTzZ0tTE", "scope": "GOOGLE", "types": ["jewelry_store", "store", "point_of_interest", "establishment"], "vicinity": "6316 San Pablo Avenue, Oakland"}, "ChIJRZY6LWF-hYARKlhywnw5qVA": {"geometry": {"location": {"lat": 37.8468392, "lng": -122.2846555}, "viewport": {"northeast": {"lat": 37.84816453029149, "lng": -122.2834222197085}, "southwest": {"lat": 37.8454665697085, "lng": -122.2861201802915}}}, "icon": "https://maps.gstatic.com/mapfiles/place_api/icons/restaurant-71.png", "id": "07a04e9714a2119c70d5df3caffe7680cb5fe05b", "name": "Paradise Park Cafe", "opening_hours": {"open_now": true}, "photos": [{"height": 4032, "html_attributions": ["<a href=\"https://maps.google.com/maps/contrib/107721404123505875377/photos\">Albert L.</a>"], "photo_reference": "CmRaAAAAzDtJVY829Z2tFcA44uXGAqC3Fq_4fo-aRzpl8Eg9Xn5EMLiTlmuANWP4ot-Q7Lrx31WXhYTbPmZYyepzqow6bOqzf9GE2oHY6rCa3MVSYf6Y2foKVDEALwWqRWpTvZRrEhCQXdMPCbEOkFOX8dKliH-7GhSWXdy9j5r0TgsxL8_FijgOsS_9qA", "width": 3024}], "place_id": "ChIJRZY6LWF-hYARKlhywnw5qVA", "plus_code": {"compound_code": "RPW8+P4 Oakland, California, United States", "global_code": "849VRPW8+P4"}, "price_level": 2, "rating": 4.5, "reference": "ChIJRZY6LWF-hYARKlhywnw5qVA", "scope": "GOOGLE", "types": ["cafe", "store", "restaurant", "point_of_interest", "food", "establishment"], "vicinity": "6334 San Pablo Avenue, Oakland"}, "ChIJE6ULL2F-hYARAqkHR0YykjI": {"geometry": {"location": {"lat": 37.847289, "lng": -122.28472}, "viewport": {"northeast": {"lat": 37.8486069302915, "lng": -122.2835250697085}, "southwest": {"lat": 37.8459089697085, "lng": -122.2862230302915}}}, "icon": "https://maps.gstatic.com/mapfiles/place_api/icons/generic_business-71.png", "id": "cd2d043213ea874b8f257b8b6b3e74cbf58ba2d2", "name": "Sister Thea Bowman Manor", "place_id": "ChIJE6ULL2F-hYARAqkHR0YykjI", "plus_code": {"compound_code": "RPW8+W4 Oakland, California, United States", "global_code": "849VRPW8+W4"}, "rating": 5, "reference": "ChIJE6ULL2F-hYARAqkHR0YykjI", "scope": "GOOGLE", "types": ["point_of_interest", "establishment"], "vicinity": "6400 San Pablo Avenue, Emeryville"}, "ChIJy72CumB-hYARp6Avgl4X4FU": {"geometry": {"location": {"lat": 37.8463879, "lng": -122.2870316}, "viewport": {"northeast": {"lat": 37.8478706802915, "lng": -122.2857424197085}, "southwest": {"lat": 37.8451727197085, "lng": -122.2884403802915}}}, "icon": "https://maps.gstatic.com/mapfiles/place_api/icons/generic_business-71.png", "id": "2a38a866c9079909c0e65b436576fddcc2141ed9", "name": "David Benaroya Helfant & Associates", "place_id": "ChIJy72CumB-hYARp6Avgl4X4FU", "plus_code": {"compound_code": "RPW7+H5 Oakland, California, United States", "global_code": "849VRPW7+H5"}, "reference": "ChIJy72CumB-hYARp6Avgl4X4FU", "scope": "GOOGLE", "types": ["point_of_interest", "establishment"], "vicinity": "1187 Ocean Avenue, Emeryville"}, "ChIJl1vZ22Z-hYARtYhYa3hUn14": {"geometry": {"location": {"lat": 37.845852, "lng": -122.284998}, "viewport": {"northeast": {"lat": 37.8472282302915, "lng": -122.2835148197085}, "southwest": {"lat": 37.84453026970851, "lng": -122.2862127802915}}}, "icon": "https://maps.gstatic.com/mapfiles/place_api/icons/generic_business-71.png", "id": "0a71f571e3a3ff1027b8b637ca141d39f9a1806c", "name": "Pro Lube", "opening_hours": {"open_now": false}, "photos": [{"height": 4032, "html_attributions": ["<a href=\"https://maps.google.com/maps/contrib/106516257808915201412/photos\">Tyler Van Arsdale</a>"], "photo_reference": "CmRaAAAASDk59PjYFoeN7xbtegSgb0Nnl9PzjqvooCzK3XehH2YamKppIj18bo6JqLU6aAM7PA-sAstsBmKyxU7rnwrprd20KogdXZPCq11vJmtR05Y_w8payARCHdY2sHa-wuVvEhAe0ckzNxXgk5dcxd4Nj781GhSNpO4Z_Cx4e3UohSLwvRQo2XncDQ", "width": 3024}], "place_id": "ChIJl1vZ22Z-hYARtYhYa3hUn14", "plus_code": {"compound_code": "RPW8+82 Oakland, California, United States", "global_code": "849VRPW8+82"}, "rating": 4.6, "reference": "ChIJl1vZ22Z-hYARtYhYa3hUn14", "scope": "GOOGLE", "types": ["car_repair", "point_of_interest", "establishment"], "vicinity": "6301 San Pablo Avenue, Emeryville"}, "ChIJrXl_umB-hYAR-9GFFkOHJb4": {"geometry": {"location": {"lat": 37.8466788, "lng": -122.287011}, "viewport": {"northeast": {"lat": 37.8480120802915, "lng": -122.2856550197085}, "southwest": {"lat": 37.8453141197085, "lng": -122.2883529802915}}}, "icon": "https://maps.gstatic.com/mapfiles/place_api/icons/generic_business-71.png", "id": "4f8135303a475f66bd92628851767878ebcf7d14", "name": "Bay Area Structural, Inc.", "place_id": "ChIJrXl_umB-hYAR-9GFFkOHJb4", "plus_code": {"compound_code": "RPW7+M5 Oakland, California, United States", "global_code": "849VRPW7+M5"}, "reference": "ChIJrXl_umB-hYAR-9GFFkOHJb4", "scope": "GOOGLE", "types": ["point_of_interest", "establishment"], "vicinity": "1185 Ocean Avenue, Emeryville"}, "ChIJy72CumB-hYAR2c-CLcYDoiE": {"geometry": {"location": {"lat": 37.8465576, "lng": -122.2871005}, "viewport": {"northeast": {"lat": 37.84795638029149, "lng": -122.2857737697085}, "southwest": {"lat": 37.8452584197085, "lng": -122.2884717302915}}}, "icon": "https://maps.gstatic.com/mapfiles/place_api/icons/generic_business-71.png", "id": "db9d7ebd55dab1735dd30bf5ad432426ef66cf9b", "name": "SEISCO Engineering & Environmental Design Associates, Inc", "opening_hours": {"open_now": false}, "photos": [{"height": 329, "html_attributions": ["<a href=\"https://maps.google.com/maps/contrib/101634607017600209360/photos\">SEISCO Engineering &amp; Environmental Design Associates, Inc</a>"], "photo_reference": "CmRaAAAAWRrhMAjWA4hCsdBGOs8MnMFAsfIWZDELzVrpC55shxpZXGSyXoBJvKG4IwKELyuvIj_QsanA4lNibrVf28l0sxsaCLXzE9AoAhkGkwrEhZLtWPx-xoCni5udB1PlPOr0EhCSul_jDSjQZLiMXtMgMTdOGhSMzFQeVeZQIZ5KM4l3HQsbMKBY6Q", "width": 469}], "place_id": "ChIJy72CumB-hYAR2c-CLcYDoiE", "plus_code": {"compound_code": "RPW7+J5 Oakland, California, United States", "global_code": "849VRPW7+J5"}, "reference": "ChIJy72CumB-hYAR2c-CLcYDoiE", "scope": "GOOGLE", "types": ["general_contractor", "point_of_interest", "establishment"], "vicinity": "1187 Ocean Avenue, Emeryville"}, "ChIJQ3IAMWF-hYARqI86cUlv8dM": {"geometry": {"location": {"lat": 37.8472405, "lng": -122.2843071}, "viewport": {"northeast": {"lat": 37.84848703029149, "lng": -122.2829362697085}, "southwest": {"lat": 37.8457890697085, "lng": -122.2856342302915}}}, "icon": "https://maps.gstatic.com/mapfiles/place_api/icons/generic_business-71.png", "id": "6a8ebaee6388194ae50d8519a53f510698920278", "name": "Percy Abrams Jr. Senior Housing", "place_id": "ChIJQ3IAMWF-hYARqI86cUlv8dM", "plus_code": {"compound_code": "RPW8+V7 Oakland, California, United States", "global_code": "849VRPW8+V7"}, "rating": 5, "reference": "ChIJQ3IAMWF-hYARqI86cUlv8dM", "scope": "GOOGLE", "types": ["point_of_interest", "establishment"], "vicinity": "1094 Alcatraz Avenue, Oakland"}, "ChIJQWhsqGd-hYARBU-YWYfJyHg": {"geometry": {"location": {"lat": 37.8434259, "lng": -122.2859462}, "viewport": {"northeast": {"lat": 37.8506259, "lng": -122.282343}, "southwest": {"lat": 37.83682599999999, "lng": -122.2893799}}}, "icon": "https://maps.gstatic.com/mapfiles/place_api/icons/geocode-71.png", "id": "b4d4e3f3542ccc4422f27ca3724d716b641eab26", "name": "Golden Gate", "place_id": "ChIJQWhsqGd-hYARBU-YWYfJyHg", "reference": "ChIJQWhsqGd-hYARBU-YWYfJyHg", "scope": "GOOGLE", "types": ["neighborhood", "political"], "vicinity": "Oakland"}, "ChIJnwZ1x2B-hYARBx4TTG-6nFM": {"geometry": {"location": {"lat": 37.8469632, "lng": -122.2865761}, "viewport": {"northeast": {"lat": 37.8482465802915, "lng": -122.2851978197085}, "southwest": {"lat": 37.8455486197085, "lng": -122.2878957802915}}}, "icon": "https://maps.gstatic.com/mapfiles/place_api/icons/school-71.png", "id": "4dda35727e03b541b1189b18d639e29520ba2ed5", "name": "Ms. Gloria's", "place_id": "ChIJnwZ1x2B-hYARBx4TTG-6nFM", "plus_code": {"compound_code": "RPW7+Q9 Oakland, California, United States", "global_code": "849VRPW7+Q9"}, "reference": "ChIJnwZ1x2B-hYARBx4TTG-6nFM", "scope": "GOOGLE", "types": ["point_of_interest", "establishment"], "vicinity": "1164 Ocean Avenue, Oakland"}, "ChIJAQCQ12Z-hYARuFd_n9sS_F0": {"geometry": {"location": {"lat": 37.8461031, "lng": -122.2851045}, "viewport": {"northeast": {"lat": 37.84748133029149, "lng": -122.2836093197085}, "southwest": {"lat": 37.84478336970849, "lng": -122.2863072802915}}}, "icon": "https://maps.gstatic.com/mapfiles/place_api/icons/shopping-71.png", "id": "ea8dd709cff2dd5e4a67099176ce30d6b5c1ee6b", "name": "Soul Graffiti Productions", "photos": [{"height": 3036, "html_attributions": ["<a href=\"https://maps.google.com/maps/contrib/113255991228375758381/photos\">jesse weber</a>"], "photo_reference": "CmRaAAAAILiIF78wIaTccg3uvS4x51g9nfYRrf-sbCXKtrmZ0g8EkyaNB9aQZ03pDwKczyx2Ad_uPtxi6Ks3hZEEqNNkunVNARycIhhddip8GFX_1oWqzjQjA5hZjUZiR0OO1SLlEhA71tmH_XXX4cYVAV2ABcuHGhQATak4psFBDqZCDn88EAtKlbVFFQ", "width": 4048}], "place_id": "ChIJAQCQ12Z-hYARuFd_n9sS_F0", "plus_code": {"compound_code": "RPW7+CX Oakland, California, United States", "global_code": "849VRPW7+CX"}, "rating": 5, "reference": "ChIJAQCQ12Z-hYARuFd_n9sS_F0", "scope": "GOOGLE", "types": ["electronics_store", "home_goods_store", "store", "point_of_interest", "establishment"], "vicinity": "6323 San Pablo Avenue, Oakland"}, "ChIJIWCj2GZ-hYARdw42M9l5gsg": {"geometry": {"location": {"lat": 37.845795, "lng": -122.285199}, "viewport": {"northeast": {"lat": 37.84700838029149, "lng": -122.2837878197085}, "southwest": {"lat": 37.8443104197085, "lng": -122.2864857802915}}}, "icon": "https://maps.gstatic.com/mapfiles/place_api/icons/worship_general-71.png", "id": "e92aca3d4c9a92b0933ba78870b906296c1ebf56", "name": "St Paul Primative Baptist Church", "place_id": "ChIJIWCj2GZ-hYARdw42M9l5gsg", "plus_code": {"compound_code": "RPW7+8W Oakland, California, United States", "global_code": "849VRPW7+8W"}, "reference": "ChIJIWCj2GZ-hYARdw42M9l5gsg", "scope": "GOOGLE", "types": ["church", "place_of_worship", "point_of_interest", "establishment"], "vicinity": "1124 63rd Street, Emeryville"}, "ChIJnQya1mZ-hYARSWNyHWlu4Ho": {"geometry": {"location": {"lat": 37.8462149, "lng": -122.2851317}, "viewport": {"northeast": {"lat": 37.8475923302915, "lng": -122.2836405697085}, "southwest": {"lat": 37.84489436970851, "lng": -122.2863385302915}}}, "icon": "https://maps.gstatic.com/mapfiles/place_api/icons/generic_business-71.png", "id": "b4f4f8175c11094e6fc8a2246f59fac42b441d5b", "name": "Yao's Auto", "opening_hours": {"open_now": false}, "photos": [{"height": 3024, "html_attributions": ["<a href=\"https://maps.google.com/maps/contrib/113239938205892328511/photos\">JS 2K</a>"], "photo_reference": "CmRaAAAArFtfGhBQTBGXyby4gVADxKjl8oDjHgQNpc3ojmgyQnpgvmI6LG2oN8KrAzc1NoVgg46wDsdSqzCxPl9Mdv01RekJbSlCf1P61W1zS4cEzvGJOzQWbDUGEohARLg7LI6wEhBpLglUCellbb8avJyM9rOGGhSw_TgebKjZuZmKTTvS-gokdXbumQ", "width": 4032}], "place_id": "ChIJnQya1mZ-hYARSWNyHWlu4Ho", "plus_code": {"compound_code": "RPW7+FW Oakland, California, United States", "global_code": "849VRPW7+FW"}, "rating": 4.5, "reference": "ChIJnQya1mZ-hYARSWNyHWlu4Ho", "scope": "GOOGLE", "types": ["car_repair", "point_of_interest", "establishment"], "vicinity": "6335 San Pablo Avenue, Emeryville"}, "ChIJ-Uz92WZ-hYARc4plKJTy2n4": {"geometry": {"location": {"lat": 37.8461173, "lng": -122.2849266}, "viewport": {"northeast": {"lat": 37.84746628029149, "lng": -122.2835776197085}, "southwest": {"lat": 37.84476831970849, "lng": -122.2862755802915}}}, "icon": "https://maps.gstatic.com/mapfiles/place_api/icons/generic_business-71.png", "id": "d2b45b62c4e7b95b080a4d57f1dc308e9bb4e459", "name": "Ms. Tica", "place_id": "ChIJ-Uz92WZ-hYARc4plKJTy2n4", "plus_code": {"compound_code": "RPW8+C2 Oakland, California, United States", "global_code": "849VRPW8+C2"}, "reference": "ChIJ-Uz92WZ-hYARc4plKJTy2n4", "scope": "GOOGLE", "types": ["point_of_interest", "establishment"], "vicinity": "Oakland"}, "ChIJpc3p1GZ-hYARIAtaD16IIZE": {"geometry": {"location": {"lat": 37.84654400000001, "lng": -122.285023}, "viewport": {"northeast": {"lat": 37.84789298029151, "lng": -122.2836740197085}, "southwest": {"lat": 37.84519501970851, "lng": -122.2863719802915}}}, "icon": "https://maps.gstatic.com/mapfiles/place_api/icons/bus-71.png", "id": "92901faa8b7e88e9474602bba35e0cf7b277d457", "name": "San Pablo Av:64th St", "place_id": "ChIJpc3p1GZ-hYARIAtaD16IIZE", "plus_code": {"compound_code": "RPW7+JX Oakland, California, United States", "global_code": "849VRPW7+JX"}, "rating": 3, "reference": "ChIJpc3p1GZ-hYARIAtaD16IIZE", "scope": "GOOGLE", "types": ["bus_station", "transit_station", "point_of_interest", "establishment"], "vicinity": "United States"}, "ChIJdV-1Hmd-hYARoeEgpiqRW9s": {"geometry": {"location": {"lat": 37.8451353, "lng": -122.285617}, "viewport": {"northeast": {"lat": 37.8465878802915, "lng": -122.2843149697085}, "southwest": {"lat": 37.8438899197085, "lng": -122.2870129302915}}}, "icon": "https://maps.gstatic.com/mapfiles/place_api/icons/school-71.png", "id": "470854614238438530818f20b1e68a6850f49670", "name": "99 Tutor - MCAT, GMAT, and SAT Test Prep", "place_id": "ChIJdV-1Hmd-hYARoeEgpiqRW9s", "plus_code": {"compound_code": "RPW7+3Q Oakland, California, United States", "global_code": "849VRPW7+3Q"}, "reference": "ChIJdV-1Hmd-hYARoeEgpiqRW9s", "scope": "GOOGLE", "types": ["point_of_interest", "establishment"], "vicinity": "1153 63rd Street, Oakland"}, "ChIJdV-1Hmd-hYARzaCPoz_urss": {"geometry": {"location": {"lat": 37.84513319999999, "lng": -122.2856184}, "viewport": {"northeast": {"lat": 37.84658658029149, "lng": -122.2843167197085}, "southwest": {"lat": 37.84388861970849, "lng": -122.2870146802915}}}, "icon": "https://maps.gstatic.com/mapfiles/place_api/icons/school-71.png", "id": "d5ac39679dbf94b041d9144da15f672096f6d264", "name": "Tutor", "place_id": "ChIJdV-1Hmd-hYARzaCPoz_urss", "plus_code": {"compound_code": "RPW7+3Q Oakland, California, United States", "global_code": "849VRPW7+3Q"}, "reference": "ChIJdV-1Hmd-hYARzaCPoz_urss", "scope": "GOOGLE", "types": ["point_of_interest", "establishment"], "vicinity": "1153 63rd Street, Oakland"}, "ChIJJbQw3Fh_hYARusZC1LQX630": {"geometry": {"location": {"lat": 37.845099, "lng": -122.285587}, "viewport": {"northeast": {"lat": 37.8465714302915, "lng": -122.2842939697085}, "southwest": {"lat": 37.8438734697085, "lng": -122.2869919302915}}}, "icon": "https://maps.gstatic.com/mapfiles/place_api/icons/school-71.png", "id": "f8f581cfd1d3a6628a6ccb2e354ce923bc249422", "name": "99Tutor MCAT Prep", "opening_hours": {"open_now": true}, "photos": [{"height": 936, "html_attributions": ["<a href=\"https://maps.google.com/maps/contrib/104579421408991108056/photos\">99Tutor MCAT Prep</a>"], "photo_reference": "CmRaAAAA28wkudm-9yA_xj_I0NQI2eV4BI-rX6VOQU0g4ypU0h85ETmnkNRd6CxyId6fTCOFExrwafr_x3aKSa41cf1izgGyFwwsnUXcOJ9bbZZUjFL_aX2vNu-ixOIDeaidG0vsEhCe6PqWDjFg_uR7hj1ewOZMGhS4DEIjt0slaZIo7Nz0b9e9acTMvA", "width": 1175}], "place_id": "ChIJJbQw3Fh_hYARusZC1LQX630", "plus_code": {"compound_code": "RPW7+2Q Oakland, California, United States", "global_code": "849VRPW7+2Q"}, "reference": "ChIJJbQw3Fh_hYARusZC1LQX630", "scope": "GOOGLE", "types": ["point_of_interest", "establishment"], "vicinity": "1153 63rd Street a, Emeryville"}, "ChIJvak9A2R-hYARUt54bGgKmXU": {"geometry": {"location": {"lat": 37.847031, "lng": -122.2853179}, "viewport": {"northeast": {"lat": 37.8483799802915, "lng": -122.2839689197085}, "southwest": {"lat": 37.84568201970851, "lng": -122.2866668802915}}}, "icon": "https://maps.gstatic.com/mapfiles/place_api/icons/generic_business-71.png", "id": "38d011af7f79bb29eda3f36801021590f3a41558", "name": "Last Resort Auto", "place_id": "ChIJvak9A2R-hYARUt54bGgKmXU", "plus_code": {"compound_code": "RPW7+RV Oakland, California, United States", "global_code": "849VRPW7+RV"}, "reference": "ChIJvak9A2R-hYARUt54bGgKmXU", "scope": "GOOGLE", "types": ["car_repair", "point_of_interest", "establishment"], "vicinity": "1049 Alcatraz Avenue, Emeryville"}, "ChIJOSlSKWF-hYARfMabwXLv7fQ": {"geometry": {"location": {"lat": 37.847213, "lng": -122.284957}, "viewport": {"northeast": {"lat": 37.84856198029149, "lng": -122.2836080197085}, "southwest": {"lat": 37.8458640197085, "lng": -122.2863059802915}}}, "icon": "https://maps.gstatic.com/mapfiles/place_api/icons/bus-71.png", "id": "ec54802940c430b129e124395e828c5713d0fab6", "name": "San Pablo Av:Alcatraz Av", "place_id": "ChIJOSlSKWF-hYARfMabwXLv7fQ", "plus_code": {"compound_code": "RPW8+V2 Oakland, California, United States", "global_code": "849VRPW8+V2"}, "rating": 3, "reference": "ChIJOSlSKWF-hYARfMabwXLv7fQ", "scope": "GOOGLE", "types": ["bus_station", "transit_station", "point_of_interest", "establishment"], "vicinity": "United States"}, "ChIJJQuL-mZ-hYARx09uHQGWZNY": {"geometry": {"location": {"lat": 37.8449172, "lng": -122.2846568}, "viewport": {"northeast": {"lat": 37.8461912302915, "lng": -122.2832133697085}, "southwest": {"lat": 37.8434932697085, "lng": -122.2859113302915}}}, "icon": "https://maps.gstatic.com/mapfiles/place_api/icons/gas_station-71.png", "id": "0877bcfca7cbf0396cf8bbff631e83fbc87768ce", "name": "ALASKA Gasoline", "photos": [{"height": 3024, "html_attributions": ["<a href=\"https://maps.google.com/maps/contrib/110994308995286156268/photos\">Jordan Boone Bernstein</a>"], "photo_reference": "CmRaAAAANQ1r0EQvzseNGx9eAOjYU6MLYPJ7MQ8UBOENXudwqOBaj0PVw8k6PUWaTjeGAxBnKSB0pvIlVXI0hv7xvhyVkA2C2BxmWYBnOIC1fdmamnIbV4Qsfr5kSsXq-KccK6kVEhBjNZydGAMlLQrXSmr_nOUeGhQwmXrk3uuqd8r6PZOerAy2p6rsLQ", "width": 4032}], "place_id": "ChIJJQuL-mZ-hYARx09uHQGWZNY", "plus_code": {"compound_code": "RPV8+X4 Oakland, California, United States", "global_code": "849VRPV8+X4"}, "rating": 3.6, "reference": "ChIJJQuL-mZ-hYARx09uHQGWZNY", "scope": "GOOGLE", "types": ["gas_station", "point_of_interest", "establishment"], "vicinity": "6211 San Pablo Avenue, Oakland"}, "ChIJuQSdf_94hYARjxAzRfikbbI": {"geometry": {"location": {"lat": 37.84733189999999, "lng": -122.2853822}, "viewport": {"northeast": {"lat": 37.8486988802915, "lng": -122.2839425197085}, "southwest": {"lat": 37.8460009197085, "lng": -122.2866404802915}}}, "icon": "https://maps.gstatic.com/mapfiles/place_api/icons/shopping-71.png", "id": "38346cc5349543b751309c6f6a844dd5ee691e62", "name": "William's Low-Cost Appliances", "opening_hours": {"open_now": false}, "photos": [{"height": 2448, "html_attributions": ["<a href=\"https://maps.google.com/maps/contrib/102418028147528341580/photos\">Brian Witt</a>"], "photo_reference": "CmRaAAAAaRG2HEs79_CME9q01XY5eIPvGofZRDtvXgqAaHMwRzjCzNsivwl6NRUJw72inWz--Ha57_N_ZC-wjpnhE49tLeLcA4MEVESamBXWJVrTWMAbkgvQsMahLBT8gWM44ZaTEhCY7Zk8j0a8xqqK1lyndftGGhR4Ee1eDjKdCvOS43MIJA0_qkgODQ", "width": 3264}], "place_id": "ChIJuQSdf_94hYARjxAzRfikbbI", "rating": 4.8, "reference": "ChIJuQSdf_94hYARjxAzRfikbbI", "scope": "GOOGLE", "types": ["home_goods_store", "store", "point_of_interest", "establishment"], "vicinity": "6451 San Pablo Avenue, Oakland"}, "ChIJ0zu_8GZ-hYARZPwm7gNBURg": {"geometry": {"location": {"lat": 37.844789, "lng": -122.284455}, "viewport": {"northeast": {"lat": 37.84613798029149, "lng": -122.2831060197085}, "southwest": {"lat": 37.8434400197085, "lng": -122.2858039802915}}}, "icon": "https://maps.gstatic.com/mapfiles/place_api/icons/bus-71.png", "id": "1df3d1976aeddff3c5a29da601f722a7138ea62d", "name": "San Pablo Av:62nd St", "place_id": "ChIJ0zu_8GZ-hYARZPwm7gNBURg", "plus_code": {"compound_code": "RPV8+W6 Oakland, California, United States", "global_code": "849VRPV8+W6"}, "rating": 3, "reference": "ChIJ0zu_8GZ-hYARZPwm7gNBURg", "scope": "GOOGLE", "types": ["bus_station", "transit_station", "point_of_interest", "establishment"], "vicinity": "United States"}, "ChIJo7kr8WZ-hYAR6c4rJraM5a8": {"geometry": {"location": {"lat": 37.84482500000001, "lng": -122.284337}, "viewport": {"northeast": {"lat": 37.8461739802915, "lng": -122.2829880197085}, "southwest": {"lat": 37.84347601970851, "lng": -122.2856859802915}}}, "icon": "https://maps.gstatic.com/mapfiles/place_api/icons/generic_business-71.png", "id": "892ae85075dcb17ea207b10ca0434d0b57b20162", "name": "San Pablo Av:62nd St", "place_id": "ChIJo7kr8WZ-hYAR6c4rJraM5a8", "plus_code": {"compound_code": "RPV8+W7 Oakland, California, United States", "global_code": "849VRPV8+W7"}, "reference": "ChIJo7kr8WZ-hYAR6c4rJraM5a8", "scope": "GOOGLE", "types": ["transit_station", "point_of_interest", "establishment"], "vicinity": "United States"}, "ChIJMYpN8WZ-hYARu1XhZXg8-4o": {"geometry": {"location": {"lat": 37.84486099999999, "lng": -122.284219}, "viewport": {"northeast": {"lat": 37.8462099802915, "lng": -122.2828700197085}, "southwest": {"lat": 37.8435120197085, "lng": -122.2855679802915}}}, "icon": "https://maps.gstatic.com/mapfiles/place_api/icons/bus-71.png", "id": "4efcebd88738051dadc79007793c5d0182a1c13a", "name": "San Pablo Av:62nd St", "place_id": "ChIJMYpN8WZ-hYARu1XhZXg8-4o", "plus_code": {"compound_code": "RPV8+W8 Oakland, California, United States", "global_code": "849VRPV8+W8"}, "rating": 3, "reference": "ChIJMYpN8WZ-hYARu1XhZXg8-4o", "scope": "GOOGLE", "types": ["bus_station", "transit_station", "point_of_interest", "establishment"], "vicinity": "United States"}, "ChIJYa7wTWd-hYARv7G7VOObJsY": {"geometry": {"location": {"lat": 37.8457183, "lng": -122.28734}, "viewport": {"northeast": {"lat": 37.8471056802915, "lng": -122.2860083697085}, "southwest": {"lat": 37.84440771970851, "lng": -122.2887063302915}}}, "icon": "https://maps.gstatic.com/mapfiles/place_api/icons/generic_business-71.png", "id": "48dc1aa0043d7f2407bdfdf76f0dfa1c59bc0731", "name": "Lipton's Tea", "place_id": "ChIJYa7wTWd-hYARv7G7VOObJsY", "plus_code": {"compound_code": "RPW7+73 Oakland, California, United States", "global_code": "849VRPW7+73"}, "reference": "ChIJYa7wTWd-hYARv7G7VOObJsY", "scope": "GOOGLE", "types": ["point_of_interest", "establishment"], "vicinity": "1211 64th Street, Emeryville"}, "ChIJ5RjBuWZ-hYARN67I6VWPDLA": {"geometry": {"location": {"lat": 37.846417, "lng": -122.2835318}, "viewport": {"northeast": {"lat": 37.8476699802915, "lng": -122.2821622697085}, "southwest": {"lat": 37.8449720197085, "lng": -122.2848602302915}}}, "icon": "https://maps.gstatic.com/mapfiles/place_api/icons/generic_business-71.png", "id": "a30aa94d70a1ec69f48ba709992cc88dae4d3def", "name": "Patricia Lynch, RN", "place_id": "ChIJ5RjBuWZ-hYARN67I6VWPDLA", "plus_code": {"compound_code": "RPW8+HH Oakland, California, United States", "global_code": "849VRPW8+HH"}, "reference": "ChIJ5RjBuWZ-hYARN67I6VWPDLA", "scope": "GOOGLE", "types": ["doctor", "health", "point_of_interest", "establishment"], "vicinity": "1080 63rd Street, Emeryville"}}