{"ChIJ00mFOjZ5hYARk-l1ppUV6pQ": {"geometry": {"location": {"lat": 37.8715926, "lng": -122.272747}, "viewport": {"northeast": {"lat": 37.9058239, "lng": -122.234179}, "southwest": {"lat": 37.835727, "lng": -122.367781}}}, "icon": "https://maps.gstatic.com/mapfiles/place_api/icons/geocode-71.png", "id": "00741fe572fc4084428ab206e1a55830f6a1bf0a", "name": "Berkeley", "photos": [{"height": 1080, "html_attributions": ["<a href=\"https://maps.google.com/maps/contrib/110244590763501513798/photos\">miao hsin sun</a>"], "photo_reference": "CmRaAAAAlcAbZA0DdodQBwAs6rNA7sRGDSbCdvVR92szzO1U66AnaLQdMt4r1WY4ezH9Ac-qaCbMZ7LO009vRP60Srsq1DqA7thtmylWbezp8mBduX9yM6mbIh55FfD8BO_KOEqtEhBvAvb_czZy750K-fLXIyEqGhQg7-_ETk-3VVGOBGSMgGCnSp6NQw", "width": 1616}], "place_id": "ChIJ00mFOjZ5hYARk-l1ppUV6pQ", "reference": "ChIJ00mFOjZ5hYARk-l1ppUV6pQ", "scope": "GOOGLE", "types": ["locality", "political"], "vicinity": "Berkeley"}, "ChIJG5DDRKN-hYAR-EcM2wDF3_c": {"geometry": {"location": {"lat": 37.8774726, "lng": -122.2757237}, "viewport": {"northeast": {"lat": 37.8788680802915, "lng": -122.2743841197085}, "southwest": {"lat": 37.8761701197085, "lng": -122.2770820802915}}}, "icon": "https://maps.gstatic.com/mapfiles/place_api/icons/shopping-71.png", "id": "5b25879fcb645c1d38d504dfd30c8a9c20a2328d", "name": "Subway Guitars", "opening_hours": {"open_now": true}, "photos": [{"height": 5312, "html_attributions": ["<a href=\"https://maps.google.com/maps/contrib/108839017780203019781/photos\">Carina Flores</a>"], "photo_reference": "CmRaAAAAvZ3LLPKYnQBGPCLjiC-ZAIDi963hSNmFGFhX8GcSZ2wD9ldTeak4QyxLSmpcPfShOtTHthmWcN8k2EwN1yJFuzd1dCuYyGcsBRamf3N8sRi0P3Ro6N_bCf9i5CTCL-TaEhAASYICm6cqa23W7bBFr96bGhQfUmsgyIaP4pOX392Psf7g7hbaeA", "width": 2988}], "place_id": "ChIJG5DDRKN-hYAR-EcM2wDF3_c", "plus_code": {"compound_code": "VPGF+XP Berkeley, California, United States", "global_code": "849VVPGF+XP"}, "rating": 4.3, "reference": "ChIJG5DDRKN-hYAR-EcM2wDF3_c", "scope": "GOOGLE", "types": ["electronics_store", "home_goods_store", "store", "point_of_interest", "establishment"], "vicinity": "1800 Cedar Street, Berkeley"}, "ChIJU3wG97KAhYARnyfk4HDMCHE": {"geometry": {"location": {"lat": 37.8776753, "lng": -122.2762495}, "viewport": {"northeast": {"lat": 37.8789388302915, "lng": -122.2748827697085}, "southwest": {"lat": 37.8762408697085, "lng": -122.2775807302915}}}, "icon": "https://maps.gstatic.com/mapfiles/place_api/icons/generic_business-71.png", "id": "b40a06262f72ce3bda67fbc7cc3985f139586b01", "name": "Team Pride, Inc.", "photos": [{"height": 1925, "html_attributions": ["<a href=\"https://maps.google.com/maps/contrib/111923529750612582731/photos\">Team Pride, Inc.</a>"], "photo_reference": "CmRZAAAAi2Ziqf7xn7tLa-fpS5f9rs-9mMh7llkEiVN2OuxovczCCPCjn3orZRvH4EnnhQEO9PytSngea3LQioYJ3wWyfm3vVYMEqcyiOFWiEjR2xBIgUTb_JVyewtFkfFobh5XiEhAQ9i8FNRcO7b6oK31yV03JGhQWncFRRORXfQfd5yN8dNs8dgBG0Q", "width": 1643}], "place_id": "ChIJU3wG97KAhYARnyfk4HDMCHE", "plus_code": {"compound_code": "VPHF+3G Berkeley, California, United States", "global_code": "849VVPHF+3G"}, "reference": "ChIJU3wG97KAhYARnyfk4HDMCHE", "scope": "GOOGLE", "types": ["point_of_interest", "establishment"], "vicinity": "1743 Cedar Street, Berkeley"}, "ChIJxbrjJaN-hYARvvTMz0Tz2Io": {"geometry": {"location": {"lat": 37.876073, "lng": -122.275964}, "viewport": {"northeast": {"lat": 37.87742743029149, "lng": -122.2745328697085}, "southwest": {"lat": 37.8747294697085, "lng": -122.2772308302915}}}, "icon": "https://maps.gstatic.com/mapfiles/place_api/icons/generic_business-71.png", "id": "21fdb0ff0623fdcbfbf508c7ad5e4dc592433dc4", "name": "Jeremy the Juggler", "photos": [{"height": 342, "html_attributions": ["<a href=\"https://maps.google.com/maps/contrib/109058937011496736641/photos\">Jeremy the Juggler</a>"], "photo_reference": "CmRaAAAAkZ49m8OxABha8gaRR6p_0597aEqk-Fkv584B1LkItozHGBHt2CWFh6ySNJDxPpL2Ap1ksbvfEI2BoSEie1_s3qcl5vJcynH7g2K3lQMFL1IzxS1j8EBc2XkB7L4WcJDUEhCHeMPzB5MXVKQ2OHP81sLdGhQ1K_H8OKGn8l9jyfDauPaESGoS7A", "width": 910}], "place_id": "ChIJxbrjJaN-hYARvvTMz0Tz2Io", "plus_code": {"compound_code": "VPGF+CJ Berkeley, California, United States", "global_code": "849VVPGF+CJ"}, "rating": 5, "reference": "ChIJxbrjJaN-hYARvvTMz0Tz2Io", "scope": "GOOGLE", "types": ["point_of_interest", "establishment"], "vicinity": "1642 Grant Street, Berkeley"}, "ChIJF0JCrbx-hYAReL0-eCckeaY": {"geometry": {"location": {"lat": 37.877235, "lng": -122.276814}, "viewport": {"northeast": {"lat": 37.8786773802915, "lng": -122.2754844197085}, "southwest": {"lat": 37.8759794197085, "lng": -122.2781823802915}}}, "icon": "https://maps.gstatic.com/mapfiles/place_api/icons/school-71.png", "id": "2d3461bac66426afedde966f4fa00a22740a7e8f", "name": "Kalanjali Dances of India", "place_id": "ChIJF0JCrbx-hYAReL0-eCckeaY", "plus_code": {"compound_code": "VPGF+V7 Berkeley, California, United States", "global_code": "849VVPGF+V7"}, "reference": "ChIJF0JCrbx-hYAReL0-eCckeaY", "scope": "GOOGLE", "types": ["point_of_interest", "establishment"], "vicinity": "1728 Cedar Street, Berkeley"}, "ChIJfZqvj7GRj4AR-JSs-zm_8Ug": {"geometry": {"location": {"lat": 37.876636, "lng": -122.277119}, "viewport": {"northeast": {"lat": 37.87790158029149, "lng": -122.2757536697085}, "southwest": {"lat": 37.87520361970849, "lng": -122.2784516302915}}}, "icon": "https://maps.gstatic.com/mapfiles/place_api/icons/generic_business-71.png", "id": "435d241eed68805b341b1f123940a18b94aa2df7", "name": "Gatterman Construction", "place_id": "ChIJfZqvj7GRj4AR-JSs-zm_8Ug", "plus_code": {"compound_code": "VPGF+M5 Berkeley, California, United States", "global_code": "849VVPGF+M5"}, "rating": 5, "reference": "ChIJfZqvj7GRj4AR-JSs-zm_8Ug", "scope": "GOOGLE", "types": ["general_contractor", "point_of_interest", "establishment"], "vicinity": "1721 Lincoln Street, Berkeley"}, "ChIJC12CWLt-hYARh98OWklKAxM": {"geometry": {"location": {"lat": 37.8775205, "lng": -122.2776736}, "viewport": {"northeast": {"lat": 37.8787692802915, "lng": -122.2763035697085}, "southwest": {"lat": 37.8760713197085, "lng": -122.2790015302915}}}, "icon": "https://maps.gstatic.com/mapfiles/place_api/icons/generic_business-71.png", "id": "2e61b2fdec629cdbdf85654a2eeea8f542aa8db3", "name": "SolarNova", "opening_hours": {"open_now": true}, "photos": [{"height": 2848, "html_attributions": ["<a href=\"https://maps.google.com/maps/contrib/110111339145142155943/photos\">SolarNova</a>"], "photo_reference": "CmRaAAAAlNJfAYlTY9ipzLDgZ8LZC3v8RhSFueC8ess4nKKs_rvQ_3CheJz9u8wENuuCXYVkb_VJd2Ezhy8UhiKip72nVAljxbN38Xvsa8NTFpcu8VrpnBWBYWJyT37H3RkVmLoLEhBsdhDjnlSVDI-tjoiApJaYGhScUDuvqyanckMAiGRJZdiPiHgKWw", "width": 4288}], "place_id": "ChIJC12CWLt-hYARh98OWklKAxM", "plus_code": {"compound_code": "VPHC+2W Berkeley, California, United States", "global_code": "849VVPHC+2W"}, "reference": "ChIJC12CWLt-hYARh98OWklKAxM", "scope": "GOOGLE", "types": ["point_of_interest", "establishment"], "vicinity": "1713 Cedar Street, Berkeley"}, "ChIJuW8-V6N-hYARn1s-EjUd31M": {"geometry": {"location": {"lat": 37.8777772, "lng": -122.2761519}, "viewport": {"northeast": {"lat": 37.8789972302915, "lng": -122.2747761697085}, "southwest": {"lat": 37.8762992697085, "lng": -122.2774741302915}}}, "icon": "https://maps.gstatic.com/mapfiles/place_api/icons/generic_business-71.png", "id": "1a038ea7a77d2827a1c91d6db50ef8370d69dd16", "name": "Peter Mitchell Auto Repair", "opening_hours": {"open_now": true}, "photos": [{"height": 3264, "html_attributions": ["<a href=\"https://maps.google.com/maps/contrib/113343942013450831127/photos\">Bob Heyer-Gray</a>"], "photo_reference": "CmRaAAAAYAGDEcISwodruQ2CHVwWGSK1t4jw8EgnZ2ia0Cw4Dp4RGBU0G4OXv1BnHK79T_YrIit8aCJTGSGwF_Odk9ctCU3IqrzczDJwkmzKBb_TykXo6Z2Yhv1LJDdYGf5o7OaMEhCkT1IKFj9-jE1Bdah9imUzGhSorL-KPzH0S4gVdzRt7sc8grHUbA", "width": 2448}], "place_id": "ChIJuW8-V6N-hYARn1s-EjUd31M", "plus_code": {"compound_code": "VPHF+4G Berkeley, California, United States", "global_code": "849VVPHF+4G"}, "rating": 5, "reference": "ChIJuW8-V6N-hYARn1s-EjUd31M", "scope": "GOOGLE", "types": ["car_repair", "point_of_interest", "establishment"], "vicinity": "1745 Cedar Street, Berkeley"}, "ChIJ_5f3t7x-hYARhCi0iE3yqh4": {"geometry": {"location": {"lat": 37.8764419, "lng": -122.2774318}, "viewport": {"northeast": {"lat": 37.8778074302915, "lng": -122.2760860697085}, "southwest": {"lat": 37.8751094697085, "lng": -122.2787840302915}}}, "icon": "https://maps.gstatic.com/mapfiles/place_api/icons/generic_business-71.png", "id": "31cc723202e59bed758aafb2e24d3568e71a2f51", "name": "Abascal Manuel", "place_id": "ChIJ_5f3t7x-hYARhCi0iE3yqh4", "plus_code": {"compound_code": "VPGF+H2 Berkeley, California, United States", "global_code": "849VVPGF+H2"}, "reference": "ChIJ_5f3t7x-hYARhCi0iE3yqh4", "scope": "GOOGLE", "types": ["lawyer", "point_of_interest", "establishment"], "vicinity": "1711 Lincoln Street, Berkeley"}, "ChIJu9_eDaF-hYARsK0y-jfrTkU": {"geometry": {"location": {"lat": 37.8762923, "lng": -122.2738958}, "viewport": {"northeast": {"lat": 37.886603, "lng": -122.2610307}, "southwest": {"lat": 37.8721519, "lng": -122.2832287}}}, "icon": "https://maps.gstatic.com/mapfiles/place_api/icons/geocode-71.png", "id": "46f99d22b7456f63f4ac5b93236e7eef36e4d502", "name": "North Berkeley", "place_id": "ChIJu9_eDaF-hYARsK0y-jfrTkU", "reference": "ChIJu9_eDaF-hYARsK0y-jfrTkU", "scope": "GOOGLE", "types": ["neighborhood", "political"], "vicinity": "Berkeley"}}