{"ChIJ00mFOjZ5hYARk-l1ppUV6pQ": {"geometry": {"location": {"lat": 37.8715926, "lng": -122.272747}, "viewport": {"northeast": {"lat": 37.9058239, "lng": -122.234179}, "southwest": {"lat": 37.835727, "lng": -122.367781}}}, "icon": "https://maps.gstatic.com/mapfiles/place_api/icons/geocode-71.png", "id": "00741fe572fc4084428ab206e1a55830f6a1bf0a", "name": "Berkeley", "photos": [{"height": 1080, "html_attributions": ["<a href=\"https://maps.google.com/maps/contrib/110244590763501513798/photos\">miao hsin sun</a>"], "photo_reference": "CmRaAAAAMmi4TSoTBqk-aSfejDk0wYzykJ_yHTYumFHzKKJizdqV5bMeABvxZWoMjZS9eDmflVEb8bIpsFmah_yH11i8I9_GRxj08ztspl0AvHtLBpDsRzyhN6-Isee15EvW1QT1EhAi7xD9fUzrNKHYyrywfrknGhQAEXXsDld1TyyM6rGt9F54wkc8Vg", "width": 1616}], "place_id": "ChIJ00mFOjZ5hYARk-l1ppUV6pQ", "reference": "ChIJ00mFOjZ5hYARk-l1ppUV6pQ", "scope": "GOOGLE", "types": ["locality", "political"], "vicinity": "Berkeley"}, "ChIJgV82trN-hYAR6P59LZghmAk": {"geometry": {"location": {"lat": 37.887564, "lng": -122.28007}, "viewport": {"northeast": {"lat": 37.8888776302915, "lng": -122.2785656197085}, "southwest": {"lat": 37.8861796697085, "lng": -122.2812635802915}}}, "icon": "https://maps.gstatic.com/mapfiles/place_api/icons/generic_business-71.png", "id": "a2897d71c42217aad152f0405a89e3f641c6e400", "name": "Philanthropy Associates", "opening_hours": {"open_now": false}, "place_id": "ChIJgV82trN-hYAR6P59LZghmAk", "plus_code": {"compound_code": "VPQ9+2X Berkeley, California, United States", "global_code": "849VVPQ9+2X"}, "reference": "ChIJgV82trN-hYAR6P59LZghmAk", "scope": "GOOGLE", "types": ["point_of_interest", "establishment"], "vicinity": "1038 Merced Street, Berkeley"}, "ChIJbzYtqLN-hYAR9VwfdfUkXO0": {"geometry": {"location": {"lat": 37.888648, "lng": -122.2801}, "viewport": {"northeast": {"lat": 37.89003158029149, "lng": -122.2789069197085}, "southwest": {"lat": 37.88733361970849, "lng": -122.2816048802915}}}, "icon": "https://maps.gstatic.com/mapfiles/place_api/icons/generic_business-71.png", "id": "ec80854fb21b4c85b8bc2245ca2bc591d2719ba2", "name": "Laura Myers Design", "place_id": "ChIJbzYtqLN-hYAR9VwfdfUkXO0", "plus_code": {"compound_code": "VPQ9+FX Berkeley, California, United States", "global_code": "849VVPQ9+FX"}, "reference": "ChIJbzYtqLN-hYAR9VwfdfUkXO0", "scope": "GOOGLE", "types": ["point_of_interest", "establishment"], "vicinity": "1003 Sierra Street, Berkeley"}, "ChIJFf3XY7N-hYARUZHmSs-5V6M": {"geometry": {"location": {"lat": 37.8889946, "lng": -122.282227}, "viewport": {"northeast": {"lat": 37.8904580302915, "lng": -122.2809322197085}, "southwest": {"lat": 37.8877600697085, "lng": -122.2836301802915}}}, "icon": "https://maps.gstatic.com/mapfiles/place_api/icons/restaurant-71.png", "id": "e93ccfcf5f29e4b7bf2b19afedcc4026dc45a504", "name": "Quiche Marie", "photos": [{"height": 2268, "html_attributions": ["<a href=\"https://maps.google.com/maps/contrib/107586939842781645210/photos\">Lee Hahn</a>"], "photo_reference": "CmRaAAAA7DDbR9pK41iTK7I_XcjIIuZ1OYYzVSSCjRJ_3oV5CNINUs4MMLW1VwmnAKuceHRmubyehN8idPjLJvX0Ddrps0ZLUZo_umIjP5pXVjzMIfHT4_Z1cZSOTxA5saewr_neEhCNB6gtXBV5hKWnfdqWDPN4GhS7J2dAl4Gp3wqwf4VUY3RYz80f6w", "width": 4032}], "place_id": "ChIJFf3XY7N-hYARUZHmSs-5V6M", "plus_code": {"compound_code": "VPQ9+H4 Berkeley, California, United States", "global_code": "849VVPQ9+H4"}, "rating": 5, "reference": "ChIJFf3XY7N-hYARUZHmSs-5V6M", "scope": "GOOGLE", "types": ["restaurant", "point_of_interest", "food", "establishment"], "vicinity": "1652 Marin Avenue, Albany"}, "ChIJhXTjMbJ-hYARBPh6WzqEbyM": {"geometry": {"location": {"lat": 37.887187, "lng": -122.279126}, "viewport": {"northeast": {"lat": 37.8884688302915, "lng": -122.2776757197085}, "southwest": {"lat": 37.8857708697085, "lng": -122.2803736802915}}}, "icon": "https://maps.gstatic.com/mapfiles/place_api/icons/generic_business-71.png", "id": "e9cd6c65418d001782821813bed6ca0033003aab", "name": "Eliot Khuner Photography", "opening_hours": {"open_now": false}, "photos": [{"height": 757, "html_attributions": ["<a href=\"https://maps.google.com/maps/contrib/107483393704572034864/photos\">Eliot Khuner Photography</a>"], "photo_reference": "CmRaAAAAZacots1eQnytjPfK57npKG2z6sODNWtwOjzuc2tVbsGsYNMXDRFbxbAvNdAlT4zXeFlJARe5QxJSaKqe65xuQ_ZGNQDEY1UbB_HKTAhX6deXtrjWsQ6jy58RhvSPD5j4EhDnb7I9I2Mob-_kJADIitviGhQANeUp3F3K4xO23VOkIBpeWRu53A", "width": 757}], "place_id": "ChIJhXTjMbJ-hYARBPh6WzqEbyM", "plus_code": {"compound_code": "VPPC+V8 Berkeley, California, United States", "global_code": "849VVPPC+V8"}, "rating": 5, "reference": "ChIJhXTjMbJ-hYARBPh6WzqEbyM", "scope": "GOOGLE", "types": ["point_of_interest", "establishment"], "vicinity": "1052 Monterey Avenue, Berkeley"}, "ChIJwTdnr7N-hYARDJNEd74Dl-M": {"geometry": {"location": {"lat": 37.8882887, "lng": -122.2803184}, "viewport": {"northeast": {"lat": 37.8896629802915, "lng": -122.2790834197085}, "southwest": {"lat": 37.88696501970851, "lng": -122.2817813802915}}}, "icon": "https://maps.gstatic.com/mapfiles/place_api/icons/shopping-71.png", "id": "8596e31f772b1d23998dbf053899451793fe8a36", "name": "Schlesstones Music", "place_id": "ChIJwTdnr7N-hYARDJNEd74Dl-M", "plus_code": {"compound_code": "VPQ9+8V Berkeley, California, United States", "global_code": "849VVPQ9+8V"}, "rating": 4, "reference": "ChIJwTdnr7N-hYARDJNEd74Dl-M", "scope": "GOOGLE", "types": ["electronics_store", "home_goods_store", "store", "point_of_interest", "establishment"], "vicinity": "1019 Sierra Street, Berkeley"}, "ChIJz51LarN-hYAR6ZfW-YPMPIA": {"geometry": {"location": {"lat": 37.889385, "lng": -122.281232}, "viewport": {"northeast": {"lat": 37.8908683802915, "lng": -122.2799737697085}, "southwest": {"lat": 37.8881704197085, "lng": -122.2826717302915}}}, "icon": "https://maps.gstatic.com/mapfiles/place_api/icons/generic_business-71.png", "id": "d7c3c2f21fa9b8175f0e48716ad6bdfc00642e8b", "name": "Garden View Services", "place_id": "ChIJz51LarN-hYAR6ZfW-YPMPIA", "plus_code": {"compound_code": "VPQ9+QG Berkeley, California, United States", "global_code": "849VVPQ9+QG"}, "reference": "ChIJz51LarN-hYAR6ZfW-YPMPIA", "scope": "GOOGLE", "types": ["point_of_interest", "establishment"], "vicinity": "1706 Marin Avenue, Berkeley"}, "ChIJvY_FLLJ-hYARHcemt3NqD94": {"geometry": {"location": {"lat": 37.88687400000001, "lng": -122.2795201}, "viewport": {"northeast": {"lat": 37.8881432802915, "lng": -122.2780833197085}, "southwest": {"lat": 37.8854453197085, "lng": -122.2807812802915}}}, "icon": "https://maps.gstatic.com/mapfiles/place_api/icons/generic_business-71.png", "id": "60ba7932ce988f2507dbe1555ffe9cb9b01f5fe1", "name": "David Collins Job", "place_id": "ChIJvY_FLLJ-hYARHcemt3NqD94", "plus_code": {"compound_code": "VPPC+P5 Berkeley, California, United States", "global_code": "849VVPPC+P5"}, "reference": "ChIJvY_FLLJ-hYARHcemt3NqD94", "scope": "GOOGLE", "types": ["point_of_interest", "establishment"], "vicinity": "1062 Monterey Avenue, Berkeley"}, "ChIJPQVb0tJ4hYARLxEHP9E4sNU": {"geometry": {"location": {"lat": 37.88687, "lng": -122.2977475}, "viewport": {"northeast": {"lat": 37.898925, "lng": -122.2819799}, "southwest": {"lat": 37.8667259, "lng": -122.3737821}}}, "icon": "https://maps.gstatic.com/mapfiles/place_api/icons/geocode-71.png", "id": "679b5d1c47299801cd8a7f14442898e347883404", "name": "Albany", "photos": [{"height": 2448, "html_attributions": ["<a href=\"https://maps.google.com/maps/contrib/112884977236556923885/photos\">Julio Perez</a>"], "photo_reference": "CmRaAAAAydq8Tcz9M_gQyjNvDaIyhIpWhGnJFNrJWQW9kFvpRfeCujnNfR76BPSpvxpOggOISS6B-Vi7DBFdI16gZl5hT50m4DQMEOpKvJcrvSa5AE7oTFihKY6b3wCIWJbvp6zpEhC3n3mM8tunb-liW86_oCFjGhTViLK5ot6eIV-yQfr0oFNr4fTXWA", "width": 3264}], "place_id": "ChIJPQVb0tJ4hYARLxEHP9E4sNU", "reference": "ChIJPQVb0tJ4hYARLxEHP9E4sNU", "scope": "GOOGLE", "types": ["locality", "political"], "vicinity": "Albany"}}