{"ChIJ00mFOjZ5hYARk-l1ppUV6pQ": {"geometry": {"location": {"lat": 37.8715926, "lng": -122.272747}, "viewport": {"northeast": {"lat": 37.9058239, "lng": -122.234179}, "southwest": {"lat": 37.835727, "lng": -122.367781}}}, "icon": "https://maps.gstatic.com/mapfiles/place_api/icons/geocode-71.png", "id": "00741fe572fc4084428ab206e1a55830f6a1bf0a", "name": "Berkeley", "photos": [{"height": 1080, "html_attributions": ["<a href=\"https://maps.google.com/maps/contrib/110244590763501513798/photos\">miao hsin sun</a>"], "photo_reference": "CmRaAAAALsSXdgdIA-pEshTYxMjnIrEwwjoaqnDjQMS20aVvo4PxVa6naYSmGQjoILGkBblAKahsZh2sQ5Zx_PYUZguCDsIC2OE87ItGhlU6-ei8IrAvHzgTgD0onRd3T1R_EF9LEhDVsPlQZRpSiH9gWwbQCV2kGhSaE5UyoZTlz-WU9YyrlSVHHMDcMA", "width": 1616}], "place_id": "ChIJ00mFOjZ5hYARk-l1ppUV6pQ", "reference": "ChIJ00mFOjZ5hYARk-l1ppUV6pQ", "scope": "GOOGLE", "types": ["locality", "political"], "vicinity": "Berkeley"}, "ChIJcwhswBd8hYAR45d46ddpvGo": {"geometry": {"location": {"lat": 37.881586, "lng": -122.252519}, "viewport": {"northeast": {"lat": 37.88294623029149, "lng": -122.2510429697085}, "southwest": {"lat": 37.8802482697085, "lng": -122.2537409302915}}}, "icon": "https://maps.gstatic.com/mapfiles/place_api/icons/generic_business-71.png", "id": "20d290b09a39d27bfdaad143a2ff9798ce386553", "name": "Chung Ym Architecture Studio", "place_id": "ChIJcwhswBd8hYAR45d46ddpvGo", "plus_code": {"compound_code": "VPJW+JX Berkeley, California, United States", "global_code": "849VVPJW+JX"}, "reference": "ChIJcwhswBd8hYAR45d46ddpvGo", "scope": "GOOGLE", "types": ["point_of_interest", "establishment"], "vicinity": "1500 Campus Drive, Berkeley"}, "ChIJKU0elBd8hYARbCWvscY8k58": {"geometry": {"location": {"lat": 37.881815, "lng": -122.252904}, "viewport": {"northeast": {"lat": 37.88321903029151, "lng": -122.2516594197085}, "southwest": {"lat": 37.88052106970851, "lng": -122.2543573802915}}}, "icon": "https://maps.gstatic.com/mapfiles/place_api/icons/generic_business-71.png", "id": "d220e49864e56ea16f016a43b16a7a433dea7fc1", "name": "R B Construction", "place_id": "ChIJKU0elBd8hYARbCWvscY8k58", "plus_code": {"compound_code": "VPJW+PR Berkeley, California, United States", "global_code": "849VVPJW+PR"}, "reference": "ChIJKU0elBd8hYARbCWvscY8k58", "scope": "GOOGLE", "types": ["general_contractor", "point_of_interest", "establishment"], "vicinity": "10 East Parnassus Court, Berkeley"}, "ChIJnTzqET18hYARxSPMyLn4dqM": {"geometry": {"location": {"lat": 37.8790698, "lng": -122.2519844}, "viewport": {"northeast": {"lat": 37.88041923029149, "lng": -122.2505840697085}, "southwest": {"lat": 37.8777212697085, "lng": -122.2532820302915}}}, "icon": "https://maps.gstatic.com/mapfiles/place_api/icons/generic_business-71.png", "id": "41e45756359080e435b1e721d09cc6da79566c6f", "name": "55A", "place_id": "ChIJnTzqET18hYARxSPMyLn4dqM", "plus_code": {"compound_code": "VPHX+J6 Berkeley, California, United States", "global_code": "849VVPHX+J6"}, "reference": "ChIJnTzqET18hYARxSPMyLn4dqM", "scope": "GOOGLE", "types": ["point_of_interest", "establishment"], "vicinity": "Chamberlain Road, Berkeley"}, "ChIJZ7MYYqp-hYARqEr9qCJY0Fw": {"geometry": {"location": {"lat": 37.8923152, "lng": -122.2682245}, "viewport": {"northeast": {"lat": 37.905824, "lng": -122.2456793}, "southwest": {"lat": 37.8794772, "lng": -122.2871799}}}, "icon": "https://maps.gstatic.com/mapfiles/place_api/icons/geocode-71.png", "id": "dee8ee3fee454e35561948e7532f0d3bdc37795e", "name": "Berkeley Hills", "photos": [{"height": 2358, "html_attributions": ["<a href=\"https://maps.google.com/maps/contrib/101345405161882209762/photos\">steve t</a>"], "photo_reference": "CmRaAAAAksZNjFeNZygox1GrTDupa-Q6eBN503jIQ-LQUo38FmH20_ecWEOjhV1Z-Sqzynxgpypc4whyFtv0gNpQMQkdWJM3tbwOdMofklJJRptUEUz_0-HfwRlzIksrL8FKnIweEhD8SW0sI6cbCXpo7zsvambIGhQZRXCdrTtJ1YC-zhZ4e1npcCG4Wg", "width": 4191}], "place_id": "ChIJZ7MYYqp-hYARqEr9qCJY0Fw", "reference": "ChIJZ7MYYqp-hYARqEr9qCJY0Fw", "scope": "GOOGLE", "types": ["neighborhood", "political"], "vicinity": "Berkeley"}}