{"ChIJ00mFOjZ5hYARk-l1ppUV6pQ": {"geometry": {"location": {"lat": 37.8715926, "lng": -122.272747}, "viewport": {"northeast": {"lat": 37.9058239, "lng": -122.234179}, "southwest": {"lat": 37.835727, "lng": -122.367781}}}, "icon": "https://maps.gstatic.com/mapfiles/place_api/icons/geocode-71.png", "id": "00741fe572fc4084428ab206e1a55830f6a1bf0a", "name": "Berkeley", "photos": [{"height": 1080, "html_attributions": ["<a href=\"https://maps.google.com/maps/contrib/110244590763501513798/photos\">miao hsin sun</a>"], "photo_reference": "CmRaAAAAhSSLSMa4jRibAcBVdurM17dFsMXv1nenTRgtpvdukpsA1i3Ndakos3l2Jy4mUTLvcVtOFGREXLmPI1vZkILdhYXv9MkYPROG71XU35eyZtizZqKcLW4ZbsRFH1w5qm2aEhDim-6vBSrT8kBg4JNqoM77GhS65tef6-ZOM216hS_MtCRorqPnJA", "width": 1616}], "place_id": "ChIJ00mFOjZ5hYARk-l1ppUV6pQ", "reference": "ChIJ00mFOjZ5hYARk-l1ppUV6pQ", "scope": "GOOGLE", "types": ["locality", "political"], "vicinity": "Berkeley"}, "ChIJSdHuLr1-hYARX9sFxhN6cMs": {"geometry": {"location": {"lat": 37.8748306, "lng": -122.2771902}, "viewport": {"northeast": {"lat": 37.87608018029149, "lng": -122.2758209197085}, "southwest": {"lat": 37.8733822197085, "lng": -122.2785188802915}}}, "icon": "https://maps.gstatic.com/mapfiles/place_api/icons/generic_business-71.png", "id": "e7d5f83e67ff48be610e079399244e9fbf2fc463", "name": "Meiklejohn Civil Liberties Institute", "place_id": "ChIJSdHuLr1-hYARX9sFxhN6cMs", "plus_code": {"compound_code": "VPFF+W4 Berkeley, California, United States", "global_code": "849VVPFF+W4"}, "reference": "ChIJSdHuLr1-hYARX9sFxhN6cMs", "scope": "GOOGLE", "types": ["point_of_interest", "establishment"], "vicinity": "1715 Francisco Street, Berkeley"}, "ChIJ5WbSsKJ-hYARwm5td6Yf_pg": {"geometry": {"location": {"lat": 37.87404970000001, "lng": -122.2761775}, "viewport": {"northeast": {"lat": 37.8752968302915, "lng": -122.2748074197085}, "southwest": {"lat": 37.87259886970851, "lng": -122.2775053802915}}}, "icon": "https://maps.gstatic.com/mapfiles/place_api/icons/generic_business-71.png", "id": "47b2390e57a878d40d292e361938d738f66ffdba", "name": "Cozy Cat Care", "place_id": "ChIJ5WbSsKJ-hYARwm5td6Yf_pg", "plus_code": {"compound_code": "VPFF+JG Berkeley, California, United States", "global_code": "849VVPFF+JG"}, "reference": "ChIJ5WbSsKJ-hYARwm5td6Yf_pg", "scope": "GOOGLE", "types": ["point_of_interest", "establishment"], "vicinity": "1743 Delaware Street, Berkeley"}, "ChIJD-KqVJ9-hYARBDR-8-RjpCc": {"geometry": {"location": {"lat": 37.8738907, "lng": -122.2756728}, "viewport": {"northeast": {"lat": 37.8752231802915, "lng": -122.2743203697085}, "southwest": {"lat": 37.8725252197085, "lng": -122.2770183302915}}}, "icon": "https://maps.gstatic.com/mapfiles/place_api/icons/generic_business-71.png", "id": "aef0d73596e794ed79922f81d6c2370b1a48cfc1", "name": "Jessica Greenwalt Design", "opening_hours": {"open_now": true}, "photos": [{"height": 369, "html_attributions": ["<a href=\"https://maps.google.com/maps/contrib/105455958759836368929/photos\">Jessica Greenwalt Design</a>"], "photo_reference": "CmRaAAAAnp10VMFrjzoOzD6b34GYjvtaucpfxJq77Lm63EYNDFhbiZpTuwy5jEt-hD9nn2MPp7TgpJs7AqHEl3is3XBFs-a-00pLaLb7n5nuPe4nwi-5-zpi-Mv8oGfv_DgVJ1fsEhBJXKZFY2WvK5yPlNTXBLMCGhQEFm2LT_hEHw2ZMDPoNTSh_tyjWQ", "width": 407}], "place_id": "ChIJD-KqVJ9-hYARBDR-8-RjpCc", "plus_code": {"compound_code": "VPFF+HP Berkeley, California, United States", "global_code": "849VVPFF+HP"}, "reference": "ChIJD-KqVJ9-hYARBDR-8-RjpCc", "scope": "GOOGLE", "types": ["point_of_interest", "establishment"], "vicinity": "1788 Delaware Street, Berkeley"}, "ChIJu0eMtKJ-hYAREbHj8BM_Xv4": {"geometry": {"location": {"lat": 37.874042, "lng": -122.276584}, "viewport": {"northeast": {"lat": 37.87526733029149, "lng": -122.2752093697085}, "southwest": {"lat": 37.87256936970849, "lng": -122.2779073302915}}}, "icon": "https://maps.gstatic.com/mapfiles/place_api/icons/school-71.png", "id": "bf1de82fd1f54c09b9ce04aacc926d9b74123007", "name": "Diversity Abroad Network", "place_id": "ChIJu0eMtKJ-hYAREbHj8BM_Xv4", "plus_code": {"compound_code": "VPFF+J9 Berkeley, California, United States", "global_code": "849VVPFF+J9"}, "reference": "ChIJu0eMtKJ-hYAREbHj8BM_Xv4", "scope": "GOOGLE", "types": ["point_of_interest", "establishment"], "vicinity": "1731 Delaware Street #100, Berkeley"}, "ChIJ22eHlaJ-hYARUTZgmYKYimY": {"geometry": {"location": {"lat": 37.87449599999999, "lng": -122.2753109}, "viewport": {"northeast": {"lat": 37.87583498029149, "lng": -122.2741174197085}, "southwest": {"lat": 37.87313701970849, "lng": -122.2768153802915}}}, "icon": "https://maps.gstatic.com/mapfiles/place_api/icons/generic_business-71.png", "id": "a54f15f2a68fcdb0cfa315fcc737749ddcbde33e", "name": "Ron Griffiths", "place_id": "ChIJ22eHlaJ-hYARUTZgmYKYimY", "plus_code": {"compound_code": "VPFF+QV Berkeley, California, United States", "global_code": "849VVPFF+QV"}, "reference": "ChIJ22eHlaJ-hYARUTZgmYKYimY", "scope": "GOOGLE", "types": ["point_of_interest", "establishment"], "vicinity": "1733 Grant Street, Berkeley"}, "ChIJq6pepKJ-hYAR3UOZvJIAHHk": {"geometry": {"location": {"lat": 37.87376249999999, "lng": -122.2757787}, "viewport": {"northeast": {"lat": 37.87511978029149, "lng": -122.2743144197085}, "southwest": {"lat": 37.8724218197085, "lng": -122.2770123802915}}}, "icon": "https://maps.gstatic.com/mapfiles/place_api/icons/generic_business-71.png", "id": "8697d2fcf4ecb6cc3e1e3509590d291afac8eec9", "name": "Vinnedge Environmental Consulting", "place_id": "ChIJq6pepKJ-hYAR3UOZvJIAHHk", "plus_code": {"compound_code": "VPFF+GM Berkeley, California, United States", "global_code": "849VVPFF+GM"}, "reference": "ChIJq6pepKJ-hYAR3UOZvJIAHHk", "scope": "GOOGLE", "types": ["point_of_interest", "establishment"], "vicinity": "1800 Grant Street, Berkeley"}, "ChIJC8Xuc5h-hYARBrdsjlMaX8U": {"geometry": {"location": {"lat": 37.8732866, "lng": -122.2750318}, "viewport": {"northeast": {"lat": 37.8745289302915, "lng": -122.2736598697085}, "southwest": {"lat": 37.8718309697085, "lng": -122.2763578302915}}}, "icon": "https://maps.gstatic.com/mapfiles/place_api/icons/generic_recreational-71.png", "id": "d2ec50620cbdc670e40ab1a99a54e3b914d9ee76", "name": "Ohlone Doggy Park", "photos": [{"height": 2268, "html_attributions": ["<a href=\"https://maps.google.com/maps/contrib/106125301737639122835/photos\">Tam Char</a>"], "photo_reference": "CmRaAAAAisZy_w33_0H9aSEzCFQY8VovFqmHt-3JY6dO9Z_t7x-DjK8vo6O8AMutseirw9_VfAw4rBWPzhj0RRlJ9VfltSRBkc5OVNfwaIQs7f_RRr4RbatAqQ9_FJa20yG8YkHHEhAj6tCP3Sa3LoIWoEwnLUAcGhRJyZ-clYGe_4IU5NX7t3fn2Q6Z9w", "width": 4032}], "place_id": "ChIJC8Xuc5h-hYARBrdsjlMaX8U", "plus_code": {"compound_code": "VPFF+8X Berkeley, California, United States", "global_code": "849VVPFF+8X"}, "rating": 4.4, "reference": "ChIJC8Xuc5h-hYARBrdsjlMaX8U", "scope": "GOOGLE", "types": ["park", "point_of_interest", "establishment"], "vicinity": "1800 Hearst Avenue, Berkeley"}, "ChIJJ80PtKJ-hYARj41T8k3eG_o": {"geometry": {"location": {"lat": 37.874062, "lng": -122.276432}, "viewport": {"northeast": {"lat": 37.8752871302915, "lng": -122.2750573697085}, "southwest": {"lat": 37.8725891697085, "lng": -122.2777553302915}}}, "icon": "https://maps.gstatic.com/mapfiles/place_api/icons/shopping-71.png", "id": "cfc75681ec22968cb1bc3abb4ecf2b74e613ebdc", "name": "Succulent & Cactus", "photos": [{"height": 4032, "html_attributions": ["<a href=\"https://maps.google.com/maps/contrib/112104674721152608903/photos\">Aidan Cassel-Mace</a>"], "photo_reference": "CmRaAAAAdx2eXBqCe6q_pVS_JeJ-n9s9-ztXiz_fbeftUA8VMeIqNIzuOIiNimb7drrOho-PqTwDEStHXgf3OhqiQKKTgbSxloD04x3PG9yhRdSSsdLk0n_M1U1MAhQX2d70d8U_EhBeLiuzhQVHtm7vpb4R5Y52GhQj7MGYYlcSvhoq0Oxdxo3LwX6hOg", "width": 3024}], "place_id": "ChIJJ80PtKJ-hYARj41T8k3eG_o", "plus_code": {"compound_code": "VPFF+JC Berkeley, California, United States", "global_code": "849VVPFF+JC"}, "rating": 4.6, "reference": "ChIJJ80PtKJ-hYARj41T8k3eG_o", "scope": "GOOGLE", "types": ["store", "point_of_interest", "establishment"], "vicinity": "1735 Delaware Street, Berkeley"}, "ChIJdeeFBZh-hYARinDJboZ4ihE": {"geometry": {"location": {"lat": 37.8728388, "lng": -122.2760466}, "viewport": {"northeast": {"lat": 37.8742349802915, "lng": -122.2747071197085}, "southwest": {"lat": 37.87153701970851, "lng": -122.2774050802915}}}, "icon": "https://maps.gstatic.com/mapfiles/place_api/icons/generic_business-71.png", "id": "24b2332eef2f59dc7e8420caa8123d0a9fec3b68", "name": "Kirk McCarthy", "place_id": "ChIJdeeFBZh-hYARinDJboZ4ihE", "plus_code": {"compound_code": "VPFF+4H Berkeley, California, United States", "global_code": "849VVPFF+4H"}, "rating": 5, "reference": "ChIJdeeFBZh-hYARinDJboZ4ihE", "scope": "GOOGLE", "types": ["art_gallery", "point_of_interest", "establishment"], "vicinity": "1734 Hearst Avenue, Berkeley"}, "ChIJkdRFwKJ-hYARwKc8akavlFc": {"geometry": {"location": {"lat": 37.8747362, "lng": -122.2754254}, "viewport": {"northeast": {"lat": 37.8761415802915, "lng": -122.2740881197085}, "southwest": {"lat": 37.8734436197085, "lng": -122.2767860802915}}}, "icon": "https://maps.gstatic.com/mapfiles/place_api/icons/generic_business-71.png", "id": "a9ddd88f397443ecb747282a7c574043c0a805ab", "name": "The Green Yogi", "place_id": "ChIJkdRFwKJ-hYARwKc8akavlFc", "plus_code": {"compound_code": "VPFF+VR Berkeley, California, United States", "global_code": "849VVPFF+VR"}, "reference": "ChIJkdRFwKJ-hYARwKc8akavlFc", "scope": "GOOGLE", "types": ["point_of_interest", "establishment"], "vicinity": "1790 Francisco Street, Berkeley"}, "ChIJu9_eDaF-hYARsK0y-jfrTkU": {"geometry": {"location": {"lat": 37.8762923, "lng": -122.2738958}, "viewport": {"northeast": {"lat": 37.886603, "lng": -122.2610307}, "southwest": {"lat": 37.8721519, "lng": -122.2832287}}}, "icon": "https://maps.gstatic.com/mapfiles/place_api/icons/geocode-71.png", "id": "46f99d22b7456f63f4ac5b93236e7eef36e4d502", "name": "North Berkeley", "place_id": "ChIJu9_eDaF-hYARsK0y-jfrTkU", "reference": "ChIJu9_eDaF-hYARsK0y-jfrTkU", "scope": "GOOGLE", "types": ["neighborhood", "political"], "vicinity": "Berkeley"}}