{"ChIJ00mFOjZ5hYARk-l1ppUV6pQ": {"geometry": {"location": {"lat": 37.8715926, "lng": -122.272747}, "viewport": {"northeast": {"lat": 37.9058239, "lng": -122.234179}, "southwest": {"lat": 37.835727, "lng": -122.367781}}}, "icon": "https://maps.gstatic.com/mapfiles/place_api/icons/geocode-71.png", "id": "00741fe572fc4084428ab206e1a55830f6a1bf0a", "name": "Berkeley", "photos": [{"height": 1080, "html_attributions": ["<a href=\"https://maps.google.com/maps/contrib/110244590763501513798/photos\">miao hsin sun</a>"], "photo_reference": "CmRaAAAAYIN5fW1sHrDYH3ytclXol5wLVd13YujEo_EsQisF2uY5_zD5Z_SfjfcHBBJv2C3tLSmoXCuLYp_A5yAyMFBvn-9tmDCDnXSBE_fWLPWoZ-nLc_sKak3qvrB--Q8NqI7OEhBLsfg234iNoMptJ5u6I1pTGhRXnN85Mxp-5yhE9vYR-xJELoj7MQ", "width": 1616}], "place_id": "ChIJ00mFOjZ5hYARk-l1ppUV6pQ", "reference": "ChIJ00mFOjZ5hYARk-l1ppUV6pQ", "scope": "GOOGLE", "types": ["locality", "political"], "vicinity": "Berkeley"}, "ChIJP-6mtPd-hYARm9B7P9eM4YI": {"geometry": {"location": {"lat": 37.84927800000001, "lng": -122.2965557}, "viewport": {"northeast": {"lat": 37.85062698029151, "lng": -122.2952067197085}, "southwest": {"lat": 37.84792901970851, "lng": -122.2979046802915}}}, "icon": "https://maps.gstatic.com/mapfiles/place_api/icons/generic_business-71.png", "id": "305c5a34d8597c6bd2230ea99c0f3ed4a1b37c82", "name": "KFRC-AM San Francisco", "photos": [{"height": 4032, "html_attributions": ["<a href=\"https://maps.google.com/maps/contrib/106720645476168867857/photos\">alvaro mariano</a>"], "photo_reference": "CmRaAAAAZ9j7qkWoKPnEKQ9aBcSGK8PhxL6rwNd6rEJOYnI5Jn4UcAP_krpqXM_LKYaKlqAAD7mjIxvg7YKxHIIWlqYF54O5EWbYEED5b80wZjoEuqJAohSct4K2ytfarTbsi9t3EhDbpwY5Z81qTf5CaKz2Z9oXGhQQEF8LDB8Hjt6Ec5tcbvteFt2HOw", "width": 3024}], "place_id": "ChIJP-6mtPd-hYARm9B7P9eM4YI", "plus_code": {"compound_code": "RPX3+P9 Berkeley, California, United States", "global_code": "849VRPX3+P9"}, "reference": "ChIJP-6mtPd-hYARm9B7P9eM4YI", "scope": "GOOGLE", "types": ["point_of_interest", "establishment"], "vicinity": "Berkeley"}, "ChIJM5kw5fZ-hYAR-jAdfCBKZ0E": {"geometry": {"location": {"lat": 37.8507049, "lng": -122.2958853}, "viewport": {"northeast": {"lat": 37.8520383302915, "lng": -122.2946862197085}, "southwest": {"lat": 37.8493403697085, "lng": -122.2973841802915}}}, "icon": "https://maps.gstatic.com/mapfiles/place_api/icons/generic_business-71.png", "id": "13db4a3439681abf353095fe1bfa7d430f6110a9", "name": "Youth Musical Theater Company (YMTC)", "opening_hours": {"open_now": true}, "photos": [{"height": 2560, "html_attributions": ["<a href=\"https://maps.google.com/maps/contrib/116944491939607547935/photos\">Francisco Morales</a>"], "photo_reference": "CmRaAAAAAi4cYo-j5Kkl_D1ZxGipoMteWhkODtd1jLdzActiMoQ5jtbOGpPzRSFpnIOBNmKP-ugs_N53Ew_BBxeP_SCUJ_tUY2aV6yAG2OOWgj3svVBFNw7qEF7En4E-WNpmISxfEhCAM80CJ6Yf6QpZM8-lREBZGhQZUL62MdXGrwoEBhKgLuRIK8dx_g", "width": 1440}], "place_id": "ChIJM5kw5fZ-hYAR-jAdfCBKZ0E", "plus_code": {"compound_code": "VP23+7J Berkeley, California, United States", "global_code": "849VVP23+7J"}, "rating": 4.4, "reference": "ChIJM5kw5fZ-hYAR-jAdfCBKZ0E", "scope": "GOOGLE", "types": ["point_of_interest", "establishment"], "vicinity": "2925-2945 Bolivar Drive, Berkeley"}, "ChIJP-6mtPd-hYARy5S6mpPmPjo": {"geometry": {"location": {"lat": 37.84927800000001, "lng": -122.2965557}, "viewport": {"northeast": {"lat": 37.85062698029151, "lng": -122.2952067197085}, "southwest": {"lat": 37.84792901970851, "lng": -122.2979046802915}}}, "icon": "https://maps.gstatic.com/mapfiles/place_api/icons/generic_business-71.png", "id": "cae050cb11d67069776cdc84e050bfcd41792a6a", "name": "KBLX-AM Berkeley", "place_id": "ChIJP-6mtPd-hYARy5S6mpPmPjo", "plus_code": {"compound_code": "RPX3+P9 Berkeley, California, United States", "global_code": "849VRPX3+P9"}, "reference": "ChIJP-6mtPd-hYARy5S6mpPmPjo", "scope": "GOOGLE", "types": ["point_of_interest", "establishment"], "vicinity": "Berkeley"}, "ChIJmRMidyp_hYARFGHIetkNbdI": {"geometry": {"location": {"lat": 37.84927800000001, "lng": -122.2965557}, "viewport": {"northeast": {"lat": 37.85062698029151, "lng": -122.2952067197085}, "southwest": {"lat": 37.84792901970851, "lng": -122.2979046802915}}}, "icon": "https://maps.gstatic.com/mapfiles/place_api/icons/generic_business-71.png", "id": "b0956908425d7f08fd5145e8b4faae927b984363", "name": "KABL Radio Studio", "place_id": "ChIJmRMidyp_hYARFGHIetkNbdI", "plus_code": {"compound_code": "RPX3+P9 Berkeley, California, United States", "global_code": "849VRPX3+P9"}, "reference": "ChIJmRMidyp_hYARFGHIetkNbdI", "scope": "GOOGLE", "types": ["point_of_interest", "establishment"], "vicinity": "Unnamed Road, Berkeley"}, "ChIJs5DVtPd-hYARlphi_oWfwro": {"geometry": {"location": {"lat": 37.8492518, "lng": -122.2965919}, "viewport": {"northeast": {"lat": 37.85060078029149, "lng": -122.2952429197085}, "southwest": {"lat": 37.8479028197085, "lng": -122.2979408802915}}}, "icon": "https://maps.gstatic.com/mapfiles/place_api/icons/generic_business-71.png", "id": "0986110d898f9257081833be8067287f6ff3f939", "name": "KRE transmitter", "photos": [{"height": 1806, "html_attributions": ["<a href=\"https://maps.google.com/maps/contrib/103462562809337193668/photos\">Dan Joseph</a>"], "photo_reference": "CmRaAAAATFApgtG0lPBNaAFmQWi45TJsNoRetLt288qScEERu9vU0R11gqFE-nZuR1YDp9M79alQwF50U8slei1CUaNxUUKrVoF7pZffZHw03lTKKwp8sy6Ol-qAMLqNgerFkrG-EhD_JHdp7Kai7-CQjc5yY0oxGhSlrDuI8MG4HqVQYS0TWzALRIWkFw", "width": 3264}], "place_id": "ChIJs5DVtPd-hYARlphi_oWfwro", "plus_code": {"compound_code": "RPX3+P9 Berkeley, California, United States", "global_code": "849VRPX3+P9"}, "rating": 5, "reference": "ChIJs5DVtPd-hYARlphi_oWfwro", "scope": "GOOGLE", "types": ["point_of_interest", "establishment"], "vicinity": "601 Ashby Avenue, Berkeley"}, "ChIJIeVYtfd-hYARvZXmRdEtsdE": {"geometry": {"location": {"lat": 37.84909340000001, "lng": -122.2966363}, "viewport": {"northeast": {"lat": 37.8504423802915, "lng": -122.2952873197085}, "southwest": {"lat": 37.8477444197085, "lng": -122.2979852802915}}}, "icon": "https://maps.gstatic.com/mapfiles/place_api/icons/generic_business-71.png", "id": "c45142f6bb1f269c99070effaaf02351daa7dc80", "name": "KFRC", "place_id": "ChIJIeVYtfd-hYARvZXmRdEtsdE", "plus_code": {"compound_code": "RPX3+J8 Berkeley, California, United States", "global_code": "849VRPX3+J8"}, "reference": "ChIJIeVYtfd-hYARvZXmRdEtsdE", "scope": "GOOGLE", "types": ["point_of_interest", "establishment"], "vicinity": "Berkeley"}, "ChIJs44f6hR-hYARB3GwqDEYHUg": {"geometry": {"location": {"lat": 37.831316, "lng": -122.2852473}, "viewport": {"northeast": {"lat": 37.8499259, "lng": -122.276123}, "southwest": {"lat": 37.8268948, "lng": -122.3154701}}}, "icon": "https://maps.gstatic.com/mapfiles/place_api/icons/geocode-71.png", "id": "50264385d03c71c7c39b656a05a99231106dfb05", "name": "Emeryville", "photos": [{"height": 3024, "html_attributions": ["<a href=\"https://maps.google.com/maps/contrib/105925452919882592532/photos\">Rene&#39; Bennett</a>"], "photo_reference": "CmRaAAAAD-NcL9toNmtbHzVbup7nW1HL4Se0C8NhEE3LRLxSMkcGSMLKalQi6Xn-5iEeArw3TM4t0JtGMdcgR1Vg2UQXG8vdUYYR7gmoWRxh1cBQctakfq0TddlVtcwvGgRd6PawEhBVMVWkHkP8A8FfZINLtln0GhRkeZck70_xbVnFd81wOjF51wIkpg", "width": 4032}], "place_id": "ChIJs44f6hR-hYARB3GwqDEYHUg", "reference": "ChIJs44f6hR-hYARB3GwqDEYHUg", "scope": "GOOGLE", "types": ["locality", "political"], "vicinity": "Emeryville"}}