{"ChIJ00mFOjZ5hYARk-l1ppUV6pQ": {"geometry": {"location": {"lat": 37.8715926, "lng": -122.272747}, "viewport": {"northeast": {"lat": 37.9058239, "lng": -122.234179}, "southwest": {"lat": 37.835727, "lng": -122.367781}}}, "icon": "https://maps.gstatic.com/mapfiles/place_api/icons/geocode-71.png", "id": "00741fe572fc4084428ab206e1a55830f6a1bf0a", "name": "Berkeley", "photos": [{"height": 1080, "html_attributions": ["<a href=\"https://maps.google.com/maps/contrib/110244590763501513798/photos\">miao hsin sun</a>"], "photo_reference": "CmRaAAAAvZDqzwCW8RutLSaOglAXSwXPcfLUc6moU7vF2AJK3br2aogFy2yGMI05gPSz81o7xYd-Mlsm8xWgWnG3BQWINs8hhWOhgCJs3XRFZvvcqMBTMZfknQ37U3lIRl3UNl9MEhC8C8zZpQZRNBrhtxGQvZmDGhRzcGNAy0jYSI1Z7rtbuneS4H-krA", "width": 1616}], "place_id": "ChIJ00mFOjZ5hYARk-l1ppUV6pQ", "reference": "ChIJ00mFOjZ5hYARk-l1ppUV6pQ", "scope": "GOOGLE", "types": ["locality", "political"], "vicinity": "Berkeley"}, "ChIJa4E67e9-hYARfm8_3xLtVrw": {"geometry": {"location": {"lat": 37.8579793, "lng": -122.2985811}, "viewport": {"northeast": {"lat": 37.8593376302915, "lng": -122.2971940197085}, "southwest": {"lat": 37.8566396697085, "lng": -122.2998919802915}}}, "icon": "https://maps.gstatic.com/mapfiles/place_api/icons/generic_business-71.png", "id": "194822c4eef1b269c3d005ab71eac45754afd529", "name": "FIT4MOM Berkeley/Emeryville", "place_id": "ChIJa4E67e9-hYARfm8_3xLtVrw", "reference": "ChIJa4E67e9-hYARfm8_3xLtVrw", "scope": "GOOGLE", "types": ["point_of_interest", "establishment"], "vicinity": "Aquatic Park Path, Berkeley"}, "ChIJTYQoiiB_hYARYAzG0_paB48": {"geometry": {"location": {"lat": 37.8666298, "lng": -122.3093344}, "viewport": {"northeast": {"lat": 37.8821921, "lng": -122.2988261}, "southwest": {"lat": 37.847385, "lng": -122.3248291}}}, "icon": "https://maps.gstatic.com/mapfiles/place_api/icons/geocode-71.png", "id": "02ae14ee13f581aa5b99429331e5b115416b2451", "name": "Berkeley Marina", "photos": [{"height": 2304, "html_attributions": ["<a href=\"https://maps.google.com/maps/contrib/116931004475772275611/photos\">Pasqualino Ferralis</a>"], "photo_reference": "CmRaAAAAN2wzXJKVh06fFmdJ_-KLMH7P7Izegwop6qwrW_2tBrGWtx7rVxYAq3CSOjYvu67WpH2TAIpodxprHGFBBKAu47ux2M1ElDnFIpAzXV2MGqJU7GOKd9w-19wnGeNcImaqEhC-fVsJVDDO2gA7eWMhlMHGGhRYaINiL65RSjdCKFeWaWG1oya5Qg", "width": 3072}], "place_id": "ChIJTYQoiiB_hYARYAzG0_paB48", "reference": "ChIJTYQoiiB_hYARYAzG0_paB48", "scope": "GOOGLE", "types": ["neighborhood", "political"], "vicinity": "Berkeley"}}