{"ChIJ00mFOjZ5hYARk-l1ppUV6pQ": {"geometry": {"location": {"lat": 37.8715926, "lng": -122.272747}, "viewport": {"northeast": {"lat": 37.9058239, "lng": -122.234179}, "southwest": {"lat": 37.835727, "lng": -122.367781}}}, "icon": "https://maps.gstatic.com/mapfiles/place_api/icons/geocode-71.png", "id": "00741fe572fc4084428ab206e1a55830f6a1bf0a", "name": "Berkeley", "photos": [{"height": 1080, "html_attributions": ["<a href=\"https://maps.google.com/maps/contrib/110244590763501513798/photos\">miao hsin sun</a>"], "photo_reference": "CmRaAAAAPuDNEVpqUpbEaa7QKzWPkJYl52Aog5lLVDu9q5PLxOaBiccgJcHQthCA1gQgciOybIF750TzJDPKHVcv6Qf3NR5nucPM8J1OxhiIbXqLM4VG42p9i06VW3pmK0aRgCDaEhD_lL4g3VEP7SbIghRVpnWcGhTgbMgDYsMWdFhKdORxV951ItZ4pw", "width": 1616}], "place_id": "ChIJ00mFOjZ5hYARk-l1ppUV6pQ", "reference": "ChIJ00mFOjZ5hYARk-l1ppUV6pQ", "scope": "GOOGLE", "types": ["locality", "political"], "vicinity": "Berkeley"}, "ChIJcVyayiF8hYARZcP8fT-aICQ": {"geometry": {"location": {"lat": 37.87554000000001, "lng": -122.2618794}, "viewport": {"northeast": {"lat": 37.8770633302915, "lng": -122.2605497697085}, "southwest": {"lat": 37.8743653697085, "lng": -122.2632477302915}}}, "icon": "https://maps.gstatic.com/mapfiles/place_api/icons/school-71.png", "id": "fc8ae820d29648694d8859c0acf441b89de8615e", "name": "Graduate Theological Union", "opening_hours": {"open_now": true}, "photos": [{"height": 682, "html_attributions": ["<a href=\"https://maps.google.com/maps/contrib/114743786882491348549/photos\">canaan times</a>"], "photo_reference": "CmRaAAAA1KWihK8Q9N77f7g2ZRLY_Ct-C5Z4RHrVs945MO2bCevd3V4DMeAA7QudyKvYYBhZ8DQTWZGm6kBbrY6T5hJfeK7gvhyk4_bKeNlWU099kwu2lx1qnUnvcw7jHeGOfJjnEhDQYgUH00E6iLsJgFoekvd1GhSGv_HJ0ScRwtGMFZ1y7ef3BhYviA", "width": 1038}], "place_id": "ChIJcVyayiF8hYARZcP8fT-aICQ", "plus_code": {"compound_code": "VPGQ+66 Berkeley, California, United States", "global_code": "849VVPGQ+66"}, "rating": 4.5, "reference": "ChIJcVyayiF8hYARZcP8fT-aICQ", "scope": "GOOGLE", "types": ["library", "university", "point_of_interest", "school", "establishment"], "vicinity": "2400 Ridge Road, Berkeley"}, "ChIJR0Va9zl8hYARGiUQM5LjSms": {"geometry": {"location": {"lat": 37.8741044, "lng": -122.2638912}, "viewport": {"northeast": {"lat": 37.8751399302915, "lng": -122.2620752197085}, "southwest": {"lat": 37.8724419697085, "lng": -122.2647731802915}}}, "icon": "https://maps.gstatic.com/mapfiles/place_api/icons/school-71.png", "id": "3fc4082580e9c2fa18f5abce9ba3b36378df1cba", "name": "Graduate School of Education", "place_id": "ChIJR0Va9zl8hYARGiUQM5LjSms", "plus_code": {"compound_code": "VPFP+JC Berkeley, California, United States", "global_code": "849VVPFP+JC"}, "rating": 4, "reference": "ChIJR0Va9zl8hYARGiUQM5LjSms", "scope": "GOOGLE", "types": ["university", "point_of_interest", "establishment"], "vicinity": "1501 Tolman Hall, Berkeley"}, "ChIJqTcCACF8hYARyp6Bo_e-uik": {"geometry": {"location": {"lat": 37.8749451, "lng": -122.2625826}, "viewport": {"northeast": {"lat": 37.87632208029149, "lng": -122.2610265697085}, "southwest": {"lat": 37.8736241197085, "lng": -122.2637245302915}}}, "icon": "https://maps.gstatic.com/mapfiles/place_api/icons/school-71.png", "id": "27d08ea2b983336f0e6e2603079d6449d556a90d", "name": "Montessori Family School: Preschool-Kindergarten", "opening_hours": {"open_now": true}, "place_id": "ChIJqTcCACF8hYARyp6Bo_e-uik", "plus_code": {"compound_code": "VPFP+XX Berkeley, California, United States", "global_code": "849VVPFP+XX"}, "rating": 5, "reference": "ChIJqTcCACF8hYARyp6Bo_e-uik", "scope": "GOOGLE", "types": ["point_of_interest", "school", "establishment"], "vicinity": "1850 Scenic Avenue, Berkeley"}, "ChIJLb5LqyF8hYARccyfsFZII-E": {"geometry": {"location": {"lat": 37.874905, "lng": -122.2629223}, "viewport": {"northeast": {"lat": 37.8761811302915, "lng": -122.2615587197085}, "southwest": {"lat": 37.8734831697085, "lng": -122.2642566802915}}}, "icon": "https://maps.gstatic.com/mapfiles/place_api/icons/generic_business-71.png", "id": "0a20c262090e8c00bc98a4f38c69fca8590dd2c5", "name": "New Bridge Foundation", "opening_hours": {"open_now": true}, "photos": [{"height": 2112, "html_attributions": ["<a href=\"https://maps.google.com/maps/contrib/106925616678372459044/photos\">New Bridge Foundation</a>"], "photo_reference": "CmRaAAAAsHJA885ceIDrHYEOp2b0HuYsYUnou0lPVZYVnM6gXGb6WeY4kfx265kX0AUREYcKJnJdZ-nHLd418xDIeBM7OVu9Anh3e8px5ICikw_-IgOERGmaO5-KEFRsHaxP9l94EhC6igzZs4iJrtgsSc9ijOj-GhSx-LktXN-Ph3Sbe5pZrJ1lR8TK_g", "width": 2816}], "place_id": "ChIJLb5LqyF8hYARccyfsFZII-E", "plus_code": {"compound_code": "VPFP+XR Berkeley, California, United States", "global_code": "849VVPFP+XR"}, "rating": 4.3, "reference": "ChIJLb5LqyF8hYARccyfsFZII-E", "scope": "GOOGLE", "types": ["doctor", "health", "point_of_interest", "establishment"], "vicinity": "2323 Hearst Avenue, Berkeley"}, "ChIJc4a9mCF8hYAR5GFxxbC571E": {"geometry": {"location": {"lat": 37.87564100000001, "lng": -122.2609556}, "viewport": {"northeast": {"lat": 37.8771414802915, "lng": -122.2596383197085}, "southwest": {"lat": 37.8744435197085, "lng": -122.2623362802915}}}, "icon": "https://maps.gstatic.com/mapfiles/place_api/icons/generic_business-71.png", "id": "2766ba60563662df277be62df1b198489560ef13", "name": "Berkeley Student Cooperative - Central Office", "opening_hours": {"open_now": true}, "photos": [{"height": 2448, "html_attributions": ["<a href=\"https://maps.google.com/maps/contrib/114644541741049821573/photos\">Chenyu Huang</a>"], "photo_reference": "CmRaAAAA7ROVQoZuZtEEnoU_lTHu8hr8-uDsE0KegnDl2U_HptRbNVvhoEg9e_97Z5nSYSfG0Fh8v-q5kDCiIktKJ1IXMbWE6V3P28NCq4j7ouXolpbXdBFTAPHiXuJXDPNdo9T2EhBx3CRWnLSOyHiGrmxBPDvSGhRdt4qz11KKllWA-V7bsNEKcgdIEw", "width": 3264}], "place_id": "ChIJc4a9mCF8hYAR5GFxxbC571E", "plus_code": {"compound_code": "VPGQ+7J Berkeley, California, United States", "global_code": "849VVPGQ+7J"}, "rating": 4, "reference": "ChIJc4a9mCF8hYAR5GFxxbC571E", "scope": "GOOGLE", "types": ["point_of_interest", "establishment"], "vicinity": "2424 Ridge Road, Berkeley"}, "ChIJEYk9viF8hYARD1mFxTLDLhI": {"geometry": {"location": {"lat": 37.8761851, "lng": -122.2615294}, "viewport": {"northeast": {"lat": 37.8773873302915, "lng": -122.2601560197085}, "southwest": {"lat": 37.8746893697085, "lng": -122.2628539802915}}}, "icon": "https://maps.gstatic.com/mapfiles/place_api/icons/school-71.png", "id": "4c5bd104284200a0db5e285d8293b8aff7b71cba", "name": "Church Divinity School Of The Pacific", "place_id": "ChIJEYk9viF8hYARD1mFxTLDLhI", "plus_code": {"compound_code": "VPGQ+F9 Berkeley, California, United States", "global_code": "849VVPGQ+F9"}, "rating": 4.3, "reference": "ChIJEYk9viF8hYARD1mFxTLDLhI", "scope": "GOOGLE", "types": ["university", "place_of_worship", "point_of_interest", "school", "establishment"], "vicinity": "2451 Ridge Road, Berkeley"}, "ChIJWe9wWCB8hYARahihvR7lalQ": {"geometry": {"location": {"lat": 37.8748238, "lng": -122.2632902}, "viewport": {"northeast": {"lat": 37.87611688029149, "lng": -122.2619296697085}, "southwest": {"lat": 37.87341891970849, "lng": -122.2646276302915}}}, "icon": "https://maps.gstatic.com/mapfiles/place_api/icons/worship_general-71.png", "id": "4b48103974cb7256337ca8c9473d9fb727dadfe6", "name": "Chapel of St Demetrios", "place_id": "ChIJWe9wWCB8hYARahihvR7lalQ", "plus_code": {"compound_code": "VPFP+WM Berkeley, California, United States", "global_code": "849VVPFP+WM"}, "reference": "ChIJWe9wWCB8hYARahihvR7lalQ", "scope": "GOOGLE", "types": ["church", "place_of_worship", "point_of_interest", "establishment"], "vicinity": "2311 Hearst Avenue, Berkeley"}, "ChIJWe9wWCB8hYARdeRvoUYjyI8": {"geometry": {"location": {"lat": 37.8748238, "lng": -122.2632902}, "viewport": {"northeast": {"lat": 37.87611688029149, "lng": -122.2619296697085}, "southwest": {"lat": 37.87341891970849, "lng": -122.2646276302915}}}, "icon": "https://maps.gstatic.com/mapfiles/place_api/icons/school-71.png", "id": "6e3ad0b5ccd5fdf171ee224243cc8ca2d3b0b6c0", "name": "Orthodox Institute", "place_id": "ChIJWe9wWCB8hYARdeRvoUYjyI8", "plus_code": {"compound_code": "VPFP+WM Berkeley, California, United States", "global_code": "849VVPFP+WM"}, "reference": "ChIJWe9wWCB8hYARdeRvoUYjyI8", "scope": "GOOGLE", "types": ["university", "point_of_interest", "establishment"], "vicinity": "2311 Hearst Avenue, Berkeley"}, "ChIJ71EJQSB8hYARIBQ4xweCDMQ": {"geometry": {"location": {"lat": 37.87561700000001, "lng": -122.263821}, "viewport": {"northeast": {"lat": 37.8769556302915, "lng": -122.2626170697085}, "southwest": {"lat": 37.87425766970851, "lng": -122.2653150302915}}}, "icon": "https://maps.gstatic.com/mapfiles/place_api/icons/generic_business-71.png", "id": "6f29c2c609f87046307a49e19aec7f083f1fae74", "name": "Institute of Salesian Studies at Don Bosco Hall", "opening_hours": {"open_now": true}, "photos": [{"height": 1000, "html_attributions": ["<a href=\"https://maps.google.com/maps/contrib/112936352329425490134/photos\">Institute of Salesian Studies at Don Bosco Hall</a>"], "photo_reference": "CmRaAAAAp719PpImTeaix_E-kr9mB3Ap2L82tyzS8q3tS1EZKLApFx0GNBbIXLZsgvoGW7LoTIuTUMG1M30mfOsQM1vCvzP80UreWdKP0PSAx5iHLZJ49ZirQP3DPnd9n6vItPZGEhDXuUi1ReOn2WrHUu5SMw2KGhRqweioeGypoPO-fufkPn2Z3gydBQ", "width": 1500}], "place_id": "ChIJ71EJQSB8hYARIBQ4xweCDMQ", "plus_code": {"compound_code": "VPGP+6F Berkeley, California, United States", "global_code": "849VVPGP+6F"}, "rating": 5, "reference": "ChIJ71EJQSB8hYARIBQ4xweCDMQ", "scope": "GOOGLE", "types": ["point_of_interest", "establishment"], "vicinity": "1831 Arch Street, Berkeley"}, "ChIJn-7Gx6h-hYAR7Nk768NzP68": {"geometry": {"location": {"lat": 37.8755039, "lng": -122.2628311}, "viewport": {"northeast": {"lat": 37.8768528802915, "lng": -122.2614821197085}, "southwest": {"lat": 37.8741549197085, "lng": -122.2641800802915}}}, "icon": "https://maps.gstatic.com/mapfiles/place_api/icons/worship_general-71.png", "id": "7b4ab499f4ee2a173311b4e8f0c924071e471c62", "name": "The Church of Jesus Christ of Latter-day Saints", "opening_hours": {"open_now": true}, "place_id": "ChIJn-7Gx6h-hYAR7Nk768NzP68", "plus_code": {"compound_code": "VPGP+6V Berkeley, California, United States", "global_code": "849VVPGP+6V"}, "rating": 5, "reference": "ChIJn-7Gx6h-hYAR7Nk768NzP68", "scope": "GOOGLE", "types": ["church", "place_of_worship", "point_of_interest", "establishment"], "vicinity": "Berkeley"}, "ChIJcVyayiF8hYARrMgWjyEsT28": {"geometry": {"location": {"lat": 37.8755745, "lng": -122.2618469}, "viewport": {"northeast": {"lat": 37.87707638029149, "lng": -122.2604972697085}, "southwest": {"lat": 37.8743784197085, "lng": -122.2631952302915}}}, "icon": "https://maps.gstatic.com/mapfiles/place_api/icons/school-71.png", "id": "7c5b59e277f0995427901831ba5908068dc463b6", "name": "Center for Theology and the Natural Sciences", "place_id": "ChIJcVyayiF8hYARrMgWjyEsT28", "plus_code": {"compound_code": "VPGQ+67 Berkeley, California, United States", "global_code": "849VVPGQ+67"}, "reference": "ChIJcVyayiF8hYARrMgWjyEsT28", "scope": "GOOGLE", "types": ["university", "point_of_interest", "establishment"], "vicinity": "2400 Ridge Road, Berkeley"}, "ChIJSTFIrSF8hYAR_9hYUEskJ1Q": {"geometry": {"location": {"lat": 37.8755286, "lng": -122.2624971}, "viewport": {"northeast": {"lat": 37.8768916302915, "lng": -122.2610440697085}, "southwest": {"lat": 37.8741936697085, "lng": -122.2637420302915}}}, "icon": "https://maps.gstatic.com/mapfiles/place_api/icons/generic_business-71.png", "id": "f13bc47a4a2d644bc3e11e8fd76697bbb3235933", "name": "Leff Victoria R", "place_id": "ChIJSTFIrSF8hYAR_9hYUEskJ1Q", "plus_code": {"compound_code": "VPGQ+62 Berkeley, California, United States", "global_code": "849VVPGQ+62"}, "reference": "ChIJSTFIrSF8hYAR_9hYUEskJ1Q", "scope": "GOOGLE", "types": ["physiotherapist", "health", "point_of_interest", "establishment"], "vicinity": "1816 Scenic Avenue, Berkeley"}, "ChIJP7UYoyF8hYARNmQdzYMkFdA": {"geometry": {"location": {"lat": 37.8757587, "lng": -122.2610195}, "viewport": {"northeast": {"lat": 37.8771978302915, "lng": -122.2596893697085}, "southwest": {"lat": 37.8744998697085, "lng": -122.2623873302915}}}, "icon": "https://maps.gstatic.com/mapfiles/place_api/icons/generic_business-71.png", "id": "8e306486e937383dc5d2e71b942cf99458b28444", "name": "Berkeley Student Cooperative - Casa Zimbabwe Student Housing Co-op", "opening_hours": {"open_now": true}, "photos": [{"height": 3120, "html_attributions": ["<a href=\"https://maps.google.com/maps/contrib/100034153005947869984/photos\">\u0418\u043b\u044c\u044f \u0411\u043e\u043d\u0434\u0430\u0440\u0435\u0432</a>"], "photo_reference": "CmRaAAAAiSr-VArEvCei4N7-yAResrNXt2Ed_7AEv3AWhah56IDK1yDT0dBBHQJndu73eFonOozvOH7-Na3t5LYGSgR1xmXIV3G3ibt7ZjeidxATWf1YdD5W6Rd5wWsMVPv-pzjJEhC0i59paL3yV3F-neTqZGd6GhQcs9PnVF93BrhczILy2HsnmzVWBQ", "width": 4160}], "place_id": "ChIJP7UYoyF8hYARNmQdzYMkFdA", "plus_code": {"compound_code": "VPGQ+8H Berkeley, California, United States", "global_code": "849VVPGQ+8H"}, "rating": 4.5, "reference": "ChIJP7UYoyF8hYARNmQdzYMkFdA", "scope": "GOOGLE", "types": ["point_of_interest", "establishment"], "vicinity": "2422 Ridge Road, Berkeley"}, "ChIJS7LRNiB8hYARprhSL4R-iXs": {"geometry": {"location": {"lat": 37.87616999999999, "lng": -122.262849}, "viewport": {"northeast": {"lat": 37.8775468302915, "lng": -122.2612922197085}, "southwest": {"lat": 37.8748488697085, "lng": -122.2639901802915}}}, "icon": "https://maps.gstatic.com/mapfiles/place_api/icons/worship_general-71.png", "id": "9003eeed364801b46ae6267fb897e62314a45c30", "name": "New Spirit Community Church", "place_id": "ChIJS7LRNiB8hYARprhSL4R-iXs", "plus_code": {"compound_code": "VPGP+FV Berkeley, California, United States", "global_code": "849VVPGP+FV"}, "reference": "ChIJS7LRNiB8hYARprhSL4R-iXs", "scope": "GOOGLE", "types": ["church", "place_of_worship", "point_of_interest", "establishment"], "vicinity": "1798 Scenic Avenue, Berkeley"}, "ChIJzxw-UiB8hYARTDZiaEmOs48": {"geometry": {"location": {"lat": 37.87543300000001, "lng": -122.262838}, "viewport": {"northeast": {"lat": 37.87685028029151, "lng": -122.2616111697085}, "southwest": {"lat": 37.87415231970851, "lng": -122.2643091302915}}}, "icon": "https://maps.gstatic.com/mapfiles/place_api/icons/worship_general-71.png", "id": "6981e6a24cf5ece50b76a623e85dab46ffff8287", "name": "Berkeley Institute of Religion", "opening_hours": {"open_now": true}, "place_id": "ChIJzxw-UiB8hYARTDZiaEmOs48", "plus_code": {"compound_code": "VPGP+5V Berkeley, California, United States", "global_code": "849VVPGP+5V"}, "reference": "ChIJzxw-UiB8hYARTDZiaEmOs48", "scope": "GOOGLE", "types": ["church", "place_of_worship", "point_of_interest", "establishment"], "vicinity": "2368 Le Conte Avenue, Berkeley"}, "ChIJ__-_8SB8hYAR3NnaRyGy9Oc": {"geometry": {"location": {"lat": 37.87410739999999, "lng": -122.2636869}, "viewport": {"northeast": {"lat": 37.8754563802915, "lng": -122.2623379197085}, "southwest": {"lat": 37.8727584197085, "lng": -122.2650358802915}}}, "icon": "https://maps.gstatic.com/mapfiles/place_api/icons/school-71.png", "id": "9590c5b53346bc5e4c78c673e84b6ef7a5cf3df4", "name": "Cal Berkeley Reads", "place_id": "ChIJ__-_8SB8hYAR3NnaRyGy9Oc", "plus_code": {"compound_code": "VPFP+JG Berkeley, California, United States", "global_code": "849VVPFP+JG"}, "reference": "ChIJ__-_8SB8hYAR3NnaRyGy9Oc", "scope": "GOOGLE", "types": ["university", "point_of_interest", "establishment"], "vicinity": "5621 Tolman Hall 1670, Berkeley"}, "ChIJhyf4pSF8hYARaA4M6AmmaGg": {"geometry": {"location": {"lat": 37.8755585, "lng": -122.2618573}, "viewport": {"northeast": {"lat": 37.8770683802915, "lng": -122.2604972697085}, "southwest": {"lat": 37.87437041970851, "lng": -122.2631952302915}}}, "icon": "https://maps.gstatic.com/mapfiles/place_api/icons/library-71.png", "id": "9313860d908bf7739d4b1419d6b821cc89a068ce", "name": "Flora Lamson Hewlett Library", "opening_hours": {"open_now": true}, "place_id": "ChIJhyf4pSF8hYARaA4M6AmmaGg", "plus_code": {"compound_code": "VPGQ+67 Berkeley, California, United States", "global_code": "849VVPGQ+67"}, "reference": "ChIJhyf4pSF8hYARaA4M6AmmaGg", "scope": "GOOGLE", "types": ["library", "point_of_interest", "establishment"], "vicinity": "2400 Ridge Road, Berkeley"}, "ChIJNzXqoyF8hYARTHFBBP2bVJw": {"geometry": {"location": {"lat": 37.8757069, "lng": -122.2614118}, "viewport": {"northeast": {"lat": 37.8771501802915, "lng": -122.2600785197085}, "southwest": {"lat": 37.8744522197085, "lng": -122.2627764802915}}}, "icon": "https://maps.gstatic.com/mapfiles/place_api/icons/generic_business-71.png", "id": "64cf7a04cb17cd3b3caa077f4bc4ba1253ac67a9", "name": "Berkeley Student Cooperative - Ridge House", "place_id": "ChIJNzXqoyF8hYARTHFBBP2bVJw", "plus_code": {"compound_code": "VPGQ+7C Berkeley, California, United States", "global_code": "849VVPGQ+7C"}, "reference": "ChIJNzXqoyF8hYARTHFBBP2bVJw", "scope": "GOOGLE", "types": ["point_of_interest", "establishment"], "vicinity": "2420 Ridge Road, Berkeley"}, "ChIJu9_eDaF-hYARsK0y-jfrTkU": {"geometry": {"location": {"lat": 37.8762923, "lng": -122.2738958}, "viewport": {"northeast": {"lat": 37.886603, "lng": -122.2610307}, "southwest": {"lat": 37.8721519, "lng": -122.2832287}}}, "icon": "https://maps.gstatic.com/mapfiles/place_api/icons/geocode-71.png", "id": "46f99d22b7456f63f4ac5b93236e7eef36e4d502", "name": "North Berkeley", "place_id": "ChIJu9_eDaF-hYARsK0y-jfrTkU", "reference": "ChIJu9_eDaF-hYARsK0y-jfrTkU", "scope": "GOOGLE", "types": ["neighborhood", "political"], "vicinity": "Berkeley"}, "ChIJNzXqoyF8hYARUK4HcwbVlzU": {"geometry": {"location": {"lat": 37.8757069, "lng": -122.2614118}, "viewport": {"northeast": {"lat": 37.8771501802915, "lng": -122.2600785197085}, "southwest": {"lat": 37.8744522197085, "lng": -122.2627764802915}}}, "icon": "https://maps.gstatic.com/mapfiles/place_api/icons/generic_business-71.png", "id": "8c98f5edba10235bef92fadee965d7769e337251", "name": "Ridge House", "photos": [{"height": 2322, "html_attributions": ["<a href=\"https://maps.google.com/maps/contrib/104221150565020112098/photos\">Sandy Clark</a>"], "photo_reference": "CmRZAAAAmpOT-CZ2mXwN7tLSWZTZ4X0sENVwszTs6Yj6e60Wnt5e6N0zo0WP4bjQXRyvJpaVClPBvGJtGXwSyqozZxRovMP4CYWMP_Dnk3QKDvPHEt5vmrBG990Nr6eYizzDbrCIEhB8xthy_tcDCr_-mqbgLIGEGhSWeAh3pxprNC7mrN01Gsg-cvP0Rg", "width": 4128}], "place_id": "ChIJNzXqoyF8hYARUK4HcwbVlzU", "plus_code": {"compound_code": "VPGQ+7C Berkeley, California, United States", "global_code": "849VVPGQ+7C"}, "rating": 5, "reference": "ChIJNzXqoyF8hYARUK4HcwbVlzU", "scope": "GOOGLE", "types": ["point_of_interest", "establishment"], "vicinity": "2420 Ridge Road, Berkeley"}, "ChIJjy29NyB8hYARMadCCPGA7IQ": {"geometry": {"location": {"lat": 37.8761145, "lng": -122.2631648}, "viewport": {"northeast": {"lat": 37.8775126802915, "lng": -122.2614487197085}, "southwest": {"lat": 37.8748147197085, "lng": -122.2641466802915}}}, "icon": "https://maps.gstatic.com/mapfiles/place_api/icons/generic_business-71.png", "id": "c4a3eb3228b305d19872b40658864fd874a72b57", "name": "famous brand music", "place_id": "ChIJjy29NyB8hYARMadCCPGA7IQ", "plus_code": {"compound_code": "VPGP+CP Berkeley, California, United States", "global_code": "849VVPGP+CP"}, "reference": "ChIJjy29NyB8hYARMadCCPGA7IQ", "scope": "GOOGLE", "types": ["electronics_store", "home_goods_store", "store", "point_of_interest", "establishment"], "vicinity": "1798 Scenic Avenue, Berkeley"}, "ChIJjy29NyB8hYARhEum3MHNapI": {"geometry": {"location": {"lat": 37.8761145, "lng": -122.2631648}, "viewport": {"northeast": {"lat": 37.8775126802915, "lng": -122.2614487197085}, "southwest": {"lat": 37.8748147197085, "lng": -122.2641466802915}}}, "icon": "https://maps.gstatic.com/mapfiles/place_api/icons/school-71.png", "id": "0fb3aaca81a5bd6af53a7aa6546147fa0db61404", "name": "CLGS", "place_id": "ChIJjy29NyB8hYARhEum3MHNapI", "plus_code": {"compound_code": "VPGP+CP Berkeley, California, United States", "global_code": "849VVPGP+CP"}, "rating": 5, "reference": "ChIJjy29NyB8hYARhEum3MHNapI", "scope": "GOOGLE", "types": ["school", "point_of_interest", "establishment"], "vicinity": "1798 Scenic Avenue, Berkeley"}, "ChIJk-FgnyF8hYARvHJX4VXcPvU": {"geometry": {"location": {"lat": 37.8757645, "lng": -122.2611747}, "viewport": {"northeast": {"lat": 37.8771915302915, "lng": -122.2598387197085}, "southwest": {"lat": 37.87449356970851, "lng": -122.2625366802915}}}, "icon": "https://maps.gstatic.com/mapfiles/place_api/icons/generic_business-71.png", "id": "e46d2c34ad6c368ca208d4b4915e156a880ecfec", "name": "Berkeley Student Cooperative - Ridge House", "place_id": "ChIJk-FgnyF8hYARvHJX4VXcPvU", "plus_code": {"compound_code": "VPGQ+8G Berkeley, California, United States", "global_code": "849VVPGQ+8G"}, "reference": "ChIJk-FgnyF8hYARvHJX4VXcPvU", "scope": "GOOGLE", "types": ["point_of_interest", "establishment"], "vicinity": "2424 Ridge Road, Berkeley"}, "ChIJnZsGjiB8hYARK2LToOjUACk": {"geometry": {"location": {"lat": 37.8741146, "lng": -122.263804}, "viewport": {"northeast": {"lat": 37.87568238029149, "lng": -122.2625017197085}, "southwest": {"lat": 37.87298441970849, "lng": -122.2651996802915}}}, "icon": "https://maps.gstatic.com/mapfiles/place_api/icons/school-71.png", "id": "2f2408058dbbd1f42aa35261247730db35d0305c", "name": "Berkeley Early Learning Lab", "place_id": "ChIJnZsGjiB8hYARK2LToOjUACk", "plus_code": {"compound_code": "VPFP+JF Berkeley, California, United States", "global_code": "849VVPFP+JF"}, "reference": "ChIJnZsGjiB8hYARK2LToOjUACk", "scope": "GOOGLE", "types": ["point_of_interest", "establishment"], "vicinity": "2300 Hearst Avenue, Berkeley"}, "ChIJg4uLyiF8hYARqsmFcA21adw": {"geometry": {"location": {"lat": 37.8762997, "lng": -122.2623966}, "viewport": {"northeast": {"lat": 37.87764178029149, "lng": -122.2610353197085}, "southwest": {"lat": 37.87494381970849, "lng": -122.2637332802915}}}, "icon": "https://maps.gstatic.com/mapfiles/place_api/icons/school-71.png", "id": "cb0e2fe482ba28244159cb30139fb0f098f2d59d", "name": "Holy Hill", "place_id": "ChIJg4uLyiF8hYARqsmFcA21adw", "plus_code": {"compound_code": "VPGQ+G2 Berkeley, California, United States", "global_code": "849VVPGQ+G2"}, "reference": "ChIJg4uLyiF8hYARqsmFcA21adw", "scope": "GOOGLE", "types": ["church", "place_of_worship", "point_of_interest", "establishment"], "vicinity": "2400-2498 Le Conte Avenue, Berkeley"}, "ChIJAX56JiF8hYARRQbEMSsHvWg": {"geometry": {"location": {"lat": 37.87358090000001, "lng": -122.2622649}, "viewport": {"northeast": {"lat": 37.8748486802915, "lng": -122.2611353197085}, "southwest": {"lat": 37.8721507197085, "lng": -122.2638332802915}}}, "icon": "https://maps.gstatic.com/mapfiles/place_api/icons/school-71.png", "id": "5032807f9f8f73d4f67daa51b7a5b14495e24ca6", "name": "Department of Agricultural & Resource Economics", "place_id": "ChIJAX56JiF8hYARRQbEMSsHvWg", "plus_code": {"compound_code": "VPFQ+C3 Berkeley, California, United States", "global_code": "849VVPFQ+C3"}, "reference": "ChIJAX56JiF8hYARRQbEMSsHvWg", "scope": "GOOGLE", "types": ["point_of_interest", "establishment"], "vicinity": "Berkeley"}, "ChIJSc3OtyF8hYAR26fnTJN8PVM": {"geometry": {"location": {"lat": 37.8763015, "lng": -122.2620236}, "viewport": {"northeast": {"lat": 37.8775663802915, "lng": -122.2608147197085}, "southwest": {"lat": 37.8748684197085, "lng": -122.2635126802915}}}, "icon": "https://maps.gstatic.com/mapfiles/place_api/icons/generic_business-71.png", "id": "4403c8211c28f86769eb042b17894d341546e908", "name": "Easton Hall Conference Center", "place_id": "ChIJSc3OtyF8hYAR26fnTJN8PVM", "plus_code": {"compound_code": "VPGQ+G5 Berkeley, California, United States", "global_code": "849VVPGQ+G5"}, "rating": 4.2, "reference": "ChIJSc3OtyF8hYAR26fnTJN8PVM", "scope": "GOOGLE", "types": ["point_of_interest", "establishment"], "vicinity": "2401 Ridge Road, Berkeley"}, "ChIJgdrC8iB8hYARt-gpAM0zAQw": {"geometry": {"location": {"lat": 37.8741044, "lng": -122.2638912}, "viewport": {"northeast": {"lat": 37.8751399302915, "lng": -122.2620752197085}, "southwest": {"lat": 37.8724419697085, "lng": -122.2647731802915}}}, "icon": "https://maps.gstatic.com/mapfiles/place_api/icons/school-71.png", "id": "f91167f4375acf90ffa9de0bef9a9f8875955752", "name": "Tolman Hall", "photos": [{"height": 4048, "html_attributions": ["<a href=\"https://maps.google.com/maps/contrib/112745299973335720568/photos\">Robert Pickmans</a>"], "photo_reference": "CmRaAAAAfKIGTKdHvWqzAI9dTGxwBC78-TsgnrOUbEtSsf6HvW2uP7GcaTYQcPiyscWdrWbSR0bkm3F2_OSM1pqYvdLvMyfAMvzjLca6_1bYXZBRlhTrnsC0KOM2BdqtoRvCle6UEhA8PCfVoPBiP_lQI7OxkG4-GhT2Ycs2v4QOC5Gvk22mpuVckL4yiw", "width": 3036}], "place_id": "ChIJgdrC8iB8hYARt-gpAM0zAQw", "plus_code": {"compound_code": "VPFP+JC Berkeley, California, United States", "global_code": "849VVPFP+JC"}, "reference": "ChIJgdrC8iB8hYARt-gpAM0zAQw", "scope": "GOOGLE", "types": ["university", "point_of_interest", "establishment"], "vicinity": "Tolman Hall, Berkeley"}, "ChIJ49rC8iB8hYARBbDJLu2I4d0": {"geometry": {"location": {"lat": 37.87410399999999, "lng": -122.263891}, "viewport": {"northeast": {"lat": 37.87513973029149, "lng": -122.2620751197085}, "southwest": {"lat": 37.87244176970849, "lng": -122.2647730802915}}}, "icon": "https://maps.gstatic.com/mapfiles/place_api/icons/generic_business-71.png", "id": "984b5b18062fd52f460c26f9b5de1cbabbea9fe7", "name": "Bay Area Writing Project", "opening_hours": {"open_now": true}, "photos": [{"height": 712, "html_attributions": ["<a href=\"https://maps.google.com/maps/contrib/115088816389697596049/photos\">Bay Area Writing Project</a>"], "photo_reference": "CmRaAAAAWowvX36E5zYUTZISwQ2I8lsNqYrMS6aixNeSqiuryx6GeACgR65Lg0KP9M-pyJKABrrDFNM8muAgRtqr1RC_qEp6HO6fCDV9MuLZa3TUY1C1y-frT9kV8E9p0bLk9YYZEhBdZjADDyOVe712EAQJVAL7GhQ5eskFcg9CKAH03iA9U25AJaQ9sg", "width": 893}], "place_id": "ChIJ49rC8iB8hYARBbDJLu2I4d0", "plus_code": {"compound_code": "VPFP+JC Berkeley, California, United States", "global_code": "849VVPFP+JC"}, "reference": "ChIJ49rC8iB8hYARBbDJLu2I4d0", "scope": "GOOGLE", "types": ["university", "point_of_interest", "establishment"], "vicinity": "Tolman Hall, Berkeley"}, "ChIJAQDQJiF8hYARJD62vhok2Z4": {"geometry": {"location": {"lat": 37.8735349, "lng": -122.2622986}, "viewport": {"northeast": {"lat": 37.87481193029149, "lng": -122.2611439697085}, "southwest": {"lat": 37.8721139697085, "lng": -122.2638419302915}}}, "icon": "https://maps.gstatic.com/mapfiles/place_api/icons/generic_business-71.png", "id": "a4e45ad6e8acb1f1cc56bb1a463b7b8ad8c2bd74", "name": "Electron Microscope Lab", "opening_hours": {"open_now": true}, "photos": [{"height": 407, "html_attributions": ["<a href=\"https://maps.google.com/maps/contrib/105750970105170124886/photos\">Karen C</a>"], "photo_reference": "CmRaAAAA_GT5ZPd58BnBepu2CSQCD-31c8IpqvjU3x6wkWaW7aWPeL3QY642bXuOXaWczzrEbw5JgwOQg65q5ntyfn7kzAMHUQhSg9VLgLDJ3A6TnxDK5C5HPv-IhnKe3YGxqidLEhDtUCy8hLy8uO97XVtY6WLQGhTVBocb9f-vI5V9hyTiZwVgFjZ-Jw", "width": 1045}], "place_id": "ChIJAQDQJiF8hYARJD62vhok2Z4", "plus_code": {"compound_code": "VPFQ+C3 Berkeley, California, United States", "global_code": "849VVPFQ+C3"}, "rating": 5, "reference": "ChIJAQDQJiF8hYARJD62vhok2Z4", "scope": "GOOGLE", "types": ["point_of_interest", "establishment"], "vicinity": "Giannini Hall, Room 26, Berkeley"}, "ChIJ46m48iB8hYARzO7NbV6SHDQ": {"geometry": {"location": {"lat": 37.874065, "lng": -122.263906}, "viewport": {"northeast": {"lat": 37.8754139802915, "lng": -122.2625570197085}, "southwest": {"lat": 37.87271601970851, "lng": -122.2652549802915}}}, "icon": "https://maps.gstatic.com/mapfiles/place_api/icons/generic_business-71.png", "id": "3c69bae24bd6cafe2d5dc9eafb6d61890fd0953d", "name": "SOD Treatment Training", "place_id": "ChIJ46m48iB8hYARzO7NbV6SHDQ", "plus_code": {"compound_code": "VPFP+JC Berkeley, California, United States", "global_code": "849VVPFP+JC"}, "reference": "ChIJ46m48iB8hYARzO7NbV6SHDQ", "scope": "GOOGLE", "types": ["point_of_interest", "establishment"], "vicinity": "54 Mulford Hall, Berkeley"}, "ChIJwXg2cCF8hYARC6ms5mzFzQ8": {"geometry": {"location": {"lat": 37.87507829999999, "lng": -122.2605507}, "viewport": {"northeast": {"lat": 37.8764437802915, "lng": -122.2592052197085}, "southwest": {"lat": 37.8737458197085, "lng": -122.2619031802915}}}, "icon": "https://maps.gstatic.com/mapfiles/place_api/icons/school-71.png", "id": "914a61b22bd8a3bd3a3116ba0479591f1c7cd150", "name": "Investigative Reporting Program at UC Berkeley", "place_id": "ChIJwXg2cCF8hYARC6ms5mzFzQ8", "plus_code": {"compound_code": "VPGQ+2Q Berkeley, California, United States", "global_code": "849VVPGQ+2Q"}, "reference": "ChIJwXg2cCF8hYARC6ms5mzFzQ8", "scope": "GOOGLE", "types": ["point_of_interest", "establishment"], "vicinity": "2481 Hearst Avenue, Berkeley"}, "ChIJS6rmcCF8hYARF_6_UJ34bhk": {"geometry": {"location": {"lat": 37.8751271, "lng": -122.2605297}, "viewport": {"northeast": {"lat": 37.8764478302915, "lng": -122.2591747197085}, "southwest": {"lat": 37.8737498697085, "lng": -122.2618726802915}}}, "icon": "https://maps.gstatic.com/mapfiles/place_api/icons/generic_business-71.png", "id": "5b816af3503209863ce9dfa40b5f66f785375362", "name": "The Daily Californian", "opening_hours": {"open_now": true}, "photos": [{"height": 1224, "html_attributions": ["<a href=\"https://maps.google.com/maps/contrib/108607341449559178464/photos\">Lenin Silva</a>"], "photo_reference": "CmRaAAAA7dWphpix8Y9edaBRcaIiJXJ0eCTb3GFg0WzhGnvTtNZro3hycbL8A2hVfKyMhuW45vD5NG1q0CfKf8jC4RkO10tWlrt92YUh5SoBwyk-MIC3-V6cybh308YRqdGJlf1wEhBtqaYz79Zxfe4_KYTHgrjjGhRJEHMUOG1HovMtEM1-RX7ph3Hngg", "width": 1224}], "place_id": "ChIJS6rmcCF8hYARF_6_UJ34bhk", "plus_code": {"compound_code": "VPGQ+3Q Berkeley, California, United States", "global_code": "849VVPGQ+3Q"}, "rating": 5, "reference": "ChIJS6rmcCF8hYARF_6_UJ34bhk", "scope": "GOOGLE", "types": ["point_of_interest", "establishment"], "vicinity": "2483 Hearst Avenue, Berkeley"}, "ChIJqezZqyF8hYARxWD6MkCD5p0": {"geometry": {"location": {"lat": 37.875242, "lng": -122.262537}, "viewport": {"northeast": {"lat": 37.87661173029149, "lng": -122.2610343697085}, "southwest": {"lat": 37.87391376970849, "lng": -122.2637323302915}}}, "icon": "https://maps.gstatic.com/mapfiles/place_api/icons/generic_business-71.png", "id": "37b124bc4ea348c1fada5e60ef8b853f4877b0bc", "name": "Hicks Suzanne", "place_id": "ChIJqezZqyF8hYARxWD6MkCD5p0", "plus_code": {"compound_code": "VPGP+3X Berkeley, California, United States", "global_code": "849VVPGP+3X"}, "reference": "ChIJqezZqyF8hYARxWD6MkCD5p0", "scope": "GOOGLE", "types": ["health", "point_of_interest", "establishment"], "vicinity": "1820 Scenic Avenue, Berkeley"}, "ChIJn614_yB8hYARejSFxRhNR8k": {"geometry": {"location": {"lat": 37.87492580000001, "lng": -122.2627326}, "viewport": {"northeast": {"lat": 37.8762033302915, "lng": -122.2613692697085}, "southwest": {"lat": 37.8735053697085, "lng": -122.2640672302915}}}, "icon": "https://maps.gstatic.com/mapfiles/place_api/icons/shopping-71.png", "id": "3d95d9316e3dbb9cf09e1ef397ea806419a0d82e", "name": "yomm", "place_id": "ChIJn614_yB8hYARejSFxRhNR8k", "plus_code": {"compound_code": "VPFP+XW Berkeley, California, United States", "global_code": "849VVPFP+XW"}, "rating": 5, "reference": "ChIJn614_yB8hYARejSFxRhNR8k", "scope": "GOOGLE", "types": ["store", "point_of_interest", "establishment"], "vicinity": "2341 Hearst Avenue, Berkeley"}, "ChIJcdz-VSB8hYARLJRLuYUHSCE": {"geometry": {"location": {"lat": 37.8749079, "lng": -122.2628895}, "viewport": {"northeast": {"lat": 37.8761845802915, "lng": -122.2615260197085}, "southwest": {"lat": 37.8734866197085, "lng": -122.2642239802915}}}, "icon": "https://maps.gstatic.com/mapfiles/place_api/icons/generic_business-71.png", "id": "bc4c54ccdda8f9644e3557e390523e9a2ad02bd0", "name": "demidoo", "place_id": "ChIJcdz-VSB8hYARLJRLuYUHSCE", "plus_code": {"compound_code": "VPFP+XR Berkeley, California, United States", "global_code": "849VVPFP+XR"}, "rating": 5, "reference": "ChIJcdz-VSB8hYARLJRLuYUHSCE", "scope": "GOOGLE", "types": ["finance", "point_of_interest", "establishment"], "vicinity": "2325 Hearst Avenue, Berkeley"}, "ChIJZTNsCyF8hYARW4t3Y7AiNGs": {"geometry": {"location": {"lat": 37.8751581, "lng": -122.2612563}, "viewport": {"northeast": {"lat": 37.8764156302915, "lng": -122.2598879197085}, "southwest": {"lat": 37.8737176697085, "lng": -122.2625858802915}}}, "icon": "https://maps.gstatic.com/mapfiles/place_api/icons/generic_business-71.png", "id": "7acbd86d1a3f206817f9cc08a30f216b4d98dc9a", "name": "Zipcar", "opening_hours": {"open_now": true}, "photos": [{"height": 499, "html_attributions": ["<a href=\"https://maps.google.com/maps/contrib/109375092657831725841/photos\">Zipcar</a>"], "photo_reference": "CmRaAAAAjjjPnrHz1ynhoi7TE-1jYoEWsHgfOFIv2qcqm2KAM59It_kky2cQ9ud2tP3T9M3ZFj524nPIgf2Yt4QBQWyBDoexat3tzbafo6UdAq99JlEB3yC4liqkK8_icTV9r_qGEhDS3oKSxacsuEKztq_NTJDoGhT6f9MaYkCTkEszTvLs0d7zu_-Eng", "width": 499}], "place_id": "ChIJZTNsCyF8hYARW4t3Y7AiNGs", "plus_code": {"compound_code": "VPGQ+3F Berkeley, California, United States", "global_code": "849VVPGQ+3F"}, "reference": "ChIJZTNsCyF8hYARW4t3Y7AiNGs", "scope": "GOOGLE", "types": ["car_rental", "point_of_interest", "establishment"], "vicinity": "2455 Hearst Avenue, Berkeley"}, "ChIJAQBA7iB8hYAR0wH6VbLUN8Q": {"geometry": {"location": {"lat": 37.8741808, "lng": -122.2635277}, "viewport": {"northeast": {"lat": 37.8757348802915, "lng": -122.2622256697085}, "southwest": {"lat": 37.8730369197085, "lng": -122.2649236302915}}}, "icon": "https://maps.gstatic.com/mapfiles/place_api/icons/generic_business-71.png", "id": "44a189d4de6614bed2cd5a7ca5cfa2bf4e38e3eb", "name": "Jamie B. Rifkin, PhD", "place_id": "ChIJAQBA7iB8hYAR0wH6VbLUN8Q", "reference": "ChIJAQBA7iB8hYAR0wH6VbLUN8Q", "scope": "GOOGLE", "types": ["doctor", "health", "point_of_interest", "establishment"], "vicinity": "2262 Hearst Avenue, Berkeley"}, "ChIJsz7lPCB8hYAREpWzuluCMME": {"geometry": {"location": {"lat": 37.8761331, "lng": -122.2628631}, "viewport": {"northeast": {"lat": 37.87748208029149, "lng": -122.2615141197085}, "southwest": {"lat": 37.8747841197085, "lng": -122.2642120802915}}}, "icon": "https://maps.gstatic.com/mapfiles/place_api/icons/worship_general-71.png", "id": "674631de9db0b63ce799a11018a001178ecd0ebf", "name": "Chapel of the Great Commission", "place_id": "ChIJsz7lPCB8hYAREpWzuluCMME", "plus_code": {"compound_code": "VPGP+FV Berkeley, California, United States", "global_code": "849VVPGP+FV"}, "reference": "ChIJsz7lPCB8hYAREpWzuluCMME", "scope": "GOOGLE", "types": ["church", "place_of_worship", "point_of_interest", "establishment"], "vicinity": "1798 Scenic Avenue, Berkeley"}, "ChIJ6UckuiF8hYAR_wvp2mO7NSw": {"geometry": {"location": {"lat": 37.8761228, "lng": -122.2617251}, "viewport": {"northeast": {"lat": 37.8773501802915, "lng": -122.2603774197085}, "southwest": {"lat": 37.8746522197085, "lng": -122.2630753802915}}}, "icon": "https://maps.gstatic.com/mapfiles/place_api/icons/generic_business-71.png", "id": "ca58c9fc7fc6d37b26b5d15c683923cdec98d128", "name": "Bay Area Sacred Harp", "place_id": "ChIJ6UckuiF8hYAR_wvp2mO7NSw", "plus_code": {"compound_code": "VPGQ+C8 Berkeley, California, United States", "global_code": "849VVPGQ+C8"}, "reference": "ChIJ6UckuiF8hYAR_wvp2mO7NSw", "scope": "GOOGLE", "types": ["point_of_interest", "establishment"], "vicinity": "2431 Ridge Road, Berkeley"}, "ChIJVVXFcCF8hYAR8Jw71uoj0sE": {"geometry": {"location": {"lat": 37.87527499999999, "lng": -122.2605589}, "viewport": {"northeast": {"lat": 37.8765204802915, "lng": -122.2591879697085}, "southwest": {"lat": 37.8738225197085, "lng": -122.2618859302915}}}, "icon": "https://maps.gstatic.com/mapfiles/place_api/icons/generic_business-71.png", "id": "70bf037acf25aebc46753f20b513a6dc8234d024", "name": "Alameda County Fictitious Business Name Statement Legal Ad Publishing", "place_id": "ChIJVVXFcCF8hYAR8Jw71uoj0sE", "plus_code": {"compound_code": "VPGQ+4Q Berkeley, California, United States", "global_code": "849VVPGQ+4Q"}, "reference": "ChIJVVXFcCF8hYAR8Jw71uoj0sE", "scope": "GOOGLE", "types": ["point_of_interest", "establishment"], "vicinity": "2483 Hearst Avenue, Berkeley"}, "ChIJgdrC8iB8hYARwGnbEXdavVo": {"geometry": {"location": {"lat": 37.8741044, "lng": -122.2638912}, "viewport": {"northeast": {"lat": 37.8751399302915, "lng": -122.2620752197085}, "southwest": {"lat": 37.8724419697085, "lng": -122.2647731802915}}}, "icon": "https://maps.gstatic.com/mapfiles/place_api/icons/school-71.png", "id": "99560cc54c67ef3af82ae263b652924a6d8be44c", "name": "More Numerate: Numbers & Evidence for News Writers", "place_id": "ChIJgdrC8iB8hYARwGnbEXdavVo", "plus_code": {"compound_code": "VPFP+JC Berkeley, California, United States", "global_code": "849VVPFP+JC"}, "reference": "ChIJgdrC8iB8hYARwGnbEXdavVo", "scope": "GOOGLE", "types": ["point_of_interest", "establishment"], "vicinity": "4655 Tolman Hall, Berkeley"}, "ChIJI9GwYSB8hYARk3T1RYXhXCE": {"geometry": {"location": {"lat": 37.874422, "lng": -122.264217}, "viewport": {"northeast": {"lat": 37.8758208802915, "lng": -122.2628937697085}, "southwest": {"lat": 37.8731229197085, "lng": -122.2655917302915}}}, "icon": "https://maps.gstatic.com/mapfiles/place_api/icons/bus-71.png", "id": "800483b8c9361cfc20a35d3eead0a35ae73b9fab", "name": "Hearst Ave. at Arch St.", "place_id": "ChIJI9GwYSB8hYARk3T1RYXhXCE", "plus_code": {"compound_code": "VPFP+Q8 Berkeley, California, United States", "global_code": "849VVPFP+Q8"}, "reference": "ChIJI9GwYSB8hYARk3T1RYXhXCE", "scope": "GOOGLE", "types": ["bus_station", "transit_station", "point_of_interest", "establishment"], "vicinity": "United States"}, "ChIJockybiF8hYARN_hHA-l1YPs": {"geometry": {"location": {"lat": 37.8749296, "lng": -122.260552}, "viewport": {"northeast": {"lat": 37.8762785802915, "lng": -122.2592030197085}, "southwest": {"lat": 37.87358061970851, "lng": -122.2619009802915}}}, "icon": "https://maps.gstatic.com/mapfiles/place_api/icons/bus-71.png", "id": "e1251244bf232bdee289f446fdf4c8f3c6eba7c5", "name": "North Gate", "place_id": "ChIJockybiF8hYARN_hHA-l1YPs", "plus_code": {"compound_code": "VPFQ+XQ Berkeley, California, United States", "global_code": "849VVPFQ+XQ"}, "reference": "ChIJockybiF8hYARN_hHA-l1YPs", "scope": "GOOGLE", "types": ["bus_station", "transit_station", "point_of_interest", "establishment"], "vicinity": "United States"}, "ChIJB-xUQiF8hYARHoqSDivTH3Q": {"geometry": {"location": {"lat": 37.8742567, "lng": -122.2606032}, "viewport": {"northeast": {"lat": 37.8755244802915, "lng": -122.2591832197085}, "southwest": {"lat": 37.8728265197085, "lng": -122.2618811802915}}}, "icon": "https://maps.gstatic.com/mapfiles/place_api/icons/generic_recreational-71.png", "id": "ca6f13736888bf51f5259222d4e3989fc35daf18", "name": "Observatory Hill", "place_id": "ChIJB-xUQiF8hYARHoqSDivTH3Q", "reference": "ChIJB-xUQiF8hYARHoqSDivTH3Q", "scope": "GOOGLE", "types": ["premise", "park", "point_of_interest", "establishment"], "vicinity": "Berkeley"}, "ChIJGxu0CyF8hYARgLgCTP6zFSo": {"geometry": {"location": {"lat": 37.8751922, "lng": -122.2614698}, "viewport": {"northeast": {"lat": 37.8764115802915, "lng": -122.2601616197085}, "southwest": {"lat": 37.8737136197085, "lng": -122.2628595802915}}}, "icon": "https://maps.gstatic.com/mapfiles/place_api/icons/generic_business-71.png", "id": "40d945f716842b67827d5b0e3d9d8d6bef593d85", "name": "Lower Hearst Parking Structure", "place_id": "ChIJGxu0CyF8hYARgLgCTP6zFSo", "reference": "ChIJGxu0CyF8hYARgLgCTP6zFSo", "scope": "GOOGLE", "types": ["parking", "premise", "point_of_interest", "establishment"], "vicinity": "Berkeley"}}