{"ChIJ00mFOjZ5hYARk-l1ppUV6pQ": {"geometry": {"location": {"lat": 37.8715926, "lng": -122.272747}, "viewport": {"northeast": {"lat": 37.9058239, "lng": -122.234179}, "southwest": {"lat": 37.835727, "lng": -122.367781}}}, "icon": "https://maps.gstatic.com/mapfiles/place_api/icons/geocode-71.png", "id": "00741fe572fc4084428ab206e1a55830f6a1bf0a", "name": "Berkeley", "photos": [{"height": 1080, "html_attributions": ["<a href=\"https://maps.google.com/maps/contrib/110244590763501513798/photos\">miao hsin sun</a>"], "photo_reference": "CmRaAAAAmcXVtKOHTJpjw2YI56OaF0zvqEm7eZma9X6N1S-00O3ZXggrRrDkIjOg_l2q7XT0tof5tSTtPgQWvnUINToYidZAq3THVfZJEhlBVg5k_pc0bkW-URjFdbkGtl9nUPotEhCGoB0q4Wk8EilUcW3l4Fw3GhTZqgEfOlA6Y5lSqOGMF0Pak8qYBg", "width": 1616}], "place_id": "ChIJ00mFOjZ5hYARk-l1ppUV6pQ", "reference": "ChIJ00mFOjZ5hYARk-l1ppUV6pQ", "scope": "GOOGLE", "types": ["locality", "political"], "vicinity": "Berkeley"}, "ChIJBcl-di58hYARaojU8cBMesg": {"geometry": {"location": {"lat": 37.8652778, "lng": -122.2558333}, "viewport": {"northeast": {"lat": 37.8666267802915, "lng": -122.2544843197085}, "southwest": {"lat": 37.86392881970851, "lng": -122.2571822802915}}}, "icon": "https://maps.gstatic.com/mapfiles/place_api/icons/school-71.png", "id": "a40caaf3d26ed635145a19f608bf7dd21117bcf2", "name": "Berkeley Baptist Divinity School", "place_id": "ChIJBcl-di58hYARaojU8cBMesg", "plus_code": {"compound_code": "VP8V+4M Berkeley, California, United States", "global_code": "849VVP8V+4M"}, "reference": "ChIJBcl-di58hYARaojU8cBMesg", "scope": "GOOGLE", "types": ["school", "point_of_interest", "establishment"], "vicinity": "Berkeley"}, "ChIJIwtVdy58hYARIiB65IVWRgI": {"geometry": {"location": {"lat": 37.8652659, "lng": -122.2560423}, "viewport": {"northeast": {"lat": 37.8666966302915, "lng": -122.2547112197085}, "southwest": {"lat": 37.8639986697085, "lng": -122.2574091802915}}}, "icon": "https://maps.gstatic.com/mapfiles/place_api/icons/school-71.png", "id": "683f7ff3811241523c5bb5834d8550779a7c6dc9", "name": "American Baptist Seminary of the West", "photos": [{"height": 960, "html_attributions": ["<a href=\"https://maps.google.com/maps/contrib/103812127654434167074/photos\">Jennifer Davidson</a>"], "photo_reference": "CmRaAAAANv4kMj_mKZnE2oXZrUf9HC2dGcZTmyol9XtJztgve0qLLx4hPYuaB6OB6zYyD1QpJfZC-hKcF2JjyBZBr4gIAJUCvtA_jtlLlBPujD8J4azAYIwevyDXOPqesN8lC63iEhDd-HRFGBwIJpaslphq-XXzGhTQ3G7vwiR5XDTktFXtqx3TUsmz9A", "width": 834}], "place_id": "ChIJIwtVdy58hYARIiB65IVWRgI", "plus_code": {"compound_code": "VP8V+4H Berkeley, California, United States", "global_code": "849VVP8V+4H"}, "reference": "ChIJIwtVdy58hYARIiB65IVWRgI", "scope": "GOOGLE", "types": ["university", "place_of_worship", "point_of_interest", "establishment"], "vicinity": "2606 Dwight Way, Berkeley"}, "ChIJLyHpUS58hYAR-oxYbGr1Apg": {"geometry": {"location": {"lat": 37.8670331, "lng": -122.2562078}, "viewport": {"northeast": {"lat": 37.8683671302915, "lng": -122.2549950697085}, "southwest": {"lat": 37.8656691697085, "lng": -122.2576930302915}}}, "icon": "https://maps.gstatic.com/mapfiles/place_api/icons/generic_business-71.png", "id": "266085bd494df15bc67b8cec91bba9e9ff97a8a3", "name": "Crossroads", "opening_hours": {"open_now": true}, "photos": [{"height": 3480, "html_attributions": ["<a href=\"https://maps.google.com/maps/contrib/101130851467297625605/photos\">Juchen Zhang</a>"], "photo_reference": "CmRaAAAAnWZhwarQtPfqlWIdszX0p5RSCW3aYM3iQNRzlfuJBiyWMsfQ5zGEWI6CFIyJfMhLdMFZ5N-oxVsp4g4PzQ9Zdxq0134LvtDxKmBI-Qv7ZpqQZ94UHw538oRhZE9KUZk4EhB-XXuwRFpQS2UTBJ_2lI1YGhSKxSB7i_FAx5yohwo_RyKuQMN2UA", "width": 4640}], "place_id": "ChIJLyHpUS58hYAR-oxYbGr1Apg", "plus_code": {"compound_code": "VP8V+RG Berkeley, California, United States", "global_code": "849VVP8V+RG"}, "price_level": 1, "rating": 3.5, "reference": "ChIJLyHpUS58hYAR-oxYbGr1Apg", "scope": "GOOGLE", "types": ["bakery", "store", "restaurant", "point_of_interest", "food", "establishment"], "vicinity": "2415 Bowditch Street, Berkeley"}, "ChIJb176cy58hYAR_1dTCajPKg0": {"geometry": {"location": {"lat": 37.86561589999999, "lng": -122.2559558}, "viewport": {"northeast": {"lat": 37.8668823802915, "lng": -122.2545891697085}, "southwest": {"lat": 37.8641844197085, "lng": -122.2572871302915}}}, "icon": "https://maps.gstatic.com/mapfiles/place_api/icons/worship_general-71.png", "id": "b6207100c4c6a7f69a15ce2999fe0b41a9691917", "name": "First Church-Christ Scientist", "photos": [{"height": 2726, "html_attributions": ["<a href=\"https://maps.google.com/maps/contrib/116162280728527985973/photos\">Ton T</a>"], "photo_reference": "CmRaAAAA0cqGxiwnwnvWuK0yehiAPFG3JuPGVukxs-FQW__A2RNtT267hRLfR7x_7hLTpt665cXoocc0-nxVL5G9hnQylbSGKvTIQ2SpY3CaY4KL0mZew31eg8pXXEUhDGPdldlmEhACjtGpuB2J59txSctQdmOnGhTWaLaMjFfM_rSw9fKLqlGlSU13sQ", "width": 3828}], "place_id": "ChIJb176cy58hYAR_1dTCajPKg0", "plus_code": {"compound_code": "VP8V+6J Berkeley, California, United States", "global_code": "849VVP8V+6J"}, "rating": 4.2, "reference": "ChIJb176cy58hYAR_1dTCajPKg0", "scope": "GOOGLE", "types": ["church", "place_of_worship", "point_of_interest", "establishment"], "vicinity": "2619 Dwight Way, Berkeley"}, "ChIJS2fvDy58hYAR3giac5a8NtI": {"geometry": {"location": {"lat": 37.86622049999999, "lng": -122.2548416}, "viewport": {"northeast": {"lat": 37.86771398029149, "lng": -122.2534656197085}, "southwest": {"lat": 37.8650160197085, "lng": -122.2561635802915}}}, "icon": "https://maps.gstatic.com/mapfiles/place_api/icons/generic_business-71.png", "id": "f9ff28416935c59dd230787b21a28a257f8da042", "name": "Residence Halls Unit 2", "photos": [{"height": 1830, "html_attributions": ["<a href=\"https://maps.google.com/maps/contrib/111522349538526555888/photos\">David Lin</a>"], "photo_reference": "CmRaAAAA2xKZnLTVby4f91IMlKt-OnSpQA9ZOX-3WM5ozRALjShl89H7QZmBXwwZQBC0x-beTVDskmV46A8ldzj35QJnsph5fVL_zjkfD1XCnZashe-NwdkET3erKdxU13mLJhZbEhAT3z9Pc-wov_rCMzY0Ii2YGhQb-48VEYEEH1U4y7HQMB8IJCRwsw", "width": 6566}], "place_id": "ChIJS2fvDy58hYAR3giac5a8NtI", "plus_code": {"compound_code": "VP8W+F3 Berkeley, California, United States", "global_code": "849VVP8W+F3"}, "rating": 4, "reference": "ChIJS2fvDy58hYAR3giac5a8NtI", "scope": "GOOGLE", "types": ["university", "point_of_interest", "establishment"], "vicinity": "2650 Haste Street, Berkeley"}, "ChIJtcR26Sh8hYARDAgwoeo4jm0": {"geometry": {"location": {"lat": 37.8652481, "lng": -122.2562318}, "viewport": {"northeast": {"lat": 37.8666758802915, "lng": -122.2548974197085}, "southwest": {"lat": 37.8639779197085, "lng": -122.2575953802915}}}, "icon": "https://maps.gstatic.com/mapfiles/place_api/icons/worship_general-71.png", "id": "cad49fd99caa5722cc51fb14f1cf5f841d773385", "name": "First Baptist Church-Berkeley", "place_id": "ChIJtcR26Sh8hYARDAgwoeo4jm0", "plus_code": {"compound_code": "VP8V+3G Berkeley, California, United States", "global_code": "849VVP8V+3G"}, "reference": "ChIJtcR26Sh8hYARDAgwoeo4jm0", "scope": "GOOGLE", "types": ["church", "place_of_worship", "point_of_interest", "establishment"], "vicinity": "2606 Dwight Way, Berkeley"}, "ChIJB8C1Zy58hYARFo7n9VwZ4mk": {"geometry": {"location": {"lat": 37.86609970000001, "lng": -122.2560612}, "viewport": {"northeast": {"lat": 37.86743293029151, "lng": -122.2548252697085}, "southwest": {"lat": 37.86473496970851, "lng": -122.2575232302915}}}, "icon": "https://maps.gstatic.com/mapfiles/place_api/icons/generic_business-71.png", "id": "115343eae02e62d4ba5bb0f13043a1e33eba2a58", "name": "Vedanta Society of Berkeley", "photos": [{"height": 2592, "html_attributions": ["<a href=\"https://maps.google.com/maps/contrib/107510641458667232597/photos\">Swami Brahmatmananda</a>"], "photo_reference": "CmRaAAAA-iuySbhIGWQ12XY57C6XKxgVjtkd9Jlk5tcOauSokWopO5GK4GJ8UrEHw-agmhe0bNl_tBr2kDD4GW8mSuxmOUC50haOlELC2IDCKSN_-Qw3Dm3x_uxGLPA3A-xzXoYFEhDKc7UPAMM6UAJTr8omDX89GhQRNJbN9_zylDQn8Q44zIwTbWUoqA", "width": 4608}], "place_id": "ChIJB8C1Zy58hYARFo7n9VwZ4mk", "plus_code": {"compound_code": "VP8V+CH Berkeley, California, United States", "global_code": "849VVP8V+CH"}, "rating": 4.9, "reference": "ChIJB8C1Zy58hYARFo7n9VwZ4mk", "scope": "GOOGLE", "types": ["place_of_worship", "point_of_interest", "establishment"], "vicinity": "2455 Bowditch Street, Berkeley"}, "ChIJX_iQdC58hYARQdr4f_1Y2MY": {"geometry": {"location": {"lat": 37.86530630000001, "lng": -122.255674}, "viewport": {"northeast": {"lat": 37.8667418302915, "lng": -122.2543439697085}, "southwest": {"lat": 37.8640438697085, "lng": -122.2570419302915}}}, "icon": "https://maps.gstatic.com/mapfiles/place_api/icons/school-71.png", "id": "c51024fd6f770c703505ba9e3aeb9739c47728a7", "name": "UC Berkeley, Safe Transportation Research & Education Center", "place_id": "ChIJX_iQdC58hYARQdr4f_1Y2MY", "plus_code": {"compound_code": "VP8V+4P Berkeley, California, United States", "global_code": "849VVP8V+4P"}, "reference": "ChIJX_iQdC58hYARQdr4f_1Y2MY", "scope": "GOOGLE", "types": ["university", "point_of_interest", "establishment"], "vicinity": "2614 Dwight Way, Berkeley"}, "ChIJS03FsCl8hYARb-olHG1NoDU": {"geometry": {"location": {"lat": 37.8650526, "lng": -122.2559789}, "viewport": {"northeast": {"lat": 37.8663858802915, "lng": -122.2548739697085}, "southwest": {"lat": 37.8636879197085, "lng": -122.2575719302915}}}, "icon": "https://maps.gstatic.com/mapfiles/place_api/icons/worship_general-71.png", "id": "a794f7ebe71863ef7bffc6d69ac04f1c9496e7c9", "name": "Ark Ministries", "place_id": "ChIJS03FsCl8hYARb-olHG1NoDU", "plus_code": {"compound_code": "VP8V+2J Berkeley, California, United States", "global_code": "849VVP8V+2J"}, "rating": 5, "reference": "ChIJS03FsCl8hYARb-olHG1NoDU", "scope": "GOOGLE", "types": ["church", "place_of_worship", "point_of_interest", "establishment"], "vicinity": "2509 Hillegass Avenue, Berkeley"}, "ChIJq4Oc4TF8hYARbAO4rQXFKDU": {"geometry": {"location": {"lat": 37.8667069, "lng": -122.253797}, "viewport": {"northeast": {"lat": 37.86803948029149, "lng": -122.2526054197085}, "southwest": {"lat": 37.8653415197085, "lng": -122.2553033802915}}}, "icon": "https://maps.gstatic.com/mapfiles/place_api/icons/worship_general-71.png", "id": "fd9a1387fdfc35bb732c24a07e4f9bc2d802f176", "name": "University Lutheran Chapel", "photos": [{"height": 2048, "html_attributions": ["<a href=\"https://maps.google.com/maps/contrib/118135584400421649914/photos\">Teresa Davis</a>"], "photo_reference": "CmRaAAAAI4dWSOMibGluVazy5r1gMkoZV67Azg4voAMmsun7YH9YmTlnaqr8D1AeitRXdcn1uf3-hNIaG9KesxT2muDDo5DbGRLGNA1XRYGIcdmSobaB1S9m4E-fVxstG4gXFojMEhA2RaqXqjQd6bFcpRW4tQW9GhQJVSPNGZkK7vQlT_mrC75560aMPw", "width": 1152}], "place_id": "ChIJq4Oc4TF8hYARbAO4rQXFKDU", "plus_code": {"compound_code": "VP8W+MF Berkeley, California, United States", "global_code": "849VVP8W+MF"}, "reference": "ChIJq4Oc4TF8hYARbAO4rQXFKDU", "scope": "GOOGLE", "types": ["church", "place_of_worship", "point_of_interest", "establishment"], "vicinity": "2425 College Avenue, Berkeley"}, "ChIJq4Oc4TF8hYARUzqMcAFCpoY": {"geometry": {"location": {"lat": 37.8667068, "lng": -122.253797}, "viewport": {"northeast": {"lat": 37.8680393802915, "lng": -122.2526054197085}, "southwest": {"lat": 37.8653414197085, "lng": -122.2553033802915}}}, "icon": "https://maps.gstatic.com/mapfiles/place_api/icons/generic_business-71.png", "id": "6a96849d5699c5b1d54bade694c4f8c4682a8458", "name": "SHARE El Salvador", "place_id": "ChIJq4Oc4TF8hYARUzqMcAFCpoY", "plus_code": {"compound_code": "VP8W+MF Berkeley, California, United States", "global_code": "849VVP8W+MF"}, "reference": "ChIJq4Oc4TF8hYARUzqMcAFCpoY", "scope": "GOOGLE", "types": ["point_of_interest", "establishment"], "vicinity": "2425 College Avenue, Berkeley"}, "ChIJE_36_S18hYAR62fZG_nNojA": {"geometry": {"location": {"lat": 37.865354, "lng": -122.254452}, "viewport": {"northeast": {"lat": 37.86684298029149, "lng": -122.2531302697085}, "southwest": {"lat": 37.8641450197085, "lng": -122.2558282302915}}}, "icon": "https://maps.gstatic.com/mapfiles/place_api/icons/generic_business-71.png", "id": "d96b7ce31781ec1446df3a8edf8aace047a83d76", "name": "2644 Dwight Way Llc", "place_id": "ChIJE_36_S18hYAR62fZG_nNojA", "plus_code": {"compound_code": "VP8W+46 Berkeley, California, United States", "global_code": "849VVP8W+46"}, "reference": "ChIJE_36_S18hYAR62fZG_nNojA", "scope": "GOOGLE", "types": ["point_of_interest", "establishment"], "vicinity": "2644 Dwight Way, Berkeley"}, "ChIJR0Va9zl8hYARxeYMQdc3RlY": {"geometry": {"location": {"lat": 37.8668899, "lng": -122.2557289}, "viewport": {"northeast": {"lat": 37.8682388802915, "lng": -122.2543799197085}, "southwest": {"lat": 37.8655409197085, "lng": -122.2570778802915}}}, "icon": "https://maps.gstatic.com/mapfiles/place_api/icons/school-71.png", "id": "a1526965284cafab819083444875bec424c81e57", "name": "Dan Sullivan, Senior Director of Academic Affairs", "place_id": "ChIJR0Va9zl8hYARxeYMQdc3RlY", "plus_code": {"compound_code": "VP8V+QP Berkeley, California, United States", "global_code": "849VVP8V+QP"}, "reference": "ChIJR0Va9zl8hYARxeYMQdc3RlY", "scope": "GOOGLE", "types": ["university", "point_of_interest", "establishment"], "vicinity": "440 S Student Srcs # 1900, Berkeley"}, "ChIJx3JSWi58hYARajGXiMRWkPc": {"geometry": {"location": {"lat": 37.86690910000001, "lng": -122.256178}, "viewport": {"northeast": {"lat": 37.8682408302915, "lng": -122.2549673197085}, "southwest": {"lat": 37.86554286970851, "lng": -122.2576652802915}}}, "icon": "https://maps.gstatic.com/mapfiles/place_api/icons/cafe-71.png", "id": "0857f2123feb6018c70517a6255172cdbe09adda", "name": "Peet's Coffee", "opening_hours": {"open_now": true}, "photos": [{"height": 3024, "html_attributions": ["<a href=\"https://maps.google.com/maps/contrib/113034664314861921793/photos\">Larry Lunnen-Aleks</a>"], "photo_reference": "CmRaAAAAi4N6HKXBYS-RhtzOXF9SmohGBkrXDCKviga3rUXotkNqTYDm9XUAkT0zo7hSX4AtY4xxLgQYKCexjYNivr1UcZMKdKDFtIMGq4yJ0S0lfADg37Sr1h8kfxvLRrBBTDwcEhAh6LYqQT25re39wAAy8DqiGhRlGVZHcLkq5l37nRY6onYHsEQZcg", "width": 4032}], "place_id": "ChIJx3JSWi58hYARajGXiMRWkPc", "plus_code": {"compound_code": "VP8V+QG Berkeley, California, United States", "global_code": "849VVP8V+QG"}, "price_level": 1, "rating": 3.6, "reference": "ChIJx3JSWi58hYARajGXiMRWkPc", "scope": "GOOGLE", "types": ["cafe", "store", "point_of_interest", "food", "establishment"], "vicinity": "2415 Bowditch Street, Berkeley"}, "ChIJYyoQQi58hYAR6aVHe7Y_R4I": {"geometry": {"location": {"lat": 37.8658163, "lng": -122.2553216}, "viewport": {"northeast": {"lat": 37.8673671302915, "lng": -122.2538098697085}, "southwest": {"lat": 37.8646691697085, "lng": -122.2565078302915}}}, "icon": "https://maps.gstatic.com/mapfiles/place_api/icons/generic_business-71.png", "id": "0d1698da387ba383d73fdfc8c73e94a6393da6aa", "name": "Ehrman Hall, Unit 2, Residence Hall", "place_id": "ChIJYyoQQi58hYAR6aVHe7Y_R4I", "plus_code": {"compound_code": "VP8V+8V Berkeley, California, United States", "global_code": "849VVP8V+8V"}, "rating": 2.8, "reference": "ChIJYyoQQi58hYAR6aVHe7Y_R4I", "scope": "GOOGLE", "types": ["point_of_interest", "establishment"], "vicinity": "2620 Haste Street, Berkeley"}, "ChIJG1caAC58hYARBGmKLe_yqtE": {"geometry": {"location": {"lat": 37.8658305, "lng": -122.2542822}, "viewport": {"northeast": {"lat": 37.8670968302915, "lng": -122.2529171197085}, "southwest": {"lat": 37.8643988697085, "lng": -122.2556150802915}}}, "icon": "https://maps.gstatic.com/mapfiles/place_api/icons/school-71.png", "id": "ac1a0cb7eef3dd41a6268c3f82a2ddcaa08f8890", "name": "Griffiths Hall, Unit 2, Berkeley, California", "place_id": "ChIJG1caAC58hYARBGmKLe_yqtE", "plus_code": {"compound_code": "VP8W+87 Berkeley, California, United States", "global_code": "849VVP8W+87"}, "reference": "ChIJG1caAC58hYARBGmKLe_yqtE", "scope": "GOOGLE", "types": ["school", "point_of_interest", "establishment"], "vicinity": "2641 Dwight Way, Berkeley"}, "ChIJIwtVdy58hYARkFA_cocsrpk": {"geometry": {"location": {"lat": 37.8652659, "lng": -122.2560423}, "viewport": {"northeast": {"lat": 37.8666966302915, "lng": -122.2547112197085}, "southwest": {"lat": 37.8639986697085, "lng": -122.2574091802915}}}, "icon": "https://maps.gstatic.com/mapfiles/place_api/icons/generic_business-71.png", "id": "13202365c0e4bbf14710f6d291dd640eaa1e286b", "name": "Spiritual Counterfeits Project", "place_id": "ChIJIwtVdy58hYARkFA_cocsrpk", "plus_code": {"compound_code": "VP8V+4H Berkeley, California, United States", "global_code": "849VVP8V+4H"}, "reference": "ChIJIwtVdy58hYARkFA_cocsrpk", "scope": "GOOGLE", "types": ["point_of_interest", "establishment"], "vicinity": "2606 Dwight Way, Berkeley"}, "ChIJIwtVdy58hYARA6ZNMFX34GI": {"geometry": {"location": {"lat": 37.8650429, "lng": -122.2561564}, "viewport": {"northeast": {"lat": 37.8663818802915, "lng": -122.2549628197085}, "southwest": {"lat": 37.8636839197085, "lng": -122.2576607802915}}}, "icon": "https://maps.gstatic.com/mapfiles/place_api/icons/worship_general-71.png", "id": "768ba33e35ab8f091309eee268b39fdae8f562ef", "name": "Berkeley Tribe Church", "opening_hours": {"open_now": false}, "photos": [{"height": 540, "html_attributions": ["<a href=\"https://maps.google.com/maps/contrib/107577820251259189287/photos\">Dennis Heida</a>"], "photo_reference": "CmRaAAAAL3EsCtHfHMf94TDp_WBTQ5GbbKWhCvUojhunjiGCkdyORLaTe3buT2Dp_oobd8KqXAu0RCvaDeJmIj5rygeYyTv9XdKecLmRPSJRTkBUocw6HdnpnX42YsBihW9qRxLxEhAbXG27y-UGOLqOPlP2s9YYGhQdzwBiC9w-2uK4T4QebFqtRdTUgw", "width": 720}], "place_id": "ChIJIwtVdy58hYARA6ZNMFX34GI", "plus_code": {"compound_code": "VP8V+2G Berkeley, California, United States", "global_code": "849VVP8V+2G"}, "rating": 5, "reference": "ChIJIwtVdy58hYARA6ZNMFX34GI", "scope": "GOOGLE", "types": ["church", "place_of_worship", "point_of_interest", "establishment"], "vicinity": "2509 Hillegass Avenue, Berkeley"}, "ChIJlQ8LHy98hYARWQCS0_9rD30": {"geometry": {"location": {"lat": 37.8673174, "lng": -122.2526269}, "viewport": {"northeast": {"lat": 37.8696153, "lng": -122.2495668}, "southwest": {"lat": 37.8642328, "lng": -122.2659446}}}, "icon": "https://maps.gstatic.com/mapfiles/place_api/icons/geocode-71.png", "id": "e46eb19b4f0ecc167a2dcb6adb7f9ed7996ba17b", "name": "Southside", "place_id": "ChIJlQ8LHy98hYARWQCS0_9rD30", "reference": "ChIJlQ8LHy98hYARWQCS0_9rD30", "scope": "GOOGLE", "types": ["neighborhood", "political"], "vicinity": "Berkeley"}, "ChIJq4Oc4TF8hYARUyi0vSFvWbQ": {"geometry": {"location": {"lat": 37.8667069, "lng": -122.253797}, "viewport": {"northeast": {"lat": 37.86803948029149, "lng": -122.2526054197085}, "southwest": {"lat": 37.8653415197085, "lng": -122.2553033802915}}}, "icon": "https://maps.gstatic.com/mapfiles/place_api/icons/generic_business-71.png", "id": "e859ce1300435c9a59209adb2964e8f92ddbd6b5", "name": "Lutheran Volunteer Corps", "place_id": "ChIJq4Oc4TF8hYARUyi0vSFvWbQ", "plus_code": {"compound_code": "VP8W+MF Berkeley, California, United States", "global_code": "849VVP8W+MF"}, "reference": "ChIJq4Oc4TF8hYARUyi0vSFvWbQ", "scope": "GOOGLE", "types": ["point_of_interest", "establishment"], "vicinity": "2425 College Avenue, Berkeley"}, "ChIJlU9vuJV-hYAR5lqNYIshI9M": {"geometry": {"location": {"lat": 37.86670700000001, "lng": -122.253797}, "viewport": {"northeast": {"lat": 37.8680395802915, "lng": -122.2526054197085}, "southwest": {"lat": 37.8653416197085, "lng": -122.2553033802915}}}, "icon": "https://maps.gstatic.com/mapfiles/place_api/icons/generic_business-71.png", "id": "c38a1203940fa65df54fa44f7d26b276e06a1745", "name": "United Nations Association Information & UNICEF Center", "opening_hours": {"open_now": true}, "photos": [{"height": 2340, "html_attributions": ["<a href=\"https://maps.google.com/maps/contrib/111316960742800370498/photos\">United Nations Association Information &amp; UNICEF Center</a>"], "photo_reference": "CmRaAAAABUiLKqzxHvCwzD8o6nICgbDaEU7jgFZSMqp0yrDyF1q0-1pbH--AJOf95d4AdjsC9eTttVG4ecHC_Hyj2YlsNpdBeyJHHt24-4QdjlKtJmkkl6GJDU0-7LvYBa8dvoDNEhCWZN_RLHFrsVi4h6ayJQRZGhSJtchHOXZ8gDmwGCA9Z_vmP9puEQ", "width": 4160}], "place_id": "ChIJlU9vuJV-hYAR5lqNYIshI9M", "plus_code": {"compound_code": "VP8W+MF Berkeley, California, United States", "global_code": "849VVP8W+MF"}, "rating": 5, "reference": "ChIJlU9vuJV-hYAR5lqNYIshI9M", "scope": "GOOGLE", "types": ["store", "point_of_interest", "establishment"], "vicinity": "2425 College Avenue, Berkeley"}, "ChIJi3Ar-DF8hYARIrr3JVX8YlI": {"geometry": {"location": {"lat": 37.8659635, "lng": -122.2533343}, "viewport": {"northeast": {"lat": 37.8672118302915, "lng": -122.2519760697085}, "southwest": {"lat": 37.8645138697085, "lng": -122.2546740302915}}}, "icon": "https://maps.gstatic.com/mapfiles/place_api/icons/generic_business-71.png", "id": "746e3f42b553a6cdf511c54b742a6256c3fdbf2b", "name": "Bishop Berkeley Apartments", "place_id": "ChIJi3Ar-DF8hYARIrr3JVX8YlI", "plus_code": {"compound_code": "VP8W+9M Berkeley, California, United States", "global_code": "849VVP8W+9M"}, "rating": 1, "reference": "ChIJi3Ar-DF8hYARIrr3JVX8YlI", "scope": "GOOGLE", "types": ["point_of_interest", "establishment"], "vicinity": "2709 Dwight Way, Berkeley"}, "ChIJWSEXRi58hYARWDorQhiAetY": {"geometry": {"location": {"lat": 37.8670799, "lng": -122.2556761}, "viewport": {"northeast": {"lat": 37.8685462302915, "lng": -122.2543446697085}, "southwest": {"lat": 37.86584826970851, "lng": -122.2570426302915}}}, "icon": "https://maps.gstatic.com/mapfiles/place_api/icons/generic_business-71.png", "id": "a3219e3141bc006ffe1c1e241d2fa4bccc8dc8a8", "name": "University of California Berkeley Housing Department", "place_id": "ChIJWSEXRi58hYARWDorQhiAetY", "plus_code": {"compound_code": "VP8V+RP Berkeley, California, United States", "global_code": "849VVP8V+RP"}, "rating": 1, "reference": "ChIJWSEXRi58hYARWDorQhiAetY", "scope": "GOOGLE", "types": ["point_of_interest", "establishment"], "vicinity": "Residential and Student Services Building, 2610 Channing Way, Berkeley"}, "ChIJww5aSS58hYARS2yze4nBAPg": {"geometry": {"location": {"lat": 37.8670799, "lng": -122.2556761}, "viewport": {"northeast": {"lat": 37.8685462302915, "lng": -122.2543446697085}, "southwest": {"lat": 37.86584826970851, "lng": -122.2570426302915}}}, "icon": "https://maps.gstatic.com/mapfiles/place_api/icons/generic_business-71.png", "id": "4c3371d663374457f77ac9c97eee52d94bfa7ce6", "name": "Berkeley Residential & Housing Services", "place_id": "ChIJww5aSS58hYARS2yze4nBAPg", "plus_code": {"compound_code": "VP8V+RP Berkeley, California, United States", "global_code": "849VVP8V+RP"}, "rating": 5, "reference": "ChIJww5aSS58hYARS2yze4nBAPg", "scope": "GOOGLE", "types": ["point_of_interest", "establishment"], "vicinity": "2610 Channing Way, Berkeley"}, "ChIJ16TxSC58hYARv6Zs6LGWFtk": {"geometry": {"location": {"lat": 37.8670799, "lng": -122.2556761}, "viewport": {"northeast": {"lat": 37.8685462302915, "lng": -122.2543446697085}, "southwest": {"lat": 37.86584826970851, "lng": -122.2570426302915}}}, "icon": "https://maps.gstatic.com/mapfiles/place_api/icons/generic_business-71.png", "id": "b97b33dbfa39b6b552d9db29e65cf983ab5875bd", "name": "Berkeley Housing", "place_id": "ChIJ16TxSC58hYARv6Zs6LGWFtk", "plus_code": {"compound_code": "VP8V+RP Berkeley, California, United States", "global_code": "849VVP8V+RP"}, "reference": "ChIJ16TxSC58hYARv6Zs6LGWFtk", "scope": "GOOGLE", "types": ["point_of_interest", "establishment"], "vicinity": "2610 Channing Way #2272, Berkeley"}, "ChIJFQBsBDJ8hYARsAAQazYOJa8": {"geometry": {"location": {"lat": 37.8654407, "lng": -122.2533265}, "viewport": {"northeast": {"lat": 37.8669492802915, "lng": -122.2519922197085}, "southwest": {"lat": 37.86425131970851, "lng": -122.2546901802915}}}, "icon": "https://maps.gstatic.com/mapfiles/place_api/icons/worship_general-71.png", "id": "af5b981658273bb13402b27372cf4336f12280ba", "name": "Newman Hall-Holy Spirit Parish", "photos": [{"height": 1520, "html_attributions": ["<a href=\"https://maps.google.com/maps/contrib/109994322004449892253/photos\">Julia Menard- Warwick</a>"], "photo_reference": "CmRaAAAAU5XsMBGdb2OetaPLA5nW6LSzpWUcJ1zKHm1eXsGOUi8Vlfe8m_TDVGvE48t2znpwbtuVeYtcEEB_OIkGdAjn6-w2gKvykhsO7yGfvjTGf62Dmo7RddtvvXZMMSYdOOBWEhDsGR8Xlp9lALp7cOeO77PUGhSP6O6RZj-txVDh6eyljbOSAZXyoA", "width": 2688}], "place_id": "ChIJFQBsBDJ8hYARsAAQazYOJa8", "plus_code": {"compound_code": "VP8W+5M Berkeley, California, United States", "global_code": "849VVP8W+5M"}, "rating": 4.4, "reference": "ChIJFQBsBDJ8hYARsAAQazYOJa8", "scope": "GOOGLE", "types": ["church", "place_of_worship", "point_of_interest", "establishment"], "vicinity": "2700 Dwight Way, Berkeley"}, "ChIJJQ_TGjJ8hYARABc0Bq5tgo4": {"geometry": {"location": {"lat": 37.8654407, "lng": -122.2533265}, "viewport": {"northeast": {"lat": 37.8669492802915, "lng": -122.2519922197085}, "southwest": {"lat": 37.86425131970851, "lng": -122.2546901802915}}}, "icon": "https://maps.gstatic.com/mapfiles/place_api/icons/generic_business-71.png", "id": "101e0ae979265d6c11265076e498596e0889819d", "name": "East Bay Food Not Bombs", "place_id": "ChIJJQ_TGjJ8hYARABc0Bq5tgo4", "plus_code": {"compound_code": "VP8W+5M Berkeley, California, United States", "global_code": "849VVP8W+5M"}, "reference": "ChIJJQ_TGjJ8hYARABc0Bq5tgo4", "scope": "GOOGLE", "types": ["point_of_interest", "establishment"], "vicinity": "2700 Dwight Way, Berkeley"}, "ChIJN1YmTi58hYAR13X7GF4WzXs": {"geometry": {"location": {"lat": 37.8670129, "lng": -122.2561242}, "viewport": {"northeast": {"lat": 37.8683400802915, "lng": -122.2549499197085}, "southwest": {"lat": 37.8656421197085, "lng": -122.2576478802915}}}, "icon": "https://maps.gstatic.com/mapfiles/place_api/icons/atm-71.png", "id": "24ec8f9285b5d719540ca39f7d9d080340e4ed17", "name": "Bank of the West - ATM", "opening_hours": {"open_now": true}, "photos": [{"height": 400, "html_attributions": ["<a href=\"https://maps.google.com/maps/contrib/103078597650894476441/photos\">Bank of the West - ATM</a>"], "photo_reference": "CmRaAAAAimysGbYOEN1Bf8YSFjGjNuwM6nuL3RHLxlTtEq70gODkyFfjTFfhsQfevWv9GuiSdT6mdOHwlh78_TSKsfHbNQuVJRC3rgdni128i31QOHL5yQBS2eZcZ7N8A9Qj3Z3uEhDc3iV69ubugtHxy1dVjhDiGhT6u9TD5XOAzCRus77DsqVjlq8FtQ", "width": 400}], "place_id": "ChIJN1YmTi58hYAR13X7GF4WzXs", "plus_code": {"compound_code": "VP8V+RH Berkeley, California, United States", "global_code": "849VVP8V+RH"}, "rating": 5, "reference": "ChIJN1YmTi58hYAR13X7GF4WzXs", "scope": "GOOGLE", "types": ["atm", "finance", "point_of_interest", "establishment"], "vicinity": "2415 Bowditch Street, Berkeley"}, "ChIJw2jt5TF8hYARB_TgKrZ3AXY": {"geometry": {"location": {"lat": 37.8668096, "lng": -122.2534782}, "viewport": {"northeast": {"lat": 37.8680547802915, "lng": -122.2521079697085}, "southwest": {"lat": 37.8653568197085, "lng": -122.2548059302915}}}, "icon": "https://maps.gstatic.com/mapfiles/place_api/icons/generic_business-71.png", "id": "9e023509a770425cad335c3f77e272cb0e30dc4d", "name": "Alpha Gamma Omega Fraternity", "opening_hours": {"open_now": true}, "photos": [{"height": 540, "html_attributions": ["<a href=\"https://maps.google.com/maps/contrib/110442332271827201434/photos\">Alpha Gamma Omega Fraternity</a>"], "photo_reference": "CmRaAAAAhA8mbO9AGRC9LXWRfVcRc4K26qU_ovE2WO_71UcUSO5YBjGp54c4H0FzcTmURg6niv1y8wWqGFGPfOrA1owRi7JiA7am3bRJOOlQllKiOWex0J0gGZ2v8v43C1uZUpo2EhDtht03oDBTF109x65N6uGXGhTpabc3xQdR6XDN_Hx3Aq8AR0be6g", "width": 720}], "place_id": "ChIJw2jt5TF8hYARB_TgKrZ3AXY", "plus_code": {"compound_code": "VP8W+PJ Berkeley, California, United States", "global_code": "849VVP8W+PJ"}, "rating": 5, "reference": "ChIJw2jt5TF8hYARB_TgKrZ3AXY", "scope": "GOOGLE", "types": ["point_of_interest", "establishment"], "vicinity": "2713 Haste Street, Berkeley"}, "ChIJfaPw2S18hYARidteHuKlhP0": {"geometry": {"location": {"lat": 37.8647809, "lng": -122.2561255}, "viewport": {"northeast": {"lat": 37.8661197802915, "lng": -122.2549338197085}, "southwest": {"lat": 37.8634218197085, "lng": -122.2576317802915}}}, "icon": "https://maps.gstatic.com/mapfiles/place_api/icons/school-71.png", "id": "2f23908fc77654b98308d9f9218fb97fb0986b4b", "name": "UC Berkeley Fall Program for Freshmen Campus", "place_id": "ChIJfaPw2S18hYARidteHuKlhP0", "plus_code": {"compound_code": "VP7V+WG Berkeley, California, United States", "global_code": "849VVP7V+WG"}, "rating": 3, "reference": "ChIJfaPw2S18hYARidteHuKlhP0", "scope": "GOOGLE", "types": ["university", "point_of_interest", "establishment"], "vicinity": "2515 Hillegass Avenue, Berkeley"}, "ChIJs1fh8S18hYARw4QzOaiE2m0": {"geometry": {"location": {"lat": 37.864645, "lng": -122.254734}, "viewport": {"northeast": {"lat": 37.86598538029149, "lng": -122.2535631697085}, "southwest": {"lat": 37.8632874197085, "lng": -122.2562611302915}}}, "icon": "https://maps.gstatic.com/mapfiles/place_api/icons/generic_business-71.png", "id": "8fed6edec6ceda16f75ca6e75b96f104fe988dd7", "name": "Lakireddy Sidardha", "place_id": "ChIJs1fh8S18hYARw4QzOaiE2m0", "plus_code": {"compound_code": "VP7W+V4 Berkeley, California, United States", "global_code": "849VVP7W+V4"}, "reference": "ChIJs1fh8S18hYARw4QzOaiE2m0", "scope": "GOOGLE", "types": ["point_of_interest", "establishment"], "vicinity": "2525 Benvenue Avenue, Berkeley"}, "ChIJ1VZn9i18hYARhlHXVOqjQJI": {"geometry": {"location": {"lat": 37.864826, "lng": -122.254198}, "viewport": {"northeast": {"lat": 37.8661882802915, "lng": -122.2526669697085}, "southwest": {"lat": 37.8634903197085, "lng": -122.2553649302915}}}, "icon": "https://maps.gstatic.com/mapfiles/place_api/icons/generic_business-71.png", "id": "f3aed00d5cd7876cf3be1c6c051a37e70bcb9adb", "name": "Trilight Properties LLC", "place_id": "ChIJ1VZn9i18hYARhlHXVOqjQJI", "plus_code": {"compound_code": "VP7W+W8 Berkeley, California, United States", "global_code": "849VVP7W+W8"}, "reference": "ChIJ1VZn9i18hYARhlHXVOqjQJI", "scope": "GOOGLE", "types": ["point_of_interest", "establishment"], "vicinity": "2520 College Avenue, Berkeley"}, "ChIJf-ib4C18hYARx0yHIQJWpyY": {"geometry": {"location": {"lat": 37.86506500000001, "lng": -122.255436}, "viewport": {"northeast": {"lat": 37.8664214802915, "lng": -122.2539316197085}, "southwest": {"lat": 37.8637235197085, "lng": -122.2566295802915}}}, "icon": "https://maps.gstatic.com/mapfiles/place_api/icons/generic_business-71.png", "id": "49d466ffac9e660510121e065a89ef377f1a3b5e", "name": "ABSW Apartments", "place_id": "ChIJf-ib4C18hYARx0yHIQJWpyY", "plus_code": {"compound_code": "VP8V+2R Berkeley, California, United States", "global_code": "849VVP8V+2R"}, "reference": "ChIJf-ib4C18hYARx0yHIQJWpyY", "scope": "GOOGLE", "types": ["point_of_interest", "establishment"], "vicinity": "2508 Benvenue Avenue, Berkeley"}, "ChIJsyqEHy58hYAR6qoynOnhFJ8": {"geometry": {"location": {"lat": 37.86670700000001, "lng": -122.2542}, "viewport": {"northeast": {"lat": 37.8680559802915, "lng": -122.2528510197085}, "southwest": {"lat": 37.86535801970851, "lng": -122.2555489802915}}}, "icon": "https://maps.gstatic.com/mapfiles/place_api/icons/bus-71.png", "id": "83892f1aaf2c76708570da69f5a2c1a941702dce", "name": "College Ave. at Haste St.", "place_id": "ChIJsyqEHy58hYAR6qoynOnhFJ8", "plus_code": {"compound_code": "VP8W+M8 Berkeley, California, United States", "global_code": "849VVP8W+M8"}, "reference": "ChIJsyqEHy58hYAR6qoynOnhFJ8", "scope": "GOOGLE", "types": ["bus_station", "transit_station", "point_of_interest", "establishment"], "vicinity": "United States"}, "ChIJUWCcPC58hYARS_RSZ5iEYtM": {"geometry": {"location": {"lat": 37.86691319999999, "lng": -122.2548753}, "viewport": {"northeast": {"lat": 37.8682716802915, "lng": -122.2537162697085}, "southwest": {"lat": 37.8655737197085, "lng": -122.2564142302915}}}, "icon": "https://maps.gstatic.com/mapfiles/place_api/icons/generic_business-71.png", "id": "daee64c4cf06611be6815026c84fbe6b570290ef", "name": "Underhill Field", "opening_hours": {"open_now": true}, "photos": [{"height": 3024, "html_attributions": ["<a href=\"https://maps.google.com/maps/contrib/111428927755337652431/photos\">Arnold de Leon</a>"], "photo_reference": "CmRaAAAADbGVUq2xOeeN15Byr_g08TJKRt4UUVQ9kLqRDRi1DlphGAOmAGE3AWcxO-Xn-4Gff7rMfQH-KS881LGlfQWcOGuFNoyBdIdoLXQBAv6s99--NeugtSdp6-uRgwqEPP1IEhCbcOFR1n53LND3hjhQG7TVGhSTCZXq-GmzNBaYclJh89ce_QC7Jw", "width": 4032}], "place_id": "ChIJUWCcPC58hYARS_RSZ5iEYtM", "plus_code": {"compound_code": "VP8W+Q2 Berkeley, California, United States", "global_code": "849VVP8W+Q2"}, "rating": 4, "reference": "ChIJUWCcPC58hYARS_RSZ5iEYtM", "scope": "GOOGLE", "types": ["point_of_interest", "establishment"], "vicinity": "2645-2695 Haste Street, Berkeley"}, "ChIJIaUBCDJ8hYAR8qt7PzWyGw0": {"geometry": {"location": {"lat": 37.865097, "lng": -122.254226}, "viewport": {"northeast": {"lat": 37.8664576802915, "lng": -122.2526963697085}, "southwest": {"lat": 37.8637597197085, "lng": -122.2553943302915}}}, "icon": "https://maps.gstatic.com/mapfiles/place_api/icons/generic_business-71.png", "id": "4ef35b66ff58a0f9210f3cb2e49264b90bae4db0", "name": "Entrance Line", "place_id": "ChIJIaUBCDJ8hYAR8qt7PzWyGw0", "plus_code": {"compound_code": "VP8W+28 Berkeley, California, United States", "global_code": "849VVP8W+28"}, "reference": "ChIJIaUBCDJ8hYAR8qt7PzWyGw0", "scope": "GOOGLE", "types": ["point_of_interest", "establishment"], "vicinity": "2514 College Avenue, Berkeley"}, "ChIJ_____-B-hYAR9zrdDkPpyAw": {"geometry": {"location": {"lat": 37.8669292, "lng": -122.2551958}, "viewport": {"northeast": {"lat": 37.8682781802915, "lng": -122.2538468197085}, "southwest": {"lat": 37.86558021970851, "lng": -122.2565447802915}}}, "icon": "https://maps.gstatic.com/mapfiles/place_api/icons/generic_business-71.png", "id": "8a067ddfe7e1b98353e38800e7c9506033e4b144", "name": "Walsh Caitlin E OD", "place_id": "ChIJ_____-B-hYAR9zrdDkPpyAw", "plus_code": {"compound_code": "VP8V+QW Berkeley, California, United States", "global_code": "849VVP8V+QW"}, "reference": "ChIJ_____-B-hYAR9zrdDkPpyAw", "scope": "GOOGLE", "types": ["health", "point_of_interest", "establishment"], "vicinity": "200 Minor Hall School of Opto, Berkeley"}, "ChIJTdFoQy58hYARQRPbXUFTUaQ": {"geometry": {"location": {"lat": 37.8665192, "lng": -122.2560628}, "viewport": {"northeast": {"lat": 37.86778743029151, "lng": -122.2546979197085}, "southwest": {"lat": 37.86508946970851, "lng": -122.2573958802915}}}, "icon": "https://maps.gstatic.com/mapfiles/place_api/icons/generic_business-71.png", "id": "453ecf6e5f12b1a4d703c9d40be98af08cc1ffb8", "name": "Casa Bonita", "place_id": "ChIJTdFoQy58hYARQRPbXUFTUaQ", "plus_code": {"compound_code": "VP8V+JH Berkeley, California, United States", "global_code": "849VVP8V+JH"}, "reference": "ChIJTdFoQy58hYARQRPbXUFTUaQ", "scope": "GOOGLE", "types": ["point_of_interest", "establishment"], "vicinity": "2605 Haste Street, Berkeley"}, "ChIJyUfnHy58hYARReUcpDsZ2Cw": {"geometry": {"location": {"lat": 37.8668069, "lng": -122.2540628}, "viewport": {"northeast": {"lat": 37.8681558802915, "lng": -122.2527138197085}, "southwest": {"lat": 37.8654579197085, "lng": -122.2554117802915}}}, "icon": "https://maps.gstatic.com/mapfiles/place_api/icons/bus-71.png", "id": "a60608b91e456f3935fd1f0d28f6c9ed85cdf7ca", "name": "College Ave. at Haste St.", "place_id": "ChIJyUfnHy58hYARReUcpDsZ2Cw", "plus_code": {"compound_code": "VP8W+P9 Berkeley, California, United States", "global_code": "849VVP8W+P9"}, "reference": "ChIJyUfnHy58hYARReUcpDsZ2Cw", "scope": "GOOGLE", "types": ["bus_station", "transit_station", "point_of_interest", "establishment"], "vicinity": "Berkeley"}, "ChIJeTAQCDJ8hYARjQQJmbCgLEw": {"geometry": {"location": {"lat": 37.8650733, "lng": -122.2539923}, "viewport": {"northeast": {"lat": 37.86642653029151, "lng": -122.2525775197085}, "southwest": {"lat": 37.86372856970851, "lng": -122.2552754802915}}}, "icon": "https://maps.gstatic.com/mapfiles/place_api/icons/generic_business-71.png", "id": "13b16ecfb08698d469f1be08de2a04f978403ead", "name": "York Apt", "place_id": "ChIJeTAQCDJ8hYARjQQJmbCgLEw", "plus_code": {"compound_code": "VP8W+2C Berkeley, California, United States", "global_code": "849VVP8W+2C"}, "reference": "ChIJeTAQCDJ8hYARjQQJmbCgLEw", "scope": "GOOGLE", "types": ["point_of_interest", "establishment"], "vicinity": "2514 College Avenue, Berkeley"}, "ChIJVVVVFTt8hYARS17nBUybHYA": {"geometry": {"location": {"lat": 37.8670799, "lng": -122.2556761}, "viewport": {"northeast": {"lat": 37.8685462302915, "lng": -122.2543446697085}, "southwest": {"lat": 37.86584826970851, "lng": -122.2570426302915}}}, "icon": "https://maps.gstatic.com/mapfiles/place_api/icons/school-71.png", "id": "2c7407d6c367decce682566fd17eb8c1ca4250c8", "name": "Residential & Student Services Prog", "place_id": "ChIJVVVVFTt8hYARS17nBUybHYA", "plus_code": {"compound_code": "VP8V+RP Berkeley, California, United States", "global_code": "849VVP8V+RP"}, "reference": "ChIJVVVVFTt8hYARS17nBUybHYA", "scope": "GOOGLE", "types": ["university", "point_of_interest", "establishment"], "vicinity": "2610 Channing Way, Berkeley"}, "ChIJpV0gUC58hYARjL5jX20gQBY": {"geometry": {"location": {"lat": 37.86690910000001, "lng": -122.256178}, "viewport": {"northeast": {"lat": 37.8682408302915, "lng": -122.2549673197085}, "southwest": {"lat": 37.86554286970851, "lng": -122.2576652802915}}}, "icon": "https://maps.gstatic.com/mapfiles/place_api/icons/cafe-71.png", "id": "8de557e8014d21b2628ff5f6b475721292d62927", "name": "Freshens", "opening_hours": {"open_now": true}, "place_id": "ChIJpV0gUC58hYARjL5jX20gQBY", "plus_code": {"compound_code": "VP8V+QG Berkeley, California, United States", "global_code": "849VVP8V+QG"}, "reference": "ChIJpV0gUC58hYARjL5jX20gQBY", "scope": "GOOGLE", "types": ["cafe", "point_of_interest", "food", "establishment"], "vicinity": "2415 Bowditch Street, Berkeley"}, "ChIJf6Pw2S18hYARML5YCXiatDg": {"geometry": {"location": {"lat": 37.8647809, "lng": -122.2561255}, "viewport": {"northeast": {"lat": 37.8661298802915, "lng": -122.2547765197085}, "southwest": {"lat": 37.8634319197085, "lng": -122.2574744802915}}}, "icon": "https://maps.gstatic.com/mapfiles/place_api/icons/school-71.png", "id": "69adb26df3ebb8cd11723b32eed7010bf4e7a9dc", "name": "Berkeley Rose Waldorf School", "opening_hours": {"open_now": true}, "photos": [{"height": 3024, "html_attributions": ["<a href=\"https://maps.google.com/maps/contrib/105002203582145174166/photos\">Berkeley Rose Waldorf School</a>"], "photo_reference": "CmRaAAAAlJUHkjaEs7wax_OHoGmdm9Oce250fhPAhxDKa6SisqVlmhXkgHHHsd8Pu4-n6calsy37gzxSiIY7sF9eKwhuO7POzhKKTjDcfs8QYGU7xm3Ftw0EZe6zJ1w9nR_eIUvIEhAjFX9fKkxTsdSHU5Dg2WWgGhSx_dJfWddynOgw_O2WXULOt-9VZA", "width": 4032}], "place_id": "ChIJf6Pw2S18hYARML5YCXiatDg", "plus_code": {"compound_code": "VP7V+WG Berkeley, California, United States", "global_code": "849VVP7V+WG"}, "rating": 5, "reference": "ChIJf6Pw2S18hYARML5YCXiatDg", "scope": "GOOGLE", "types": ["school", "point_of_interest", "establishment"], "vicinity": "2138 Cedar Street and 2515 Hillegass Avenue,, Berkeley"}}