{"ChIJA-2qKIt9hYARZ5N1NdUVtHE": {"geometry": {"location": {"lat": 37.8043637, "lng": -122.2711137}, "viewport": {"northeast": {"lat": 37.88472489999999, "lng": -122.114775}, "southwest": {"lat": 37.6322259, "lng": -122.355881}}}, "icon": "https://maps.gstatic.com/mapfiles/place_api/icons/geocode-71.png", "id": "da4a4da21e013f9d3a24e8eee6d4f84de02148d3", "name": "Oakland", "photos": [{"height": 2848, "html_attributions": ["<a href=\"https://maps.google.com/maps/contrib/113300206259949994494/photos\">Cimino Alberto</a>"], "photo_reference": "CmRaAAAA_pLJWew1ZNP28iqYAwljtmR3HgwppZp6dmcy9AzD0rebrQs-whiIa6VcFHOT6LBChw8LTTxRV95YGXU3FSbRWNoI5_E_yoOTwlyiD5DV7D1_Q9HgvNYK7kiaQGc1O5O5EhAtWaEbAdZoQaREPovuur5VGhTXfkpPwf9L47MjVgeailt0N_YfQQ", "width": 4256}], "place_id": "ChIJA-2qKIt9hYARZ5N1NdUVtHE", "reference": "ChIJA-2qKIt9hYARZ5N1NdUVtHE", "scope": "GOOGLE", "types": ["locality", "political"], "vicinity": "Oakland"}, "ChIJs478Q2Z-hYARDC0ssaN0HTg": {"geometry": {"location": {"lat": 37.84364239999999, "lng": -122.2841762}, "viewport": {"northeast": {"lat": 37.84500808029149, "lng": -122.2827420197085}, "southwest": {"lat": 37.84231011970849, "lng": -122.2854399802915}}}, "icon": "https://maps.gstatic.com/mapfiles/place_api/icons/restaurant-71.png", "id": "f78c37e1e72e5c4dbc0969daedd6386d6209d933", "name": "Donut Farm Oakland", "opening_hours": {"open_now": false}, "photos": [{"height": 2448, "html_attributions": ["<a href=\"https://maps.google.com/maps/contrib/102788984868146994343/photos\">anna huttel</a>"], "photo_reference": "CmRaAAAAuhAny3UjHkexeRDipHgc5IRZiQV-RUAJzxpEqKV_AfnlplerqEg-d5hm_1Z3UkstDS1UELR0nj2pP8QmL0AvmpPmSVJ9IQCm9D3rGCuo5Pnf_9M3LBopuzWZbJYFIVlNEhCaUi8rNzEpKAMrjobvTZN8GhRg-cqm-_WEqq93co-CBtTdbBrpXw", "width": 3264}], "place_id": "ChIJs478Q2Z-hYARDC0ssaN0HTg", "plus_code": {"compound_code": "RPV8+F8 Oakland, California, United States", "global_code": "849VRPV8+F8"}, "rating": 4.5, "reference": "ChIJs478Q2Z-hYARDC0ssaN0HTg", "scope": "GOOGLE", "types": ["cafe", "bakery", "store", "restaurant", "point_of_interest", "food", "establishment"], "vicinity": "6037 San Pablo Avenue, Oakland"}, "ChIJj47PZd-Fj4ARfB6aBwkPaJo": {"geometry": {"location": {"lat": 37.8432718, "lng": -122.2863153}, "viewport": {"northeast": {"lat": 37.84469858029151, "lng": -122.2849995697085}, "southwest": {"lat": 37.84200061970851, "lng": -122.2876975302915}}}, "icon": "https://maps.gstatic.com/mapfiles/place_api/icons/generic_business-71.png", "id": "68952131bcd87551f689535e1f8cc7c2d6e8d13a", "name": "Reiki Center of the East Bay", "place_id": "ChIJj47PZd-Fj4ARfB6aBwkPaJo", "plus_code": {"compound_code": "RPV7+8F Oakland, California, United States", "global_code": "849VRPV7+8F"}, "reference": "ChIJj47PZd-Fj4ARfB6aBwkPaJo", "scope": "GOOGLE", "types": ["health", "point_of_interest", "establishment"], "vicinity": "1223 61st Street, Oakland"}, "ChIJpar_ImZ-hYARaH-r48K7mCg": {"geometry": {"location": {"lat": 37.84271059999999, "lng": -122.2840085}, "viewport": {"northeast": {"lat": 37.8440889802915, "lng": -122.2825123697085}, "southwest": {"lat": 37.8413910197085, "lng": -122.2852103302915}}}, "icon": "https://maps.gstatic.com/mapfiles/place_api/icons/generic_business-71.png", "id": "ae2b4823c87460b675497eed1eb49030b0d9a8d0", "name": "Madam Martin's Psychic Readings", "place_id": "ChIJpar_ImZ-hYARaH-r48K7mCg", "plus_code": {"compound_code": "RPV8+39 Oakland, California, United States", "global_code": "849VRPV8+39"}, "reference": "ChIJpar_ImZ-hYARaH-r48K7mCg", "scope": "GOOGLE", "types": ["point_of_interest", "establishment"], "vicinity": "5907 San Pablo Avenue, Emeryville"}, "ChIJlW8mz2d-hYARBsnuDgyJbmY": {"geometry": {"location": {"lat": 37.842536, "lng": -122.2858133}, "viewport": {"northeast": {"lat": 37.8439152802915, "lng": -122.2843102197085}, "southwest": {"lat": 37.8412173197085, "lng": -122.2870081802915}}}, "icon": "https://maps.gstatic.com/mapfiles/place_api/icons/generic_business-71.png", "id": "78f9fa37e2d78a92da662fd23ab035072923b24d", "name": "In Touch Investments", "place_id": "ChIJlW8mz2d-hYARBsnuDgyJbmY", "plus_code": {"compound_code": "RPV7+2M Oakland, California, United States", "global_code": "849VRPV7+2M"}, "reference": "ChIJlW8mz2d-hYARBsnuDgyJbmY", "scope": "GOOGLE", "types": ["finance", "point_of_interest", "establishment"], "vicinity": "5915 Fremont Street, Oakland"}, "ChIJVVVVVayAj4AR7T_dfFr4yL4": {"geometry": {"location": {"lat": 37.8426734, "lng": -122.2853038}, "viewport": {"northeast": {"lat": 37.8440014802915, "lng": -122.2840610197085}, "southwest": {"lat": 37.8413035197085, "lng": -122.2867589802915}}}, "icon": "https://maps.gstatic.com/mapfiles/place_api/icons/generic_business-71.png", "id": "d38adf4f45804f1450da8d771a6b6c11e1ea816f", "name": "Bronstein Debra A", "place_id": "ChIJVVVVVayAj4AR7T_dfFr4yL4", "plus_code": {"compound_code": "RPV7+3V Oakland, California, United States", "global_code": "849VRPV7+3V"}, "reference": "ChIJVVVVVayAj4AR7T_dfFr4yL4", "scope": "GOOGLE", "types": ["health", "point_of_interest", "establishment"], "vicinity": "5914 Fremont Street, Oakland"}, "ChIJNaerFWZ-hYAR7knwwg49Uw4": {"geometry": {"location": {"lat": 37.8433404, "lng": -122.2836528}, "viewport": {"northeast": {"lat": 37.8446786302915, "lng": -122.2823570697085}, "southwest": {"lat": 37.8419806697085, "lng": -122.2850550302915}}}, "icon": "https://maps.gstatic.com/mapfiles/place_api/icons/generic_business-71.png", "id": "952a503dabcd4ca1ff209639c58217e5d7892a51", "name": "AJ's Auto Clinic", "opening_hours": {"open_now": false}, "photos": [{"height": 5312, "html_attributions": ["<a href=\"https://maps.google.com/maps/contrib/104987715465075352847/photos\">kyusuk kim</a>"], "photo_reference": "CmRaAAAAO8qp1mOVE9vqEvtl_Ow6umvf83EZDI_xBvNTzat3vT4EQyo1mtstf3p7hEdErblVf65wGorhzI7YfCIddcbEq1xhenTCJPKOqf9abFd0PpqpLEKM6zFgkysKIwJZpM3yEhBzFAX_BOo1myHyAeCSiOxJGhSlFkq5N2RTHtLhLd6T2IPZ-DM58Q", "width": 2988}], "place_id": "ChIJNaerFWZ-hYAR7knwwg49Uw4", "plus_code": {"compound_code": "RPV8+8G Oakland, California, United States", "global_code": "849VRPV8+8G"}, "rating": 4.6, "reference": "ChIJNaerFWZ-hYAR7knwwg49Uw4", "scope": "GOOGLE", "types": ["car_repair", "point_of_interest", "establishment"], "vicinity": "6006 San Pablo Avenue, Oakland"}, "ChIJk0dKfGh-hYARQHj7-raXYQ8": {"geometry": {"location": {"lat": 37.8414671, "lng": -122.2854026}, "viewport": {"northeast": {"lat": 37.8428388302915, "lng": -122.2839357697085}, "southwest": {"lat": 37.8401408697085, "lng": -122.2866337302915}}}, "icon": "https://maps.gstatic.com/mapfiles/place_api/icons/generic_business-71.png", "id": "3e12df86faa3ccb471fabe511b429c9183e16e2f", "name": "Ceremonies for Sacred Days", "photos": [{"height": 1365, "html_attributions": ["<a href=\"https://maps.google.com/maps/contrib/113853936092311376797/photos\">Ceremonies for Sacred Days</a>"], "photo_reference": "CmRaAAAAta8e-KfhH10Vp2tSPpl6C0lcWT0arZPgF9Csfxjo4E068PHjuA_SN5mNVy3Q_mDy6xcXKB7C44KT5bD1-PMi4WAYy9TI5zsLO9AmQu-Wsry3QsQennjU8lH721VGl-WeEhB1_QZqgIJ8UuBLlAWWsgZJGhR62Ol40q01skO660V8ixqq7v6Fhw", "width": 2048}], "place_id": "ChIJk0dKfGh-hYARQHj7-raXYQ8", "rating": 5, "reference": "ChIJk0dKfGh-hYARQHj7-raXYQ8", "scope": "GOOGLE", "types": ["point_of_interest", "establishment"], "vicinity": "5843 Fremont Street, Oakland"}, "ChIJp-pseGh-hYAR9EA55qI-cdU": {"geometry": {"location": {"lat": 37.841617, "lng": -122.285852}, "viewport": {"northeast": {"lat": 37.8429406802915, "lng": -122.2846282697085}, "southwest": {"lat": 37.8402427197085, "lng": -122.2873262302915}}}, "icon": "https://maps.gstatic.com/mapfiles/place_api/icons/generic_business-71.png", "id": "1d1bb1f8758451495c18fba84ec93c0fb84a9fe3", "name": "Rogue Digital Marketing", "opening_hours": {"open_now": false}, "place_id": "ChIJp-pseGh-hYAR9EA55qI-cdU", "reference": "ChIJp-pseGh-hYAR9EA55qI-cdU", "scope": "GOOGLE", "types": ["point_of_interest", "establishment"], "vicinity": "5876 Vallejo Street, Emeryville"}, "ChIJU7QkpGh-hYAR2X6URWguyb0": {"geometry": {"location": {"lat": 37.8429304, "lng": -122.2835293}, "viewport": {"northeast": {"lat": 37.8442697802915, "lng": -122.2822306197085}, "southwest": {"lat": 37.8415718197085, "lng": -122.2849285802915}}}, "icon": "https://maps.gstatic.com/mapfiles/place_api/icons/generic_business-71.png", "id": "47e84ea02765b1598112477ea4981d94373bb155", "name": "Namaste Pizza", "opening_hours": {"open_now": true}, "photos": [{"height": 3120, "html_attributions": ["<a href=\"https://maps.google.com/maps/contrib/105087638510621860873/photos\">Rahul Bhaskar</a>"], "photo_reference": "CmRaAAAAKEiNr_HqhAD8H6D0AYLdnK8vI2lufjaZEEEuM1UNqt1w9MSKrUmtxvpgvtCM29jZyDYvPxPRHvZprNBjctmj2RsFZdTbe4vREktyEc9wkL65aCH6S6-X4vr4tk_tLzniEhBc7YMSRPrRcS0mlrWj4CrQGhTH8dOGcwK5GawbxV-gLUDNlTmivg", "width": 4160}], "place_id": "ChIJU7QkpGh-hYAR2X6URWguyb0", "rating": 4.4, "reference": "ChIJU7QkpGh-hYAR2X6URWguyb0", "scope": "GOOGLE", "types": ["meal_delivery", "meal_takeaway", "restaurant", "point_of_interest", "food", "establishment"], "vicinity": "5942 San Pablo Avenue, Oakland"}, "ChIJP5hFHmZ-hYARIcSJo_YyJNc": {"geometry": {"location": {"lat": 37.8428354, "lng": -122.2834523}, "viewport": {"northeast": {"lat": 37.84417043029151, "lng": -122.2821762197085}, "southwest": {"lat": 37.84147246970851, "lng": -122.2848741802915}}}, "icon": "https://maps.gstatic.com/mapfiles/place_api/icons/shopping-71.png", "id": "d38e0544ac15864922804e61d0ea242f336c430c", "name": "Gateway Smoke Shop", "opening_hours": {"open_now": true}, "photos": [{"height": 1536, "html_attributions": ["<a href=\"https://maps.google.com/maps/contrib/114613965061564112872/photos\">Gateway Smoke Shop</a>"], "photo_reference": "CmRaAAAA05SAntfvAUD8NYGHtRXRPqdVHxoRKA05L9nmFSaDuewh4IUFBLER74oZr3ur6_ohsj1_wHuTl6ExXBymW9av-OVuTaf4JQ3JB2SCSSnGt2BroFkQ2Po0wQX7sP0ZkYp8EhC3XPJcDf5HkWpYiF1Hsis5GhTGQG7fPNRMuDcWMBSDDmR3atxdfA", "width": 2048}], "place_id": "ChIJP5hFHmZ-hYARIcSJo_YyJNc", "plus_code": {"compound_code": "RPV8+4J Oakland, California, United States", "global_code": "849VRPV8+4J"}, "rating": 3.9, "reference": "ChIJP5hFHmZ-hYARIcSJo_YyJNc", "scope": "GOOGLE", "types": ["store", "point_of_interest", "establishment"], "vicinity": "5936 San Pablo Avenue, Oakland"}, "ChIJySa7XGZ-hYARFxDn5vwCUv8": {"geometry": {"location": {"lat": 37.842064, "lng": -122.2836}, "viewport": {"northeast": {"lat": 37.8434227802915, "lng": -122.2821968197085}, "southwest": {"lat": 37.84072481970851, "lng": -122.2848947802915}}}, "icon": "https://maps.gstatic.com/mapfiles/place_api/icons/generic_business-71.png", "id": "55d5077cb4290ca5880c9dcea0821b4d571444ce", "name": "Art Space", "opening_hours": {"open_now": false}, "place_id": "ChIJySa7XGZ-hYARFxDn5vwCUv8", "plus_code": {"compound_code": "RPR8+RH Oakland, California, United States", "global_code": "849VRPR8+RH"}, "reference": "ChIJySa7XGZ-hYARFxDn5vwCUv8", "scope": "GOOGLE", "types": ["art_gallery", "point_of_interest", "establishment"], "vicinity": "5869 San Pablo Avenue, Oakland"}, "ChIJdwSpl2h-hYARaY8e7wIpuj0": {"geometry": {"location": {"lat": 37.84170789999999, "lng": -122.284044}, "viewport": {"northeast": {"lat": 37.84303383029149, "lng": -122.2828159697085}, "southwest": {"lat": 37.8403358697085, "lng": -122.2855139302915}}}, "icon": "https://maps.gstatic.com/mapfiles/place_api/icons/generic_business-71.png", "id": "7550d884778e1841af608a599301c6eb9052d5dd", "name": "Horspool & Romine Manufacturing Co", "place_id": "ChIJdwSpl2h-hYARaY8e7wIpuj0", "plus_code": {"compound_code": "RPR8+M9 Oakland, California, United States", "global_code": "849VRPR8+M9"}, "reference": "ChIJdwSpl2h-hYARaY8e7wIpuj0", "scope": "GOOGLE", "types": ["point_of_interest", "establishment"], "vicinity": "5850 Marshall Street, Oakland"}, "ChIJMfxDk2d-hYAR8Xhw7YP7vnA": {"geometry": {"location": {"lat": 37.842542, "lng": -122.287075}, "viewport": {"northeast": {"lat": 37.8438665802915, "lng": -122.2858559197085}, "southwest": {"lat": 37.8411686197085, "lng": -122.2885538802915}}}, "icon": "https://maps.gstatic.com/mapfiles/place_api/icons/shopping-71.png", "id": "8f0fac01addeda6ca8f9ce47327b5129bddd403e", "name": "New Gift Sensations", "opening_hours": {"open_now": false}, "photos": [{"height": 4160, "html_attributions": ["<a href=\"https://maps.google.com/maps/contrib/106342095157286131465/photos\">New Gift Sensations</a>"], "photo_reference": "CmRaAAAAGmBOuiazskTI6GvNpF40vEUFr-g7iTSn35IkSG0ODmlpYtRfqGfmfg_b5W7Xy_14wErOOQNgFHdlSGNHXN2b-AdWuRCo4GBVC0yTeklbUNppyxlttaCxgwBmVQuWIQZNEhC3wpPpSSqqEtH5eHtbRdI_GhRwMGLlwYAW9JgP2I4BCi1z7HuAZQ", "width": 2340}], "place_id": "ChIJMfxDk2d-hYAR8Xhw7YP7vnA", "rating": 5, "reference": "ChIJMfxDk2d-hYAR8Xhw7YP7vnA", "scope": "GOOGLE", "types": ["store", "point_of_interest", "establishment"], "vicinity": "5928 Beaudry Street e, Emeryville"}, "ChIJ__9rRWZ-hYARvlJkwaCF-OU": {"geometry": {"location": {"lat": 37.8438101, "lng": -122.2843454}, "viewport": {"northeast": {"lat": 37.8451865802915, "lng": -122.2828563697085}, "southwest": {"lat": 37.8424886197085, "lng": -122.2855543302915}}}, "icon": "https://maps.gstatic.com/mapfiles/place_api/icons/generic_business-71.png", "id": "b713ff229983091819ed1839150e77cc2506f98a", "name": "Tekton Engineering and Construction", "place_id": "ChIJ__9rRWZ-hYARvlJkwaCF-OU", "plus_code": {"compound_code": "RPV8+G7 Oakland, California, United States", "global_code": "849VRPV8+G7"}, "reference": "ChIJ__9rRWZ-hYARvlJkwaCF-OU", "scope": "GOOGLE", "types": ["point_of_interest", "establishment"], "vicinity": "6045 San Pablo Avenue, Emeryville"}, "ChIJd3uwW2Z-hYARD1HZvne5s2Y": {"geometry": {"location": {"lat": 37.8441211, "lng": -122.2843092}, "viewport": {"northeast": {"lat": 37.8454857802915, "lng": -122.2828849197085}, "southwest": {"lat": 37.8427878197085, "lng": -122.2855828802915}}}, "icon": "https://maps.gstatic.com/mapfiles/place_api/icons/shopping-71.png", "id": "8bb8ebc4cebaad526ebb3c0faff15a4d688986f5", "name": "San Pablo Tires & Brakes", "opening_hours": {"open_now": false}, "photos": [{"height": 981, "html_attributions": ["<a href=\"https://maps.google.com/maps/contrib/101075084088834047740/photos\">Paul Morales</a>"], "photo_reference": "CmRaAAAAOUMUEe6sUMIRWgKNXxfgb03KBr1A4FwrGdILmhEmbJ5_QD76L1Dz2Y5iq5TVPUMIKtl2x-UuygiP7Xd-w3ovvnFt7vBtu0GUXON43_aHebplcPKn2Js3ec8dFqR63sV3EhBY64f6Vp1DTLH_peVR7zctGhQyGq_Fy5UkhBamAuPIedSQvaj8TQ", "width": 981}], "place_id": "ChIJd3uwW2Z-hYARD1HZvne5s2Y", "plus_code": {"compound_code": "RPV8+J7 Oakland, California, United States", "global_code": "849VRPV8+J7"}, "rating": 4.7, "reference": "ChIJd3uwW2Z-hYARD1HZvne5s2Y", "scope": "GOOGLE", "types": ["car_repair", "store", "point_of_interest", "establishment"], "vicinity": "6101 San Pablo Avenue, Emeryville"}, "ChIJqS6Ko2h-hYARH-CTqn5rAEk": {"geometry": {"location": {"lat": 37.8419568, "lng": -122.283686}, "viewport": {"northeast": {"lat": 37.8433271302915, "lng": -122.2822274197085}, "southwest": {"lat": 37.8406291697085, "lng": -122.2849253802915}}}, "icon": "https://maps.gstatic.com/mapfiles/place_api/icons/generic_business-71.png", "id": "c13fc44750a5880c29b07043e35617037d600634", "name": "Forthrite Printing", "photos": [{"height": 2048, "html_attributions": ["<a href=\"https://maps.google.com/maps/contrib/100454286221819111180/photos\">Forthrite Printing</a>"], "photo_reference": "CmRaAAAAWL0Kz6aS4MrWZB_unh05MIWf86H-tV2PmV2mWRChU0msmRDKuVYudTd9-2P9IdK0rnKWj5kSc28ICXSjDHU6dSadkKkNE_nNJdgORRzW4u4EZRJTCPeq_nLDcYXqP-oOEhD1d6-9cZbMcUw3MGw7J8qnGhSjyskvk_oZRe7d4sS34TcQeuW6yQ", "width": 1536}], "place_id": "ChIJqS6Ko2h-hYARH-CTqn5rAEk", "plus_code": {"compound_code": "RPR8+QG Oakland, California, United States", "global_code": "849VRPR8+QG"}, "rating": 5, "reference": "ChIJqS6Ko2h-hYARH-CTqn5rAEk", "scope": "GOOGLE", "types": ["store", "point_of_interest", "establishment"], "vicinity": "5857 San Pablo Avenue, Oakland"}, "ChIJcxyYG2Z-hYARIOPnOuwp-jQ": {"geometry": {"location": {"lat": 37.8427942, "lng": -122.2833598}, "viewport": {"northeast": {"lat": 37.8441220302915, "lng": -122.2821214697085}, "southwest": {"lat": 37.8414240697085, "lng": -122.2848194302915}}}, "icon": "https://maps.gstatic.com/mapfiles/place_api/icons/shopping-71.png", "id": "39b1d8058409cc43d748ad7f42983beb88024d71", "name": "Metro by T-Mobile", "opening_hours": {"open_now": false}, "photos": [{"height": 2160, "html_attributions": ["<a href=\"https://maps.google.com/maps/contrib/113387697009760569038/photos\">TJ LOWE</a>"], "photo_reference": "CmRaAAAAl8uuNAGTLyP7AvDpDak4FjRUN6yUPUt9YLTuhpDYG2uP6fEezLXjsCaH8KOHwF3NCsypHO26HNDtkoqduvg2sDciFGvJVv1RXU1B9sAfOVt6TSAwU8VtVadaP1AzQfWLEhAutAvTLmgtglKploNeyQZtGhR8t4eJ32-7Z0O2DKEYYgxkhX73Sg", "width": 3840}], "place_id": "ChIJcxyYG2Z-hYARIOPnOuwp-jQ", "plus_code": {"compound_code": "RPV8+4M Oakland, California, United States", "global_code": "849VRPV8+4M"}, "rating": 4.9, "reference": "ChIJcxyYG2Z-hYARIOPnOuwp-jQ", "scope": "GOOGLE", "types": ["electronics_store", "store", "point_of_interest", "establishment"], "vicinity": "5930 San Pablo Avenue, Oakland"}, "ChIJE_p6oGh-hYARDx4kx3kSSE4": {"geometry": {"location": {"lat": 37.8422282, "lng": -122.283772}, "viewport": {"northeast": {"lat": 37.8435976802915, "lng": -122.2823097197085}, "southwest": {"lat": 37.8408997197085, "lng": -122.2850076802915}}}, "icon": "https://maps.gstatic.com/mapfiles/place_api/icons/generic_business-71.png", "id": "126800e8c57c6b7647d374858947f28123debc79", "name": "Portia's Wing Lee Laundry", "opening_hours": {"open_now": false}, "place_id": "ChIJE_p6oGh-hYARDx4kx3kSSE4", "plus_code": {"compound_code": "RPR8+VF Oakland, California, United States", "global_code": "849VRPR8+VF"}, "rating": 5, "reference": "ChIJE_p6oGh-hYARDx4kx3kSSE4", "scope": "GOOGLE", "types": ["laundry", "point_of_interest", "establishment"], "vicinity": "5883 San Pablo Avenue, Emeryville"}, "ChIJs44f6hR-hYARB3GwqDEYHUg": {"geometry": {"location": {"lat": 37.831316, "lng": -122.2852473}, "viewport": {"northeast": {"lat": 37.8499259, "lng": -122.276123}, "southwest": {"lat": 37.8268948, "lng": -122.3154701}}}, "icon": "https://maps.gstatic.com/mapfiles/place_api/icons/geocode-71.png", "id": "50264385d03c71c7c39b656a05a99231106dfb05", "name": "Emeryville", "photos": [{"height": 3024, "html_attributions": ["<a href=\"https://maps.google.com/maps/contrib/105925452919882592532/photos\">Rene&#39; Bennett</a>"], "photo_reference": "CmRaAAAAiLaKE3h_hRL-KXUptsbFVPn4E_EBJh5Yq23570TAo5go2Nh7cPGNC0-zeFwviv0PxC8d10Ku3_YN4oW8DRD1J-4bGJ4IM6YExOiTKPa16R1C9EHR0BVP0ldIVlVwOWclEhBlW6tUgq1o4XO0HVv1TvEUGhQkWX_d3axbw_Jc93pd3ifpCSA4NQ", "width": 4032}], "place_id": "ChIJs44f6hR-hYARB3GwqDEYHUg", "reference": "ChIJs44f6hR-hYARB3GwqDEYHUg", "scope": "GOOGLE", "types": ["locality", "political"], "vicinity": "Emeryville"}, "ChIJ-V3xnGh-hYARYntTCXM5uf4": {"geometry": {"location": {"lat": 37.8418853, "lng": -122.284595}, "viewport": {"northeast": {"lat": 37.8432559802915, "lng": -122.2831322697085}, "southwest": {"lat": 37.8405580197085, "lng": -122.2858302302915}}}, "icon": "https://maps.gstatic.com/mapfiles/place_api/icons/generic_business-71.png", "id": "c6c76e272390530cfa49e69d39ba293c60b79416", "name": "Sibylle A. Dreyer, LAC", "place_id": "ChIJ-V3xnGh-hYARYntTCXM5uf4", "plus_code": {"compound_code": "RPR8+Q5 Oakland, California, United States", "global_code": "849VRPR8+Q5"}, "rating": 3.7, "reference": "ChIJ-V3xnGh-hYARYntTCXM5uf4", "scope": "GOOGLE", "types": ["health", "point_of_interest", "establishment"], "vicinity": "5861 Marshall Street, Oakland"}, "ChIJo2lCK2Z-hYARhxLdUs4s0Cc": {"geometry": {"location": {"lat": 37.8421298, "lng": -122.2851538}, "viewport": {"northeast": {"lat": 37.8435239302915, "lng": -122.2838195697085}, "southwest": {"lat": 37.8408259697085, "lng": -122.2865175302915}}}, "icon": "https://maps.gstatic.com/mapfiles/place_api/icons/generic_business-71.png", "id": "1d4efd873bd4adaa4cd5ab1d1e778c7ac86235ec", "name": "Studio 59", "place_id": "ChIJo2lCK2Z-hYARhxLdUs4s0Cc", "plus_code": {"compound_code": "RPR7+VW Oakland, California, United States", "global_code": "849VRPR7+VW"}, "reference": "ChIJo2lCK2Z-hYARhxLdUs4s0Cc", "scope": "GOOGLE", "types": ["point_of_interest", "establishment"], "vicinity": "1175 59th Street, Emeryville"}, "ChIJ10vyImZ-hYARxiNK6CBQ6zM": {"geometry": {"location": {"lat": 37.8427339, "lng": -122.2839241}, "viewport": {"northeast": {"lat": 37.8440828802915, "lng": -122.2825751197085}, "southwest": {"lat": 37.8413849197085, "lng": -122.2852730802915}}}, "icon": "https://maps.gstatic.com/mapfiles/place_api/icons/generic_business-71.png", "id": "c778def81bedf9e220fc869afdf03d7df2ab4096", "name": "Palm&Card Readings", "place_id": "ChIJ10vyImZ-hYARxiNK6CBQ6zM", "plus_code": {"compound_code": "RPV8+3C Oakland, California, United States", "global_code": "849VRPV8+3C"}, "reference": "ChIJ10vyImZ-hYARxiNK6CBQ6zM", "scope": "GOOGLE", "types": ["point_of_interest", "establishment"], "vicinity": "Emeryville"}, "ChIJka4Qg2h-hYARceMZJmH01fw": {"geometry": {"location": {"lat": 37.84185099999999, "lng": -122.2846409}, "viewport": {"northeast": {"lat": 37.84322673029149, "lng": -122.2831515197085}, "southwest": {"lat": 37.8405287697085, "lng": -122.2858494802915}}}, "icon": "https://maps.gstatic.com/mapfiles/place_api/icons/generic_business-71.png", "id": "b8412a19988f9d2699ae70a64d8e91fa12196c30", "name": "Healing Laughter Center", "place_id": "ChIJka4Qg2h-hYARceMZJmH01fw", "plus_code": {"compound_code": "RPR8+P4 Oakland, California, United States", "global_code": "849VRPR8+P4"}, "rating": 5, "reference": "ChIJka4Qg2h-hYARceMZJmH01fw", "scope": "GOOGLE", "types": ["health", "point_of_interest", "establishment"], "vicinity": "5861 Marshall Street, Oakland"}, "ChIJy29_o2h-hYARwJMnBnnJ2Os": {"geometry": {"location": {"lat": 37.8423294, "lng": -122.2838368}, "viewport": {"northeast": {"lat": 37.8437065802915, "lng": -122.2823622697085}, "southwest": {"lat": 37.8410086197085, "lng": -122.2850602302915}}}, "icon": "https://maps.gstatic.com/mapfiles/place_api/icons/generic_business-71.png", "id": "c7c9eadbf5631f07f33f17ff8ebed8fefe3814e3", "name": "Madrona Beauty Salon", "place_id": "ChIJy29_o2h-hYARwJMnBnnJ2Os", "plus_code": {"compound_code": "RPR8+WF Oakland, California, United States", "global_code": "849VRPR8+WF"}, "reference": "ChIJy29_o2h-hYARwJMnBnnJ2Os", "scope": "GOOGLE", "types": ["beauty_salon", "point_of_interest", "establishment"], "vicinity": "5887 San Pablo Avenue, Emeryville"}, "ChIJP2J_o2h-hYARaeyd8C3zQC8": {"geometry": {"location": {"lat": 37.84233640000001, "lng": -122.2838307}, "viewport": {"northeast": {"lat": 37.8437126802915, "lng": -122.2823601697085}, "southwest": {"lat": 37.8410147197085, "lng": -122.2850581302915}}}, "icon": "https://maps.gstatic.com/mapfiles/place_api/icons/generic_business-71.png", "id": "003dbc99c032df8723a4a445e7628c81bd14bd62", "name": "Network Communications", "place_id": "ChIJP2J_o2h-hYARaeyd8C3zQC8", "plus_code": {"compound_code": "RPR8+WF Oakland, California, United States", "global_code": "849VRPR8+WF"}, "rating": 1, "reference": "ChIJP2J_o2h-hYARaeyd8C3zQC8", "scope": "GOOGLE", "types": ["point_of_interest", "establishment"], "vicinity": "5891 San Pablo Avenue, Emeryville"}, "ChIJW4DsoWd-hYART_H_OZOHwhU": {"geometry": {"location": {"lat": 37.84358599999999, "lng": -122.286577}, "viewport": {"northeast": {"lat": 37.8448404302915, "lng": -122.2851876197085}, "southwest": {"lat": 37.8421424697085, "lng": -122.2878855802915}}}, "icon": "https://maps.gstatic.com/mapfiles/place_api/icons/generic_business-71.png", "id": "c1a86c8749ab8772e0b32ac3439e44987fdb6472", "name": "Quick Hauling & Moving Services", "place_id": "ChIJW4DsoWd-hYART_H_OZOHwhU", "plus_code": {"compound_code": "RPV7+C9 Oakland, California, United States", "global_code": "849VRPV7+C9"}, "reference": "ChIJW4DsoWd-hYART_H_OZOHwhU", "scope": "GOOGLE", "types": ["moving_company", "point_of_interest", "establishment"], "vicinity": "1228 61st Street, Emeryville"}, "ChIJJ2-tG2Z-hYAR0jhcpQTYkjU": {"geometry": {"location": {"lat": 37.8429741, "lng": -122.2835373}, "viewport": {"northeast": {"lat": 37.8443129802915, "lng": -122.2822411697085}, "southwest": {"lat": 37.8416150197085, "lng": -122.2849391302915}}}, "icon": "https://maps.gstatic.com/mapfiles/place_api/icons/shopping-71.png", "id": "531f8665914ad098278bff83c7b3cb44572d99f5", "name": "Gateway Liquor", "opening_hours": {"open_now": true}, "photos": [{"height": 1536, "html_attributions": ["<a href=\"https://maps.google.com/maps/contrib/105322517583350990131/photos\">Nikita Kuznetsov</a>"], "photo_reference": "CmRaAAAACQ6LsXEg2pGBf4TksKTOml1XKBMHIBa2i0wu7SxuWgCuhVyDYTUrQ8Uc4dvuiA5ldH-qrVI_8XBG_ymfP6-2ONNZEFTRQ6YdPD9ZXfycByWfoj0DuckIYUmmaKCgG1zPEhBfFglxuiFHCyryqJkWMPijGhRWm6VXNCwhpucm1uRqvZkWkYEoqg", "width": 2048}], "place_id": "ChIJJ2-tG2Z-hYAR0jhcpQTYkjU", "plus_code": {"compound_code": "RPV8+5H Oakland, California, United States", "global_code": "849VRPV8+5H"}, "rating": 3.8, "reference": "ChIJJ2-tG2Z-hYAR0jhcpQTYkjU", "scope": "GOOGLE", "types": ["liquor_store", "store", "point_of_interest", "establishment"], "vicinity": "5944 San Pablo Avenue, Emeryville"}, "ChIJo4wKoWh-hYARW64_7QE0kig": {"geometry": {"location": {"lat": 37.8421389, "lng": -122.2837131}, "viewport": {"northeast": {"lat": 37.84350553029149, "lng": -122.2822664697085}, "southwest": {"lat": 37.8408075697085, "lng": -122.2849644302915}}}, "icon": "https://maps.gstatic.com/mapfiles/place_api/icons/generic_business-71.png", "id": "4f6485f02dd3187fd5b4da39571b952479d9bfc6", "name": "Jessie Bail Bonds", "place_id": "ChIJo4wKoWh-hYARW64_7QE0kig", "plus_code": {"compound_code": "RPR8+VG Oakland, California, United States", "global_code": "849VRPR8+VG"}, "reference": "ChIJo4wKoWh-hYARW64_7QE0kig", "scope": "GOOGLE", "types": ["point_of_interest", "establishment"], "vicinity": "5873 San Pablo Avenue, Oakland"}, "ChIJFbBFSsF_hYARSk1CabG0fCc": {"geometry": {"location": {"lat": 37.8428879, "lng": -122.2833691}, "viewport": {"northeast": {"lat": 37.8442139802915, "lng": -122.2821399197085}, "southwest": {"lat": 37.8415160197085, "lng": -122.2848378802915}}}, "icon": "https://maps.gstatic.com/mapfiles/place_api/icons/generic_business-71.png", "id": "11674adb90854ca37818a7190d56bff0a7d83a5b", "name": "Jmd caterers", "opening_hours": {"open_now": false}, "place_id": "ChIJFbBFSsF_hYARSk1CabG0fCc", "plus_code": {"compound_code": "RPV8+5M Oakland, California, United States", "global_code": "849VRPV8+5M"}, "reference": "ChIJFbBFSsF_hYARSk1CabG0fCc", "scope": "GOOGLE", "types": ["point_of_interest", "food", "establishment"], "vicinity": "5938 San Pablo Avenue #103, Emeryville"}, "ChIJCVxnE2Z-hYARdB_GMRP0Ruc": {"geometry": {"location": {"lat": 37.8435206, "lng": -122.283573}, "viewport": {"northeast": {"lat": 37.8448457302915, "lng": -122.2823421197085}, "southwest": {"lat": 37.8421477697085, "lng": -122.2850400802915}}}, "icon": "https://maps.gstatic.com/mapfiles/place_api/icons/generic_business-71.png", "id": "0eeeb272efb4e8c7ab65b6a78558d56828395202", "name": "Alropacars Auto Repair", "place_id": "ChIJCVxnE2Z-hYARdB_GMRP0Ruc", "plus_code": {"compound_code": "RPV8+CH Oakland, California, United States", "global_code": "849VRPV8+CH"}, "rating": 1, "reference": "ChIJCVxnE2Z-hYARdB_GMRP0Ruc", "scope": "GOOGLE", "types": ["car_repair", "point_of_interest", "establishment"], "vicinity": "6018 San Pablo Avenue, Emeryville"}, "ChIJywEyomh-hYARY6z0eVdbhAw": {"geometry": {"location": {"lat": 37.84200199999999, "lng": -122.2836644}, "viewport": {"northeast": {"lat": 37.8433678302915, "lng": -122.2822220697085}, "southwest": {"lat": 37.8406698697085, "lng": -122.2849200302915}}}, "icon": "https://maps.gstatic.com/mapfiles/place_api/icons/generic_business-71.png", "id": "ad3fd6d9ae87110e4ce8fc50fccf919f2d3c70a7", "name": "\u00d8GAARD", "place_id": "ChIJywEyomh-hYARY6z0eVdbhAw", "plus_code": {"compound_code": "RPR8+RG Oakland, California, United States", "global_code": "849VRPR8+RG"}, "rating": 5, "reference": "ChIJywEyomh-hYARY6z0eVdbhAw", "scope": "GOOGLE", "types": ["point_of_interest", "establishment"], "vicinity": "5861 San Pablo Avenue, Oakland"}, "ChIJIR4D1j9_hYAROrqJbLJGyFw": {"geometry": {"location": {"lat": 37.84280620000001, "lng": -122.283344}, "viewport": {"northeast": {"lat": 37.8441322802915, "lng": -122.2821148697085}, "southwest": {"lat": 37.8414343197085, "lng": -122.2848128302915}}}, "icon": "https://maps.gstatic.com/mapfiles/place_api/icons/generic_business-71.png", "id": "fc4aeac124838f3ff63c94caf2362000e0fd4bf7", "name": "Oaktownwireless", "opening_hours": {"open_now": false}, "photos": [{"height": 2160, "html_attributions": ["<a href=\"https://maps.google.com/maps/contrib/107193645445514542854/photos\">Oaktownwireless</a>"], "photo_reference": "CmRaAAAA2nvCdl8VWJTX10TxiuWYewtq0kq25zopHvS9fgSyjL5FR9m_YS4vr3vTs0YEn_LaODKMLLhJCytm445s21t079av7P2oOsthJoTBrQls1t3j1O-m_ILxoqJciykPJjABEhCCW8mPVCtBR4us8y6MJG2bGhSihvwTINdvzN0ZCRGDEIX2g2Xy_w", "width": 3840}], "place_id": "ChIJIR4D1j9_hYAROrqJbLJGyFw", "plus_code": {"compound_code": "RPV8+4M Oakland, California, United States", "global_code": "849VRPV8+4M"}, "reference": "ChIJIR4D1j9_hYAROrqJbLJGyFw", "scope": "GOOGLE", "types": ["store", "point_of_interest", "establishment"], "vicinity": "5930 California 123, Oakland"}, "ChIJcxyYG2Z-hYARbPUS5-s-a3s": {"geometry": {"location": {"lat": 37.8428087, "lng": -122.2833312}, "viewport": {"northeast": {"lat": 37.84413353029149, "lng": -122.2821084697085}, "southwest": {"lat": 37.8414355697085, "lng": -122.2848064302915}}}, "icon": "https://maps.gstatic.com/mapfiles/place_api/icons/shopping-71.png", "id": "0c02d50a4adad450deb1416567addab3c1e480cd", "name": "Oaktownwireless", "opening_hours": {"open_now": false}, "photos": [{"height": 2160, "html_attributions": ["<a href=\"https://maps.google.com/maps/contrib/113387697009760569038/photos\">TJ LOWE</a>"], "photo_reference": "CmRaAAAA3Gv6SX_18zWJ6Hc0EpztRyXWTchtur-ld1G2tGOzxgJ3glxPBNW2upIquCpIyoXUMfwYEtCPHaP-kmLfet2XMtuAksH_XDg48-acDTjXym9k7jrD4cGpo3qiAKKzdK1oEhD7nuOWe50EM58lgQJrsiyrGhS0IvXixtSWdXIMQtmFqp8-rzYm9Q", "width": 3840}], "place_id": "ChIJcxyYG2Z-hYARbPUS5-s-a3s", "plus_code": {"compound_code": "RPV8+4M Oakland, California, United States", "global_code": "849VRPV8+4M"}, "reference": "ChIJcxyYG2Z-hYARbPUS5-s-a3s", "scope": "GOOGLE", "types": ["store", "point_of_interest", "establishment"], "vicinity": "5930 San Pablo Avenue, Oakland"}, "ChIJtbtgp2h-hYAR2kjpUeMsCKE": {"geometry": {"location": {"lat": 37.84244760000001, "lng": -122.2833633}, "viewport": {"northeast": {"lat": 37.8437851802915, "lng": -122.2820702197085}, "southwest": {"lat": 37.84108721970851, "lng": -122.2847681802915}}}, "icon": "https://maps.gstatic.com/mapfiles/place_api/icons/generic_business-71.png", "id": "f9c674ccfe90ec70dd3ec01cbf069067b25d8b3d", "name": "Style Cleaners", "place_id": "ChIJtbtgp2h-hYAR2kjpUeMsCKE", "plus_code": {"compound_code": "RPR8+XM Oakland, California, United States", "global_code": "849VRPR8+XM"}, "rating": 5, "reference": "ChIJtbtgp2h-hYAR2kjpUeMsCKE", "scope": "GOOGLE", "types": ["laundry", "point_of_interest", "establishment"], "vicinity": "5912 San Pablo Avenue, Emeryville"}}