{"ChIJA-2qKIt9hYARZ5N1NdUVtHE": {"geometry": {"location": {"lat": 37.8043637, "lng": -122.2711137}, "viewport": {"northeast": {"lat": 37.88472489999999, "lng": -122.114775}, "southwest": {"lat": 37.6322259, "lng": -122.355881}}}, "icon": "https://maps.gstatic.com/mapfiles/place_api/icons/geocode-71.png", "id": "da4a4da21e013f9d3a24e8eee6d4f84de02148d3", "name": "Oakland", "photos": [{"height": 2848, "html_attributions": ["<a href=\"https://maps.google.com/maps/contrib/113300206259949994494/photos\">Cimino Alberto</a>"], "photo_reference": "CmRaAAAAfW7qEXsNRA1Cg5yVnQCgsjy_EMfTSSu4C4PmRU43hhM85T2EaKRiLSgLvRdfw3wXIlF77nP61__KWNfawGB6MEtKxNUC44jJSH08Sf5kgnUcVZq7CPOveuuH7cc0qoPmEhC6CTYt88IEhvt-WcTiaUXkGhQiUVnnDUGMYs4HlGkhXwcv5L1FWA", "width": 4256}], "place_id": "ChIJA-2qKIt9hYARZ5N1NdUVtHE", "reference": "ChIJA-2qKIt9hYARZ5N1NdUVtHE", "scope": "GOOGLE", "types": ["locality", "political"], "vicinity": "Oakland"}, "ChIJ3-UEI5F9hYARzFjDcpDtiVg": {"geometry": {"location": {"lat": 37.8425533, "lng": -122.2349883}, "viewport": {"northeast": {"lat": 37.84390228029149, "lng": -122.2336393197085}, "southwest": {"lat": 37.8412043197085, "lng": -122.2363372802915}}}, "icon": "https://maps.gstatic.com/mapfiles/place_api/icons/generic_recreational-71.png", "id": "ab35a22a14c6a4d566f9db63fed813365d141439", "name": "Ostrander Park", "photos": [{"height": 2576, "html_attributions": ["<a href=\"https://maps.google.com/maps/contrib/103192290012409048429/photos\">Luis Cortes Mendoza</a>"], "photo_reference": "CmRaAAAAF4VMqzo3omQFZh6S1ATnRWvqCSqwdCKUriqo3nXgZHVjJ5toa7Cvz6f2oiBVv8hVPJ9yA5dGp6UDR6BqHKwnyaAMrQh89mO8jp7o43x2Mri1XbYbzucrD7HYvifyJ8VREhCn36EXn74HMauLo3-aX7oPGhQBbH9HcgK1SBnvXJJkvg6GFDpndw", "width": 1932}], "place_id": "ChIJ3-UEI5F9hYARzFjDcpDtiVg", "plus_code": {"compound_code": "RQV8+22 Oakland, California, United States", "global_code": "849VRQV8+22"}, "rating": 3.7, "reference": "ChIJ3-UEI5F9hYARzFjDcpDtiVg", "scope": "GOOGLE", "types": ["park", "point_of_interest", "establishment"], "vicinity": "Oakland"}, "ChIJa30MwpZ9hYARmItzOjdbYns": {"geometry": {"location": {"lat": 37.844039, "lng": -122.235177}, "viewport": {"northeast": {"lat": 37.8452858802915, "lng": -122.2336778197085}, "southwest": {"lat": 37.8425879197085, "lng": -122.2363757802915}}}, "icon": "https://maps.gstatic.com/mapfiles/place_api/icons/generic_business-71.png", "id": "1af3dbc032e40a16ed9ee42664f03325feff8c07", "name": "Ratcliff Consultants", "place_id": "ChIJa30MwpZ9hYARmItzOjdbYns", "plus_code": {"compound_code": "RQV7+JW Oakland, California, United States", "global_code": "849VRQV7+JW"}, "reference": "ChIJa30MwpZ9hYARmItzOjdbYns", "scope": "GOOGLE", "types": ["point_of_interest", "establishment"], "vicinity": "6016 Romany Road, Oakland"}, "ChIJVSRvG5R9hYARiEPJvK0zkcY": {"geometry": {"location": {"lat": 37.84287, "lng": -122.237435}, "viewport": {"northeast": {"lat": 37.8441119802915, "lng": -122.2360956197085}, "southwest": {"lat": 37.8414140197085, "lng": -122.2387935802915}}}, "icon": "https://maps.gstatic.com/mapfiles/place_api/icons/generic_business-71.png", "id": "4e9f93c7f3db8d8f42f63aa2306e9db3421e0f34", "name": "Costarella Architects", "place_id": "ChIJVSRvG5R9hYARiEPJvK0zkcY", "plus_code": {"compound_code": "RQV7+42 Oakland, California, United States", "global_code": "849VRQV7+42"}, "reference": "ChIJVSRvG5R9hYARiEPJvK0zkcY", "scope": "GOOGLE", "types": ["point_of_interest", "establishment"], "vicinity": "180 Beechwood Drive, Oakland"}, "ChIJy-kw0JZ9hYARa_XL_Yy8OH8": {"geometry": {"location": {"lat": 37.8435615, "lng": -122.2348803}, "viewport": {"northeast": {"lat": 37.84496593029149, "lng": -122.2336154197085}, "southwest": {"lat": 37.84226796970849, "lng": -122.2363133802915}}}, "icon": "https://maps.gstatic.com/mapfiles/place_api/icons/generic_business-71.png", "id": "e6a1b3daea2bb9cb9f1edc98be2615f45717c927", "name": "Boyd Smith Real Estate Apprsl", "place_id": "ChIJy-kw0JZ9hYARa_XL_Yy8OH8", "plus_code": {"compound_code": "RQV8+C2 Oakland, California, United States", "global_code": "849VRQV8+C2"}, "reference": "ChIJy-kw0JZ9hYARa_XL_Yy8OH8", "scope": "GOOGLE", "types": ["finance", "point_of_interest", "establishment"], "vicinity": "6017 Romany Road, Oakland"}, "ChIJy-kw0JZ9hYAR5WOoDnUTYfg": {"geometry": {"location": {"lat": 37.84344900000001, "lng": -122.234839}, "viewport": {"northeast": {"lat": 37.8448845802915, "lng": -122.2336213197085}, "southwest": {"lat": 37.8421866197085, "lng": -122.2363192802915}}}, "icon": "https://maps.gstatic.com/mapfiles/place_api/icons/generic_business-71.png", "id": "c864f79d1e7e4572df0961a9193457ff944cebea", "name": "Boyd-Smith Appraisal Services", "place_id": "ChIJy-kw0JZ9hYAR5WOoDnUTYfg", "plus_code": {"compound_code": "RQV8+93 Oakland, California, United States", "global_code": "849VRQV8+93"}, "reference": "ChIJy-kw0JZ9hYAR5WOoDnUTYfg", "scope": "GOOGLE", "types": ["point_of_interest", "establishment"], "vicinity": "6017 Romany Road, Oakland"}, "ChIJs_qG25B9hYAR5sZM-4-F1JU": {"geometry": {"location": {"lat": 37.84555249999999, "lng": -122.2341905}, "viewport": {"northeast": {"lat": 37.852526, "lng": -122.217378}, "southwest": {"lat": 37.831926, "lng": -122.247279}}}, "icon": "https://maps.gstatic.com/mapfiles/place_api/icons/geocode-71.png", "id": "f6a59e0bdc2d575b7b824256d1f495b49e280ee1", "name": "Upper Rockridge", "place_id": "ChIJs_qG25B9hYAR5sZM-4-F1JU", "reference": "ChIJs_qG25B9hYAR5sZM-4-F1JU", "scope": "GOOGLE", "types": ["neighborhood", "political"], "vicinity": "Oakland"}}