{"ChIJ00mFOjZ5hYARk-l1ppUV6pQ": {"geometry": {"location": {"lat": 37.8715926, "lng": -122.272747}, "viewport": {"northeast": {"lat": 37.9058239, "lng": -122.234179}, "southwest": {"lat": 37.835727, "lng": -122.367781}}}, "icon": "https://maps.gstatic.com/mapfiles/place_api/icons/geocode-71.png", "id": "00741fe572fc4084428ab206e1a55830f6a1bf0a", "name": "Berkeley", "photos": [{"height": 1080, "html_attributions": ["<a href=\"https://maps.google.com/maps/contrib/110244590763501513798/photos\">miao hsin sun</a>"], "photo_reference": "CmRaAAAAhUDlwz1DAN7xNFo5AW1eUDEsSfvJaDlLQ-JrrWT2qKtfV1m5-Il1ztdE4pdzNcqJODo0suMkcY96fhCRahhqhNPgcimfhhc-jLC7rMo2rVnStkGo7-KBU87tRTQgTgOlEhDeSaZexUwqN84Aj9Wl_xdlGhSSn6BFwBIgdYX7Q6XBPXVRSbMPFw", "width": 1616}], "place_id": "ChIJ00mFOjZ5hYARk-l1ppUV6pQ", "reference": "ChIJ00mFOjZ5hYARk-l1ppUV6pQ", "scope": "GOOGLE", "types": ["locality", "political"], "vicinity": "Berkeley"}, "ChIJC9rgPYp-hYAR7B7o4c5uyq8": {"geometry": {"location": {"lat": 37.8531439, "lng": -122.2834432}, "viewport": {"northeast": {"lat": 37.85445773029149, "lng": -122.2822731197085}, "southwest": {"lat": 37.85175976970849, "lng": -122.2849710802915}}}, "icon": "https://maps.gstatic.com/mapfiles/place_api/icons/generic_business-71.png", "id": "b38c56dd42ef89aea260b4164724999bb1d1f449", "name": "Cruz Window Cleaning", "opening_hours": {"open_now": false}, "photos": [{"height": 384, "html_attributions": ["<a href=\"https://maps.google.com/maps/contrib/105863649142743700732/photos\">Cruz Window Cleaning</a>"], "photo_reference": "CmRaAAAAMOjxNm4v0716M81gDKietQmJ3v1nOU12AYtoMvPCrtMinbtcml3UJQybdksGmaPQFHM4O0z0eP7gO6lFkkuFbgc0SBlzBEu4zbfexDrTO7twTDjmCfxVl7I2J78C2MmnEhAl_pXJafviV60JNeLoARZgGhQmJ-jySJ9UeEiN65VH1LWl4s-V5A", "width": 512}], "place_id": "ChIJC9rgPYp-hYAR7B7o4c5uyq8", "reference": "ChIJC9rgPYp-hYAR7B7o4c5uyq8", "scope": "GOOGLE", "types": ["point_of_interest", "establishment"], "vicinity": "2925 Mabel Street, Berkeley"}, "ChIJB2FA3Yt-hYAR3MrezJR79Tc": {"geometry": {"location": {"lat": 37.8551973, "lng": -122.2833084}, "viewport": {"northeast": {"lat": 37.8565676802915, "lng": -122.2817822697085}, "southwest": {"lat": 37.8538697197085, "lng": -122.2844802302915}}}, "icon": "https://maps.gstatic.com/mapfiles/place_api/icons/generic_business-71.png", "id": "a3e95e26c927b2f0f3990a01d3f352b5e400a224", "name": "Frances Albrier Community Center", "photos": [{"height": 2448, "html_attributions": ["<a href=\"https://maps.google.com/maps/contrib/108551297477959968664/photos\">Molly Livingston</a>"], "photo_reference": "CmRaAAAAUb3guQbXSp9PAZGjo2YXr_3y0Zcjt12RE0VDwW9vhKvhVx9oa6VYWcgVDPlR5w26SYT8odnJGIH1ICUsYYVGcNOh5UaHF2l8FMNVmZvcvz_zH33Ba8hlAPOkRSXU662VEhD4o6gZwxj-sA7QXt3tIQm1GhQR2NYmUKO3CG2gG27ZtHV7OA85kg", "width": 3264}], "place_id": "ChIJB2FA3Yt-hYAR3MrezJR79Tc", "plus_code": {"compound_code": "VP48+3M Berkeley, California, United States", "global_code": "849VVP48+3M"}, "rating": 4.6, "reference": "ChIJB2FA3Yt-hYAR3MrezJR79Tc", "scope": "GOOGLE", "types": ["point_of_interest", "establishment"], "vicinity": "2800 Park Street, Berkeley"}, "ChIJM1LF04t-hYARMjApHVhzFrE": {"geometry": {"location": {"lat": 37.85558899999999, "lng": -122.2830737}, "viewport": {"northeast": {"lat": 37.8569364302915, "lng": -122.2817370197085}, "southwest": {"lat": 37.85423846970851, "lng": -122.2844349802915}}}, "icon": "https://maps.gstatic.com/mapfiles/place_api/icons/generic_business-71.png", "id": "5799a958741b54ab0d666d266d1ce2997dbbba0e", "name": "Ford GoBike Station", "place_id": "ChIJM1LF04t-hYARMjApHVhzFrE", "plus_code": {"compound_code": "VP48+6Q Berkeley, California, United States", "global_code": "849VVP48+6Q"}, "reference": "ChIJM1LF04t-hYARMjApHVhzFrE", "scope": "GOOGLE", "types": ["point_of_interest", "establishment"], "vicinity": "2800-2870 Park Street, Berkeley"}, "ChIJD2xoLop-hYARKlSaXwXMUOs": {"geometry": {"location": {"lat": 37.85409089999999, "lng": -122.282982}, "viewport": {"northeast": {"lat": 37.85553803029149, "lng": -122.2816684697085}, "southwest": {"lat": 37.85284006970849, "lng": -122.2843664302915}}}, "icon": "https://maps.gstatic.com/mapfiles/place_api/icons/worship_general-71.png", "id": "3c803d70b227908f71a618fe683f861bbf4f88da", "name": "New Hope Global Horizon", "place_id": "ChIJD2xoLop-hYARKlSaXwXMUOs", "plus_code": {"compound_code": "VP38+JR Berkeley, California, United States", "global_code": "849VVP38+JR"}, "reference": "ChIJD2xoLop-hYARKlSaXwXMUOs", "scope": "GOOGLE", "types": ["church", "place_of_worship", "point_of_interest", "establishment"], "vicinity": "1322 Russell Street, Berkeley"}, "ChIJ-VwNdol-hYARxhQYm77WMXM": {"geometry": {"location": {"lat": 37.855023, "lng": -122.2813167}, "viewport": {"northeast": {"lat": 37.85638503029149, "lng": -122.2798637197085}, "southwest": {"lat": 37.85368706970849, "lng": -122.2825616802915}}}, "icon": "https://maps.gstatic.com/mapfiles/place_api/icons/generic_business-71.png", "id": "cdb9c7c20bdcea380eaee6d0540a1da66c4d25a6", "name": "Cynthia Johnson Bookkeeping", "place_id": "ChIJ-VwNdol-hYARxhQYm77WMXM", "plus_code": {"compound_code": "VP49+2F Berkeley, California, United States", "global_code": "849VVP49+2F"}, "reference": "ChIJ-VwNdol-hYARxhQYm77WMXM", "scope": "GOOGLE", "types": ["accounting", "finance", "point_of_interest", "establishment"], "vicinity": "2820 Dohr Street # 1, Berkeley"}, "ChIJxREr8Il-hYARMThJbZf_PXQ": {"geometry": {"location": {"lat": 37.853218, "lng": -122.281718}, "viewport": {"northeast": {"lat": 37.8545669802915, "lng": -122.2803690197085}, "southwest": {"lat": 37.8518690197085, "lng": -122.2830669802915}}}, "icon": "https://maps.gstatic.com/mapfiles/place_api/icons/bus-71.png", "id": "5f89988e0680503cab69ab64ac1387ec0c4b4b9e", "name": "Ashby Av:Acton St", "place_id": "ChIJxREr8Il-hYARMThJbZf_PXQ", "plus_code": {"compound_code": "VP39+78 Berkeley, California, United States", "global_code": "849VVP39+78"}, "rating": 1, "reference": "ChIJxREr8Il-hYARMThJbZf_PXQ", "scope": "GOOGLE", "types": ["bus_station", "transit_station", "point_of_interest", "establishment"], "vicinity": "United States"}, "ChIJAZ9U74l-hYAR-PVSFprGdjY": {"geometry": {"location": {"lat": 37.85319, "lng": -122.281345}, "viewport": {"northeast": {"lat": 37.85453898029149, "lng": -122.2799960197085}, "southwest": {"lat": 37.8518410197085, "lng": -122.2826939802915}}}, "icon": "https://maps.gstatic.com/mapfiles/place_api/icons/generic_business-71.png", "id": "a85aa04918089c974136d61d037164e610e65c52", "name": "Ashby Av:Acton St", "place_id": "ChIJAZ9U74l-hYAR-PVSFprGdjY", "plus_code": {"compound_code": "VP39+7F Berkeley, California, United States", "global_code": "849VVP39+7F"}, "reference": "ChIJAZ9U74l-hYAR-PVSFprGdjY", "scope": "GOOGLE", "types": ["transit_station", "point_of_interest", "establishment"], "vicinity": "United States"}, "ChIJuaVS-ol-hYAR0lsZksNz3dY": {"geometry": {"location": {"lat": 37.852852, "lng": -122.281913}, "viewport": {"northeast": {"lat": 37.85432033029149, "lng": -122.2806030697085}, "southwest": {"lat": 37.85162236970849, "lng": -122.2833010302915}}}, "icon": "https://maps.gstatic.com/mapfiles/place_api/icons/school-71.png", "id": "6d5656030707b46972aff7e4eac32b9166b3219c", "name": "Ashby community gardens", "opening_hours": {"open_now": false}, "place_id": "ChIJuaVS-ol-hYAR0lsZksNz3dY", "plus_code": {"compound_code": "VP39+46 Berkeley, California, United States", "global_code": "849VVP39+46"}, "reference": "ChIJuaVS-ol-hYAR0lsZksNz3dY", "scope": "GOOGLE", "types": ["school", "point_of_interest", "establishment"], "vicinity": "1376 Ashby Avenue, Berkeley"}, "ChIJd3R-zot-hYARbOep3NP2JYs": {"geometry": {"location": {"lat": 37.8546546, "lng": -122.2835539}, "viewport": {"northeast": {"lat": 37.8559312802915, "lng": -122.2821706197085}, "southwest": {"lat": 37.8532333197085, "lng": -122.2848685802915}}}, "icon": "https://maps.gstatic.com/mapfiles/place_api/icons/generic_business-71.png", "id": "d38b3d3c567c1730da5ce896ea68e7c6af3a2d7e", "name": "San Pablo Park Playground", "place_id": "ChIJd3R-zot-hYARbOep3NP2JYs", "reference": "ChIJd3R-zot-hYARbOep3NP2JYs", "scope": "GOOGLE", "types": ["premise", "point_of_interest", "establishment"], "vicinity": "Berkeley"}, "ChIJVTrSSex-hYARYMx38YQcIf0": {"geometry": {"location": {"lat": 37.8615582, "lng": -122.2909078}, "viewport": {"northeast": {"lat": 37.870448, "lng": -122.2780799}, "southwest": {"lat": 37.847126, "lng": -122.300983}}}, "icon": "https://maps.gstatic.com/mapfiles/place_api/icons/geocode-71.png", "id": "c03ccee1715367dc20b8be29a5979ba9495fb59b", "name": "Southwest Berkeley", "photos": [{"height": 5312, "html_attributions": ["<a href=\"https://maps.google.com/maps/contrib/102850251221071363965/photos\">Chris Greacen</a>"], "photo_reference": "CmRaAAAAgGyp5PTjCFRgBudxA3QyM-E7KdYYCOpJiu13g14ZGZT_RJR-fvvkEKi2sl751tyoXwiBgz-aEcpQ_WnGCYeK3rvyd2EKFfgOgISbEnP7-ZUGbJXA6eI_jBLzp4QuWILfEhCDLamap_My9RIYcGeNaILxGhQC6eewAVGUwuCCyYSXCBZykDT_fw", "width": 2988}], "place_id": "ChIJVTrSSex-hYARYMx38YQcIf0", "reference": "ChIJVTrSSex-hYARYMx38YQcIf0", "scope": "GOOGLE", "types": ["neighborhood", "political"], "vicinity": "Berkeley"}}