{"ChIJA-2qKIt9hYARZ5N1NdUVtHE": {"geometry": {"location": {"lat": 37.8043637, "lng": -122.2711137}, "viewport": {"northeast": {"lat": 37.88472489999999, "lng": -122.114775}, "southwest": {"lat": 37.6322259, "lng": -122.355881}}}, "icon": "https://maps.gstatic.com/mapfiles/place_api/icons/geocode-71.png", "id": "da4a4da21e013f9d3a24e8eee6d4f84de02148d3", "name": "Oakland", "photos": [{"height": 2848, "html_attributions": ["<a href=\"https://maps.google.com/maps/contrib/113300206259949994494/photos\">Cimino Alberto</a>"], "photo_reference": "CmRaAAAAJOzO3FNjY1_FW8ktJPukLrWCC0TKjs8Dz6qs_DpT9gFxf7yun3cK53Qat2-POvumQy3hbxXmCHfzeujJEWDab7_yNlJbKU8yzo9y7qdDu8tISWUMK7PmRHtFV_kS_nK0EhA88iohJ66JQL6g30p_RTjAGhQOAsHrPGqDsx524CDcUrK8c_IrBw", "width": 4256}], "place_id": "ChIJA-2qKIt9hYARZ5N1NdUVtHE", "reference": "ChIJA-2qKIt9hYARZ5N1NdUVtHE", "scope": "GOOGLE", "types": ["locality", "political"], "vicinity": "Oakland"}, "ChIJQ-4UkcZ9hYARymVwYZSmj4A": {"geometry": {"location": {"lat": 37.8502392, "lng": -122.2474055}, "viewport": {"northeast": {"lat": 37.8516429302915, "lng": -122.2460955197085}, "southwest": {"lat": 37.8489449697085, "lng": -122.2487934802915}}}, "icon": "https://maps.gstatic.com/mapfiles/place_api/icons/generic_business-71.png", "id": "d565dfc446374bdd640c6e4d90118d5a7a4f39b2", "name": "Sevak Solutions", "photos": [{"height": 5312, "html_attributions": ["<a href=\"https://maps.google.com/maps/contrib/103907145505551029550/photos\">jose jara</a>"], "photo_reference": "CmRaAAAASEwQwO-jsPS2pIS-c3838014pmkggroh4-NhT_4c2PVKVLB17tpL4Les3JGnabkP9JTmfgHgN6LMpO3dXSqxR1Cx_fSTrD5Evkwf4okC1M-o74OqFqZUJA_allVfi-VQEhDZ_dtQ3H0xmp7L89ZIbzZkGhQWrLxtrmnCW9COjeaOOx3GdOSdBw", "width": 2988}], "place_id": "ChIJQ-4UkcZ9hYARymVwYZSmj4A", "plus_code": {"compound_code": "VQ23+32 Oakland, California, United States", "global_code": "849VVQ23+32"}, "reference": "ChIJQ-4UkcZ9hYARymVwYZSmj4A", "scope": "GOOGLE", "types": ["point_of_interest", "establishment"], "vicinity": "2 Ross Circle, Oakland"}, "ChIJq6qa8sZ9hYAR6TBAROkIUCs": {"geometry": {"location": {"lat": 37.8506658, "lng": -122.2468216}, "viewport": {"northeast": {"lat": 37.8517942802915, "lng": -122.2453031697085}, "southwest": {"lat": 37.8490963197085, "lng": -122.2480011302915}}}, "icon": "https://maps.gstatic.com/mapfiles/place_api/icons/generic_business-71.png", "id": "9191f5b7308bb03015b704caa94cd47203c38f9e", "name": "Traditional Is Modern", "place_id": "ChIJq6qa8sZ9hYAR6TBAROkIUCs", "plus_code": {"compound_code": "VQ23+77 Oakland, California, United States", "global_code": "849VVQ23+77"}, "reference": "ChIJq6qa8sZ9hYAR6TBAROkIUCs", "scope": "GOOGLE", "types": ["point_of_interest", "establishment"], "vicinity": "6446 Harwood Avenue, Oakland"}, "ChIJTXdDi8Z9hYAR7MOOGjMJPOE": {"geometry": {"location": {"lat": 37.8508841, "lng": -122.247021}, "viewport": {"northeast": {"lat": 37.85219318029149, "lng": -122.2457482697085}, "southwest": {"lat": 37.84949521970849, "lng": -122.2484462302915}}}, "icon": "https://maps.gstatic.com/mapfiles/place_api/icons/generic_business-71.png", "id": "6c2ecb7a596c7ce377021b970de0f5651c1dd4b6", "name": "Edward F. Bourg, PhD", "place_id": "ChIJTXdDi8Z9hYAR7MOOGjMJPOE", "plus_code": {"compound_code": "VQ23+95 Oakland, California, United States", "global_code": "849VVQ23+95"}, "reference": "ChIJTXdDi8Z9hYAR7MOOGjMJPOE", "scope": "GOOGLE", "types": ["doctor", "health", "point_of_interest", "establishment"], "vicinity": "56 Ross Circle, Oakland"}, "ChIJ118bk8Z9hYARzHVVu4SpU4Y": {"geometry": {"location": {"lat": 37.8504001, "lng": -122.247021}, "viewport": {"northeast": {"lat": 37.8518069802915, "lng": -122.2457615697085}, "southwest": {"lat": 37.8491090197085, "lng": -122.2484595302915}}}, "icon": "https://maps.gstatic.com/mapfiles/place_api/icons/generic_business-71.png", "id": "bf4d0ae793e8c988fb53527be8e3e77f8bb21246", "name": "Dr. Paul E. Morris, MD", "place_id": "ChIJ118bk8Z9hYARzHVVu4SpU4Y", "plus_code": {"compound_code": "VQ23+55 Oakland, California, United States", "global_code": "849VVQ23+55"}, "reference": "ChIJ118bk8Z9hYARzHVVu4SpU4Y", "scope": "GOOGLE", "types": ["doctor", "health", "point_of_interest", "establishment"], "vicinity": "32 Ross Circle, Oakland"}, "ChIJq6pupcZ9hYAR-jUVcaL-VjM": {"geometry": {"location": {"lat": 37.8492018, "lng": -122.2477744}, "viewport": {"northeast": {"lat": 37.8504999302915, "lng": -122.2465290697085}, "southwest": {"lat": 37.8478019697085, "lng": -122.2492270302915}}}, "icon": "https://maps.gstatic.com/mapfiles/place_api/icons/generic_business-71.png", "id": "0f729526ca9b0ac599ebac2d238003b3009d7b7f", "name": "Bala Center for South Indian Dance", "place_id": "ChIJq6pupcZ9hYAR-jUVcaL-VjM", "plus_code": {"compound_code": "RQX2+MV Oakland, California, United States", "global_code": "849VRQX2+MV"}, "reference": "ChIJq6pupcZ9hYAR-jUVcaL-VjM", "scope": "GOOGLE", "types": ["point_of_interest", "establishment"], "vicinity": "5914 Ivanhoe Road, Oakland"}, "ChIJCZbD9cZ9hYAR_ddow5zJRrw": {"geometry": {"location": {"lat": 37.851274, "lng": -122.2469558}, "viewport": {"northeast": {"lat": 37.8526552302915, "lng": -122.2455675197085}, "southwest": {"lat": 37.8499572697085, "lng": -122.2482654802915}}}, "icon": "https://maps.gstatic.com/mapfiles/place_api/icons/generic_business-71.png", "id": "826f832280f58125f5efc1683b4a445f458618a2", "name": "Lawrence W. Schonbrun", "place_id": "ChIJCZbD9cZ9hYAR_ddow5zJRrw", "plus_code": {"compound_code": "VQ23+G6 Berkeley, California, United States", "global_code": "849VVQ23+G6"}, "reference": "ChIJCZbD9cZ9hYAR_ddow5zJRrw", "scope": "GOOGLE", "types": ["lawyer", "point_of_interest", "establishment"], "vicinity": "86 Eucalyptus Road, Berkeley"}, "ChIJU8oBfsZ9hYARXclwoLkSw2Q": {"geometry": {"location": {"lat": 37.850859, "lng": -122.24803}, "viewport": {"northeast": {"lat": 37.85217018029149, "lng": -122.2467712197085}, "southwest": {"lat": 37.8494722197085, "lng": -122.2494691802915}}}, "icon": "https://maps.gstatic.com/mapfiles/place_api/icons/generic_business-71.png", "id": "e029380a846355ebb750f2b28581428d7e414c5d", "name": "Chruchill Management Group", "place_id": "ChIJU8oBfsZ9hYARXclwoLkSw2Q", "plus_code": {"compound_code": "VQ22+8Q Oakland, California, United States", "global_code": "849VVQ22+8Q"}, "reference": "ChIJU8oBfsZ9hYARXclwoLkSw2Q", "scope": "GOOGLE", "types": ["finance", "point_of_interest", "establishment"], "vicinity": "6200 Ross Street, Oakland"}, "ChIJ00mFOjZ5hYARk-l1ppUV6pQ": {"geometry": {"location": {"lat": 37.8715926, "lng": -122.272747}, "viewport": {"northeast": {"lat": 37.9058239, "lng": -122.234179}, "southwest": {"lat": 37.835727, "lng": -122.367781}}}, "icon": "https://maps.gstatic.com/mapfiles/place_api/icons/geocode-71.png", "id": "00741fe572fc4084428ab206e1a55830f6a1bf0a", "name": "Berkeley", "photos": [{"height": 1080, "html_attributions": ["<a href=\"https://maps.google.com/maps/contrib/110244590763501513798/photos\">miao hsin sun</a>"], "photo_reference": "CmRaAAAAZLEjS2jH5CGTg0QUJ32iULzHAA-u56qoqEreNXhXodl-T8s3mqrCOiPieq_uk75wW30JxejrClwv9wjm4Rp-RFLARAeC2ZmN2ctT6RDhi9vxQS5gWQwQaOHfbJLPYoFsEhBVWk_GzRIMe-A33I_waT6tGhQdJ0RnLuNiuNGiWElnMZriKH0E1g", "width": 1616}], "place_id": "ChIJ00mFOjZ5hYARk-l1ppUV6pQ", "reference": "ChIJ00mFOjZ5hYARk-l1ppUV6pQ", "scope": "GOOGLE", "types": ["locality", "political"], "vicinity": "Berkeley"}}