{"ChIJPQVb0tJ4hYARLxEHP9E4sNU": {"geometry": {"location": {"lat": 37.88687, "lng": -122.2977475}, "viewport": {"northeast": {"lat": 37.898925, "lng": -122.2819799}, "southwest": {"lat": 37.8667259, "lng": -122.3737821}}}, "icon": "https://maps.gstatic.com/mapfiles/place_api/icons/geocode-71.png", "id": "679b5d1c47299801cd8a7f14442898e347883404", "name": "Albany", "photos": [{"height": 2448, "html_attributions": ["<a href=\"https://maps.google.com/maps/contrib/112884977236556923885/photos\">Julio Perez</a>"], "photo_reference": "CmRaAAAAjssDPl79AmKa_knFUmSRDmv4XKRs8GGDhD8LoS0y_fv-DfdzUc2LDuORgvVbZLcu66EisdWC2mC2og2WKdNowjMS2Ly5U2OHosh9tg3KJFW8MuRaSmB5-MSCQlueh3BvEhCfkeAa3tbbf27vO77dl_SkGhQ8W_qqTrJOO48t_HqH8dZEK8QHyQ", "width": 3264}], "place_id": "ChIJPQVb0tJ4hYARLxEHP9E4sNU", "reference": "ChIJPQVb0tJ4hYARLxEHP9E4sNU", "scope": "GOOGLE", "types": ["locality", "political"], "vicinity": "Albany"}, "ChIJT2dhXDN5hYARskJz9Vmw8tY": {"geometry": {"location": {"lat": 37.887675, "lng": -122.294258}, "viewport": {"northeast": {"lat": 37.8889012302915, "lng": -122.2928689697085}, "southwest": {"lat": 37.8862032697085, "lng": -122.2955669302915}}}, "icon": "https://maps.gstatic.com/mapfiles/place_api/icons/school-71.png", "id": "ec4ba63a658c7544858700aac1a7b5c8d39ebcbe", "name": "Reach For Learning", "place_id": "ChIJT2dhXDN5hYARskJz9Vmw8tY", "plus_code": {"compound_code": "VPQ4+37 Albany, California, United States", "global_code": "849VVPQ4+37"}, "reference": "ChIJT2dhXDN5hYARskJz9Vmw8tY", "scope": "GOOGLE", "types": ["point_of_interest", "establishment"], "vicinity": "1221 Marin Avenue, Albany"}, "ChIJT2dhXDN5hYARYsmL8iq8TGc": {"geometry": {"location": {"lat": 37.8877136, "lng": -122.2943103}, "viewport": {"northeast": {"lat": 37.8889167802915, "lng": -122.2929137197085}, "southwest": {"lat": 37.8862188197085, "lng": -122.2956116802915}}}, "icon": "https://maps.gstatic.com/mapfiles/place_api/icons/generic_business-71.png", "id": "537c1d101b6486ed302b92647fe06189159ef767", "name": "Center for Creative Growth", "opening_hours": {"open_now": false}, "place_id": "ChIJT2dhXDN5hYARYsmL8iq8TGc", "plus_code": {"compound_code": "VPQ4+37 Albany, California, United States", "global_code": "849VVPQ4+37"}, "rating": 5, "reference": "ChIJT2dhXDN5hYARYsmL8iq8TGc", "scope": "GOOGLE", "types": ["health", "point_of_interest", "establishment"], "vicinity": "1221 Marin Avenue, Albany"}, "ChIJj8WnXjN5hYARPkgb15fxEDc": {"geometry": {"location": {"lat": 37.887679, "lng": -122.2941194}, "viewport": {"northeast": {"lat": 37.88902798029149, "lng": -122.2927704197085}, "southwest": {"lat": 37.8863300197085, "lng": -122.2954683802915}}}, "icon": "https://maps.gstatic.com/mapfiles/place_api/icons/generic_business-71.png", "id": "e6c7da42b857eb46925757d404c9299d2118fa7f", "name": "Miriam Gross, LCSW", "place_id": "ChIJj8WnXjN5hYARPkgb15fxEDc", "plus_code": {"compound_code": "VPQ4+39 Albany, California, United States", "global_code": "849VVPQ4+39"}, "reference": "ChIJj8WnXjN5hYARPkgb15fxEDc", "scope": "GOOGLE", "types": ["doctor", "health", "point_of_interest", "establishment"], "vicinity": "Albany"}, "ChIJVfanZzN5hYAR17zs917-4SE": {"geometry": {"location": {"lat": 37.888097, "lng": -122.294278}, "viewport": {"northeast": {"lat": 37.8894175302915, "lng": -122.2930724197085}, "southwest": {"lat": 37.8867195697085, "lng": -122.2957703802915}}}, "icon": "https://maps.gstatic.com/mapfiles/place_api/icons/generic_business-71.png", "id": "bcbe9d812109469ce8bd7b35aa6b049d9305dfeb", "name": "Peter Bernhardt MFT", "place_id": "ChIJVfanZzN5hYAR17zs917-4SE", "plus_code": {"compound_code": "VPQ4+67 Albany, California, United States", "global_code": "849VVPQ4+67"}, "reference": "ChIJVfanZzN5hYAR17zs917-4SE", "scope": "GOOGLE", "types": ["health", "point_of_interest", "establishment"], "vicinity": "965 Talbot Avenue, Albany"}, "ChIJT2dhXDN5hYAR46xHXEiKMu8": {"geometry": {"location": {"lat": 37.8877016, "lng": -122.2942981}, "viewport": {"northeast": {"lat": 37.8889115302915, "lng": -122.2929037697085}, "southwest": {"lat": 37.8862135697085, "lng": -122.2956017302915}}}, "icon": "https://maps.gstatic.com/mapfiles/place_api/icons/worship_general-71.png", "id": "22787fc5d61729e9aa645e8686f6df69f0e982f1", "name": "Mosaic", "photos": [{"height": 1800, "html_attributions": ["<a href=\"https://maps.google.com/maps/contrib/102688446897362622126/photos\">Bridget Canfield</a>"], "photo_reference": "CmRaAAAAUVkEYSD2feYwCGVBBCtM8d3AoAVOeO4L-WbRY6QDtT5nMpznW6ib8YFTRlQlZN80mi9myfV3_Ex5rsgmJ2fN6wkxUAl1qcnzzbCUJ5UhTqO4owIGxjiOQ0-yyIDAj-HrEhBLHuLCn5AX-2RCOi5996TKGhSKt0gOo1q7WNQlwaSzufFVyTtFTw", "width": 2520}], "place_id": "ChIJT2dhXDN5hYAR46xHXEiKMu8", "plus_code": {"compound_code": "VPQ4+37 Albany, California, United States", "global_code": "849VVPQ4+37"}, "rating": 5, "reference": "ChIJT2dhXDN5hYAR46xHXEiKMu8", "scope": "GOOGLE", "types": ["church", "place_of_worship", "point_of_interest", "establishment"], "vicinity": "1221 Marin Avenue, Albany"}, "ChIJx6VzTDN5hYARmKEDJ8RNo40": {"geometry": {"location": {"lat": 37.886816, "lng": -122.2948724}, "viewport": {"northeast": {"lat": 37.88814728029149, "lng": -122.2936125197085}, "southwest": {"lat": 37.88544931970849, "lng": -122.2963104802915}}}, "icon": "https://maps.gstatic.com/mapfiles/place_api/icons/school-71.png", "id": "930f6c1fa7cded359268070b6b5f438416586db6", "name": "Los Amigos", "place_id": "ChIJx6VzTDN5hYARmKEDJ8RNo40", "plus_code": {"compound_code": "VPP4+P3 Albany, California, United States", "global_code": "849VVPP4+P3"}, "reference": "ChIJx6VzTDN5hYARmKEDJ8RNo40", "scope": "GOOGLE", "types": ["point_of_interest", "school", "establishment"], "vicinity": "1009 Cornell Avenue, Albany"}, "ChIJUcnRXjN5hYARQSiorXMW-UI": {"geometry": {"location": {"lat": 37.887489, "lng": -122.29393}, "viewport": {"northeast": {"lat": 37.8888600302915, "lng": -122.2925885197085}, "southwest": {"lat": 37.8861620697085, "lng": -122.2952864802915}}}, "icon": "https://maps.gstatic.com/mapfiles/place_api/icons/generic_business-71.png", "id": "12fe5041e653e8e9bab1612745e95298b2f328d1", "name": "Catherine P. Cheyette, LCSW", "opening_hours": {"open_now": false}, "photos": [{"height": 640, "html_attributions": ["<a href=\"https://maps.google.com/maps/contrib/111996782583319215654/photos\">Catherine P. Cheyette, LCSW</a>"], "photo_reference": "CmRaAAAAY9YGEY5fqMCfNWLRyXsNzzbcVDgcCzc_a5FfEtId7Pj030ruLEjKBaZVRvvmeZBaLX4vJi8IE9WmBHbgeL2KokeaubWCyttzVHUJHu_VAaISDVurXGhPRxPq6f6VSR4cEhDlh1e6sA_f4EdknUvIEFF_GhTzRfSpW7yrqJSoChOFFtO9cbcwPw", "width": 457}], "place_id": "ChIJUcnRXjN5hYARQSiorXMW-UI", "plus_code": {"compound_code": "VPP4+XC Albany, California, United States", "global_code": "849VVPP4+XC"}, "reference": "ChIJUcnRXjN5hYARQSiorXMW-UI", "scope": "GOOGLE", "types": ["doctor", "health", "point_of_interest", "establishment"], "vicinity": "1229 Marin Avenue, Albany"}, "ChIJV5dWNTN5hYAR1eiXfXmR1kY": {"geometry": {"location": {"lat": 37.88646500000001, "lng": -122.2951757}, "viewport": {"northeast": {"lat": 37.8878350802915, "lng": -122.2937205197085}, "southwest": {"lat": 37.8851371197085, "lng": -122.2964184802915}}}, "icon": "https://maps.gstatic.com/mapfiles/place_api/icons/school-71.png", "id": "cb2552428f6f3bc6acf026a2ef93896fb13ac348", "name": "Wawasi Children's Center", "opening_hours": {"open_now": false}, "place_id": "ChIJV5dWNTN5hYAR1eiXfXmR1kY", "plus_code": {"compound_code": "VPP3+HW Albany, California, United States", "global_code": "849VVPP3+HW"}, "reference": "ChIJV5dWNTN5hYAR1eiXfXmR1kY", "scope": "GOOGLE", "types": ["school", "point_of_interest", "establishment"], "vicinity": "1016 Cornell Avenue, Albany"}, "ChIJ9--VFjN5hYAR2Hjkcp61O_Q": {"geometry": {"location": {"lat": 37.8877571, "lng": -122.2954415}, "viewport": {"northeast": {"lat": 37.8891130302915, "lng": -122.2940577197085}, "southwest": {"lat": 37.8864150697085, "lng": -122.2967556802915}}}, "icon": "https://maps.gstatic.com/mapfiles/place_api/icons/generic_recreational-71.png", "id": "10dde6dee5076594e9e955978a74ae36f336f25d", "name": "Wild Sage Gardens", "opening_hours": {"open_now": false}, "photos": [{"height": 4032, "html_attributions": ["<a href=\"https://maps.google.com/maps/contrib/109135279382676246341/photos\">Liz Hirsch</a>"], "photo_reference": "CmRaAAAAqVjsFqIYQPZ-npmZbCR6Kh5H6ud50PwZP3JucCRZq9yswtGGrpDbo5r4fyyru7qcrFlt_dYNZPvtXrkR_HnvxGtiXYkgPasOP4H5uaqMoMzAlohXQkB9vePg0g0T-B4ZEhBRrh3ZCej6TgEPxKHw19JjGhR2pluHAPo8tUszg_eHvqfRF7F8gQ", "width": 3024}], "place_id": "ChIJ9--VFjN5hYAR2Hjkcp61O_Q", "plus_code": {"compound_code": "VPQ3+4R Albany, California, United States", "global_code": "849VVPQ3+4R"}, "reference": "ChIJ9--VFjN5hYAR2Hjkcp61O_Q", "scope": "GOOGLE", "types": ["park", "point_of_interest", "establishment"], "vicinity": "978 Cornell Avenue, Albany"}, "ChIJq4L6XDN5hYARB1PtTVb3bg0": {"geometry": {"location": {"lat": 37.8877136, "lng": -122.2943104}, "viewport": {"northeast": {"lat": 37.8889167302915, "lng": -122.2929138197085}, "southwest": {"lat": 37.8862187697085, "lng": -122.2956117802915}}}, "icon": "https://maps.gstatic.com/mapfiles/place_api/icons/worship_general-71.png", "id": "50f4cd946ba1ec69932cde5be943209bd42e1d91", "name": "Mosaic Bay", "opening_hours": {"open_now": false}, "photos": [{"height": 1149, "html_attributions": ["<a href=\"https://maps.google.com/maps/contrib/112703454507011960805/photos\">Mosaic Bay</a>"], "photo_reference": "CmRaAAAA0KqOKaJZnAroDqRft-N_o85OMGmibLi5SuVDmqWNIVPbuwqt8NNqP1nz9Ss0JiysKY9ejJ9Ygi6CIazNpSYqBTacDRcXUMoNF2hMLYo5FY3eYog5fhEfxzjk8cysn9GLEhAIdCZZAG_AeVB5v2MRebXsGhRqQUASYkK-39WvDsGkYCQK1Qwefg", "width": 2048}], "place_id": "ChIJq4L6XDN5hYARB1PtTVb3bg0", "plus_code": {"compound_code": "VPQ4+37 Albany, California, United States", "global_code": "849VVPQ4+37"}, "reference": "ChIJq4L6XDN5hYARB1PtTVb3bg0", "scope": "GOOGLE", "types": ["church", "place_of_worship", "point_of_interest", "establishment"], "vicinity": "1221 Marin Avenue, Albany"}, "ChIJxdoTHzN5hYARb4UzAChZi7Q": {"geometry": {"location": {"lat": 37.8873625, "lng": -122.2963473}, "viewport": {"northeast": {"lat": 37.8887316302915, "lng": -122.2948975697085}, "southwest": {"lat": 37.8860336697085, "lng": -122.2975955302915}}}, "icon": "https://maps.gstatic.com/mapfiles/place_api/icons/generic_business-71.png", "id": "02ca01a0dd9a957625bee4890078ef460f947189", "name": "NAMI", "place_id": "ChIJxdoTHzN5hYARb4UzAChZi7Q", "plus_code": {"compound_code": "VPP3+WF Albany, California, United States", "global_code": "849VVPP3+WF"}, "reference": "ChIJxdoTHzN5hYARb4UzAChZi7Q", "scope": "GOOGLE", "types": ["health", "point_of_interest", "establishment"], "vicinity": "980 Stannage Avenue, Albany"}, "ChIJUcnRXjN5hYARMDuVhaUPhzM": {"geometry": {"location": {"lat": 37.8877359, "lng": -122.29396}, "viewport": {"northeast": {"lat": 37.88896253029151, "lng": -122.2925695697085}, "southwest": {"lat": 37.88626456970851, "lng": -122.2952675302915}}}, "icon": "https://maps.gstatic.com/mapfiles/place_api/icons/generic_business-71.png", "id": "9ed19cd3d9b8d58eee83876be9fab22eb85ea30a", "name": "Larsen Linea E", "place_id": "ChIJUcnRXjN5hYARMDuVhaUPhzM", "plus_code": {"compound_code": "VPQ4+3C Albany, California, United States", "global_code": "849VVPQ4+3C"}, "reference": "ChIJUcnRXjN5hYARMDuVhaUPhzM", "scope": "GOOGLE", "types": ["doctor", "health", "point_of_interest", "establishment"], "vicinity": "1229 Marin Avenue, Albany"}, "ChIJxdoTHzN5hYARbdd-wrO5rEk": {"geometry": {"location": {"lat": 37.8873625, "lng": -122.2963473}, "viewport": {"northeast": {"lat": 37.8887316302915, "lng": -122.2948975697085}, "southwest": {"lat": 37.8860336697085, "lng": -122.2975955302915}}}, "icon": "https://maps.gstatic.com/mapfiles/place_api/icons/worship_general-71.png", "id": "fa85e8791e2b3d8e27bd249964bd831ef82d0fe4", "name": "Albany United Methodist Church", "opening_hours": {"open_now": false}, "photos": [{"height": 431, "html_attributions": ["<a href=\"https://maps.google.com/maps/contrib/104920238156584844644/photos\">Albany United Methodist Church</a>"], "photo_reference": "CmRaAAAAr6s4uZwUkSinQoqshd5dW0tfKk6cFEzUtmMYkd4UtqE5cGmjKcN1q0zqQgQVUTMDR8NB06UhcQ3YWVZNbwOMTiOG4tfSlD8DpW9Mg72-iQSyf7dyF4bGyxDx7IESJSdoEhA44IrzzuTB6W_kI0OWGRmUGhSeHJg78jUkJ6ABSVNHZ9nEda3e7w", "width": 480}], "place_id": "ChIJxdoTHzN5hYARbdd-wrO5rEk", "plus_code": {"compound_code": "VPP3+WF Albany, California, United States", "global_code": "849VVPP3+WF"}, "rating": 5, "reference": "ChIJxdoTHzN5hYARbdd-wrO5rEk", "scope": "GOOGLE", "types": ["church", "place_of_worship", "point_of_interest", "establishment"], "vicinity": "980 Stannage Avenue, Albany"}, "ChIJUUEdJjN5hYARyQrtTTyFRMw": {"geometry": {"location": {"lat": 37.88677029999999, "lng": -122.2962891}, "viewport": {"northeast": {"lat": 37.8882301302915, "lng": -122.2949754697085}, "southwest": {"lat": 37.8855321697085, "lng": -122.2976734302915}}}, "icon": "https://maps.gstatic.com/mapfiles/place_api/icons/generic_business-71.png", "id": "e4e5e8014f991f07aa201ffaaa4847d475f4dbbe", "name": "Crivelari Construction & Hauling", "place_id": "ChIJUUEdJjN5hYARyQrtTTyFRMw", "plus_code": {"compound_code": "VPP3+PF Albany, California, United States", "global_code": "849VVPP3+PF"}, "reference": "ChIJUUEdJjN5hYARyQrtTTyFRMw", "scope": "GOOGLE", "types": ["general_contractor", "point_of_interest", "establishment"], "vicinity": "1130 Marin Avenue, Albany"}, "ChIJURdVXzN5hYAR7jHc5RnjXoI": {"geometry": {"location": {"lat": 37.887764, "lng": -122.2937207}, "viewport": {"northeast": {"lat": 37.88899963029149, "lng": -122.2923353697085}, "southwest": {"lat": 37.8863016697085, "lng": -122.2950333302915}}}, "icon": "https://maps.gstatic.com/mapfiles/place_api/icons/generic_business-71.png", "id": "c11c28f332e15c513ad81e052f09bcccb35bac19", "name": "Brass Esther PhD", "photos": [{"height": 251, "html_attributions": ["<a href=\"https://maps.google.com/maps/contrib/116125316196368193824/photos\">Brass Esther PhD</a>"], "photo_reference": "CmRaAAAAiQcYV8YMEJrHYDXGv2snMpbdV1LnImub5S2S30eItf5M7xDh8dv109uRtJG-_ajOUAmJzVyWvADRAOAQdzIE_9s1cippx6vqtDBfk1rG74idXpW6pCIAJGEo-TS_OpusEhBCXJTYFyVT_Efm6q7VCJOLGhSf_Gdez3F_H0oDRUIL2Kt-b3eAzA", "width": 250}], "place_id": "ChIJURdVXzN5hYAR7jHc5RnjXoI", "plus_code": {"compound_code": "VPQ4+4G Albany, California, United States", "global_code": "849VVPQ4+4G"}, "reference": "ChIJURdVXzN5hYAR7jHc5RnjXoI", "scope": "GOOGLE", "types": ["health", "point_of_interest", "establishment"], "vicinity": "1235 Marin Avenue, Albany"}, "ChIJNTXaJzN5hYARYqjU8gT92Do": {"geometry": {"location": {"lat": 37.88668759999999, "lng": -122.2964449}, "viewport": {"northeast": {"lat": 37.8881717302915, "lng": -122.2951390197085}, "southwest": {"lat": 37.8854737697085, "lng": -122.2978369802915}}}, "icon": "https://maps.gstatic.com/mapfiles/place_api/icons/generic_business-71.png", "id": "b1a5dbabe498a09aff473ed2aab4754536758045", "name": "Rabbi Steven Fisdel", "place_id": "ChIJNTXaJzN5hYARYqjU8gT92Do", "plus_code": {"compound_code": "VPP3+MC Albany, California, United States", "global_code": "849VVPP3+MC"}, "reference": "ChIJNTXaJzN5hYARYqjU8gT92Do", "scope": "GOOGLE", "types": ["place_of_worship", "health", "point_of_interest", "establishment"], "vicinity": "1126 Marin Avenue, Albany"}, "ChIJuUB9ocx-hYARvYO9FRTJfxU": {"geometry": {"location": {"lat": 37.885768, "lng": -122.294092}, "viewport": {"northeast": {"lat": 37.8871410802915, "lng": -122.2926227197085}, "southwest": {"lat": 37.88444311970851, "lng": -122.2953206802915}}}, "icon": "https://maps.gstatic.com/mapfiles/place_api/icons/generic_business-71.png", "id": "47918c12d8ce2640706140fdcc16ab230bfadf0b", "name": "Idea Farm Creative", "place_id": "ChIJuUB9ocx-hYARvYO9FRTJfxU", "plus_code": {"compound_code": "VPP4+89 Albany, California, United States", "global_code": "849VVPP4+89"}, "reference": "ChIJuUB9ocx-hYARvYO9FRTJfxU", "scope": "GOOGLE", "types": ["point_of_interest", "establishment"], "vicinity": "1044 Talbot Avenue, Albany"}, "ChIJj8WnXjN5hYAR9KmQCNGRn74": {"geometry": {"location": {"lat": 37.88771, "lng": -122.294089}, "viewport": {"northeast": {"lat": 37.8889359302915, "lng": -122.2926998697085}, "southwest": {"lat": 37.8862379697085, "lng": -122.2953978302915}}}, "icon": "https://maps.gstatic.com/mapfiles/place_api/icons/generic_business-71.png", "id": "9d63a71a02199f4f30f1d48360a8f4367d8ab5a0", "name": "Gross Jonothon MD", "place_id": "ChIJj8WnXjN5hYAR9KmQCNGRn74", "plus_code": {"compound_code": "VPQ4+39 Albany, California, United States", "global_code": "849VVPQ4+39"}, "reference": "ChIJj8WnXjN5hYAR9KmQCNGRn74", "scope": "GOOGLE", "types": ["doctor", "health", "point_of_interest", "establishment"], "vicinity": "1225 Marin Avenue, Albany"}, "ChIJj8WnXjN5hYARG2Lhi9nstaE": {"geometry": {"location": {"lat": 37.88771, "lng": -122.294089}, "viewport": {"northeast": {"lat": 37.8889359302915, "lng": -122.2926998697085}, "southwest": {"lat": 37.8862379697085, "lng": -122.2953978302915}}}, "icon": "https://maps.gstatic.com/mapfiles/place_api/icons/generic_business-71.png", "id": "cfe605cf3e0a82d09b4f8bf41d45edb2cc2975b8", "name": "Gross Philip MD", "place_id": "ChIJj8WnXjN5hYARG2Lhi9nstaE", "plus_code": {"compound_code": "VPQ4+39 Albany, California, United States", "global_code": "849VVPQ4+39"}, "reference": "ChIJj8WnXjN5hYARG2Lhi9nstaE", "scope": "GOOGLE", "types": ["doctor", "health", "point_of_interest", "establishment"], "vicinity": "1225 Marin Avenue, Albany"}, "ChIJj8WnXjN5hYARlXmKq0I4OZw": {"geometry": {"location": {"lat": 37.88771, "lng": -122.294089}, "viewport": {"northeast": {"lat": 37.8889359302915, "lng": -122.2926998697085}, "southwest": {"lat": 37.8862379697085, "lng": -122.2953978302915}}}, "icon": "https://maps.gstatic.com/mapfiles/place_api/icons/generic_business-71.png", "id": "2ff404bd175d1fa818c20daf0eb5f8791f801b5a", "name": "Jones Mary PhD", "place_id": "ChIJj8WnXjN5hYARlXmKq0I4OZw", "plus_code": {"compound_code": "VPQ4+39 Albany, California, United States", "global_code": "849VVPQ4+39"}, "reference": "ChIJj8WnXjN5hYARlXmKq0I4OZw", "scope": "GOOGLE", "types": ["health", "point_of_interest", "establishment"], "vicinity": "1225 Marin Avenue, Albany"}, "ChIJj8WnXjN5hYARVEREjc5BS1g": {"geometry": {"location": {"lat": 37.8876894, "lng": -122.2941104}, "viewport": {"northeast": {"lat": 37.8889229802915, "lng": -122.2927237697085}, "southwest": {"lat": 37.8862250197085, "lng": -122.2954217302915}}}, "icon": "https://maps.gstatic.com/mapfiles/place_api/icons/generic_business-71.png", "id": "5d909899b477d823c042933c9e5f66f60444b52e", "name": "Hess K PhD", "place_id": "ChIJj8WnXjN5hYARVEREjc5BS1g", "plus_code": {"compound_code": "VPQ4+39 Albany, California, United States", "global_code": "849VVPQ4+39"}, "reference": "ChIJj8WnXjN5hYARVEREjc5BS1g", "scope": "GOOGLE", "types": ["health", "point_of_interest", "establishment"], "vicinity": "1225 Marin Avenue, Albany"}, "ChIJfTkKrcx-hYARSZ6WLv71WI0": {"geometry": {"location": {"lat": 37.88659, "lng": -122.2941754}, "viewport": {"northeast": {"lat": 37.88794533029149, "lng": -122.2927945697085}, "southwest": {"lat": 37.88524736970849, "lng": -122.2954925302915}}}, "icon": "https://maps.gstatic.com/mapfiles/place_api/icons/generic_business-71.png", "id": "123b29c6aa9d49a894f638765a4783272a56ebd2", "name": "Amy Neil Productions", "place_id": "ChIJfTkKrcx-hYARSZ6WLv71WI0", "plus_code": {"compound_code": "VPP4+J8 Albany, California, United States", "global_code": "849VVPP4+J8"}, "reference": "ChIJfTkKrcx-hYARSZ6WLv71WI0", "scope": "GOOGLE", "types": ["point_of_interest", "establishment"], "vicinity": "1020 Talbot Avenue, Albany"}, "ChIJT2dhXDN5hYAR1jxu_Mc6R0Y": {"geometry": {"location": {"lat": 37.887675, "lng": -122.294258}, "viewport": {"northeast": {"lat": 37.8889012302915, "lng": -122.2928689697085}, "southwest": {"lat": 37.8862032697085, "lng": -122.2955669302915}}}, "icon": "https://maps.gstatic.com/mapfiles/place_api/icons/generic_business-71.png", "id": "237e21c9014d158311bc442b421aeeee5638bf32", "name": "Berkeley FAT Sheep Family", "place_id": "ChIJT2dhXDN5hYAR1jxu_Mc6R0Y", "plus_code": {"compound_code": "VPQ4+37 Albany, California, United States", "global_code": "849VVPQ4+37"}, "reference": "ChIJT2dhXDN5hYAR1jxu_Mc6R0Y", "scope": "GOOGLE", "types": ["point_of_interest", "establishment"], "vicinity": "1221 Marin Avenue, Albany"}, "ChIJUcnRXjN5hYAR9acTt6Gq2Cw": {"geometry": {"location": {"lat": 37.887489, "lng": -122.29393}, "viewport": {"northeast": {"lat": 37.8888379802915, "lng": -122.2925810197085}, "southwest": {"lat": 37.8861400197085, "lng": -122.2952789802915}}}, "icon": "https://maps.gstatic.com/mapfiles/place_api/icons/generic_business-71.png", "id": "edba6d5dfba697cde41361224748ae07aabae801", "name": "George D. Cohen, LCSW", "place_id": "ChIJUcnRXjN5hYAR9acTt6Gq2Cw", "plus_code": {"compound_code": "VPP4+XC Albany, California, United States", "global_code": "849VVPP4+XC"}, "reference": "ChIJUcnRXjN5hYAR9acTt6Gq2Cw", "scope": "GOOGLE", "types": ["doctor", "health", "point_of_interest", "establishment"], "vicinity": "Albany"}, "ChIJAa8DXDN5hYARNa1V8S2RfUw": {"geometry": {"location": {"lat": 37.8877057, "lng": -122.294143}, "viewport": {"northeast": {"lat": 37.88892853029149, "lng": -122.2927528697085}, "southwest": {"lat": 37.8862305697085, "lng": -122.2954508302915}}}, "icon": "https://maps.gstatic.com/mapfiles/place_api/icons/generic_business-71.png", "id": "9a8f7993139ee52231374569963b9eae81cec715", "name": "Lisa Bruce Studios", "photos": [{"height": 1536, "html_attributions": ["<a href=\"https://maps.google.com/maps/contrib/113447495738493527604/photos\">Lisa Bruce Studios</a>"], "photo_reference": "CmRaAAAAVcWPybB2Pn34HYD70cJoVKtGHEq8fmfHF-OllcakckWPrXNU2LiyzjLojcD91Ui3yrBRjMHUr4KgrEGSCwHF1hO8SlrNSIZgukieITQqfmdif3QMKi2AL9uC0ZMX0AOSEhDpdeImS-i_X2ScfUiCkG43GhRmunisIx4_30deYuNvyjVea-m5eg", "width": 2048}], "place_id": "ChIJAa8DXDN5hYARNa1V8S2RfUw", "plus_code": {"compound_code": "VPQ4+38 Albany, California, United States", "global_code": "849VVPQ4+38"}, "rating": 5, "reference": "ChIJAa8DXDN5hYARNa1V8S2RfUw", "scope": "GOOGLE", "types": ["point_of_interest", "establishment"], "vicinity": "Rear Bldg, 1225 Marin Avenue, Albany"}, "ChIJUcnRXjN5hYARZOS02a6MNu8": {"geometry": {"location": {"lat": 37.8875985, "lng": -122.2939696}, "viewport": {"northeast": {"lat": 37.8888882802915, "lng": -122.2926005697085}, "southwest": {"lat": 37.8861903197085, "lng": -122.2952985302915}}}, "icon": "https://maps.gstatic.com/mapfiles/place_api/icons/generic_business-71.png", "id": "b157eb03f95fdcbe2799f84ee451a4364abe4136", "name": "Guadalupe Mccarthy, QMHP", "place_id": "ChIJUcnRXjN5hYARZOS02a6MNu8", "plus_code": {"compound_code": "VPQ4+2C Albany, California, United States", "global_code": "849VVPQ4+2C"}, "reference": "ChIJUcnRXjN5hYARZOS02a6MNu8", "scope": "GOOGLE", "types": ["doctor", "health", "point_of_interest", "establishment"], "vicinity": "1229 Marin Avenue, Albany"}, "ChIJj8WnXjN5hYARmdaU5Wckxro": {"geometry": {"location": {"lat": 37.88771, "lng": -122.294089}, "viewport": {"northeast": {"lat": 37.8889359302915, "lng": -122.2926998697085}, "southwest": {"lat": 37.8862379697085, "lng": -122.2953978302915}}}, "icon": "https://maps.gstatic.com/mapfiles/place_api/icons/generic_business-71.png", "id": "4d02cf03acbabafceb60771079c394a7324474ec", "name": "Rosenzweig Marvin W MD", "place_id": "ChIJj8WnXjN5hYARmdaU5Wckxro", "plus_code": {"compound_code": "VPQ4+39 Albany, California, United States", "global_code": "849VVPQ4+39"}, "reference": "ChIJj8WnXjN5hYARmdaU5Wckxro", "scope": "GOOGLE", "types": ["doctor", "health", "point_of_interest", "establishment"], "vicinity": "1225 Marin Avenue, Albany"}, "ChIJd1OPt8x-hYARcS6pxKBZjYQ": {"geometry": {"location": {"lat": 37.885913, "lng": -122.295029}, "viewport": {"northeast": {"lat": 37.8872858302915, "lng": -122.2935599697085}, "southwest": {"lat": 37.8845878697085, "lng": -122.2962579302915}}}, "icon": "https://maps.gstatic.com/mapfiles/place_api/icons/generic_business-71.png", "id": "86452b82a1322078e0a50ec6aa6b00f6cc46d598", "name": "Ray Pacific Asset Management", "place_id": "ChIJd1OPt8x-hYARcS6pxKBZjYQ", "plus_code": {"compound_code": "VPP3+9X Albany, California, United States", "global_code": "849VVPP3+9X"}, "reference": "ChIJd1OPt8x-hYARcS6pxKBZjYQ", "scope": "GOOGLE", "types": ["point_of_interest", "establishment"], "vicinity": "1034 Cornell Avenue, Albany"}, "ChIJIUcvu8x-hYARQz1L5xcv1BQ": {"geometry": {"location": {"lat": 37.8859164, "lng": -122.2945409}, "viewport": {"northeast": {"lat": 37.8872435302915, "lng": -122.2933018697085}, "southwest": {"lat": 37.8845455697085, "lng": -122.2959998302915}}}, "icon": "https://maps.gstatic.com/mapfiles/place_api/icons/generic_business-71.png", "id": "0f4ea1e4fb7ae528e5c453d7fa4f66307a8cb74f", "name": "Korean Methodist Church of Hope", "place_id": "ChIJIUcvu8x-hYARQz1L5xcv1BQ", "plus_code": {"compound_code": "VPP4+95 Albany, California, United States", "global_code": "849VVPP4+95"}, "reference": "ChIJIUcvu8x-hYARQz1L5xcv1BQ", "scope": "GOOGLE", "types": ["point_of_interest", "establishment"], "vicinity": "1037 Cornell Avenue, Albany"}, "ChIJUcnRXjN5hYAR0qaTJiFtvvY": {"geometry": {"location": {"lat": 37.8877359, "lng": -122.29396}, "viewport": {"northeast": {"lat": 37.88896253029151, "lng": -122.2925695697085}, "southwest": {"lat": 37.88626456970851, "lng": -122.2952675302915}}}, "icon": "https://maps.gstatic.com/mapfiles/place_api/icons/generic_business-71.png", "id": "a469b998bd8deb16563e3019c607bdb7b7159482", "name": "Carroll Schilling, LMFT", "place_id": "ChIJUcnRXjN5hYAR0qaTJiFtvvY", "plus_code": {"compound_code": "VPQ4+3C Albany, California, United States", "global_code": "849VVPQ4+3C"}, "reference": "ChIJUcnRXjN5hYAR0qaTJiFtvvY", "scope": "GOOGLE", "types": ["health", "point_of_interest", "establishment"], "vicinity": "1229 Marin Avenue, Albany"}, "ChIJURdVXzN5hYARk2pmX7MAMPU": {"geometry": {"location": {"lat": 37.88777899999999, "lng": -122.293751}, "viewport": {"northeast": {"lat": 37.8890047302915, "lng": -122.2923625197085}, "southwest": {"lat": 37.8863067697085, "lng": -122.2950604802915}}}, "icon": "https://maps.gstatic.com/mapfiles/place_api/icons/generic_business-71.png", "id": "38da3ef2e4defaed90c9e1afd75de87e3bbec2cc", "name": "Joseph Steven M MD", "place_id": "ChIJURdVXzN5hYARk2pmX7MAMPU", "plus_code": {"compound_code": "VPQ4+4F Albany, California, United States", "global_code": "849VVPQ4+4F"}, "reference": "ChIJURdVXzN5hYARk2pmX7MAMPU", "scope": "GOOGLE", "types": ["doctor", "health", "point_of_interest", "establishment"], "vicinity": "1235 Marin Avenue # 1, Albany"}, "ChIJURdVXzN5hYARvDD0pd_913c": {"geometry": {"location": {"lat": 37.887764, "lng": -122.2937207}, "viewport": {"northeast": {"lat": 37.88899963029149, "lng": -122.2923353697085}, "southwest": {"lat": 37.8863016697085, "lng": -122.2950333302915}}}, "icon": "https://maps.gstatic.com/mapfiles/place_api/icons/generic_business-71.png", "id": "79ab06fad0c652201fd48497910477471c1db0bf", "name": "Barber Curry Lcsw", "place_id": "ChIJURdVXzN5hYARvDD0pd_913c", "plus_code": {"compound_code": "VPQ4+4G Albany, California, United States", "global_code": "849VVPQ4+4G"}, "reference": "ChIJURdVXzN5hYARvDD0pd_913c", "scope": "GOOGLE", "types": ["doctor", "health", "point_of_interest", "establishment"], "vicinity": "1235 Marin Avenue, Albany"}, "ChIJURdVXzN5hYARZaWzdRu9ZbI": {"geometry": {"location": {"lat": 37.887764, "lng": -122.2937207}, "viewport": {"northeast": {"lat": 37.88899963029149, "lng": -122.2923353697085}, "southwest": {"lat": 37.8863016697085, "lng": -122.2950333302915}}}, "icon": "https://maps.gstatic.com/mapfiles/place_api/icons/generic_business-71.png", "id": "899e5cb006f3724a5b9f7efc77063167eb288eb9", "name": "Brian Lukas, PhD", "place_id": "ChIJURdVXzN5hYARZaWzdRu9ZbI", "plus_code": {"compound_code": "VPQ4+4G Albany, California, United States", "global_code": "849VVPQ4+4G"}, "reference": "ChIJURdVXzN5hYARZaWzdRu9ZbI", "scope": "GOOGLE", "types": ["health", "point_of_interest", "establishment"], "vicinity": "1235 Marin Avenue, Albany"}, "ChIJURdVXzN5hYAR4ihFU5qPH1c": {"geometry": {"location": {"lat": 37.887764, "lng": -122.2937207}, "viewport": {"northeast": {"lat": 37.88899963029149, "lng": -122.2923353697085}, "southwest": {"lat": 37.8863016697085, "lng": -122.2950333302915}}}, "icon": "https://maps.gstatic.com/mapfiles/place_api/icons/generic_business-71.png", "id": "7808b39e11809da3c8a2904007637df1b73185b8", "name": "Michael P. Aanavi, PHD", "place_id": "ChIJURdVXzN5hYAR4ihFU5qPH1c", "plus_code": {"compound_code": "VPQ4+4G Albany, California, United States", "global_code": "849VVPQ4+4G"}, "reference": "ChIJURdVXzN5hYAR4ihFU5qPH1c", "scope": "GOOGLE", "types": ["health", "point_of_interest", "establishment"], "vicinity": "1235 Marin Avenue, Albany"}}