{"ChIJA-2qKIt9hYARZ5N1NdUVtHE": {"geometry": {"location": {"lat": 37.8043637, "lng": -122.2711137}, "viewport": {"northeast": {"lat": 37.88472489999999, "lng": -122.114775}, "southwest": {"lat": 37.6322259, "lng": -122.355881}}}, "icon": "https://maps.gstatic.com/mapfiles/place_api/icons/geocode-71.png", "id": "da4a4da21e013f9d3a24e8eee6d4f84de02148d3", "name": "Oakland", "photos": [{"height": 2848, "html_attributions": ["<a href=\"https://maps.google.com/maps/contrib/113300206259949994494/photos\">Cimino Alberto</a>"], "photo_reference": "CmRaAAAAAysAVzOUbYL6HcUg3CjpMMVbNZak7yHom_abh4kER_wznyV2uUlE3Xen9fdIXNlLLtCmSqqeKUX4f_beRInj0tOFsqZQW1x8newVtvsfuTqJ_fBl_GCh1S07F40jtoo6EhCcy1OR0WgFfZRvK4ktAHKfGhQwvTwjcsosiAbTGLDxeIn4rOJNbw", "width": 4256}], "place_id": "ChIJA-2qKIt9hYARZ5N1NdUVtHE", "reference": "ChIJA-2qKIt9hYARZ5N1NdUVtHE", "scope": "GOOGLE", "types": ["locality", "political"], "vicinity": "Oakland"}, "ChIJm34HvWR-hYARPThhf1MM-_o": {"geometry": {"location": {"lat": 37.8486918, "lng": -122.2698352}, "viewport": {"northeast": {"lat": 37.8501696802915, "lng": -122.2685153697085}, "southwest": {"lat": 37.8474717197085, "lng": -122.2712133302915}}}, "icon": "https://maps.gstatic.com/mapfiles/place_api/icons/generic_business-71.png", "id": "13e518108d61853d7169141c7f44780cb80ae2b8", "name": "LifeLong Dental Care", "opening_hours": {"open_now": false}, "photos": [{"height": 750, "html_attributions": ["<a href=\"https://maps.google.com/maps/contrib/100632936394769265248/photos\">LifeLong Dental Care Office</a>"], "photo_reference": "CmRaAAAA9L3Xf1Eg_xI09UF_3NuUI95cI05kcTtLdJdSNjtSBMddqBhRHmGbx5XpsamED8lDj3DBVE80MiNHCJI3H12KV7DNywonfgtrdzDl97osgdWbneop5rpgglACx_elt6ajEhDSWTcCxY5E7XViCHZ-q__VGhT_aeZpYeHH4cNJugLd_6CYGWFtBA", "width": 1000}], "place_id": "ChIJm34HvWR-hYARPThhf1MM-_o", "plus_code": {"compound_code": "RPXJ+F3 Oakland, California, United States", "global_code": "849VRPXJ+F3"}, "rating": 3.1, "reference": "ChIJm34HvWR-hYARPThhf1MM-_o", "scope": "GOOGLE", "types": ["dentist", "health", "point_of_interest", "establishment"], "vicinity": "1860 Alcatraz Avenue, Berkeley"}, "ChIJOenCLXh-hYARD_N-5_dujn0": {"geometry": {"location": {"lat": 37.8475547, "lng": -122.2678922}, "viewport": {"northeast": {"lat": 37.8489916802915, "lng": -122.2665618697085}, "southwest": {"lat": 37.8462937197085, "lng": -122.2692598302915}}}, "icon": "https://maps.gstatic.com/mapfiles/place_api/icons/generic_business-71.png", "id": "bda2d5704197c1ee62de5f11a8277eaaa54391f9", "name": "Clark Construction", "place_id": "ChIJOenCLXh-hYARD_N-5_dujn0", "reference": "ChIJOenCLXh-hYARD_N-5_dujn0", "scope": "GOOGLE", "types": ["general_contractor", "point_of_interest", "establishment"], "vicinity": "671 62nd Street, Oakland"}, "ChIJYQuVAad_hYAR3g21pM1Jz-0": {"geometry": {"location": {"lat": 37.8490547, "lng": -122.2690961}, "viewport": {"northeast": {"lat": 37.8503796802915, "lng": -122.2677417197085}, "southwest": {"lat": 37.8476817197085, "lng": -122.2704396802915}}}, "icon": "https://maps.gstatic.com/mapfiles/place_api/icons/generic_business-71.png", "id": "0657775314ec5b274062384ad02d72efe9997930", "name": "Bartle Wells Associates", "opening_hours": {"open_now": false}, "photos": [{"height": 478, "html_attributions": ["<a href=\"https://maps.google.com/maps/contrib/102496721132750367581/photos\">Bartle Wells Associates</a>"], "photo_reference": "CmRaAAAAbZtEMCi37YVJfryT2S8lA5QIUPWwjvc7T34AfmC8td_6WfaAbI97t9yus91-pGWmObTEfMRobpup-MqGVuUdZxk_9KQ4pyy-Q6-wXxOC-GnjoLocxwk-rgBqDAkPzbLsEhAgzqtg8IgwH_Su522y_0IlGhQm8jwqePjiwTBzCfBZd3pap1MULQ", "width": 851}], "place_id": "ChIJYQuVAad_hYAR3g21pM1Jz-0", "rating": 2.3, "reference": "ChIJYQuVAad_hYAR3g21pM1Jz-0", "scope": "GOOGLE", "types": ["accounting", "finance", "point_of_interest", "establishment"], "vicinity": "1889 Alcatraz Avenue, Berkeley"}, "ChIJ721Ter18hYARCgDziGDKteg": {"geometry": {"location": {"lat": 37.8497043, "lng": -122.2692655}, "viewport": {"northeast": {"lat": 37.8511401302915, "lng": -122.2679354697085}, "southwest": {"lat": 37.84844216970851, "lng": -122.2706334302915}}}, "icon": "https://maps.gstatic.com/mapfiles/place_api/icons/generic_business-71.png", "id": "c754c093234294a206ac8ccde14512fb14f9e29b", "name": "Orinda Magic Basketball", "opening_hours": {"open_now": true}, "photos": [{"height": 768, "html_attributions": ["<a href=\"https://maps.google.com/maps/contrib/100754585149845216274/photos\">Orinda Magic Basketball</a>"], "photo_reference": "CmRaAAAAhyzMzWb3K265kpPGwuo9tSbyFPCVNwioisdltT2gT7a2Gpr8rBKAH563f4aEf10BIl18Gor4EEm0aQxZV5b9tyoK-YDyP2-An0CPJbiehKTOkQPiJ0KfkpepqfsuSYI9EhAa6vtOtJ0h4YSWBgLvCWFNGhSJ6EkkmrSgmqwIQ8lGdIw7cVH2gA", "width": 1024}], "place_id": "ChIJ721Ter18hYARCgDziGDKteg", "plus_code": {"compound_code": "RPXJ+V7 Berkeley, California, United States", "global_code": "849VRPXJ+V7"}, "reference": "ChIJ721Ter18hYARCgDziGDKteg", "scope": "GOOGLE", "types": ["point_of_interest", "establishment"], "vicinity": "1910 Harmon Street, Berkeley"}, "ChIJGfIjonl-hYARHdjWWpT5QIQ": {"geometry": {"location": {"lat": 37.848724, "lng": -122.269534}, "viewport": {"northeast": {"lat": 37.8502068302915, "lng": -122.2682152697085}, "southwest": {"lat": 37.84750886970851, "lng": -122.2709132302915}}}, "icon": "https://maps.gstatic.com/mapfiles/place_api/icons/generic_business-71.png", "id": "a572dba842c3791b1f0a7354fca927840283007a", "name": "Berkeley Adult Day Health Center", "place_id": "ChIJGfIjonl-hYARHdjWWpT5QIQ", "plus_code": {"compound_code": "RPXJ+F5 Oakland, California, United States", "global_code": "849VRPXJ+F5"}, "rating": 3, "reference": "ChIJGfIjonl-hYARHdjWWpT5QIQ", "scope": "GOOGLE", "types": ["point_of_interest", "establishment"], "vicinity": "1890 Alcatraz Avenue, Berkeley"}, "ChIJAQAAAON9hYARkDNCjf0lpbI": {"geometry": {"location": {"lat": 37.84924700000001, "lng": -122.269545}, "viewport": {"northeast": {"lat": 37.85047568029151, "lng": -122.2681688197085}, "southwest": {"lat": 37.84777771970851, "lng": -122.2708667802915}}}, "icon": "https://maps.gstatic.com/mapfiles/place_api/icons/shopping-71.png", "id": "8598c28a20de39a98bccd1c563ed5aff9cc41e0f", "name": "Pelican Plumbers", "opening_hours": {"open_now": false}, "photos": [{"height": 3024, "html_attributions": ["<a href=\"https://maps.google.com/maps/contrib/102064771217779321633/photos\">Pelican Plumbers</a>"], "photo_reference": "CmRaAAAARbNsnSFGB8FONABso-MKRqo5vZ15xkAKVd3vrdWH8tvrQ9lCYQOHUT-hMnr4caokJSl3TjLZ0o5IiDZL0I43SYlmlR0yLKBzW0Gf4zliWtC-pzbKpVTtpChYljumJgp1EhB9BDfkuPj1YMeUbWAwL70EGhR3Q0xElJVnolfB7G18XDlcIOlM-A", "width": 4032}], "place_id": "ChIJAQAAAON9hYARkDNCjf0lpbI", "rating": 5, "reference": "ChIJAQAAAON9hYARkDNCjf0lpbI", "scope": "GOOGLE", "types": ["plumber", "home_goods_store", "store", "point_of_interest", "establishment"], "vicinity": "1881 Alcatraz Avenue, Berkeley"}, "ChIJycS0mHl-hYARDjO1gTlT828": {"geometry": {"location": {"lat": 37.8487985, "lng": -122.2696977}, "viewport": {"northeast": {"lat": 37.8502340302915, "lng": -122.2683682697085}, "southwest": {"lat": 37.8475360697085, "lng": -122.2710662302915}}}, "icon": "https://maps.gstatic.com/mapfiles/place_api/icons/school-71.png", "id": "9c88a6575fa8276306857310cbe0df7fe6b519ca", "name": "Mi Mundo Preschool", "opening_hours": {"open_now": false}, "photos": [{"height": 1536, "html_attributions": ["<a href=\"https://maps.google.com/maps/contrib/113601830934603384289/photos\">Lina Lopez</a>"], "photo_reference": "CmRaAAAAA_xaYbeax8230iT5TH0DyRvvVi7qSfAPVXMx7bcjRo3rlXt134L8VHuwgSLxktTHmwW3IP4-fVrTj1clBK1uEapTUaq--3z_CH2q3foteBjCKrb33cN2q26RH5dTAB1xEhBn7DPSLtW94awMI85-SXXbGhSQ7aWIG-0ijrDvJrySSOoMLG3LKQ", "width": 2048}], "place_id": "ChIJycS0mHl-hYARDjO1gTlT828", "plus_code": {"compound_code": "RPXJ+G4 Oakland, California, United States", "global_code": "849VRPXJ+G4"}, "rating": 5, "reference": "ChIJycS0mHl-hYARDjO1gTlT828", "scope": "GOOGLE", "types": ["point_of_interest", "school", "establishment"], "vicinity": "1866 Alcatraz Avenue, Berkeley"}, "ChIJVVVBr3l-hYAReF9B5Dy-CuM": {"geometry": {"location": {"lat": 37.8488944, "lng": -122.2688669}, "viewport": {"northeast": {"lat": 37.8503398302915, "lng": -122.2675386697085}, "southwest": {"lat": 37.8476418697085, "lng": -122.2702366302915}}}, "icon": "https://maps.gstatic.com/mapfiles/place_api/icons/generic_business-71.png", "id": "cbab12d80cb244ba582e05e65621bd20461b45d9", "name": "Oakland East Bay Gay Men's Chorus", "place_id": "ChIJVVVBr3l-hYAReF9B5Dy-CuM", "plus_code": {"compound_code": "RPXJ+HF Oakland, California, United States", "global_code": "849VRPXJ+HF"}, "reference": "ChIJVVVBr3l-hYAReF9B5Dy-CuM", "scope": "GOOGLE", "types": ["point_of_interest", "establishment"], "vicinity": "1908 Alcatraz Avenue, Berkeley"}, "ChIJsRDZnnl-hYARAZuopf63SNs": {"geometry": {"location": {"lat": 37.8487044, "lng": -122.2698336}, "viewport": {"northeast": {"lat": 37.85017628029149, "lng": -122.2685124197085}, "southwest": {"lat": 37.84747831970849, "lng": -122.2712103802915}}}, "icon": "https://maps.gstatic.com/mapfiles/place_api/icons/generic_business-71.png", "id": "84c08ee642c7740e13a249390e17a363d0c3ea4c", "name": "LifeLong Dental Care Office", "opening_hours": {"open_now": false}, "photos": [{"height": 3264, "html_attributions": ["<a href=\"https://maps.google.com/maps/contrib/107558432256803460744/photos\">Lao Phan</a>"], "photo_reference": "CmRaAAAAwNu9iqpe-wRY9l3IvvTpJ_Pusv8TSj64OXNJ08rYvsG0XPVlwn0l0z1KbRV1ZxvwO6N9XoLyxNKcUhS4K8xc3bOoZmJcDMg5SJNg7en32ur2s77FJyRxR6vEqC2obPezEhBDvVGWO6moWOh8vZfHwVNmGhSQNb-bvDP772L_4qPhHP0MgCT5zQ", "width": 2448}], "place_id": "ChIJsRDZnnl-hYARAZuopf63SNs", "plus_code": {"compound_code": "RPXJ+F3 Oakland, California, United States", "global_code": "849VRPXJ+F3"}, "rating": 3.3, "reference": "ChIJsRDZnnl-hYARAZuopf63SNs", "scope": "GOOGLE", "types": ["dentist", "health", "point_of_interest", "establishment"], "vicinity": "1860 Alcatraz Avenue, Berkeley"}, "ChIJTx84nnl-hYARYL71IHb61dI": {"geometry": {"location": {"lat": 37.8488389, "lng": -122.269915}, "viewport": {"northeast": {"lat": 37.85024003029149, "lng": -122.2685778197085}, "southwest": {"lat": 37.8475420697085, "lng": -122.2712757802915}}}, "icon": "https://maps.gstatic.com/mapfiles/place_api/icons/generic_business-71.png", "id": "5bcf988c26ee4e400894fe475735f69aad1fcfdc", "name": "Over 60 Health Center: Olmezova Irina DDS", "opening_hours": {"open_now": false}, "place_id": "ChIJTx84nnl-hYARYL71IHb61dI", "plus_code": {"compound_code": "RPXJ+G2 Berkeley, California, United States", "global_code": "849VRPXJ+G2"}, "reference": "ChIJTx84nnl-hYARYL71IHb61dI", "scope": "GOOGLE", "types": ["dentist", "health", "point_of_interest", "establishment"], "vicinity": "1860 Alcatraz Avenue, Berkeley"}, "ChIJTx84nnl-hYARybQRKRb6e7E": {"geometry": {"location": {"lat": 37.8488389, "lng": -122.269915}, "viewport": {"northeast": {"lat": 37.85024003029149, "lng": -122.2685778197085}, "southwest": {"lat": 37.8475420697085, "lng": -122.2712757802915}}}, "icon": "https://maps.gstatic.com/mapfiles/place_api/icons/generic_business-71.png", "id": "bff1bad57233024e9d8d54e538e233f4102be4ae", "name": "Over 60 Health Center: Park Jung S DDS", "opening_hours": {"open_now": false}, "place_id": "ChIJTx84nnl-hYARybQRKRb6e7E", "plus_code": {"compound_code": "RPXJ+G2 Berkeley, California, United States", "global_code": "849VRPXJ+G2"}, "reference": "ChIJTx84nnl-hYARybQRKRb6e7E", "scope": "GOOGLE", "types": ["dentist", "health", "point_of_interest", "establishment"], "vicinity": "1860 Alcatraz Avenue, Berkeley"}, "ChIJH4PVIXh-hYARRwIvpQeCWPU": {"geometry": {"location": {"lat": 37.8476938, "lng": -122.2668288}, "viewport": {"northeast": {"lat": 37.8491314302915, "lng": -122.2654985697085}, "southwest": {"lat": 37.84643346970851, "lng": -122.2681965302915}}}, "icon": "https://maps.gstatic.com/mapfiles/place_api/icons/generic_business-71.png", "id": "a1a97076a4e58313ced20fae1c5e6e3a79781496", "name": "Stagecraft Industries Inc", "place_id": "ChIJH4PVIXh-hYARRwIvpQeCWPU", "plus_code": {"compound_code": "RPXM+37 Oakland, California, United States", "global_code": "849VRPXM+37"}, "reference": "ChIJH4PVIXh-hYARRwIvpQeCWPU", "scope": "GOOGLE", "types": ["point_of_interest", "establishment"], "vicinity": "641 62nd Street, Oakland"}, "ChIJ2WQQp3l-hYAR94I9xHJDl60": {"geometry": {"location": {"lat": 37.849048, "lng": -122.269164}, "viewport": {"northeast": {"lat": 37.85039698029149, "lng": -122.2678150197085}, "southwest": {"lat": 37.84769901970849, "lng": -122.2705129802915}}}, "icon": "https://maps.gstatic.com/mapfiles/place_api/icons/generic_business-71.png", "id": "34ae4ffe4408a2e32528b2e57a5d163dc5e64138", "name": "Alcatraz Av:Dover St", "place_id": "ChIJ2WQQp3l-hYAR94I9xHJDl60", "plus_code": {"compound_code": "RPXJ+J8 Berkeley, California, United States", "global_code": "849VRPXJ+J8"}, "reference": "ChIJ2WQQp3l-hYAR94I9xHJDl60", "scope": "GOOGLE", "types": ["transit_station", "point_of_interest", "establishment"], "vicinity": "United States"}, "ChIJq6oOsNl9hYARxJzoCyGpkKM": {"geometry": {"location": {"lat": 37.848709, "lng": -122.267405}, "viewport": {"northeast": {"lat": 37.8499732802915, "lng": -122.2660381697085}, "southwest": {"lat": 37.8472753197085, "lng": -122.2687361302915}}}, "icon": "https://maps.gstatic.com/mapfiles/place_api/icons/school-71.png", "id": "952224388a2c7d2fc9320ace5a45a3c9ec4f3551", "name": "Maya Carina Piano and Voice", "photos": [{"height": 400, "html_attributions": ["<a href=\"https://maps.google.com/maps/contrib/101116544724330358777/photos\">Maya Carina Piano and Voice</a>"], "photo_reference": "CmRaAAAAShyCFA-9zZ6DYtlWFBAksUeGivRs5lN6Yv61cRN-Xful4vBgNj74q64Ywf7VhyeYWtwxZVa1Tsc3KK7MsKRx8wP5d5NN64SrTkR10resOugSewSo03uc9V5aUbfALBnZEhDtyXIDCAVrTrxXSN-txHqcGhQI71WXyawO7qoJbKlVZuudGcgCDA", "width": 533}], "place_id": "ChIJq6oOsNl9hYARxJzoCyGpkKM", "plus_code": {"compound_code": "RPXM+F2 Oakland, California, United States", "global_code": "849VRPXM+F2"}, "reference": "ChIJq6oOsNl9hYARxJzoCyGpkKM", "scope": "GOOGLE", "types": ["electronics_store", "home_goods_store", "store", "point_of_interest", "school", "establishment"], "vicinity": "654 63rd Street, Oakland"}, "ChIJMchwp3l-hYARW2VI_idQPek": {"geometry": {"location": {"lat": 37.849124, "lng": -122.269135}, "viewport": {"northeast": {"lat": 37.85047298029149, "lng": -122.2677860197085}, "southwest": {"lat": 37.8477750197085, "lng": -122.2704839802915}}}, "icon": "https://maps.gstatic.com/mapfiles/place_api/icons/bus-71.png", "id": "8c2b5e735ca1a7e3c5c34c805ea6fdfc6d1cf358", "name": "Alcatraz Av:Dover St", "place_id": "ChIJMchwp3l-hYARW2VI_idQPek", "plus_code": {"compound_code": "RPXJ+J8 Berkeley, California, United States", "global_code": "849VRPXJ+J8"}, "reference": "ChIJMchwp3l-hYARW2VI_idQPek", "scope": "GOOGLE", "types": ["bus_station", "transit_station", "point_of_interest", "establishment"], "vicinity": "United States"}, "ChIJQeLjoHl-hYAR5JtIrwc6TDM": {"geometry": {"location": {"lat": 37.848972, "lng": -122.269193}, "viewport": {"northeast": {"lat": 37.8503209802915, "lng": -122.2678440197085}, "southwest": {"lat": 37.8476230197085, "lng": -122.2705419802915}}}, "icon": "https://maps.gstatic.com/mapfiles/place_api/icons/bus-71.png", "id": "72fe015d74031b9f1de71eb63357db6c17cbd3ca", "name": "Alcatraz Av:Dover St", "place_id": "ChIJQeLjoHl-hYAR5JtIrwc6TDM", "plus_code": {"compound_code": "RPXJ+H8 Berkeley, California, United States", "global_code": "849VRPXJ+H8"}, "reference": "ChIJQeLjoHl-hYAR5JtIrwc6TDM", "scope": "GOOGLE", "types": ["bus_station", "transit_station", "point_of_interest", "establishment"], "vicinity": "United States"}, "ChIJq07AGnl-hYARxBMkIOAyUJY": {"geometry": {"location": {"lat": 37.84993619999999, "lng": -122.2687668}, "viewport": {"northeast": {"lat": 37.8512851802915, "lng": -122.2674178197085}, "southwest": {"lat": 37.8485872197085, "lng": -122.2701157802915}}}, "icon": "https://maps.gstatic.com/mapfiles/place_api/icons/generic_business-71.png", "id": "33c86a0383625c0a0ef2a88a0df10b5a1c1b18a0", "name": "Erikalynn C. Romweber, Erikalynn", "place_id": "ChIJq07AGnl-hYARxBMkIOAyUJY", "plus_code": {"compound_code": "RPXJ+XF Oakland, California, United States", "global_code": "849VRPXJ+XF"}, "reference": "ChIJq07AGnl-hYARxBMkIOAyUJY", "scope": "GOOGLE", "types": ["doctor", "health", "point_of_interest", "establishment"], "vicinity": "fr, 1365 Northeast 153rd Street, North Miami Beach"}, "ChIJGfIjonl-hYARHzoXH0YqS4g": {"geometry": {"location": {"lat": 37.8487638, "lng": -122.269598}, "viewport": {"northeast": {"lat": 37.8502229802915, "lng": -122.2682739197085}, "southwest": {"lat": 37.8475250197085, "lng": -122.2709718802915}}}, "icon": "https://maps.gstatic.com/mapfiles/place_api/icons/generic_business-71.png", "id": "558ce93d3bab519bcd1f4ffe862f8db0e4c10da6", "name": "Jeanette Rezentes, MSW", "place_id": "ChIJGfIjonl-hYARHzoXH0YqS4g", "plus_code": {"compound_code": "RPXJ+G5 Oakland, California, United States", "global_code": "849VRPXJ+G5"}, "reference": "ChIJGfIjonl-hYARHzoXH0YqS4g", "scope": "GOOGLE", "types": ["doctor", "health", "point_of_interest", "establishment"], "vicinity": "1890 Alcatraz Avenue, Berkeley"}, "ChIJ00mFOjZ5hYARk-l1ppUV6pQ": {"geometry": {"location": {"lat": 37.8715926, "lng": -122.272747}, "viewport": {"northeast": {"lat": 37.9058239, "lng": -122.234179}, "southwest": {"lat": 37.835727, "lng": -122.367781}}}, "icon": "https://maps.gstatic.com/mapfiles/place_api/icons/geocode-71.png", "id": "00741fe572fc4084428ab206e1a55830f6a1bf0a", "name": "Berkeley", "photos": [{"height": 1080, "html_attributions": ["<a href=\"https://maps.google.com/maps/contrib/110244590763501513798/photos\">miao hsin sun</a>"], "photo_reference": "CmRaAAAA6pOM6KVncdJy9mn8yM7IyqrGu9eF-k6XFqpLYLinal3qGp_bfwkkKl2YTSh5JfoIiAR83TXeR5tbLq1BJ-k8EhnY-6g4uEQco8xlnkhGG-2vLIjqGYPkbTYB3bgh8P_NEhA8WSYECLvVzCjPQWCIQpR3GhRMqbbAZ-gBUzmSpyMSf3IpF0UfSw", "width": 1616}], "place_id": "ChIJ00mFOjZ5hYARk-l1ppUV6pQ", "reference": "ChIJ00mFOjZ5hYARk-l1ppUV6pQ", "scope": "GOOGLE", "types": ["locality", "political"], "vicinity": "Berkeley"}, "ChIJycS0mHl-hYARtADaKlXTNYo": {"geometry": {"location": {"lat": 37.848808, "lng": -122.2696935}, "viewport": {"northeast": {"lat": 37.8502392302915, "lng": -122.2683631197085}, "southwest": {"lat": 37.8475412697085, "lng": -122.2710610802915}}}, "icon": "https://maps.gstatic.com/mapfiles/place_api/icons/generic_business-71.png", "id": "dd2429ef6d2fb513a57d6892d6355e297ddfa856", "name": "Ladies of the Night", "place_id": "ChIJycS0mHl-hYARtADaKlXTNYo", "plus_code": {"compound_code": "RPXJ+G4 Oakland, California, United States", "global_code": "849VRPXJ+G4"}, "reference": "ChIJycS0mHl-hYARtADaKlXTNYo", "scope": "GOOGLE", "types": ["health", "point_of_interest", "establishment"], "vicinity": "1866 Alcatraz Avenue, Berkeley"}, "ChIJTx84nnl-hYARAo2xjAD6zI8": {"geometry": {"location": {"lat": 37.8488389, "lng": -122.269915}, "viewport": {"northeast": {"lat": 37.85024003029149, "lng": -122.2685778197085}, "southwest": {"lat": 37.8475420697085, "lng": -122.2712757802915}}}, "icon": "https://maps.gstatic.com/mapfiles/place_api/icons/generic_business-71.png", "id": "43766f5f4dc306f2463de657a4cba9790654780f", "name": "Dr. Sophie Taylor, DDS", "place_id": "ChIJTx84nnl-hYARAo2xjAD6zI8", "plus_code": {"compound_code": "RPXJ+G2 Berkeley, California, United States", "global_code": "849VRPXJ+G2"}, "reference": "ChIJTx84nnl-hYARAo2xjAD6zI8", "scope": "GOOGLE", "types": ["dentist", "health", "point_of_interest", "establishment"], "vicinity": "1860 Alcatraz Avenue, Berkeley"}, "ChIJTx84nnl-hYAR-x2FKOT89lk": {"geometry": {"location": {"lat": 37.8488389, "lng": -122.269915}, "viewport": {"northeast": {"lat": 37.85024003029149, "lng": -122.2685778197085}, "southwest": {"lat": 37.8475420697085, "lng": -122.2712757802915}}}, "icon": "https://maps.gstatic.com/mapfiles/place_api/icons/generic_business-71.png", "id": "27fe91a2f87bbc2a94d06ae30e6a4c20bf4a08ca", "name": "Dr. Lisa Ku, DDS", "place_id": "ChIJTx84nnl-hYAR-x2FKOT89lk", "plus_code": {"compound_code": "RPXJ+G2 Berkeley, California, United States", "global_code": "849VRPXJ+G2"}, "reference": "ChIJTx84nnl-hYAR-x2FKOT89lk", "scope": "GOOGLE", "types": ["dentist", "health", "point_of_interest", "establishment"], "vicinity": "1860 Alcatraz Avenue, Berkeley"}, "ChIJTx84nnl-hYAR_jbuXpO6kJM": {"geometry": {"location": {"lat": 37.8487079, "lng": -122.2698417}, "viewport": {"northeast": {"lat": 37.8501775302915, "lng": -122.2685199697085}, "southwest": {"lat": 37.8474795697085, "lng": -122.2712179302915}}}, "icon": "https://maps.gstatic.com/mapfiles/place_api/icons/generic_business-71.png", "id": "5e2da882df9fece4cb3fb7727d1ee475f0fe3852", "name": "Dr. John Noble, DDS", "place_id": "ChIJTx84nnl-hYAR_jbuXpO6kJM", "plus_code": {"compound_code": "RPXJ+F3 Oakland, California, United States", "global_code": "849VRPXJ+F3"}, "reference": "ChIJTx84nnl-hYAR_jbuXpO6kJM", "scope": "GOOGLE", "types": ["dentist", "health", "point_of_interest", "establishment"], "vicinity": "1860 Alcatraz Avenue, Berkeley"}, "ChIJTx84nnl-hYARSdu665ZVU70": {"geometry": {"location": {"lat": 37.8488389, "lng": -122.269915}, "viewport": {"northeast": {"lat": 37.85024003029149, "lng": -122.2685778197085}, "southwest": {"lat": 37.8475420697085, "lng": -122.2712757802915}}}, "icon": "https://maps.gstatic.com/mapfiles/place_api/icons/generic_business-71.png", "id": "d771d7bc58d5929a0e5995c86529c0af9499c5c8", "name": "Dr. Hosea Harper, DDS", "place_id": "ChIJTx84nnl-hYARSdu665ZVU70", "plus_code": {"compound_code": "RPXJ+G2 Berkeley, California, United States", "global_code": "849VRPXJ+G2"}, "reference": "ChIJTx84nnl-hYARSdu665ZVU70", "scope": "GOOGLE", "types": ["dentist", "health", "point_of_interest", "establishment"], "vicinity": "1860 Alcatraz Avenue, Berkeley"}, "ChIJTx84nnl-hYARg_KmXju4mC0": {"geometry": {"location": {"lat": 37.8488389, "lng": -122.269915}, "viewport": {"northeast": {"lat": 37.85024003029149, "lng": -122.2685778197085}, "southwest": {"lat": 37.8475420697085, "lng": -122.2712757802915}}}, "icon": "https://maps.gstatic.com/mapfiles/place_api/icons/generic_business-71.png", "id": "6bf72ae15577a14c652ed93b61ba5e7fb0b8cf42", "name": "Dr. Shirley Livingston, DDS", "place_id": "ChIJTx84nnl-hYARg_KmXju4mC0", "plus_code": {"compound_code": "RPXJ+G2 Berkeley, California, United States", "global_code": "849VRPXJ+G2"}, "reference": "ChIJTx84nnl-hYARg_KmXju4mC0", "scope": "GOOGLE", "types": ["dentist", "health", "point_of_interest", "establishment"], "vicinity": "1860 Alcatraz Avenue, Berkeley"}, "ChIJTx84nnl-hYARf2tYQhfxkPc": {"geometry": {"location": {"lat": 37.8488389, "lng": -122.269915}, "viewport": {"northeast": {"lat": 37.85024003029149, "lng": -122.2685778197085}, "southwest": {"lat": 37.8475420697085, "lng": -122.2712757802915}}}, "icon": "https://maps.gstatic.com/mapfiles/place_api/icons/generic_business-71.png", "id": "793f68d1b190fc496b19a852cf3a676a5f1b6c69", "name": "Dr. Farnaz Shadravan, DDS", "place_id": "ChIJTx84nnl-hYARf2tYQhfxkPc", "plus_code": {"compound_code": "RPXJ+G2 Berkeley, California, United States", "global_code": "849VRPXJ+G2"}, "reference": "ChIJTx84nnl-hYARf2tYQhfxkPc", "scope": "GOOGLE", "types": ["dentist", "health", "point_of_interest", "establishment"], "vicinity": "1860 Alcatraz Avenue, Berkeley"}, "ChIJTx84nnl-hYARR0bNzepFUmg": {"geometry": {"location": {"lat": 37.8488389, "lng": -122.269915}, "viewport": {"northeast": {"lat": 37.85024003029149, "lng": -122.2685778197085}, "southwest": {"lat": 37.8475420697085, "lng": -122.2712757802915}}}, "icon": "https://maps.gstatic.com/mapfiles/place_api/icons/generic_business-71.png", "id": "fc6300d736c5a9479b801bca9bde27465e2621b0", "name": "Dr. Maria Victoria S. Gueco, DDS", "place_id": "ChIJTx84nnl-hYARR0bNzepFUmg", "plus_code": {"compound_code": "RPXJ+G2 Berkeley, California, United States", "global_code": "849VRPXJ+G2"}, "rating": 5, "reference": "ChIJTx84nnl-hYARR0bNzepFUmg", "scope": "GOOGLE", "types": ["dentist", "health", "point_of_interest", "establishment"], "vicinity": "1860 Alcatraz Avenue, Berkeley"}, "ChIJTx84nnl-hYARZp0agbNXyF8": {"geometry": {"location": {"lat": 37.8488389, "lng": -122.269915}, "viewport": {"northeast": {"lat": 37.85024003029149, "lng": -122.2685778197085}, "southwest": {"lat": 37.8475420697085, "lng": -122.2712757802915}}}, "icon": "https://maps.gstatic.com/mapfiles/place_api/icons/generic_business-71.png", "id": "4d31877606f4c82576ffd03a34b7d63733723410", "name": "Dr. Christallyn Tan, DDS", "place_id": "ChIJTx84nnl-hYARZp0agbNXyF8", "plus_code": {"compound_code": "RPXJ+G2 Berkeley, California, United States", "global_code": "849VRPXJ+G2"}, "reference": "ChIJTx84nnl-hYARZp0agbNXyF8", "scope": "GOOGLE", "types": ["dentist", "health", "point_of_interest", "establishment"], "vicinity": "1860 Alcatraz Avenue, Berkeley"}}