{"ChIJ00mFOjZ5hYARk-l1ppUV6pQ": {"geometry": {"location": {"lat": 37.8715926, "lng": -122.272747}, "viewport": {"northeast": {"lat": 37.9058239, "lng": -122.234179}, "southwest": {"lat": 37.835727, "lng": -122.367781}}}, "icon": "https://maps.gstatic.com/mapfiles/place_api/icons/geocode-71.png", "id": "00741fe572fc4084428ab206e1a55830f6a1bf0a", "name": "Berkeley", "photos": [{"height": 1080, "html_attributions": ["<a href=\"https://maps.google.com/maps/contrib/110244590763501513798/photos\">miao hsin sun</a>"], "photo_reference": "CmRaAAAALdApspbf_ygihDgUYD5zcbyPocKoVRe2XV7N1LYjahiECZ9vh6l7YVv3HSn12MBPFWbFirtM0o8gcUmiEIRKZyW4_UOeSQVNvxLeG1Fof5ThcYHuZvYp5QYGwGiCZ-BsEhDPtvK33z3qro6wUJ9Xh_8JGhTXeVUKvgOfHgG9Y5lDjBn5Yv-pHw", "width": 1616}], "place_id": "ChIJ00mFOjZ5hYARk-l1ppUV6pQ", "reference": "ChIJ00mFOjZ5hYARk-l1ppUV6pQ", "scope": "GOOGLE", "types": ["locality", "political"], "vicinity": "Berkeley"}, "ChIJAcK7wax-hYARYxSnYWfJjTA": {"geometry": {"location": {"lat": 37.8922104, "lng": -122.272961}, "viewport": {"northeast": {"lat": 37.8935649802915, "lng": -122.2713443697085}, "southwest": {"lat": 37.8908670197085, "lng": -122.2740423302915}}}, "icon": "https://maps.gstatic.com/mapfiles/place_api/icons/generic_recreational-71.png", "id": "b7e1a5aa3559366d0d2fa8310ba13ec59e01c56a", "name": "Indian Rock Park", "opening_hours": {"open_now": true}, "photos": [{"height": 2240, "html_attributions": ["<a href=\"https://maps.google.com/maps/contrib/102210126180241486852/photos\">Ryan Osborne</a>"], "photo_reference": "CmRaAAAAm61HsC7GpJUohSPGMAuE4kf3GBTV_1zusV5A6xuvZ6F768Y6Br-hQTAS5nh44EBj7TLKxpUF9bLLsYPAxvJQu-gD-h3C9x7wO8mamTi7hwod8YjXcxNmbB-jNRMWmnvDEhAsUFfF6WJbl-lI_RZqJlTQGhQ1i-Z2qfN_atUi4ZtDaPWcnFnywQ", "width": 4000}], "place_id": "ChIJAcK7wax-hYARYxSnYWfJjTA", "plus_code": {"compound_code": "VPRG+VR Berkeley, California, United States", "global_code": "849VVPRG+VR"}, "rating": 4.7, "reference": "ChIJAcK7wax-hYARYxSnYWfJjTA", "scope": "GOOGLE", "types": ["park", "point_of_interest", "establishment"], "vicinity": "950 Indian Rock Avenue, Berkeley"}, "ChIJf3uN_Kx-hYARymOvqGe9E4k": {"geometry": {"location": {"lat": 37.89120949999999, "lng": -122.2735589}, "viewport": {"northeast": {"lat": 37.8926339302915, "lng": -122.2721323697085}, "southwest": {"lat": 37.8899359697085, "lng": -122.2748303302915}}}, "icon": "https://maps.gstatic.com/mapfiles/place_api/icons/generic_business-71.png", "id": "d322fa7fe564f3b69fa6120404fe8a8e50b85c36", "name": "Parker & Larkins", "place_id": "ChIJf3uN_Kx-hYARymOvqGe9E4k", "plus_code": {"compound_code": "VPRG+FH Berkeley, California, United States", "global_code": "849VVPRG+FH"}, "reference": "ChIJf3uN_Kx-hYARymOvqGe9E4k", "scope": "GOOGLE", "types": ["real_estate_agency", "point_of_interest", "establishment"], "vicinity": "934 Arlington Avenue, Berkeley"}, "ChIJ-Z4RP61-hYARdFgA6XNlyXE": {"geometry": {"location": {"lat": 37.891566, "lng": -122.275198}, "viewport": {"northeast": {"lat": 37.8929700302915, "lng": -122.2737349697085}, "southwest": {"lat": 37.8902720697085, "lng": -122.2764329302915}}}, "icon": "https://maps.gstatic.com/mapfiles/place_api/icons/generic_business-71.png", "id": "5cb9a6c980f6c3a4dfa97c41b03f665c6a6d0a6b", "name": "Zadeh Lotfi", "place_id": "ChIJ-Z4RP61-hYARdFgA6XNlyXE", "plus_code": {"compound_code": "VPRF+JW Berkeley, California, United States", "global_code": "849VVPRF+JW"}, "reference": "ChIJ-Z4RP61-hYARdFgA6XNlyXE", "scope": "GOOGLE", "types": ["point_of_interest", "establishment"], "vicinity": "904 Mendocino Avenue, Berkeley"}, "ChIJuaPJWKx-hYARu8FdM3EWGkc": {"geometry": {"location": {"lat": 37.890814, "lng": -122.272861}, "viewport": {"northeast": {"lat": 37.8922426802915, "lng": -122.2714455197085}, "southwest": {"lat": 37.8895447197085, "lng": -122.2741434802915}}}, "icon": "https://maps.gstatic.com/mapfiles/place_api/icons/generic_business-71.png", "id": "4655b2b9810e90a3db898a9cc883ec69ea6da2e8", "name": "Venture Strategies | for Health and Development", "place_id": "ChIJuaPJWKx-hYARu8FdM3EWGkc", "plus_code": {"compound_code": "VPRG+8V Berkeley, California, United States", "global_code": "849VVPRG+8V"}, "reference": "ChIJuaPJWKx-hYARu8FdM3EWGkc", "scope": "GOOGLE", "types": ["point_of_interest", "establishment"], "vicinity": "962 Arlington Avenue, Berkeley"}, "ChIJPSPyzVJ5hYARBHOoiLk4JUM": {"geometry": {"location": {"lat": 37.893007, "lng": -122.274361}, "viewport": {"northeast": {"lat": 37.89433708029149, "lng": -122.2731620197085}, "southwest": {"lat": 37.8916391197085, "lng": -122.2758599802915}}}, "icon": "https://maps.gstatic.com/mapfiles/place_api/icons/school-71.png", "id": "36949ca83c85f1f2ce24ad01e3f56bd06ed89fe7", "name": "Teleosis Institute", "opening_hours": {"open_now": false}, "photos": [{"height": 568, "html_attributions": ["<a href=\"https://maps.google.com/maps/contrib/106025130876576800200/photos\">Teleosis Institute</a>"], "photo_reference": "CmRaAAAArFQ4kxz3Vh7ky4fiJpe2asnLjAbsoVxF-N2mQy4Y_o2Kj7nurYeqjcdSqH_kEU3trNgNL3XThnF1NnLRtWz9SIDgrnT_xu05B2FeZmNJk_3hLalITTbViy1_c9LqIClQEhACFgjv_KcBAklpOrGTWX5EGhQ4wjK8HCEFf2zQjYE-If1lrb_gDQ", "width": 569}], "place_id": "ChIJPSPyzVJ5hYARBHOoiLk4JUM", "plus_code": {"compound_code": "VPVG+67 Berkeley, California, United States", "global_code": "849VVPVG+67"}, "reference": "ChIJPSPyzVJ5hYARBHOoiLk4JUM", "scope": "GOOGLE", "types": ["point_of_interest", "establishment"], "vicinity": "863 Arlington Avenue, Berkeley"}, "ChIJWQcqIa1-hYARvDwYyYYqVj0": {"geometry": {"location": {"lat": 37.89199599999999, "lng": -122.274073}, "viewport": {"northeast": {"lat": 37.8933449802915, "lng": -122.2727240197085}, "southwest": {"lat": 37.8906470197085, "lng": -122.2754219802915}}}, "icon": "https://maps.gstatic.com/mapfiles/place_api/icons/generic_business-71.png", "id": "4f246c968497fa462cfa22717f2782938091b7d9", "name": "Arlington Av:Indian Rock Path", "place_id": "ChIJWQcqIa1-hYARvDwYyYYqVj0", "plus_code": {"compound_code": "VPRG+Q9 Berkeley, California, United States", "global_code": "849VVPRG+Q9"}, "reference": "ChIJWQcqIa1-hYARvDwYyYYqVj0", "scope": "GOOGLE", "types": ["transit_station", "point_of_interest", "establishment"], "vicinity": "United States"}, "ChIJSVWZIK1-hYARooN2XKMkMuc": {"geometry": {"location": {"lat": 37.892003, "lng": -122.27394}, "viewport": {"northeast": {"lat": 37.8933519802915, "lng": -122.2725910197085}, "southwest": {"lat": 37.8906540197085, "lng": -122.2752889802915}}}, "icon": "https://maps.gstatic.com/mapfiles/place_api/icons/bus-71.png", "id": "9383f8d499308fd4e5fe907e9666b4aacad0b5c4", "name": "Arlington Av:Indian Rock Path", "place_id": "ChIJSVWZIK1-hYARooN2XKMkMuc", "plus_code": {"compound_code": "VPRG+RC Berkeley, California, United States", "global_code": "849VVPRG+RC"}, "rating": 5, "reference": "ChIJSVWZIK1-hYARooN2XKMkMuc", "scope": "GOOGLE", "types": ["bus_station", "transit_station", "point_of_interest", "establishment"], "vicinity": "Berkeley"}, "ChIJD_itJq1-hYARSw276CBEXqE": {"geometry": {"location": {"lat": 37.891989, "lng": -122.274206}, "viewport": {"northeast": {"lat": 37.8933379802915, "lng": -122.2728570197085}, "southwest": {"lat": 37.8906400197085, "lng": -122.2755549802915}}}, "icon": "https://maps.gstatic.com/mapfiles/place_api/icons/bus-71.png", "id": "866aace3dfd33c0409a0237d2fcecf465e204749", "name": "Arlington Ave. at Indian Rock Path", "place_id": "ChIJD_itJq1-hYARSw276CBEXqE", "plus_code": {"compound_code": "VPRG+Q8 Berkeley, California, United States", "global_code": "849VVPRG+Q8"}, "reference": "ChIJD_itJq1-hYARSw276CBEXqE", "scope": "GOOGLE", "types": ["bus_station", "transit_station", "point_of_interest", "establishment"], "vicinity": "Berkeley"}, "ChIJu7KJ_qx-hYARZhRyzbW0SCk": {"geometry": {"location": {"lat": 37.8908871, "lng": -122.2737104}, "viewport": {"northeast": {"lat": 37.89217868029149, "lng": -122.2723606197085}, "southwest": {"lat": 37.88948071970849, "lng": -122.2750585802915}}}, "icon": "https://maps.gstatic.com/mapfiles/place_api/icons/generic_business-71.png", "id": "4198522f462b4970bafacb92cb0aeccd2e6b965c", "name": "Calcott Consulting", "place_id": "ChIJu7KJ_qx-hYARZhRyzbW0SCk", "plus_code": {"compound_code": "VPRG+9G Berkeley, California, United States", "global_code": "849VVPRG+9G"}, "reference": "ChIJu7KJ_qx-hYARZhRyzbW0SCk", "scope": "GOOGLE", "types": ["point_of_interest", "establishment"], "vicinity": "931 Mendocino Avenue, Berkeley"}, "ChIJ2XzbR61-hYARFPf3fIT7sGI": {"geometry": {"location": {"lat": 37.891867, "lng": -122.275425}, "viewport": {"northeast": {"lat": 37.8932701302915, "lng": -122.2739576197085}, "southwest": {"lat": 37.8905721697085, "lng": -122.2766555802915}}}, "icon": "https://maps.gstatic.com/mapfiles/place_api/icons/generic_business-71.png", "id": "c6b66b1395c3377dbdf5a2cc886dc364c9189703", "name": "Gorrell Mark", "place_id": "ChIJ2XzbR61-hYARFPf3fIT7sGI", "plus_code": {"compound_code": "VPRF+PR Berkeley, California, United States", "global_code": "849VVPRF+PR"}, "reference": "ChIJ2XzbR61-hYARFPf3fIT7sGI", "scope": "GOOGLE", "types": ["point_of_interest", "establishment"], "vicinity": "850 Mendocino Avenue, Berkeley"}, "ChIJbfSyLK1-hYAR5Xhjl_Fk5-I": {"geometry": {"location": {"lat": 37.892828, "lng": -122.274301}, "viewport": {"northeast": {"lat": 37.8941332302915, "lng": -122.2730790197085}, "southwest": {"lat": 37.8914352697085, "lng": -122.2757769802915}}}, "icon": "https://maps.gstatic.com/mapfiles/place_api/icons/generic_business-71.png", "id": "1916f432da1cb46cb48edd5fdde6950b16fcce23", "name": "Rc Fine Arts", "place_id": "ChIJbfSyLK1-hYAR5Xhjl_Fk5-I", "plus_code": {"compound_code": "VPVG+47 Berkeley, California, United States", "global_code": "849VVPVG+47"}, "reference": "ChIJbfSyLK1-hYAR5Xhjl_Fk5-I", "scope": "GOOGLE", "types": ["art_gallery", "point_of_interest", "establishment"], "vicinity": "875 Arlington Avenue, Berkeley"}, "ChIJjzmIxVJ5hYARxEHQXdMVGAs": {"geometry": {"location": {"lat": 37.893107, "lng": -122.274635}, "viewport": {"northeast": {"lat": 37.8944559802915, "lng": -122.2732860197085}, "southwest": {"lat": 37.8917580197085, "lng": -122.2759839802915}}}, "icon": "https://maps.gstatic.com/mapfiles/place_api/icons/bus-71.png", "id": "662c426d5c7a7c30733097cbb2fdad8cf520b418", "name": "Arlington Av & Mendocino Av", "place_id": "ChIJjzmIxVJ5hYARxEHQXdMVGAs", "plus_code": {"compound_code": "VPVG+64 Berkeley, California, United States", "global_code": "849VVPVG+64"}, "reference": "ChIJjzmIxVJ5hYARxEHQXdMVGAs", "scope": "GOOGLE", "types": ["bus_station", "transit_station", "point_of_interest", "establishment"], "vicinity": "Berkeley"}, "ChIJZ7MYYqp-hYARqEr9qCJY0Fw": {"geometry": {"location": {"lat": 37.8923152, "lng": -122.2682245}, "viewport": {"northeast": {"lat": 37.905824, "lng": -122.2456793}, "southwest": {"lat": 37.8794772, "lng": -122.2871799}}}, "icon": "https://maps.gstatic.com/mapfiles/place_api/icons/geocode-71.png", "id": "dee8ee3fee454e35561948e7532f0d3bdc37795e", "name": "Berkeley Hills", "photos": [{"height": 2358, "html_attributions": ["<a href=\"https://maps.google.com/maps/contrib/101345405161882209762/photos\">steve t</a>"], "photo_reference": "CmRaAAAA_zXXdxVApFw-yqf3zGjMc6kGQR7QBCw2pBWJAxmE07qR3VeOIcXTOjNe5gysGGZPp_E5QtBI58vbkqDSxbExgwMCzFSCqm9OBcMWNeywEXP6audOVxq9dwN4fAHMGhXAEhDvY0FnRlFpg2O1PyyqQoIFGhQZUvuEGFBHjrNHlEP_HmFQbhlK9g", "width": 4191}], "place_id": "ChIJZ7MYYqp-hYARqEr9qCJY0Fw", "reference": "ChIJZ7MYYqp-hYARqEr9qCJY0Fw", "scope": "GOOGLE", "types": ["neighborhood", "political"], "vicinity": "Berkeley"}}