{"ChIJVZwBhp1-hYARQYVWzRxOB6o": {"geometry": {"location": {"lat": 37.8698977, "lng": -122.2657288}, "viewport": {"northeast": {"lat": 37.8712465802915, "lng": -122.2643889697085}, "southwest": {"lat": 37.86854861970851, "lng": -122.2670869302915}}}, "icon": "https://maps.gstatic.com/mapfiles/place_api/icons/geocode-71.png", "id": "c0461e62a8c6ecce4501973f6c17896ee1aac3de", "name": "2199-2141 Oxford St", "place_id": "ChIJVZwBhp1-hYARQYVWzRxOB6o", "reference": "ChIJVZwBhp1-hYARQYVWzRxOB6o", "scope": "GOOGLE", "types": ["route"], "vicinity": "Berkeley"}, "ChIJqUoig51-hYARUnXjcqs8-sg": {"geometry": {"location": {"lat": 37.8695169, "lng": -122.2661288}, "viewport": {"northeast": {"lat": 37.87087393029149, "lng": -122.2646687697085}, "southwest": {"lat": 37.8681759697085, "lng": -122.2673667302915}}}, "icon": "https://maps.gstatic.com/mapfiles/place_api/icons/restaurant-71.png", "id": "3fd9aa8ba3521b930283ee1615ba2652050cb67e", "name": "Gather", "opening_hours": {"open_now": false}, "photos": [{"height": 3283, "html_attributions": ["<a href=\"https://maps.google.com/maps/contrib/110531395209138213212/photos\">Gather</a>"], "photo_reference": "CmRZAAAA-3tZBcA60yjG6l_AD4K24AGfhS1MOKFjc-HQOtHk_hy0qYRibAyBn3ekyKvDcz9kT2w5YGZIU5E34ExG6L2TksEmJwg6fiCVLwF57vELImDJRtmxSPcJwNL4SjX1aZgJEhBn6gSglyX47kAGPqWSC6hpGhTC3TKb7IDclqCsIeqFxDhOIiSlEg", "width": 5598}], "place_id": "ChIJqUoig51-hYARUnXjcqs8-sg", "plus_code": {"compound_code": "VP9M+RG Berkeley, California, United States", "global_code": "849VVP9M+RG"}, "price_level": 2, "rating": 4.3, "reference": "ChIJqUoig51-hYARUnXjcqs8-sg", "scope": "GOOGLE", "types": ["bar", "restaurant", "point_of_interest", "food", "establishment"], "vicinity": "2200 Oxford Street, Berkeley"}, "ChIJwZQPjp1-hYARKTIDq3fC_n0": {"geometry": {"location": {"lat": 37.87005200000001, "lng": -122.266029}, "viewport": {"northeast": {"lat": 37.87140678029151, "lng": -122.2646033697085}, "southwest": {"lat": 37.86870881970851, "lng": -122.2673013302915}}}, "icon": "https://maps.gstatic.com/mapfiles/place_api/icons/shopping-71.png", "id": "913e8aa83a128447406fe6adae158e4c12d9c6c5", "name": "Replica Digital Ink", "opening_hours": {"open_now": true}, "photos": [{"height": 576, "html_attributions": ["<a href=\"https://maps.google.com/maps/contrib/105542353963291099356/photos\">Replica Digital Ink</a>"], "photo_reference": "CmRaAAAAXd790AOSJXEtcLdUfxL4gzzKzJjKYS0yZtyXwxmz93Cjh-tQG9mdYZ0RZwZ-onFixDLfAS4OmyaJ_WJpdocxbFczEDaTKdfUB7KKE7DPGPRFqRPf5vX4JIaSRxucMXDLEhD--1Jy26iFIOum-SEu4r7FGhTYPqpoBgPetayqU8P6iLUElcEenQ", "width": 1024}], "place_id": "ChIJwZQPjp1-hYARKTIDq3fC_n0", "rating": 5, "reference": "ChIJwZQPjp1-hYARKTIDq3fC_n0", "scope": "GOOGLE", "types": ["store", "point_of_interest", "establishment"], "vicinity": "2138 Oxford Street, Berkeley"}, "ChIJ7RuSj51-hYAR92XYj0iOPx4": {"geometry": {"location": {"lat": 37.8697923, "lng": -122.2660852}, "viewport": {"northeast": {"lat": 37.8710645802915, "lng": -122.2647280697085}, "southwest": {"lat": 37.8683666197085, "lng": -122.2674260302915}}}, "icon": "https://maps.gstatic.com/mapfiles/place_api/icons/restaurant-71.png", "id": "822abfdfb674c2f9a7691f8650c5c4312c5600ef", "name": "Saturn Cafe Berkeley", "opening_hours": {"open_now": true}, "photos": [{"height": 3024, "html_attributions": ["<a href=\"https://maps.google.com/maps/contrib/107721404123505875377/photos\">Albert L.</a>"], "photo_reference": "CmRaAAAAUSKyyIFCMgzqSqUsUutz9bK4eGvY6ptv8IWyVM_l6jhjL-dasCvYirOC5P1Hzw-Fwbt3jMQ2wo6sUn90dXKo88PHfDz6fxSeG-WjQlKEiIh6kxJWXjJZwCxl66RhU-4aEhAQmihRNPToMFFW_DelK3DGGhTQEoShey7oXAOY8Hw9V-K1GqYsMA", "width": 4032}], "place_id": "ChIJ7RuSj51-hYAR92XYj0iOPx4", "plus_code": {"compound_code": "VP9M+WH Berkeley, California, United States", "global_code": "849VVP9M+WH"}, "price_level": 2, "rating": 4.3, "reference": "ChIJ7RuSj51-hYAR92XYj0iOPx4", "scope": "GOOGLE", "types": ["restaurant", "point_of_interest", "food", "establishment"], "vicinity": "2175 Allston Way, Berkeley"}, "ChIJ9wMFjZ1-hYARsd1ttKdmdnM": {"geometry": {"location": {"lat": 37.8702954, "lng": -122.2660592}, "viewport": {"northeast": {"lat": 37.8716613302915, "lng": -122.2646332197085}, "southwest": {"lat": 37.8689633697085, "lng": -122.2673311802915}}}, "icon": "https://maps.gstatic.com/mapfiles/place_api/icons/restaurant-71.png", "id": "28952e358972b8863d7eaf1078933bb9e979dc9f", "name": "Cinnaholic", "opening_hours": {"open_now": true}, "photos": [{"height": 3024, "html_attributions": ["<a href=\"https://maps.google.com/maps/contrib/104849499926396607558/photos\">Angelie Khu</a>"], "photo_reference": "CmRaAAAAxoJMlnF5q5DPG1weKw9szVh_zkZKkZOesmChIbMsgZmab00RtY_uhVy_GUirxqaSQj1akgQFWK1KPmyZOfCTZxY_dT77WNkvrEn1_QzZmg_RBt8234t5G7-ROcqvO9GtEhA4YRrvc1nR4oucBDcwK4j7GhSD7-tq4RVGOl5rvyeg1kyiigoafg", "width": 4032}], "place_id": "ChIJ9wMFjZ1-hYARsd1ttKdmdnM", "plus_code": {"compound_code": "VPCM+4H Berkeley, California, United States", "global_code": "849VVPCM+4H"}, "rating": 4.6, "reference": "ChIJ9wMFjZ1-hYARsd1ttKdmdnM", "scope": "GOOGLE", "types": ["bakery", "cafe", "store", "restaurant", "point_of_interest", "food", "establishment"], "vicinity": "2132 Oxford Street, Berkeley"}, "ChIJxRGX8p1-hYARBrkP22qWlKg": {"geometry": {"location": {"lat": 37.8703936, "lng": -122.2660914}, "viewport": {"northeast": {"lat": 37.87179508029151, "lng": -122.2646573197085}, "southwest": {"lat": 37.86909711970851, "lng": -122.2673552802915}}}, "icon": "https://maps.gstatic.com/mapfiles/place_api/icons/cafe-71.png", "id": "f7177c0319097fc60ba3ac0e69835943aecbbac2", "name": "Starbucks", "opening_hours": {"open_now": true}, "photos": [{"height": 3006, "html_attributions": ["<a href=\"https://maps.google.com/maps/contrib/112107137489644864852/photos\">Bruno R</a>"], "photo_reference": "CmRaAAAA6ozrvDR2P02GdoZe_JSHucC6scBP6zyDgx3NZMMfxNapwftg1ztQcOHfAByFCxFGKJdN-nhktcAd20FOkFfduhsFfnG-59gYTETbMgJsmeqVrhY6VorI1RoZoN4AOC6NEhD5NudDM3kSKprPuMT9UHT4GhRnn_rwbjzawxGUjHIm_GjuYIUvPw", "width": 5344}], "place_id": "ChIJxRGX8p1-hYARBrkP22qWlKg", "plus_code": {"compound_code": "VPCM+5H Berkeley, California, United States", "global_code": "849VVPCM+5H"}, "price_level": 2, "rating": 3.9, "reference": "ChIJxRGX8p1-hYARBrkP22qWlKg", "scope": "GOOGLE", "types": ["cafe", "store", "point_of_interest", "food", "establishment"], "vicinity": "2128 Oxford St, Berkeley"}, "ChIJEa9VjJ1-hYARwK5GvIBlNvQ": {"geometry": {"location": {"lat": 37.8700158, "lng": -122.2659811}, "viewport": {"northeast": {"lat": 37.8713689302915, "lng": -122.2645770197085}, "southwest": {"lat": 37.8686709697085, "lng": -122.2672749802915}}}, "icon": "https://maps.gstatic.com/mapfiles/place_api/icons/generic_business-71.png", "id": "27c2e6479868338ee426ba343cea74b65f90a158", "name": "Fix That Mac", "opening_hours": {"open_now": true}, "place_id": "ChIJEa9VjJ1-hYARwK5GvIBlNvQ", "plus_code": {"compound_code": "VPCM+2J Berkeley, California, United States", "global_code": "849VVPCM+2J"}, "rating": 4.4, "reference": "ChIJEa9VjJ1-hYARwK5GvIBlNvQ", "scope": "GOOGLE", "types": ["point_of_interest", "establishment"], "vicinity": "2140 Oxford Street, Berkeley"}, "ChIJqceEjZ1-hYARWr8_nT62lAc": {"geometry": {"location": {"lat": 37.8701898, "lng": -122.2660127}, "viewport": {"northeast": {"lat": 37.8715443302915, "lng": -122.2646046197085}, "southwest": {"lat": 37.8688463697085, "lng": -122.2673025802915}}}, "icon": "https://maps.gstatic.com/mapfiles/place_api/icons/cafe-71.png", "id": "f0aef463c5602ab9c939f4a589a3c17917cca73c", "name": "The Sunny Side Caf\u00e9", "opening_hours": {"open_now": true}, "photos": [{"height": 3040, "html_attributions": ["<a href=\"https://maps.google.com/maps/contrib/100351214905591805953/photos\">Erin Alberstat</a>"], "photo_reference": "CmRaAAAAiznFpzmYiCalSdQm4-r1W2xJxuvNrmpmHiSMwZKT5mZUfpYxW7O4RR4EBeQnvSJf8uTswIw_og3uzZ5BQlGDAqdtAR2S3OYOAEann9fYaM1HcAqVYh985hw3y5NHG0OdEhD--RHKcVW0RYGfoyXJHFlNGhRWO73f8aRQuRS52OAbWEmSEwJa6g", "width": 3728}], "place_id": "ChIJqceEjZ1-hYARWr8_nT62lAc", "plus_code": {"compound_code": "VPCM+3H Berkeley, California, United States", "global_code": "849VVPCM+3H"}, "rating": 4, "reference": "ChIJqceEjZ1-hYARWr8_nT62lAc", "scope": "GOOGLE", "types": ["cafe", "restaurant", "point_of_interest", "food", "establishment"], "vicinity": "2136 Oxford Street, Berkeley"}, "ChIJ6aN_kJ1-hYARdeb9_DTkbyY": {"geometry": {"location": {"lat": 37.8696978, "lng": -122.2662512}, "viewport": {"northeast": {"lat": 37.87100688029149, "lng": -122.2648941697085}, "southwest": {"lat": 37.86830891970849, "lng": -122.2675921302915}}}, "icon": "https://maps.gstatic.com/mapfiles/place_api/icons/school-71.png", "id": "c0f69332d3c515d15735193072a77a61748cddf6", "name": "Blueprint LSAT Preparation", "opening_hours": {"open_now": true}, "photos": [{"height": 1325, "html_attributions": ["<a href=\"https://maps.google.com/maps/contrib/116920174707727671919/photos\">Blueprint LSAT Preparation</a>"], "photo_reference": "CmRaAAAAKHUGlum85WNL--zn2QKIgEqNgfO54-D2IUegArBAddmaLB7QmBqqcI8lSIxMytWqfqfIfPM8tNuuhrDQzw7K6_gd3iscckyGsgoaH9E3z-A-T1xL6LxofexrAABTYSjxEhAvOb5a8IUZ_Es8YSa6skC9GhS_SYWIToz7JUmXuYtBkWC4GCVDyw", "width": 2000}], "place_id": "ChIJ6aN_kJ1-hYARdeb9_DTkbyY", "plus_code": {"compound_code": "VP9M+VF Berkeley, California, United States", "global_code": "849VVP9M+VF"}, "rating": 5, "reference": "ChIJ6aN_kJ1-hYARdeb9_DTkbyY", "scope": "GOOGLE", "types": ["point_of_interest", "establishment"], "vicinity": "2171 Allston Way, Berkeley"}, "ChIJwTh1jZ1-hYARLPjszRJw5yc": {"geometry": {"location": {"lat": 37.87022, "lng": -122.2660693}, "viewport": {"northeast": {"lat": 37.8715747802915, "lng": -122.2646350197085}, "southwest": {"lat": 37.8688768197085, "lng": -122.2673329802915}}}, "icon": "https://maps.gstatic.com/mapfiles/place_api/icons/restaurant-71.png", "id": "854764a91387b1524e5b70206e5bd067bebfcb9d", "name": "East Bay Spice Company", "opening_hours": {"open_now": true}, "photos": [{"height": 3024, "html_attributions": ["<a href=\"https://maps.google.com/maps/contrib/108691630968509472658/photos\">delnaz gundevia</a>"], "photo_reference": "CmRaAAAAGEQw-yQjTJrb7mgTFXqpK-4hSa_X8s45uP1shAfOL-Q512R5AVT3CHWhTc8CoCBcWd_1nmZvBkr9UwOzk1khPmcWDD2WnsfxL_yHSNzpeY0VY2MWs5aMtRUZTYC5UmimEhAtq9F9mxi0e32d-0BGwa8IGhSp_e1DgdeWgNthGxIHZ_1LQpfx2A", "width": 4032}], "place_id": "ChIJwTh1jZ1-hYARLPjszRJw5yc", "plus_code": {"compound_code": "VPCM+3H Berkeley, California, United States", "global_code": "849VVPCM+3H"}, "price_level": 2, "rating": 4.4, "reference": "ChIJwTh1jZ1-hYARLPjszRJw5yc", "scope": "GOOGLE", "types": ["bar", "restaurant", "point_of_interest", "food", "establishment"], "vicinity": "2134 Oxford Street, Berkeley"}, "ChIJ71JgF0t5hYARxN1FUpXZ-GQ": {"geometry": {"location": {"lat": 37.869948, "lng": -122.265986}, "viewport": {"northeast": {"lat": 37.87130163029151, "lng": -122.2645754197085}, "southwest": {"lat": 37.86860366970851, "lng": -122.2672733802915}}}, "icon": "https://maps.gstatic.com/mapfiles/place_api/icons/shopping-71.png", "id": "af120d62b284b706497141dacba57803f531935b", "name": "viv&ingrid", "opening_hours": {"open_now": true}, "photos": [{"height": 1203, "html_attributions": ["<a href=\"https://maps.google.com/maps/contrib/108705385611526095900/photos\">viv&amp;ingrid</a>"], "photo_reference": "CmRaAAAAIcp6haObJywoeMaVfCBVD-87d_WXc7GZnDzIl3o5o-OtXHi34X0jRhQH7Tl2Qa-igWi0hrwz30yk8QsfF0MSeNAWD28PJh5m0bfP4SmtdE7NvLN1Hh7TxucCZolFFX4yEhDBYMivXxYV9pHtmLPAQ6G5GhSvNl8fwmoBVqAgbCt-UMunHZMueg", "width": 1200}], "place_id": "ChIJ71JgF0t5hYARxN1FUpXZ-GQ", "plus_code": {"compound_code": "VP9M+XJ Berkeley, California, United States", "global_code": "849VVP9M+XJ"}, "rating": 5, "reference": "ChIJ71JgF0t5hYARxN1FUpXZ-GQ", "scope": "GOOGLE", "types": ["jewelry_store", "store", "point_of_interest", "establishment"], "vicinity": "2142 Oxford Street, Berkeley"}, "ChIJ-exNjJ1-hYARepY_IQNDdY8": {"geometry": {"location": {"lat": 37.8697747, "lng": -122.2660779}, "viewport": {"northeast": {"lat": 37.8711153802915, "lng": -122.2646141197085}, "southwest": {"lat": 37.8684174197085, "lng": -122.2673120802915}}}, "icon": "https://maps.gstatic.com/mapfiles/place_api/icons/generic_business-71.png", "id": "ea7e043b8ff7bfa7b295dee4ec9a85166a949d2d", "name": "Oxford Hall Property", "photos": [{"height": 1224, "html_attributions": ["<a href=\"https://maps.google.com/maps/contrib/114825707737535584621/photos\">Collin Qiu</a>"], "photo_reference": "CmRaAAAA_qplniWNGLCGT1geD17ZMtzGLv3G_xCiIjPA_T7M4Ve4SaT0y2O3PLaCvDIYIdSoFowUN2TwUF3rbf0_10aKl797y868KHZr0HgMvlsNU2EUmmjSQRTAZLuHmBl0hUcIEhB6j48Xp4AdOjEk8BTgj75aGhQeZCIb9JkM5VMt4FVRGlAIflAjIA", "width": 1848}], "place_id": "ChIJ-exNjJ1-hYARepY_IQNDdY8", "plus_code": {"compound_code": "VP9M+WH Berkeley, California, United States", "global_code": "849VVP9M+WH"}, "reference": "ChIJ-exNjJ1-hYARepY_IQNDdY8", "scope": "GOOGLE", "types": ["point_of_interest", "establishment"], "vicinity": "2150 Oxford Street, Berkeley"}, "ChIJVfOrmp1-hYAR1caXr_D798A": {"geometry": {"location": {"lat": 37.8697418, "lng": -122.2661258}, "viewport": {"northeast": {"lat": 37.8710371302915, "lng": -122.2647660197085}, "southwest": {"lat": 37.86833916970851, "lng": -122.2674639802915}}}, "icon": "https://maps.gstatic.com/mapfiles/place_api/icons/shopping-71.png", "id": "7213c964119850df21aa639816ff2731705f7a68", "name": "Berkeley Rug House", "opening_hours": {"open_now": true}, "photos": [{"height": 416, "html_attributions": ["<a href=\"https://maps.google.com/maps/contrib/118168132931546008132/photos\">Berkeley Rug House</a>"], "photo_reference": "CmRZAAAAMdbNawO3BAmYi4IZeXX0n7caUEyV1NbxxhfJI-47G5BJMZ4g40ZEdgPIAHkTbIRPqEKkBug7EUJB6eGi7QP7KfxRfgjFSFLypH2ohY6WWV4he6MyeadxPrjQ2gon8L-2EhC5CGyaNB0xiR2FWXKeaPmCGhQf42gpiX4m5Zi5FQAeLqXfHncxdw", "width": 576}], "place_id": "ChIJVfOrmp1-hYAR1caXr_D798A", "plus_code": {"compound_code": "VP9M+VG Berkeley, California, United States", "global_code": "849VVP9M+VG"}, "rating": 5, "reference": "ChIJVfOrmp1-hYAR1caXr_D798A", "scope": "GOOGLE", "types": ["laundry", "home_goods_store", "store", "point_of_interest", "establishment"], "vicinity": "2173 Allston Way, Berkeley"}, "ChIJAys8xAhhhYARJdtn660j2yw": {"geometry": {"location": {"lat": 37.86978670000001, "lng": -122.2662503}, "viewport": {"northeast": {"lat": 37.8710524802915, "lng": -122.2648845697085}, "southwest": {"lat": 37.8683545197085, "lng": -122.2675825302915}}}, "icon": "https://maps.gstatic.com/mapfiles/place_api/icons/generic_business-71.png", "id": "d1cafbd8cd4f2b5b7774dc427691c8a1fb836ba9", "name": "Edward Jones - Financial Advisor: William Fried", "opening_hours": {"open_now": true}, "photos": [{"height": 576, "html_attributions": ["<a href=\"https://maps.google.com/maps/contrib/117911054432891976868/photos\">Edward Jones - Financial Advisor: William Fried</a>"], "photo_reference": "CmRaAAAAdY9PrI8vyVldHEnJK-5q2pBtbHGdMh1H-o_wXYTal94KQ2DrBIIerCcCgIFPpKwfZSsoQdEGbQx2vRIdXrCovw-8iPSIE7Bkf5d8309fn7ec5u69Jk14OmgO_2Ek9TU0EhBQmE4FyB_7PhhbBM3JFtJEGhSabXPHA0ZXoxTGAai3yRiA4DRYXA", "width": 1024}], "place_id": "ChIJAys8xAhhhYARJdtn660j2yw", "plus_code": {"compound_code": "VP9M+WF Berkeley, California, United States", "global_code": "849VVP9M+WF"}, "reference": "ChIJAys8xAhhhYARJdtn660j2yw", "scope": "GOOGLE", "types": ["accounting", "finance", "point_of_interest", "establishment"], "vicinity": "2161 Allston Way ste a, Berkeley"}, "ChIJkTG18p1-hYARhvNRVwI1mr8": {"geometry": {"location": {"lat": 37.8703068, "lng": -122.266086}, "viewport": {"northeast": {"lat": 37.8716658802915, "lng": -122.2646473697085}, "southwest": {"lat": 37.8689679197085, "lng": -122.2673453302915}}}, "icon": "https://maps.gstatic.com/mapfiles/place_api/icons/restaurant-71.png", "id": "523f48f0b806dacafb9b080b27539211c19cbc92", "name": "Suya African Caribbean Grill", "opening_hours": {"open_now": true}, "photos": [{"height": 3024, "html_attributions": ["<a href=\"https://maps.google.com/maps/contrib/104849499926396607558/photos\">Angelie Khu</a>"], "photo_reference": "CmRaAAAAVtkFtodA4HodIWOwiJ5TKnV15Q4_9JB6CmvWY6NmI5VlAo717dINGrYWW5-2dH1fN0mpofBy9b_w0o85AQJRPJvshMXutwUbAxuIMAjRMr8LbT7tsUYRkYqc898Zjw1SEhBKW-d0z7fSMWJWHvfO0T3QGhR5vA7duRv152NSFO-x5QQGYcE2gQ", "width": 4032}], "place_id": "ChIJkTG18p1-hYARhvNRVwI1mr8", "plus_code": {"compound_code": "VPCM+4H Berkeley, California, United States", "global_code": "849VVPCM+4H"}, "price_level": 1, "rating": 4.6, "reference": "ChIJkTG18p1-hYARhvNRVwI1mr8", "scope": "GOOGLE", "types": ["restaurant", "point_of_interest", "food", "establishment"], "vicinity": "2130 Oxford Street, Berkeley"}, "ChIJh7wpkJ1-hYARD5vCkZk7PjY": {"geometry": {"location": {"lat": 37.8698697, "lng": -122.2661053}, "viewport": {"northeast": {"lat": 37.87122818029149, "lng": -122.2646308697085}, "southwest": {"lat": 37.8685302197085, "lng": -122.2673288302915}}}, "icon": "https://maps.gstatic.com/mapfiles/place_api/icons/shopping-71.png", "id": "d5c6b0dbfa44267f54718c22561f54a30468fbca", "name": "viv and ingrid", "opening_hours": {"open_now": true}, "place_id": "ChIJh7wpkJ1-hYARD5vCkZk7PjY", "plus_code": {"compound_code": "VP9M+WH Berkeley, California, United States", "global_code": "849VVP9M+WH"}, "reference": "ChIJh7wpkJ1-hYARD5vCkZk7PjY", "scope": "GOOGLE", "types": ["jewelry_store", "store", "point_of_interest", "establishment"], "vicinity": "2142 Oxford Street, Berkeley"}, "ChIJjWk4jJ1-hYAR8MXvMA37c3s": {"geometry": {"location": {"lat": 37.87017129999999, "lng": -122.2660675}, "viewport": {"northeast": {"lat": 37.87152848029149, "lng": -122.2646310197085}, "southwest": {"lat": 37.86883051970849, "lng": -122.2673289802915}}}, "icon": "https://maps.gstatic.com/mapfiles/place_api/icons/atm-71.png", "id": "25ba0b33de19e30c33437a052d15db0502a72e28", "name": "Merrimak Capital Corporation (ATM)", "place_id": "ChIJjWk4jJ1-hYAR8MXvMA37c3s", "plus_code": {"compound_code": "VPCM+3H Berkeley, California, United States", "global_code": "849VVPCM+3H"}, "reference": "ChIJjWk4jJ1-hYAR8MXvMA37c3s", "scope": "GOOGLE", "types": ["atm", "finance", "point_of_interest", "establishment"], "vicinity": "2136 Oxford Street, Berkeley"}, "ChIJ0xymmp1-hYAR6XRoxbzmlBU": {"geometry": {"location": {"lat": 37.8697254, "lng": -122.2661901}, "viewport": {"northeast": {"lat": 37.8710247802915, "lng": -122.2648311197085}, "southwest": {"lat": 37.8683268197085, "lng": -122.2675290802915}}}, "icon": "https://maps.gstatic.com/mapfiles/place_api/icons/restaurant-71.png", "id": "421abf34d438039d10513f7e01b2e083d0d73f66", "name": "Sumo Roll", "opening_hours": {"open_now": true}, "photos": [{"height": 2880, "html_attributions": ["<a href=\"https://maps.google.com/maps/contrib/103760694918862163933/photos\">Ekaterina Beliakova</a>"], "photo_reference": "CmRaAAAAoOtxzP6BCMMOmRuUEQFvedfVkCEpssTXW8LCpx3fbg3CnqwM6bPLGbd8Efw6gOqdLQtA8jJiYYTa-IEdUKj2JK2z3NVWxsYlNpvbfxM7XLtH_FEY7GwaDKcujIS9mAsTEhC_gu6YaEW3D9AvByM4u7IDGhQP2XY-A-hjxWVebe2oNe6u_fDe7w", "width": 2160}], "place_id": "ChIJ0xymmp1-hYAR6XRoxbzmlBU", "plus_code": {"compound_code": "VP9M+VG Berkeley, California, United States", "global_code": "849VVP9M+VG"}, "price_level": 1, "rating": 4.4, "reference": "ChIJ0xymmp1-hYAR6XRoxbzmlBU", "scope": "GOOGLE", "types": ["restaurant", "point_of_interest", "food", "establishment"], "vicinity": "2173 Allston Way, Berkeley"}, "ChIJzTNjeyd8hYARxgK7zoGMCOA": {"geometry": {"location": {"lat": 37.8699713, "lng": -122.2651229}, "viewport": {"northeast": {"lat": 37.8713164302915, "lng": -122.2636712697085}, "southwest": {"lat": 37.8686184697085, "lng": -122.2663692302915}}}, "icon": "https://maps.gstatic.com/mapfiles/place_api/icons/generic_business-71.png", "id": "0061a74e790ac22ddf6a95bfa8b64e2e99142b99", "name": "Hellman Tennis Center", "photos": [{"height": 3024, "html_attributions": ["<a href=\"https://maps.google.com/maps/contrib/109922416790390613167/photos\">Denise Dy</a>"], "photo_reference": "CmRaAAAAmkfhCX48xgMykaYalVjRaugjxkAbZH-h7c4w6Yd1f8oSgyy7I_S2cncYGAUd7OCZFATfvfhyOJvCjKaU3YxSEEPdWlIuV2ZgMF9jBYWr4pUPn2HD2QCTabsg5JqfZlZiEhAFNTCBmcJlXLWozcKxhwI8GhQfsF4szIwD5DRXge0VtUrld4cngg", "width": 4032}], "place_id": "ChIJzTNjeyd8hYARxgK7zoGMCOA", "reference": "ChIJzTNjeyd8hYARxgK7zoGMCOA", "scope": "GOOGLE", "types": ["premise", "point_of_interest", "establishment"], "vicinity": "Berkeley"}, "ChIJ00mFOjZ5hYARk-l1ppUV6pQ": {"geometry": {"location": {"lat": 37.8715926, "lng": -122.272747}, "viewport": {"northeast": {"lat": 37.9058239, "lng": -122.234179}, "southwest": {"lat": 37.835727, "lng": -122.367781}}}, "icon": "https://maps.gstatic.com/mapfiles/place_api/icons/geocode-71.png", "id": "00741fe572fc4084428ab206e1a55830f6a1bf0a", "name": "Berkeley", "photos": [{"height": 1080, "html_attributions": ["<a href=\"https://maps.google.com/maps/contrib/110244590763501513798/photos\">miao hsin sun</a>"], "photo_reference": "CmRaAAAAw_nrozU6U2iV4fwYYrujRt-IK_aRo0Y3yuqxaBlU24nmtIkS3ddhoaFRJiaPpUggFEzqM-k56tz9yiKOOeYa31ymyztWbw3sAf1Wn6ziRC1k9ajIQSzb2MkT66dm1AicEhARQHXoecnDLf6MTpLnUnH4GhTkoOXu1f-yzG85_ktj3TF_r0OUuA", "width": 1616}], "place_id": "ChIJ00mFOjZ5hYARk-l1ppUV6pQ", "reference": "ChIJ00mFOjZ5hYARk-l1ppUV6pQ", "scope": "GOOGLE", "types": ["locality", "political"], "vicinity": "Berkeley"}, "ChIJeSmHRCd8hYAR_6GJHu8HdB0": {"geometry": {"location": {"lat": 37.8711829, "lng": -122.2643253}, "viewport": {"northeast": {"lat": 37.8724653802915, "lng": -122.2631272697085}, "southwest": {"lat": 37.8697674197085, "lng": -122.2658252302915}}}, "icon": "https://maps.gstatic.com/mapfiles/place_api/icons/generic_recreational-71.png", "id": "3f7a6b40f0084ec60538daf4a846a1c82872d162", "name": "Eucalyptus Grove/Grinnell Natural Area", "photos": [{"height": 3524, "html_attributions": ["<a href=\"https://maps.google.com/maps/contrib/107206546717363596004/photos\">Stuart Cook</a>"], "photo_reference": "CmRaAAAAB8BOL2g4fQC7ileiU1j0xZV731QRe-JmdIXJW89oJW2w_ZlYhUF6Ten982eVEZS_I8vwBZxLOTFfqGIe0AuD96GHwfC0F7u-ds2JMuFbmy2X0LvQ7aGZIMKtSx6uEkLbEhD0FFqeNIo0tqlx3fC-G7tDGhTY1JOEyjcgJ3IPL5OYqc3mENV9Cw", "width": 2598}], "place_id": "ChIJeSmHRCd8hYAR_6GJHu8HdB0", "reference": "ChIJeSmHRCd8hYAR_6GJHu8HdB0", "scope": "GOOGLE", "types": ["premise", "park", "point_of_interest", "establishment"], "vicinity": "Berkeley"}}