{"ChIJIS_7U3B-hYARIbx8DYOBrjA": {"geometry": {"location": {"lat": 37.84310139999999, "lng": -122.2742386}, "viewport": {"northeast": {"lat": 37.8444447802915, "lng": -122.2728892697085}, "southwest": {"lat": 37.8417468197085, "lng": -122.2755872302915}}}, "icon": "https://maps.gstatic.com/mapfiles/place_api/icons/geocode-71.png", "id": "05f387d192c7c480010c4ec9ecb32e927badbee0", "name": "999-901 58th St", "place_id": "ChIJIS_7U3B-hYARIbx8DYOBrjA", "reference": "ChIJIS_7U3B-hYARIbx8DYOBrjA", "scope": "GOOGLE", "types": ["route"], "vicinity": "Oakland"}, "ChIJ7f5mAHF-hYARBys6vG9LCBY": {"geometry": {"location": {"lat": 37.8428433, "lng": -122.2738365}, "viewport": {"northeast": {"lat": 37.84418798029149, "lng": -122.2724671697085}, "southwest": {"lat": 37.8414900197085, "lng": -122.2751651302915}}}, "icon": "https://maps.gstatic.com/mapfiles/place_api/icons/generic_business-71.png", "id": "8d2f65017c278a25e242428982be5ca865e973bc", "name": "USA Income Tax Services", "place_id": "ChIJ7f5mAHF-hYARBys6vG9LCBY", "plus_code": {"compound_code": "RPVG+4F Oakland, California, United States", "global_code": "849VRPVG+4F"}, "rating": 5, "reference": "ChIJ7f5mAHF-hYARBys6vG9LCBY", "scope": "GOOGLE", "types": ["accounting", "finance", "point_of_interest", "establishment"], "vicinity": "5768 Adeline Street, Oakland"}, "ChIJsVrv_nB-hYARRbNv5vUBM6s": {"geometry": {"location": {"lat": 37.8431995, "lng": -122.2735615}, "viewport": {"northeast": {"lat": 37.8445674802915, "lng": -122.2722901197085}, "southwest": {"lat": 37.8418695197085, "lng": -122.2749880802915}}}, "icon": "https://maps.gstatic.com/mapfiles/place_api/icons/generic_business-71.png", "id": "b277c2c06fb3ad4780dbe82859527c24bfda2c59", "name": "Think Tank INC.", "opening_hours": {"open_now": false}, "photos": [{"height": 1032, "html_attributions": ["<a href=\"https://maps.google.com/maps/contrib/110574294685929556095/photos\">Think Tank INC.</a>"], "photo_reference": "CmRaAAAAar5hmaNIz-awftckTqlJJ9O4eVSRcTuNw8g02ql8abypkEkOZ5Gb4v16eZV5RNxptr04krFVS0vXZ9mPrThi85fxXtMsOiXx1ReY2pNDAZ_4uy6c4cWfTsflUak7_JceEhAZA9_3-D5KCVO7EYPa0Q6UGhTayMn1ftElmtTQlsosH7TYPW4UAA", "width": 1370}], "place_id": "ChIJsVrv_nB-hYARRbNv5vUBM6s", "reference": "ChIJsVrv_nB-hYARRbNv5vUBM6s", "scope": "GOOGLE", "types": ["health", "point_of_interest", "establishment"], "vicinity": "5802 Adeline Street a, Oakland"}, "ChIJaR_vRHB-hYARnogn057UmXg": {"geometry": {"location": {"lat": 37.8434823, "lng": -122.2747211}, "viewport": {"northeast": {"lat": 37.84483128029149, "lng": -122.2733721197085}, "southwest": {"lat": 37.84213331970849, "lng": -122.2760700802915}}}, "icon": "https://maps.gstatic.com/mapfiles/place_api/icons/generic_business-71.png", "id": "9fccf5be602d3da63fc1ff9e0d5ed8da4bcc7e02", "name": "Market Street Barber Shop", "place_id": "ChIJaR_vRHB-hYARnogn057UmXg", "plus_code": {"compound_code": "RPVG+94 Oakland, California, United States", "global_code": "849VRPVG+94"}, "reference": "ChIJaR_vRHB-hYARnogn057UmXg", "scope": "GOOGLE", "types": ["hair_care", "health", "point_of_interest", "establishment"], "vicinity": "Oakland"}, "ChIJA-2qKIt9hYARZ5N1NdUVtHE": {"geometry": {"location": {"lat": 37.8043637, "lng": -122.2711137}, "viewport": {"northeast": {"lat": 37.88472489999999, "lng": -122.114775}, "southwest": {"lat": 37.6322259, "lng": -122.355881}}}, "icon": "https://maps.gstatic.com/mapfiles/place_api/icons/geocode-71.png", "id": "da4a4da21e013f9d3a24e8eee6d4f84de02148d3", "name": "Oakland", "photos": [{"height": 2848, "html_attributions": ["<a href=\"https://maps.google.com/maps/contrib/113300206259949994494/photos\">Cimino Alberto</a>"], "photo_reference": "CmRaAAAAHnfAsJTjd2Y5C8kM7uIcNc0BCjJ2M8PN9Nw7hE5w9B2XWUL0-ux_jeidH-oCggjCFGnc5UfyjNqFxZ8g_UUdkjzKChZDb7dbGN0K1d97J7LHzJ6-xJeFYNIzzOoa5iVeEhBqkXz8Ns4n18Fmq2fYpuihGhQnayFG36T159jpfOzK2ydnQpX0FA", "width": 4256}], "place_id": "ChIJA-2qKIt9hYARZ5N1NdUVtHE", "reference": "ChIJA-2qKIt9hYARZ5N1NdUVtHE", "scope": "GOOGLE", "types": ["locality", "political"], "vicinity": "Oakland"}}