{"ChIJDeH2dEJ-hYAR55jr7zUZ9nw": {"geometry": {"location": {"lat": 37.8374992, "lng": -122.2882385}, "viewport": {"northeast": {"lat": 37.83908780000006, "lng": -122.2869528697085}, "southwest": {"lat": 37.83587019999995, "lng": -122.2896508302915}}}, "icon": "https://maps.gstatic.com/mapfiles/place_api/icons/geocode-71.png", "id": "593475405d2b1c21de89148816d9ded0840e823e", "name": "5659-5399 Hollis St", "place_id": "ChIJDeH2dEJ-hYAR55jr7zUZ9nw", "reference": "ChIJDeH2dEJ-hYAR55jr7zUZ9nw", "scope": "GOOGLE", "types": ["route"], "vicinity": "Emeryville"}, "ChIJK5_ljH9V0VQRuid8AAAzgr8": {"geometry": {"location": {"lat": 37.83797759999999, "lng": -122.2884357}, "viewport": {"northeast": {"lat": 37.8393091802915, "lng": -122.2871302697085}, "southwest": {"lat": 37.8366112197085, "lng": -122.2898282302915}}}, "icon": "https://maps.gstatic.com/mapfiles/place_api/icons/generic_business-71.png", "id": "c9f18ebe65758318127ede609558ff61136c103d", "name": "Grocery Outlet Headquarters", "place_id": "ChIJK5_ljH9V0VQRuid8AAAzgr8", "plus_code": {"compound_code": "RPQ6+5J Emeryville, California, United States", "global_code": "849VRPQ6+5J"}, "price_level": 1, "rating": 3.1, "reference": "ChIJK5_ljH9V0VQRuid8AAAzgr8", "scope": "GOOGLE", "types": ["point_of_interest", "establishment"], "vicinity": "5650 Hollis Street, Emeryville"}, "ChIJ48Fi3ml-hYARA6fjMcsuN3U": {"geometry": {"location": {"lat": 37.8376511, "lng": -122.287768}, "viewport": {"northeast": {"lat": 37.8389097302915, "lng": -122.2866450197085}, "southwest": {"lat": 37.8362117697085, "lng": -122.2893429802915}}}, "icon": "https://maps.gstatic.com/mapfiles/place_api/icons/generic_business-71.png", "id": "e80d3c03303b4d1fcbf76608f2b874300d699924", "name": "Emeryville Bayer Healthcare Pharmaceuticals", "place_id": "ChIJ48Fi3ml-hYARA6fjMcsuN3U", "plus_code": {"compound_code": "RPQ6+3V Emeryville, California, United States", "global_code": "849VRPQ6+3V"}, "reference": "ChIJ48Fi3ml-hYARA6fjMcsuN3U", "scope": "GOOGLE", "types": ["point_of_interest", "establishment"], "vicinity": "5650 Hollis Street, Emeryville"}, "ChIJN5EvfUJ-hYARQUqbnD9xQek": {"geometry": {"location": {"lat": 37.8382834, "lng": -122.2887411}, "viewport": {"northeast": {"lat": 37.8396323802915, "lng": -122.2873921197085}, "southwest": {"lat": 37.83693441970851, "lng": -122.2900900802915}}}, "icon": "https://maps.gstatic.com/mapfiles/place_api/icons/generic_business-71.png", "id": "2129fea7c6da1f8b3a0348290fbcf6e2c2f2fffc", "name": "Best Inn Collison Oakland", "place_id": "ChIJN5EvfUJ-hYARQUqbnD9xQek", "plus_code": {"compound_code": "RPQ6+8G Emeryville, California, United States", "global_code": "849VRPQ6+8G"}, "reference": "ChIJN5EvfUJ-hYARQUqbnD9xQek", "scope": "GOOGLE", "types": ["gym", "health", "point_of_interest", "establishment"], "vicinity": "5650 Spur Alley, Emeryville"}, "ChIJs44f6hR-hYARB3GwqDEYHUg": {"geometry": {"location": {"lat": 37.831316, "lng": -122.2852473}, "viewport": {"northeast": {"lat": 37.8499259, "lng": -122.276123}, "southwest": {"lat": 37.8268948, "lng": -122.3154701}}}, "icon": "https://maps.gstatic.com/mapfiles/place_api/icons/geocode-71.png", "id": "50264385d03c71c7c39b656a05a99231106dfb05", "name": "Emeryville", "photos": [{"height": 3024, "html_attributions": ["<a href=\"https://maps.google.com/maps/contrib/105925452919882592532/photos\">Rene&#39; Bennett</a>"], "photo_reference": "CmRaAAAA4jIsC2URuV9uKriGEeJ8uN3eYr1hoTncqlMs14skUCifmJkAHj3FHwMUymO2qpOGNG-DzXe9mXYrzy5HbAE6lnjXWJDycBP_Vjq8tumf-sNC-2nhg-RKBqC29HpC5tDjEhDkT8fe9_bz-UxG2D6VYZv4GhTL9CUQqZgoon-_dK7gpKdS0vN_eg", "width": 4032}], "place_id": "ChIJs44f6hR-hYARB3GwqDEYHUg", "reference": "ChIJs44f6hR-hYARB3GwqDEYHUg", "scope": "GOOGLE", "types": ["locality", "political"], "vicinity": "Emeryville"}}