{"ChIJ4wF9jyV8hYARdeeTC05dBMs": {"geometry": {"location": {"lat": 37.8697934, "lng": -122.2576097}, "viewport": {"northeast": {"lat": 37.8711388802915, "lng": -122.2562555697085}, "southwest": {"lat": 37.8684409197085, "lng": -122.2589535302915}}}, "icon": "https://maps.gstatic.com/mapfiles/place_api/icons/geocode-71.png", "id": "651bc08a834ae82c8b7a1013169a00ca724c8a93", "name": "South Hall Road", "place_id": "ChIJ4wF9jyV8hYARdeeTC05dBMs", "reference": "ChIJ4wF9jyV8hYARdeeTC05dBMs", "scope": "GOOGLE", "types": ["route"], "vicinity": "Berkeley"}, "ChIJ3TaKkSV8hYARzzdYBpjoC7w": {"geometry": {"location": {"lat": 37.8700408, "lng": -122.2576521}, "viewport": {"northeast": {"lat": 37.8713897802915, "lng": -122.2563031197085}, "southwest": {"lat": 37.8686918197085, "lng": -122.2590010802915}}}, "icon": "https://maps.gstatic.com/mapfiles/place_api/icons/school-71.png", "id": "5c81c53777812c3d7bfab279b8ecb1fd5d192e00", "name": "Energy and Resources Group (ERG)", "place_id": "ChIJ3TaKkSV8hYARzzdYBpjoC7w", "plus_code": {"compound_code": "VPCR+2W Berkeley, California, United States", "global_code": "849VVPCR+2W"}, "reference": "ChIJ3TaKkSV8hYARzzdYBpjoC7w", "scope": "GOOGLE", "types": ["university", "point_of_interest", "establishment"], "vicinity": "310 Barrows Hall, Berkeley"}, "ChIJVVWVkyV8hYARjPDObeQ0WoM": {"geometry": {"location": {"lat": 37.8700303, "lng": -122.2581017}, "viewport": {"northeast": {"lat": 37.8713505802915, "lng": -122.2569826697085}, "southwest": {"lat": 37.8686526197085, "lng": -122.2596806302915}}}, "icon": "https://maps.gstatic.com/mapfiles/place_api/icons/school-71.png", "id": "d1a749a30cf98e1464edb237b1c0b296f5dc864e", "name": "Department of Ethnic Studies", "place_id": "ChIJVVWVkyV8hYARjPDObeQ0WoM", "plus_code": {"compound_code": "VPCR+2Q Berkeley, California, United States", "global_code": "849VVPCR+2Q"}, "rating": 3, "reference": "ChIJVVWVkyV8hYARjPDObeQ0WoM", "scope": "GOOGLE", "types": ["university", "point_of_interest", "establishment"], "vicinity": "506 Barrow Lane, Berkeley"}, "ChIJVVWVkyV8hYARnf_U4eYzrFM": {"geometry": {"location": {"lat": 37.8700626, "lng": -122.2580314}, "viewport": {"northeast": {"lat": 37.87141158029149, "lng": -122.2566824197085}, "southwest": {"lat": 37.86871361970849, "lng": -122.2593803802915}}}, "icon": "https://maps.gstatic.com/mapfiles/place_api/icons/generic_business-71.png", "id": "07bcd8cbe8a9fa9bda3d16159bcac38c99b373a9", "name": "KALX-FM", "photos": [{"height": 3264, "html_attributions": ["<a href=\"https://maps.google.com/maps/contrib/103462562809337193668/photos\">Dan Joseph</a>"], "photo_reference": "CmRaAAAAon2MoB2bzN7GaJDHDGvkj4HQsbFO4tqDQwCReU89koauoRtoMm6Regl5-XeCrjtCeyoikdhmGP4l36bsuvcgjOr5SDTYnCVfzi1diX3L9CR-2LH0mKBdSUlMF07kyBqoEhBFbEPnrV6yRcmUgKLMrZrjGhTvqDGBfmWgLvcAzfzkhozLUkWdmA", "width": 2448}], "place_id": "ChIJVVWVkyV8hYARnf_U4eYzrFM", "plus_code": {"compound_code": "VPCR+2Q Berkeley, California, United States", "global_code": "849VVPCR+2Q"}, "rating": 4.6, "reference": "ChIJVVWVkyV8hYARnf_U4eYzrFM", "scope": "GOOGLE", "types": ["point_of_interest", "establishment"], "vicinity": "26 Barrows Hall, Berkeley"}, "ChIJAQCwAyZ8hYARVRkhqoRl7d8": {"geometry": {"location": {"lat": 37.86963679999999, "lng": -122.2569697}, "viewport": {"northeast": {"lat": 37.8709857802915, "lng": -122.2556207197085}, "southwest": {"lat": 37.8682878197085, "lng": -122.2583186802915}}}, "icon": "https://maps.gstatic.com/mapfiles/place_api/icons/school-71.png", "id": "ddb6f9fc82744d1d59119b4a709188452a49ea54", "name": "Associated Students-Univer-Ca", "place_id": "ChIJAQCwAyZ8hYARVRkhqoRl7d8", "plus_code": {"compound_code": "VP9V+V6 Berkeley, California, United States", "global_code": "849VVP9V+V6"}, "reference": "ChIJAQCwAyZ8hYARVRkhqoRl7d8", "scope": "GOOGLE", "types": ["university", "point_of_interest", "establishment"], "vicinity": "400 Eshleman Road, Berkeley"}, "ChIJr1BjiCV8hYARY8m1PpJv_ak": {"geometry": {"location": {"lat": 37.8694898, "lng": -122.257637}, "viewport": {"northeast": {"lat": 37.8708387802915, "lng": -122.2562880197085}, "southwest": {"lat": 37.8681408197085, "lng": -122.2589859802915}}}, "icon": "https://maps.gstatic.com/mapfiles/place_api/icons/school-71.png", "id": "fb94c8e770332a0a669f2b35594b161b09473b5c", "name": "Hearst Field Annex B", "place_id": "ChIJr1BjiCV8hYARY8m1PpJv_ak", "plus_code": {"compound_code": "VP9R+QW Berkeley, California, United States", "global_code": "849VVP9R+QW"}, "reference": "ChIJr1BjiCV8hYARY8m1PpJv_ak", "scope": "GOOGLE", "types": ["point_of_interest", "establishment"], "vicinity": "Berkeley"}, "ChIJnyjWfC98hYARANOILDAlTvw": {"geometry": {"location": {"lat": 37.86923219999999, "lng": -122.2575595}, "viewport": {"northeast": {"lat": 37.8704404802915, "lng": -122.2560972697085}, "southwest": {"lat": 37.8677425197085, "lng": -122.2587952302915}}}, "icon": "https://maps.gstatic.com/mapfiles/place_api/icons/school-71.png", "id": "1455b2e96598694cc8e7d96d387679c374f6fd7a", "name": "Hearst Field Annex", "place_id": "ChIJnyjWfC98hYARANOILDAlTvw", "plus_code": {"compound_code": "VP9R+MX Berkeley, California, United States", "global_code": "849VVP9R+MX"}, "reference": "ChIJnyjWfC98hYARANOILDAlTvw", "scope": "GOOGLE", "types": ["point_of_interest", "establishment"], "vicinity": "2545-2581 Bancroft Way, Berkeley"}, "ChIJw2aAkyV8hYARveDYRjYv-HM": {"geometry": {"location": {"lat": 37.8700322, "lng": -122.2579888}, "viewport": {"northeast": {"lat": 37.8715505302915, "lng": -122.2566826697085}, "southwest": {"lat": 37.8688525697085, "lng": -122.2593806302915}}}, "icon": "https://maps.gstatic.com/mapfiles/place_api/icons/school-71.png", "id": "2ddf6991ce84e79b6f9b7088f88e66ab8eeda878", "name": "Barrows Hall", "photos": [{"height": 4032, "html_attributions": ["<a href=\"https://maps.google.com/maps/contrib/115527032762725635097/photos\">Said Mai</a>"], "photo_reference": "CmRaAAAA9WSpZInG1kU5NX91hX3dDEMse1MXrTWE5YJVfOtQTlXZigPB28uzZBGnOdLWMjoD3O0h0O6Xj96Pe2ZgGeZn3ya_1-kpXIVGcQGPN-TF2w3lpQqSBi_KEeAfWjFmdxN0EhA6WJLZ1p2-6aW5gE6sUwmqGhQcRjplGU5c7WnbnI0Oo7kzP2qppw", "width": 3024}], "place_id": "ChIJw2aAkyV8hYARveDYRjYv-HM", "plus_code": {"compound_code": "VPCR+2R Berkeley, California, United States", "global_code": "849VVPCR+2R"}, "rating": 3.5, "reference": "ChIJw2aAkyV8hYARveDYRjYv-HM", "scope": "GOOGLE", "types": ["point_of_interest", "establishment"], "vicinity": "Berkeley"}, "ChIJMRal7CV8hYARFjcHTGFBtwM": {"geometry": {"location": {"lat": 37.8700322, "lng": -122.2579888}, "viewport": {"northeast": {"lat": 37.8713811802915, "lng": -122.2566398197085}, "southwest": {"lat": 37.8686832197085, "lng": -122.2593377802915}}}, "icon": "https://maps.gstatic.com/mapfiles/place_api/icons/school-71.png", "id": "36e25039ca600f80471c116fe8e66f0f45186b29", "name": "Department of Sociology", "place_id": "ChIJMRal7CV8hYARFjcHTGFBtwM", "plus_code": {"compound_code": "VPCR+2R Berkeley, California, United States", "global_code": "849VVPCR+2R"}, "rating": 5, "reference": "ChIJMRal7CV8hYARFjcHTGFBtwM", "scope": "GOOGLE", "types": ["point_of_interest", "establishment"], "vicinity": "410 Barrows Hall, Berkeley"}, "ChIJDTOilCV8hYAR8MDRl8DCp-I": {"geometry": {"location": {"lat": 37.8700322, "lng": -122.2579888}, "viewport": {"northeast": {"lat": 37.8713455802915, "lng": -122.2569250197085}, "southwest": {"lat": 37.8686476197085, "lng": -122.2596229802915}}}, "icon": "https://maps.gstatic.com/mapfiles/place_api/icons/school-71.png", "id": "586ae2fa0750103cded95a1d6fa980e65106f14b", "name": "University of California Gender & Women\u2019s Studies", "place_id": "ChIJDTOilCV8hYAR8MDRl8DCp-I", "plus_code": {"compound_code": "VPCR+2R Berkeley, California, United States", "global_code": "849VVPCR+2R"}, "reference": "ChIJDTOilCV8hYAR8MDRl8DCp-I", "scope": "GOOGLE", "types": ["point_of_interest", "establishment"], "vicinity": "Barrows Hall, 608 Barrow Lane, Berkeley"}, "ChIJ5Req7CV8hYARSRPzeZr2jN8": {"geometry": {"location": {"lat": 37.8700322, "lng": -122.2579888}, "viewport": {"northeast": {"lat": 37.8713811802915, "lng": -122.2566398197085}, "southwest": {"lat": 37.8686832197085, "lng": -122.2593377802915}}}, "icon": "https://maps.gstatic.com/mapfiles/place_api/icons/school-71.png", "id": "43b630fb5f2de2ab2fc2369f3dbc3fd8e972709d", "name": "Department of Political Science", "place_id": "ChIJ5Req7CV8hYARSRPzeZr2jN8", "plus_code": {"compound_code": "VPCR+2R Berkeley, California, United States", "global_code": "849VVPCR+2R"}, "rating": 5, "reference": "ChIJ5Req7CV8hYARSRPzeZr2jN8", "scope": "GOOGLE", "types": ["point_of_interest", "establishment"], "vicinity": "210 Barrows Hall #1950, Berkeley"}, "ChIJVVWVkyV8hYAR4ImCVGoAa_M": {"geometry": {"location": {"lat": 37.8700626, "lng": -122.2580314}, "viewport": {"northeast": {"lat": 37.87141158029149, "lng": -122.2566824197085}, "southwest": {"lat": 37.86871361970849, "lng": -122.2593803802915}}}, "icon": "https://maps.gstatic.com/mapfiles/place_api/icons/school-71.png", "id": "f72497d303cf4d88a1c8017852036ddb6a966fdf", "name": "Beatrice M Bain Research Group", "place_id": "ChIJVVWVkyV8hYAR4ImCVGoAa_M", "plus_code": {"compound_code": "VPCR+2Q Berkeley, California, United States", "global_code": "849VVPCR+2Q"}, "reference": "ChIJVVWVkyV8hYAR4ImCVGoAa_M", "scope": "GOOGLE", "types": ["university", "point_of_interest", "establishment"], "vicinity": "616 Barrows Hall # 2050, Berkeley"}, "ChIJq6qqgS98hYARJILM6o4fj4I": {"geometry": {"location": {"lat": 37.869523, "lng": -122.2569321}, "viewport": {"northeast": {"lat": 37.8708719802915, "lng": -122.2555831197085}, "southwest": {"lat": 37.8681740197085, "lng": -122.2582810802915}}}, "icon": "https://maps.gstatic.com/mapfiles/place_api/icons/civic_building-71.png", "id": "a1c3ca91349cde32bbce82ac1fe73358e976d4c2", "name": "US Air Force ROTC", "opening_hours": {"open_now": false}, "photos": [{"height": 611, "html_attributions": ["<a href=\"https://maps.google.com/maps/contrib/116391697324704497086/photos\">US Air Force ROTC</a>"], "photo_reference": "CmRaAAAALo_2mw9VI7ixZhm4695pcCdPXgYMr5AMkz3APxBSZl4o3Pf6bSCsL71mOlrcDDNQvdnhlPk3_RA0brsyG1lbtRgQmdjfYBwZfGNsYkOOEoq4NW-6sZCFqMkwDiwQ8a1HEhDREkl89MacA4FVuV7xOmTHGhTUwtyTXQO0xTthO9i5X-jmvj0RuQ", "width": 534}], "place_id": "ChIJq6qqgS98hYARJILM6o4fj4I", "plus_code": {"compound_code": "VP9V+R6 Berkeley, California, United States", "global_code": "849VVP9V+R6"}, "reference": "ChIJq6qqgS98hYARJILM6o4fj4I", "scope": "GOOGLE", "types": ["point_of_interest", "establishment"], "vicinity": "176 Hearst Gymnasium, Berkeley"}, "ChIJlaiplCV8hYARmr61UxkQxmQ": {"geometry": {"location": {"lat": 37.8700229, "lng": -122.2581097}, "viewport": {"northeast": {"lat": 37.8713718802915, "lng": -122.2567607197085}, "southwest": {"lat": 37.8686739197085, "lng": -122.2594586802915}}}, "icon": "https://maps.gstatic.com/mapfiles/place_api/icons/school-71.png", "id": "b74130fb2914bc7f4966ccd512d85da9e8f7649d", "name": "UC Berkeley Department of Near Eastern Studies", "place_id": "ChIJlaiplCV8hYARmr61UxkQxmQ", "plus_code": {"compound_code": "VPCR+2Q Berkeley, California, United States", "global_code": "849VVPCR+2Q"}, "reference": "ChIJlaiplCV8hYARmr61UxkQxmQ", "scope": "GOOGLE", "types": ["point_of_interest", "establishment"], "vicinity": "Barrows Hall, #250, Berkeley"}, "ChIJkaIwgCV8hYAREuqCJDO_BQc": {"geometry": {"location": {"lat": 37.8696844, "lng": -122.2569422}, "viewport": {"northeast": {"lat": 37.8710333802915, "lng": -122.2555932197085}, "southwest": {"lat": 37.8683354197085, "lng": -122.2582911802915}}}, "icon": "https://maps.gstatic.com/mapfiles/place_api/icons/generic_business-71.png", "id": "f738ab97a39de3651211fca78674a81bbe7057db", "name": "Hearst Gym Pool", "opening_hours": {"open_now": true}, "photos": [{"height": 3264, "html_attributions": ["<a href=\"https://maps.google.com/maps/contrib/117287304100498502328/photos\">JC</a>"], "photo_reference": "CmRaAAAALY6NOBCcjs4DQPfGHEEeGNtajDSc7GUvjOxYWG3tnw0hEdugI5DG0jvunnoI4GB68BAtjmt7J6NwTkvrugPPtpWe93YfYlb87W2tVSUjESIuIZ_aLiyzCHoAqJ16gby9EhDlCyykO5FeQ6znp-3vsaG4GhSIkWZZ53KM_b1IiQFhVuA6dIA8zQ", "width": 2448}], "place_id": "ChIJkaIwgCV8hYAREuqCJDO_BQc", "plus_code": {"compound_code": "VP9V+V6 Berkeley, California, United States", "global_code": "849VVP9V+V6"}, "rating": 4.7, "reference": "ChIJkaIwgCV8hYAREuqCJDO_BQc", "scope": "GOOGLE", "types": ["point_of_interest", "establishment"], "vicinity": "Bancroft Way & Bowditch St, Berkeley"}, "ChIJSaExA3x9hYARIEQnnhraw2E": {"geometry": {"location": {"lat": 37.8696918, "lng": -122.2574735}, "viewport": {"northeast": {"lat": 37.8710407802915, "lng": -122.2561245197085}, "southwest": {"lat": 37.8683428197085, "lng": -122.2588224802915}}}, "icon": "https://maps.gstatic.com/mapfiles/place_api/icons/generic_business-71.png", "id": "2f978b9c0e98a50e779b2c77fcc1ac835b48cd6a", "name": "Cal Veteran Services Center", "place_id": "ChIJSaExA3x9hYARIEQnnhraw2E", "plus_code": {"compound_code": "VP9V+V2 Berkeley, California, United States", "global_code": "849VVP9V+V2"}, "reference": "ChIJSaExA3x9hYARIEQnnhraw2E", "scope": "GOOGLE", "types": ["point_of_interest", "establishment"], "vicinity": "Hearst Memorial Gymnasium, 102, Berkeley"}, "ChIJfy7RhSV8hYARYMkEMop6FGE": {"geometry": {"location": {"lat": 37.8697349, "lng": -122.2574439}, "viewport": {"northeast": {"lat": 37.87108388029149, "lng": -122.2560949197085}, "southwest": {"lat": 37.86838591970849, "lng": -122.2587928802915}}}, "icon": "https://maps.gstatic.com/mapfiles/place_api/icons/school-71.png", "id": "6d913315eff4dd33ca09ba091a691d613e2b3900", "name": "XLab Berkeley (Experimental Social Science Laboratory)", "place_id": "ChIJfy7RhSV8hYARYMkEMop6FGE", "plus_code": {"compound_code": "VP9V+V2 Berkeley, California, United States", "global_code": "849VVP9V+V2"}, "reference": "ChIJfy7RhSV8hYARYMkEMop6FGE", "scope": "GOOGLE", "types": ["university", "point_of_interest", "establishment"], "vicinity": "Berkeley"}, "ChIJRRx7iyV8hYAR7OivhugRT68": {"geometry": {"location": {"lat": 37.8694693, "lng": -122.2581587}, "viewport": {"northeast": {"lat": 37.87081828029149, "lng": -122.2568097197085}, "southwest": {"lat": 37.8681203197085, "lng": -122.2595076802915}}}, "icon": "https://maps.gstatic.com/mapfiles/place_api/icons/school-71.png", "id": "9ca6d7513d31fc920ee9f0928be50f5406b46466", "name": "Hearst Field Annex Building D", "place_id": "ChIJRRx7iyV8hYAR7OivhugRT68", "plus_code": {"compound_code": "VP9R+QP Berkeley, California, United States", "global_code": "849VVP9R+QP"}, "reference": "ChIJRRx7iyV8hYAR7OivhugRT68", "scope": "GOOGLE", "types": ["point_of_interest", "establishment"], "vicinity": "Hearst Field Annex, Berkeley"}, "ChIJq8C4gZB9hYARzgVSYUBkbtQ": {"geometry": {"location": {"lat": 37.8697022, "lng": -122.258211}, "viewport": {"northeast": {"lat": 37.8710511802915, "lng": -122.2568620197085}, "southwest": {"lat": 37.8683532197085, "lng": -122.2595599802915}}}, "icon": "https://maps.gstatic.com/mapfiles/place_api/icons/generic_business-71.png", "id": "710288ed970e54f7838c22298fe1e25a1984761b", "name": "Hearst Field Annex D1", "place_id": "ChIJq8C4gZB9hYARzgVSYUBkbtQ", "plus_code": {"compound_code": "VP9R+VP Berkeley, California, United States", "global_code": "849VVP9R+VP"}, "reference": "ChIJq8C4gZB9hYARzgVSYUBkbtQ", "scope": "GOOGLE", "types": ["point_of_interest", "establishment"], "vicinity": "Berkeley"}, "ChIJ00mFOjZ5hYARk-l1ppUV6pQ": {"geometry": {"location": {"lat": 37.8715926, "lng": -122.272747}, "viewport": {"northeast": {"lat": 37.9058239, "lng": -122.234179}, "southwest": {"lat": 37.835727, "lng": -122.367781}}}, "icon": "https://maps.gstatic.com/mapfiles/place_api/icons/geocode-71.png", "id": "00741fe572fc4084428ab206e1a55830f6a1bf0a", "name": "Berkeley", "photos": [{"height": 1080, "html_attributions": ["<a href=\"https://maps.google.com/maps/contrib/110244590763501513798/photos\">miao hsin sun</a>"], "photo_reference": "CmRaAAAAJN3v7NI1820Z8ru7_6UyB6FziQGBY92RD8v_ExVumwz9GC9JYCx9YqvX-MskUUYqerxT7dK1zUVVpWtUxlnam3lwzq7NkKOYypt5bNonQXqRKNdJZNiXWeJZsEamD_pEEhDPPOi0JCvB_Xe6nlGtdQLIGhT2SmsxjdBpqSvbuNNu_YTETLadZw", "width": 1616}], "place_id": "ChIJ00mFOjZ5hYARk-l1ppUV6pQ", "reference": "ChIJ00mFOjZ5hYARk-l1ppUV6pQ", "scope": "GOOGLE", "types": ["locality", "political"], "vicinity": "Berkeley"}, "ChIJkwJwkSV8hYAR7aANRmBjgns": {"geometry": {"location": {"lat": 37.8700598, "lng": -122.2578979}, "viewport": {"northeast": {"lat": 37.8716212802915, "lng": -122.2566554697085}, "southwest": {"lat": 37.8689233197085, "lng": -122.2593534302915}}}, "icon": "https://maps.gstatic.com/mapfiles/place_api/icons/school-71.png", "id": "6a22f9f30f2b0e3ba224c8d3788a9b1e2489c761", "name": "Barrows Hall- Event Venue", "place_id": "ChIJkwJwkSV8hYAR7aANRmBjgns", "plus_code": {"compound_code": "VPCR+2R Berkeley, California, United States", "global_code": "849VVPCR+2R"}, "reference": "ChIJkwJwkSV8hYAR7aANRmBjgns", "scope": "GOOGLE", "types": ["university", "point_of_interest", "establishment"], "vicinity": "Eshleman Road, Berkeley"}}