{"ChIJ-b0zBDF8hYARIw73BEhyX7c": {"geometry": {"location": {"lat": 37.8686351, "lng": -122.2507934}, "viewport": {"northeast": {"lat": 37.87000270000006, "lng": -122.2494444697085}, "southwest": {"lat": 37.86726749999995, "lng": -122.2521424302915}}}, "icon": "https://maps.gstatic.com/mapfiles/place_api/icons/geocode-71.png", "id": "ad75dfe303f765e91466953f07a88c1d9141e1d8", "name": "2399-2301 Warring St", "place_id": "ChIJ-b0zBDF8hYARIw73BEhyX7c", "reference": "ChIJ-b0zBDF8hYARIw73BEhyX7c", "scope": "GOOGLE", "types": ["route"], "vicinity": "Berkeley"}, "ChIJITF5VTB8hYARYJU4-vwsQeg": {"geometry": {"location": {"lat": 37.8690927, "lng": -122.2511424}, "viewport": {"northeast": {"lat": 37.8704572802915, "lng": -122.2496674697085}, "southwest": {"lat": 37.8677593197085, "lng": -122.2523654302915}}}, "icon": "https://maps.gstatic.com/mapfiles/place_api/icons/generic_business-71.png", "id": "d40764aa70ac187ba317e56ad16ff56725f8cb1f", "name": "Delta Delta Delta Sorority", "place_id": "ChIJITF5VTB8hYARYJU4-vwsQeg", "plus_code": {"compound_code": "VP9X+JG Berkeley, California, United States", "global_code": "849VVP9X+JG"}, "rating": 3.5, "reference": "ChIJITF5VTB8hYARYJU4-vwsQeg", "scope": "GOOGLE", "types": ["point_of_interest", "establishment"], "vicinity": "2300 Warring Street, Berkeley"}, "ChIJz3K4ADF8hYARtdb4wZA8RI4": {"geometry": {"location": {"lat": 37.8687222, "lng": -122.2510759}, "viewport": {"northeast": {"lat": 37.8700711802915, "lng": -122.2497269197085}, "southwest": {"lat": 37.8673732197085, "lng": -122.2524248802915}}}, "icon": "https://maps.gstatic.com/mapfiles/place_api/icons/school-71.png", "id": "d7a0fd32391bab20720e4fa3622930fea940a969", "name": "Lambda Phi Epsilon", "place_id": "ChIJz3K4ADF8hYARtdb4wZA8RI4", "plus_code": {"compound_code": "VP9X+FH Berkeley, California, United States", "global_code": "849VVP9X+FH"}, "rating": 5, "reference": "ChIJz3K4ADF8hYARtdb4wZA8RI4", "scope": "GOOGLE", "types": ["university", "point_of_interest", "establishment"], "vicinity": "Berkeley"}, "ChIJr342UjB8hYARF1M0K6KXW5k": {"geometry": {"location": {"lat": 37.8690785, "lng": -122.2517432}, "viewport": {"northeast": {"lat": 37.8704227802915, "lng": -122.2505892697085}, "southwest": {"lat": 37.8677248197085, "lng": -122.2532872302915}}}, "icon": "https://maps.gstatic.com/mapfiles/place_api/icons/generic_business-71.png", "id": "a56bb5996941871f8bde71ee3aa8193408cedf5b", "name": "Sigma Phi Society", "opening_hours": {"open_now": true}, "photos": [{"height": 1536, "html_attributions": ["<a href=\"https://maps.google.com/maps/contrib/100520645160774266320/photos\">sowparnika k</a>"], "photo_reference": "CmRaAAAAPOcmM1NE7uxxT-522BV5RpOT-sCtMpvTRq_6TTVEhvjMgFod5qUAYRuH8oJeHR8pWLGiUuQCiZR28oGki7gk1x4RYeQlALeOA2PES8BqA5WeHCusHIU6c7aaxZc7f6ReEhAQM4FUbim_0Ipvuon8d3BzGhRwJVsMaoIgHOAehNCtsGYvfOUXDQ", "width": 2048}], "place_id": "ChIJr342UjB8hYARF1M0K6KXW5k", "plus_code": {"compound_code": "VP9X+J8 Berkeley, California, United States", "global_code": "849VVP9X+J8"}, "rating": 5, "reference": "ChIJr342UjB8hYARF1M0K6KXW5k", "scope": "GOOGLE", "types": ["lawyer", "point_of_interest", "establishment"], "vicinity": "2307 Piedmont Avenue, Berkeley"}, "ChIJ8Q0kGzF8hYARuP6boWG5gAM": {"geometry": {"location": {"lat": 37.8687566, "lng": -122.2504426}, "viewport": {"northeast": {"lat": 37.8700829302915, "lng": -122.2492766197085}, "southwest": {"lat": 37.8673849697085, "lng": -122.2519745802915}}}, "icon": "https://maps.gstatic.com/mapfiles/place_api/icons/generic_business-71.png", "id": "2e002072a6f27cfe4e2c392e7a8d2e70a8fd75f7", "name": "Alpha Chi Omega", "place_id": "ChIJ8Q0kGzF8hYARuP6boWG5gAM", "plus_code": {"compound_code": "VP9X+GR Berkeley, California, United States", "global_code": "849VVP9X+GR"}, "rating": 5, "reference": "ChIJ8Q0kGzF8hYARuP6boWG5gAM", "scope": "GOOGLE", "types": ["point_of_interest", "establishment"], "vicinity": "2313 Warring Street, Berkeley"}, "ChIJmd4yHTF8hYAR8QwIcG06STk": {"geometry": {"location": {"lat": 37.8690568, "lng": -122.2504953}, "viewport": {"northeast": {"lat": 37.8704268802915, "lng": -122.2489758197085}, "southwest": {"lat": 37.8677289197085, "lng": -122.2516737802915}}}, "icon": "https://maps.gstatic.com/mapfiles/place_api/icons/generic_business-71.png", "id": "ea7aaa84c050424f7d4663f5860b8256ae110189", "name": "POC Theme House", "place_id": "ChIJmd4yHTF8hYAR8QwIcG06STk", "plus_code": {"compound_code": "VP9X+JR Berkeley, California, United States", "global_code": "849VVP9X+JR"}, "reference": "ChIJmd4yHTF8hYAR8QwIcG06STk", "scope": "GOOGLE", "types": ["point_of_interest", "establishment"], "vicinity": "2310 Prospect Street, Berkeley"}, "ChIJ6Us9FzF8hYAROptzwG1JPg0": {"geometry": {"location": {"lat": 37.8690987, "lng": -122.2504079}, "viewport": {"northeast": {"lat": 37.8704630302915, "lng": -122.2489351197085}, "southwest": {"lat": 37.8677650697085, "lng": -122.2516330802915}}}, "icon": "https://maps.gstatic.com/mapfiles/place_api/icons/generic_business-71.png", "id": "4e37025a28f4b07b9bb16b4ece46d28bee958860", "name": "Berkeley Student Cooperative - Andres Castro Arms", "opening_hours": {"open_now": true}, "place_id": "ChIJ6Us9FzF8hYAROptzwG1JPg0", "plus_code": {"compound_code": "VP9X+JR Berkeley, California, United States", "global_code": "849VVP9X+JR"}, "rating": 4, "reference": "ChIJ6Us9FzF8hYAROptzwG1JPg0", "scope": "GOOGLE", "types": ["point_of_interest", "establishment"], "vicinity": "2310 Prospect Street, Berkeley"}, "ChIJoXo6BjF8hYARl9njdS76AU0": {"geometry": {"location": {"lat": 37.86846389999999, "lng": -122.2509848}, "viewport": {"northeast": {"lat": 37.86982648029149, "lng": -122.2495258697085}, "southwest": {"lat": 37.86712851970849, "lng": -122.2522238302915}}}, "icon": "https://maps.gstatic.com/mapfiles/place_api/icons/school-71.png", "id": "4d5adfe988aafc7f4ccc72ceddca5b5a9955e0b5", "name": "Barrows House at UC Berkeley", "place_id": "ChIJoXo6BjF8hYARl9njdS76AU0", "plus_code": {"compound_code": "VP9X+9J Berkeley, California, United States", "global_code": "849VVP9X+9J"}, "reference": "ChIJoXo6BjF8hYARl9njdS76AU0", "scope": "GOOGLE", "types": ["school", "point_of_interest", "establishment"], "vicinity": "2320 Warring Street, Berkeley"}, "ChIJ00mFOjZ5hYARk-l1ppUV6pQ": {"geometry": {"location": {"lat": 37.8715926, "lng": -122.272747}, "viewport": {"northeast": {"lat": 37.9058239, "lng": -122.234179}, "southwest": {"lat": 37.835727, "lng": -122.367781}}}, "icon": "https://maps.gstatic.com/mapfiles/place_api/icons/geocode-71.png", "id": "00741fe572fc4084428ab206e1a55830f6a1bf0a", "name": "Berkeley", "photos": [{"height": 1080, "html_attributions": ["<a href=\"https://maps.google.com/maps/contrib/110244590763501513798/photos\">miao hsin sun</a>"], "photo_reference": "CmRaAAAAgLzdjWJSXNUB8e4bhLH-EwMmW3jqFW_k1QGz94w7x-b-ZWWqGM7lguwynsJFhWAH9l_irbZ5PzN1RQ55KO_aeR-nnK5CkJi6tW7D7IHfDHWx51VPUV0QX-s3BxzzeUG3EhBxEirE7N2RjirHPHYGm0hlGhQPv823XeGjaybEzhIE8WByZzPTuw", "width": 1616}], "place_id": "ChIJ00mFOjZ5hYARk-l1ppUV6pQ", "reference": "ChIJ00mFOjZ5hYARk-l1ppUV6pQ", "scope": "GOOGLE", "types": ["locality", "political"], "vicinity": "Berkeley"}}