{"ChIJMSAWFIF-hYARX8Q8glovbQ0": {"geometry": {"location": {"lat": 37.8595728, "lng": -122.2693835}, "viewport": {"northeast": {"lat": 37.86092178029149, "lng": -122.2680345197085}, "southwest": {"lat": 37.85822381970849, "lng": -122.2707324802915}}}, "icon": "https://maps.gstatic.com/mapfiles/place_api/icons/geocode-71.png", "id": "ef4b160574433c8d20d57f0166ea2bced144bec0", "name": "2727-2701 Milvia St", "place_id": "ChIJMSAWFIF-hYARX8Q8glovbQ0", "reference": "ChIJMSAWFIF-hYARX8Q8glovbQ0", "scope": "GOOGLE", "types": ["route"], "vicinity": "Berkeley"}, "ChIJNRQsGYF-hYARjXTd53vyJ2Q": {"geometry": {"location": {"lat": 37.8589036, "lng": -122.2694872}, "viewport": {"northeast": {"lat": 37.86025853029149, "lng": -122.2680490697085}, "southwest": {"lat": 37.85756056970849, "lng": -122.2707470302915}}}, "icon": "https://maps.gstatic.com/mapfiles/place_api/icons/generic_business-71.png", "id": "fb8827c891e19ea84af7b9294b4eab13c5f27412", "name": "Hallelujah Shine", "photos": [{"height": 483, "html_attributions": ["<a href=\"https://maps.google.com/maps/contrib/107742084069224606739/photos\">Hallelujah Shine</a>"], "photo_reference": "CmRaAAAAl6Aw5Ic7PXRCf6MTutOUUyq21kuSIi2C3bN5kTpEk8Cn6X8Zd-GfAc1NBoJbheZWwKjhvlfBkTFwDF_49MHzyyEL0e8UXLvAE69i_XhSqFdLyAv08bGkNMIZoYudHvxsEhAQerKoQ-o7B1ZFcfDzEdXwGhSbP_aMKg3m1GXhpePpdLZIa0u-0w", "width": 604}], "place_id": "ChIJNRQsGYF-hYARjXTd53vyJ2Q", "plus_code": {"compound_code": "VP5J+H6 Berkeley, California, United States", "global_code": "849VVP5J+H6"}, "reference": "ChIJNRQsGYF-hYARjXTd53vyJ2Q", "scope": "GOOGLE", "types": ["electronics_store", "home_goods_store", "store", "point_of_interest", "establishment"], "vicinity": "2730 Milvia Street, Berkeley"}, "ChIJuzAoS4F-hYARQp2VWYt4Hi0": {"geometry": {"location": {"lat": 37.85946, "lng": -122.269452}, "viewport": {"northeast": {"lat": 37.8607345802915, "lng": -122.2683564}, "southwest": {"lat": 37.85803661970851, "lng": -122.2727388}}}, "icon": "https://maps.gstatic.com/mapfiles/place_api/icons/school-71.png", "id": "e7b333445f7194c8f9faee292d1d03ba7f260f97", "name": "keystone", "place_id": "ChIJuzAoS4F-hYARQp2VWYt4Hi0", "plus_code": {"compound_code": "VP5J+Q6 Berkeley, California, United States", "global_code": "849VVP5J+Q6"}, "reference": "ChIJuzAoS4F-hYARQp2VWYt4Hi0", "scope": "GOOGLE", "types": ["school", "point_of_interest", "establishment"], "vicinity": "2701 Martin Luther King Junior Way, Berkeley"}, "ChIJez5tMIF-hYARfW6MB-BpDCo": {"geometry": {"location": {"lat": 37.8592707, "lng": -122.269775}, "viewport": {"northeast": {"lat": 37.8605173802915, "lng": -122.2684048197085}, "southwest": {"lat": 37.8578194197085, "lng": -122.2711027802915}}}, "icon": "https://maps.gstatic.com/mapfiles/place_api/icons/school-71.png", "id": "b39cdff7af47f6c288b49cfd67217ec0b32d731b", "name": "King Child Development Center", "place_id": "ChIJez5tMIF-hYARfW6MB-BpDCo", "plus_code": {"compound_code": "VP5J+P3 Berkeley, California, United States", "global_code": "849VVP5J+P3"}, "rating": 5, "reference": "ChIJez5tMIF-hYARfW6MB-BpDCo", "scope": "GOOGLE", "types": ["school", "point_of_interest", "establishment"], "vicinity": "1939 Ward Street, Berkeley"}, "ChIJqQ_0E4F-hYARlNH1gHFiZ0w": {"geometry": {"location": {"lat": 37.8596063, "lng": -122.2692678}, "viewport": {"northeast": {"lat": 37.8609552802915, "lng": -122.2679188197085}, "southwest": {"lat": 37.8582573197085, "lng": -122.2706167802915}}}, "icon": "https://maps.gstatic.com/mapfiles/place_api/icons/generic_business-71.png", "id": "18edb9b2818e7be9e756e9a462c9c2bb6dc725ec", "name": "Iceland Sports Basements", "place_id": "ChIJqQ_0E4F-hYARlNH1gHFiZ0w", "plus_code": {"compound_code": "VP5J+R7 Berkeley, California, United States", "global_code": "849VVP5J+R7"}, "reference": "ChIJqQ_0E4F-hYARlNH1gHFiZ0w", "scope": "GOOGLE", "types": ["point_of_interest", "establishment"], "vicinity": "Berkeley"}, "ChIJ00mFOjZ5hYARk-l1ppUV6pQ": {"geometry": {"location": {"lat": 37.8715926, "lng": -122.272747}, "viewport": {"northeast": {"lat": 37.9058239, "lng": -122.234179}, "southwest": {"lat": 37.835727, "lng": -122.367781}}}, "icon": "https://maps.gstatic.com/mapfiles/place_api/icons/geocode-71.png", "id": "00741fe572fc4084428ab206e1a55830f6a1bf0a", "name": "Berkeley", "photos": [{"height": 1080, "html_attributions": ["<a href=\"https://maps.google.com/maps/contrib/110244590763501513798/photos\">miao hsin sun</a>"], "photo_reference": "CmRaAAAAMnDBLOJdKTaCoMyw35_9GXSV-LgeruTlzddVUASzxGBdvFy0XbeqPdHYpbdJah_CUMntjWHww70Dv-aIhraAXn7_6I7hzScrIDKRuiCWWjUbXfmjPNWw-HMQTXZ-_qyXEhB-r5yDh3dv3rWPVYR-4Ub_GhSzKRF01nfCEO92J00ta4FM6umiTQ", "width": 1616}], "place_id": "ChIJ00mFOjZ5hYARk-l1ppUV6pQ", "reference": "ChIJ00mFOjZ5hYARk-l1ppUV6pQ", "scope": "GOOGLE", "types": ["locality", "political"], "vicinity": "Berkeley"}}