{"ChIJYezIrNN9hYAREcOB9C7yQVE": {"geometry": {"location": {"lat": 37.8572726, "lng": -122.2569624}, "viewport": {"northeast": {"lat": 37.85871795000004, "lng": -122.2555785197085}, "southwest": {"lat": 37.85583174999995, "lng": -122.2582764802915}}}, "icon": "https://maps.gstatic.com/mapfiles/place_api/icons/geocode-71.png", "id": "31baf4a5b057a007f5561141941732c102b3b109", "name": "2949-2901 Regent St", "place_id": "ChIJYezIrNN9hYAREcOB9C7yQVE", "reference": "ChIJYezIrNN9hYAREcOB9C7yQVE", "scope": "GOOGLE", "types": ["route"], "vicinity": "Berkeley"}, "ChIJd3h7s9N9hYARu-1eyYAczm8": {"geometry": {"location": {"lat": 37.8567137, "lng": -122.257076}, "viewport": {"northeast": {"lat": 37.8580626802915, "lng": -122.2557270197085}, "southwest": {"lat": 37.8553647197085, "lng": -122.2584249802915}}}, "icon": "https://maps.gstatic.com/mapfiles/place_api/icons/generic_business-71.png", "id": "6ddbb81b4d6216915aa86b156e3130cbe0fc614b", "name": "Dr. Brian Assael DDS, Berkeley General and Cosmetic Dentist", "opening_hours": {"open_now": true}, "place_id": "ChIJd3h7s9N9hYARu-1eyYAczm8", "plus_code": {"compound_code": "VP4V+M5 Berkeley, California, United States", "global_code": "849VVP4V+M5"}, "rating": 5, "reference": "ChIJd3h7s9N9hYARu-1eyYAczm8", "scope": "GOOGLE", "types": ["dentist", "health", "point_of_interest", "establishment"], "vicinity": "2459 A. Ashby Ave., Berkeley"}, "ChIJZdbtK9J9hYARQWIgEOcyDWU": {"geometry": {"location": {"lat": 37.8572726, "lng": -122.2569624}, "viewport": {"northeast": {"lat": 37.8586215802915, "lng": -122.2556134197085}, "southwest": {"lat": 37.8559236197085, "lng": -122.2583113802915}}}, "icon": "https://maps.gstatic.com/mapfiles/place_api/icons/generic_business-71.png", "id": "fc60a73514ec2f167743c7e352c0f7360d057f5d", "name": "Dr. Pantea Pahlavan, M.D.", "opening_hours": {"open_now": true}, "place_id": "ChIJZdbtK9J9hYARQWIgEOcyDWU", "plus_code": {"compound_code": "VP4V+W6 Berkeley, California, United States", "global_code": "849VVP4V+W6"}, "reference": "ChIJZdbtK9J9hYARQWIgEOcyDWU", "scope": "GOOGLE", "types": ["doctor", "health", "point_of_interest", "establishment"], "vicinity": "2999 Regent Street #301, Sutter East Bay Medical Foundation, Berkeley"}, "ChIJyWBgrtN9hYARdApR9THRbeY": {"geometry": {"location": {"lat": 37.85709, "lng": -122.257319}, "viewport": {"northeast": {"lat": 37.85846238029149, "lng": -122.2557784197085}, "southwest": {"lat": 37.85576441970849, "lng": -122.2584763802915}}}, "icon": "https://maps.gstatic.com/mapfiles/place_api/icons/worship_general-71.png", "id": "443c829513a52e3ba1851774b58a28059aed0a9a", "name": "Berkeley Presbyterian Mission", "place_id": "ChIJyWBgrtN9hYARdApR9THRbeY", "plus_code": {"compound_code": "VP4V+R3 Berkeley, California, United States", "global_code": "849VVP4V+R3"}, "reference": "ChIJyWBgrtN9hYARdApR9THRbeY", "scope": "GOOGLE", "types": ["church", "place_of_worship", "point_of_interest", "establishment"], "vicinity": "2918 Regent Street, Berkeley"}, "ChIJC8N-tNN9hYARxuApymv6ea4": {"geometry": {"location": {"lat": 37.8567089, "lng": -122.2570486}, "viewport": {"northeast": {"lat": 37.8579684302915, "lng": -122.2556822697085}, "southwest": {"lat": 37.8552704697085, "lng": -122.2583802302915}}}, "icon": "https://maps.gstatic.com/mapfiles/place_api/icons/generic_business-71.png", "id": "f02fbecdeab09d11db3c3f9ecc0f03ba59e3cda4", "name": "Ginkgo Chiropractic & Sensory Development Center", "opening_hours": {"open_now": false}, "photos": [{"height": 3024, "html_attributions": ["<a href=\"https://maps.google.com/maps/contrib/114269833044077157271/photos\">Ginkgo Chiropractic &amp; Sensory Development Center</a>"], "photo_reference": "CmRaAAAAsSapUA5GrdidpNuHCvpWYGOXRo5aEKmcmODlgYJn40rOuNcwLoRvpSBj0FYvoN_1RfUI_0Tzfefsvt18cv36Hj9tlBf49c5Rnk9f9jTdRUiAXLWGY2axZ8Q1CpIvxm7rEhAGMsrq5vNH3a8kumpKd-HeGhT7MYV1MZz7_Cd7bNWAYilzOHEe_g", "width": 4032}], "place_id": "ChIJC8N-tNN9hYARxuApymv6ea4", "plus_code": {"compound_code": "VP4V+M5 Berkeley, California, United States", "global_code": "849VVP4V+M5"}, "rating": 5, "reference": "ChIJC8N-tNN9hYARxuApymv6ea4", "scope": "GOOGLE", "types": ["health", "point_of_interest", "establishment"], "vicinity": "2459 Ashby Avenue, Berkeley"}, "ChIJd3h7s9N9hYARx6JmYMLj4aU": {"geometry": {"location": {"lat": 37.856724, "lng": -122.257101}, "viewport": {"northeast": {"lat": 37.8579730802915, "lng": -122.2557326697085}, "southwest": {"lat": 37.8552751197085, "lng": -122.2584306302915}}}, "icon": "https://maps.gstatic.com/mapfiles/place_api/icons/generic_business-71.png", "id": "742b9e0bf13d1eb2b1d86d8dd0658a1f32f964f1", "name": "Lotus Family Chiropractic", "opening_hours": {"open_now": true}, "photos": [{"height": 2400, "html_attributions": ["<a href=\"https://maps.google.com/maps/contrib/105940638507807664443/photos\">Lotus Family Chiropractic</a>"], "photo_reference": "CmRaAAAA9UE4goZU2UvPoAjVU1A7rlBPxsFwkfOsT3tHxw_WPKnxM8iBR8eWSsEOZcxdY6bCUehp124jO73vkES1eHe8sDZ376JkIPZ94PRJbTApRGkQndVWFV5yB5Smj7W7KA1UEhAQRPpCtRvZWSQYLGudr1i1GhS5oM6mbor0vuPE8S3PI3CTfrbSnw", "width": 3600}], "place_id": "ChIJd3h7s9N9hYARx6JmYMLj4aU", "plus_code": {"compound_code": "VP4V+M5 Berkeley, California, United States", "global_code": "849VVP4V+M5"}, "rating": 5, "reference": "ChIJd3h7s9N9hYARx6JmYMLj4aU", "scope": "GOOGLE", "types": ["health", "point_of_interest", "establishment"], "vicinity": "2459 Ashby Avenue, Berkeley"}, "ChIJyWBgrtN9hYAReE4hjiRpabM": {"geometry": {"location": {"lat": 37.856998, "lng": -122.2572635}, "viewport": {"northeast": {"lat": 37.8583681802915, "lng": -122.2557412197085}, "southwest": {"lat": 37.8556702197085, "lng": -122.2584391802915}}}, "icon": "https://maps.gstatic.com/mapfiles/place_api/icons/generic_business-71.png", "id": "aee46b7dc92a5b1bd59187ecee78e50a252d5792", "name": "BPMH", "place_id": "ChIJyWBgrtN9hYAReE4hjiRpabM", "plus_code": {"compound_code": "VP4V+Q3 Berkeley, California, United States", "global_code": "849VVP4V+Q3"}, "reference": "ChIJyWBgrtN9hYAReE4hjiRpabM", "scope": "GOOGLE", "types": ["point_of_interest", "establishment"], "vicinity": "2918 Regent Street, Berkeley"}, "ChIJ_eQbUtJ9hYARsr1nhvcf9y8": {"geometry": {"location": {"lat": 37.8572272, "lng": -122.256593}, "viewport": {"northeast": {"lat": 37.85855468029149, "lng": -122.2554200197085}, "southwest": {"lat": 37.8558567197085, "lng": -122.2581179802915}}}, "icon": "https://maps.gstatic.com/mapfiles/place_api/icons/generic_business-71.png", "id": "78ce8ecc8de46bd700e27cf79ee8965e9cec9cd7", "name": "Five-Ten Home Improvements", "place_id": "ChIJ_eQbUtJ9hYARsr1nhvcf9y8", "plus_code": {"compound_code": "VP4V+V9 Berkeley, California, United States", "global_code": "849VVP4V+V9"}, "reference": "ChIJ_eQbUtJ9hYARsr1nhvcf9y8", "scope": "GOOGLE", "types": ["general_contractor", "point_of_interest", "establishment"], "vicinity": "2921 Regent Street, Berkeley"}, "ChIJO5hISdJ9hYAR6BVpnEdW6hc": {"geometry": {"location": {"lat": 37.856881, "lng": -122.256454}, "viewport": {"northeast": {"lat": 37.8580930302915, "lng": -122.2550770697085}, "southwest": {"lat": 37.8553950697085, "lng": -122.2577750302915}}}, "icon": "https://maps.gstatic.com/mapfiles/place_api/icons/generic_business-71.png", "id": "ce0d97672c66066760db98e785367db37aa528db", "name": "Nishimine Jim H MD", "place_id": "ChIJO5hISdJ9hYAR6BVpnEdW6hc", "plus_code": {"compound_code": "VP4V+QC Berkeley, California, United States", "global_code": "849VVP4V+QC"}, "reference": "ChIJO5hISdJ9hYAR6BVpnEdW6hc", "scope": "GOOGLE", "types": ["doctor", "health", "point_of_interest", "establishment"], "vicinity": "2507 Ashby Avenue, Berkeley"}, "ChIJO5hISdJ9hYARmFz3jn75Xyc": {"geometry": {"location": {"lat": 37.856881, "lng": -122.256454}, "viewport": {"northeast": {"lat": 37.8580930302915, "lng": -122.2550770697085}, "southwest": {"lat": 37.8553950697085, "lng": -122.2577750302915}}}, "icon": "https://maps.gstatic.com/mapfiles/place_api/icons/generic_business-71.png", "id": "c4d43ee69f2b60e2ef3e35a946c36686a5471467", "name": "Endo Howard Y DDS", "place_id": "ChIJO5hISdJ9hYARmFz3jn75Xyc", "plus_code": {"compound_code": "VP4V+QC Berkeley, California, United States", "global_code": "849VVP4V+QC"}, "rating": 5, "reference": "ChIJO5hISdJ9hYARmFz3jn75Xyc", "scope": "GOOGLE", "types": ["dentist", "health", "point_of_interest", "establishment"], "vicinity": "2507 Ashby Avenue, Berkeley"}, "ChIJ56JZR_99hYARbHegC03Okl4": {"geometry": {"location": {"lat": 37.856741, "lng": -122.25719}, "viewport": {"northeast": {"lat": 37.8579765302915, "lng": -122.2558190197085}, "southwest": {"lat": 37.8552785697085, "lng": -122.2585169802915}}}, "icon": "https://maps.gstatic.com/mapfiles/place_api/icons/generic_business-71.png", "id": "ccc53b2621940f4ffacea426021f9db67ee9774a", "name": "Hot Pony", "place_id": "ChIJ56JZR_99hYARbHegC03Okl4", "plus_code": {"compound_code": "VP4V+M4 Berkeley, California, United States", "global_code": "849VVP4V+M4"}, "reference": "ChIJ56JZR_99hYARbHegC03Okl4", "scope": "GOOGLE", "types": ["point_of_interest", "establishment"], "vicinity": "2455 Ashby Avenue, Berkeley"}, "ChIJodEDtdN9hYAR8rA8WFD-HIU": {"geometry": {"location": {"lat": 37.856586, "lng": -122.25712}, "viewport": {"northeast": {"lat": 37.8579349802915, "lng": -122.2557710197085}, "southwest": {"lat": 37.8552370197085, "lng": -122.2584689802915}}}, "icon": "https://maps.gstatic.com/mapfiles/place_api/icons/bus-71.png", "id": "9cf1ab4ed953c821258e8736e559c9a7ba9abdbd", "name": "Ashby Av:Regent St", "place_id": "ChIJodEDtdN9hYAR8rA8WFD-HIU", "plus_code": {"compound_code": "VP4V+J5 Berkeley, California, United States", "global_code": "849VVP4V+J5"}, "reference": "ChIJodEDtdN9hYAR8rA8WFD-HIU", "scope": "GOOGLE", "types": ["bus_station", "transit_station", "point_of_interest", "establishment"], "vicinity": "United States"}, "ChIJ00mFOjZ5hYARk-l1ppUV6pQ": {"geometry": {"location": {"lat": 37.8715926, "lng": -122.272747}, "viewport": {"northeast": {"lat": 37.9058239, "lng": -122.234179}, "southwest": {"lat": 37.835727, "lng": -122.367781}}}, "icon": "https://maps.gstatic.com/mapfiles/place_api/icons/geocode-71.png", "id": "00741fe572fc4084428ab206e1a55830f6a1bf0a", "name": "Berkeley", "photos": [{"height": 1080, "html_attributions": ["<a href=\"https://maps.google.com/maps/contrib/110244590763501513798/photos\">miao hsin sun</a>"], "photo_reference": "CmRaAAAAsiCB1CU2wp4U7Ujo1kzAVG4WatBwjhni2EWJKxhkru_D0F5upMZ35d4RUv_NXbgY_7gksE3gepRQeqKzaJV6AFwZxnNoPVgPQIcUAX_jwnbPdXgUsXZW_L2gUv9OMk3CEhAHMSVyUxHyGO2V81pxlpubGhSuH3tKKPGxa6u0NbrNnOjNd6VaUg", "width": 1616}], "place_id": "ChIJ00mFOjZ5hYARk-l1ppUV6pQ", "reference": "ChIJ00mFOjZ5hYARk-l1ppUV6pQ", "scope": "GOOGLE", "types": ["locality", "political"], "vicinity": "Berkeley"}}