{"ChIJcwXXozF8hYARy90_7vYpu6I": {"geometry": {"location": {"lat": 37.86778590000001, "lng": -122.2515481}, "viewport": {"northeast": {"lat": 37.86913483029151, "lng": -122.2501990697085}, "southwest": {"lat": 37.86643686970851, "lng": -122.2528970302915}}}, "icon": "https://maps.gstatic.com/mapfiles/place_api/icons/geocode-71.png", "id": "3b9fb2696f33781177f3dd263938488c501a25bc", "name": "Channing Way", "place_id": "ChIJcwXXozF8hYARy90_7vYpu6I", "reference": "ChIJcwXXozF8hYARy90_7vYpu6I", "scope": "GOOGLE", "types": ["route"], "vicinity": "Berkeley"}, "ChIJe9cznzF8hYAR1WrPjkqNvLM": {"geometry": {"location": {"lat": 37.8676242, "lng": -122.2515672}, "viewport": {"northeast": {"lat": 37.8689712302915, "lng": -122.2502998697085}, "southwest": {"lat": 37.8662732697085, "lng": -122.2529978302915}}}, "icon": "https://maps.gstatic.com/mapfiles/place_api/icons/generic_business-71.png", "id": "d637bd6d6b2263c6d332c807cb38f7ef4a2dfdff", "name": "Zeta Tau Alpha Sorority", "photos": [{"height": 1836, "html_attributions": ["<a href=\"https://maps.google.com/maps/contrib/108931230644255631595/photos\">Maire Pat</a>"], "photo_reference": "CmRaAAAAMlTifscgGF4gfQ0n_cTyRvCzmUHBK0XSoHWX1BcPcAOGKEPOnaM9rh3PnkIVM2fgYvh-06tepd7w_3ArdzuN8ixnYE2oTyMcg1icmGHaKc_nORwHdXQvjsLE7NTfo7t1EhCoXHcl24Om1jrieIUzqcYPGhQrRBEffVzKl0wWeYkpYT59GYiKkA", "width": 3264}], "place_id": "ChIJe9cznzF8hYAR1WrPjkqNvLM", "plus_code": {"compound_code": "VP9X+29 Berkeley, California, United States", "global_code": "849VVP9X+29"}, "rating": 4.4, "reference": "ChIJe9cznzF8hYAR1WrPjkqNvLM", "scope": "GOOGLE", "types": ["point_of_interest", "establishment"], "vicinity": "2401 Piedmont Avenue, Berkeley"}, "ChIJ_26UpjF8hYARB0cNz_FFLns": {"geometry": {"location": {"lat": 37.86815530000001, "lng": -122.2514083}, "viewport": {"northeast": {"lat": 37.8693516802915, "lng": -122.2500957697085}, "southwest": {"lat": 37.8666537197085, "lng": -122.2527937302915}}}, "icon": "https://maps.gstatic.com/mapfiles/place_api/icons/generic_business-71.png", "id": "200fffb6f0c025d83475d2046df634db1dab8c45", "name": "Phi Gamma Delta Fraternity", "place_id": "ChIJ_26UpjF8hYARB0cNz_FFLns", "plus_code": {"compound_code": "VP9X+7C Berkeley, California, United States", "global_code": "849VVP9X+7C"}, "rating": 5, "reference": "ChIJ_26UpjF8hYARB0cNz_FFLns", "scope": "GOOGLE", "types": ["point_of_interest", "establishment"], "vicinity": "Channing Way, Berkeley"}, "ChIJYYderzF8hYARkCHnElvL4Bg": {"geometry": {"location": {"lat": 37.8682618, "lng": -122.2516077}, "viewport": {"northeast": {"lat": 37.86955863029149, "lng": -122.2504175697085}, "southwest": {"lat": 37.86686066970849, "lng": -122.2531155302915}}}, "icon": "https://maps.gstatic.com/mapfiles/place_api/icons/generic_business-71.png", "id": "619c4c267be44a47a9d65785f2023128c9330b96", "name": "Phi Kappa Tau Fraternity", "place_id": "ChIJYYderzF8hYARkCHnElvL4Bg", "plus_code": {"compound_code": "VP9X+89 Berkeley, California, United States", "global_code": "849VVP9X+89"}, "reference": "ChIJYYderzF8hYARkCHnElvL4Bg", "scope": "GOOGLE", "types": ["point_of_interest", "establishment"], "vicinity": "2335 Piedmont Avenue, Berkeley"}, "ChIJWSrZdjF8hYAR6PyGbsGX2RQ": {"geometry": {"location": {"lat": 37.86744220000001, "lng": -122.250915}, "viewport": {"northeast": {"lat": 37.8688000802915, "lng": -122.2494870197085}, "southwest": {"lat": 37.8661021197085, "lng": -122.2521849802915}}}, "icon": "https://maps.gstatic.com/mapfiles/place_api/icons/generic_business-71.png", "id": "c0aaa9ef74bf792659578e0468e9081e328587bc", "name": "Oscar Wilde House", "photos": [{"height": 3120, "html_attributions": ["<a href=\"https://maps.google.com/maps/contrib/117396899498408504076/photos\">Anabelee K</a>"], "photo_reference": "CmRaAAAA-hhbrgHPab_vDiY0MEduyJNuY3jcUBaNLc1-gznO5Pz_hNoLghMxdUr1ARlTVJtjh4a3OqPPGRhQn5Pej_jb4j0h_aAY5_ee08bvz1UecXlGlSsDwgIA45aVK_Pa3Ki7EhBSupHkHmiqrKf7REaVlaQSGhQ0ZBTeWBSNTWO98O6NZ9QuPaH3sw", "width": 4160}], "place_id": "ChIJWSrZdjF8hYAR6PyGbsGX2RQ", "plus_code": {"compound_code": "VP8X+XJ Berkeley, California, United States", "global_code": "849VVP8X+XJ"}, "rating": 5, "reference": "ChIJWSrZdjF8hYAR6PyGbsGX2RQ", "scope": "GOOGLE", "types": ["point_of_interest", "establishment"], "vicinity": "2410 Warring Street, Berkeley"}, "ChIJ734epTF8hYARaW9deNpYY3s": {"geometry": {"location": {"lat": 37.86806980000001, "lng": -122.2518313}, "viewport": {"northeast": {"lat": 37.8694132802915, "lng": -122.2505045697085}, "southwest": {"lat": 37.8667153197085, "lng": -122.2532025302915}}}, "icon": "https://maps.gstatic.com/mapfiles/place_api/icons/bus-71.png", "id": "c4be17dbefd56c2fb84485215534bb4f7d7d6221", "name": "Piedmont Av & Channing Way", "place_id": "ChIJ734epTF8hYARaW9deNpYY3s", "plus_code": {"compound_code": "VP9X+67 Berkeley, California, United States", "global_code": "849VVP9X+67"}, "reference": "ChIJ734epTF8hYARaW9deNpYY3s", "scope": "GOOGLE", "types": ["bus_station", "transit_station", "point_of_interest", "establishment"], "vicinity": "United States"}, "ChIJj05ovTF8hYAR0Jqt9tbSo1w": {"geometry": {"location": {"lat": 37.86747799999999, "lng": -122.251992}, "viewport": {"northeast": {"lat": 37.86882698029149, "lng": -122.2506430197085}, "southwest": {"lat": 37.8661290197085, "lng": -122.2533409802915}}}, "icon": "https://maps.gstatic.com/mapfiles/place_api/icons/bus-71.png", "id": "b363c25fe827a631e336e4b94925fd79337f86e8", "name": "Piedmont Ave. at Channing Way", "place_id": "ChIJj05ovTF8hYAR0Jqt9tbSo1w", "plus_code": {"compound_code": "VP8X+X6 Berkeley, California, United States", "global_code": "849VVP8X+X6"}, "reference": "ChIJj05ovTF8hYAR0Jqt9tbSo1w", "scope": "GOOGLE", "types": ["bus_station", "transit_station", "point_of_interest", "establishment"], "vicinity": "United States"}, "ChIJ00mFOjZ5hYARk-l1ppUV6pQ": {"geometry": {"location": {"lat": 37.8715926, "lng": -122.272747}, "viewport": {"northeast": {"lat": 37.9058239, "lng": -122.234179}, "southwest": {"lat": 37.835727, "lng": -122.367781}}}, "icon": "https://maps.gstatic.com/mapfiles/place_api/icons/geocode-71.png", "id": "00741fe572fc4084428ab206e1a55830f6a1bf0a", "name": "Berkeley", "photos": [{"height": 1080, "html_attributions": ["<a href=\"https://maps.google.com/maps/contrib/110244590763501513798/photos\">miao hsin sun</a>"], "photo_reference": "CmRaAAAAcXNdghFVDP0QZ_H9Gsjm37mI-ukUtcGMMlmMOVL1jDtoQbrma-Xmjeun_ppGp7ffpBgFfluq-os_iRmGR_KUc57ltwAb5PvwzVy5R1Kp0h0QomFNDwEMo0tkZti3pUPQEhBaJX_-5TmPlPCRM4BtbsufGhRPwJfXSM6aqpSTKjKFNLq3Q_tzyA", "width": 1616}], "place_id": "ChIJ00mFOjZ5hYARk-l1ppUV6pQ", "reference": "ChIJ00mFOjZ5hYARk-l1ppUV6pQ", "scope": "GOOGLE", "types": ["locality", "political"], "vicinity": "Berkeley"}}