{"ChIJ00tS6S98hYAR5ySQIbw5MFk": {"geometry": {"location": {"lat": 37.8692353, "lng": -122.2550784}, "viewport": {"northeast": {"lat": 37.8705842302915, "lng": -122.2537294197085}, "southwest": {"lat": 37.86788626970851, "lng": -122.2564273802915}}}, "icon": "https://maps.gstatic.com/mapfiles/place_api/icons/geocode-71.png", "id": "ceb099d80a3443bea376e6ce4551724845a9930e", "name": "2693-2671 Bancroft Way", "place_id": "ChIJ00tS6S98hYAR5ySQIbw5MFk", "reference": "ChIJ00tS6S98hYAR5ySQIbw5MFk", "scope": "GOOGLE", "types": ["route"], "vicinity": "Berkeley"}, "ChIJM-QP6S98hYARqbQfNW03AuU": {"geometry": {"location": {"lat": 37.8690913, "lng": -122.2550697}, "viewport": {"northeast": {"lat": 37.87051418029151, "lng": -122.2538305197085}, "southwest": {"lat": 37.86781621970851, "lng": -122.2565284802915}}}, "icon": "https://maps.gstatic.com/mapfiles/place_api/icons/lodging-71.png", "id": "5e9c92881d252690de451d4de267c5abaec5cae1", "name": "Bancroft Hotel", "photos": [{"height": 683, "html_attributions": ["<a href=\"https://maps.google.com/maps/contrib/118053849356803860789/photos\">Bancroft Hotel</a>"], "photo_reference": "CmRaAAAAMIKDfyc3Wo3bYZmjytuICVOD6RA3is79WPB7YvulOEsm5iyOLsXNSDeSg3ZGsk_U8FiZqJWPiXK9WLupGFazqLoL_A_wrzZlFFSeI4NVMzhT8McevhTqOq2dihViCG0BEhB7mvkCPYICgJ3JMdLPy72CGhRg8ICSSu1QIyHCaUXeaj-lZk1_lw", "width": 1024}], "place_id": "ChIJM-QP6S98hYARqbQfNW03AuU", "plus_code": {"compound_code": "VP9V+JX Berkeley, California, United States", "global_code": "849VVP9V+JX"}, "rating": 4.4, "reference": "ChIJM-QP6S98hYARqbQfNW03AuU", "scope": "GOOGLE", "types": ["lodging", "point_of_interest", "establishment"], "vicinity": "2680 Bancroft Way, Berkeley"}, "ChIJJe5a5i98hYARKF0NeaK-9kM": {"geometry": {"location": {"lat": 37.869146, "lng": -122.254859}, "viewport": {"northeast": {"lat": 37.8705520802915, "lng": -122.2535204197085}, "southwest": {"lat": 37.8678541197085, "lng": -122.2562183802915}}}, "icon": "https://maps.gstatic.com/mapfiles/place_api/icons/cafe-71.png", "id": "d22b344a3f2874f603da73d41201f88fa9520172", "name": "Caff\u00e8 Strada", "opening_hours": {"open_now": true}, "photos": [{"height": 3456, "html_attributions": ["<a href=\"https://maps.google.com/maps/contrib/106480852590880018752/photos\">Teresa Roma\u00f1a</a>"], "photo_reference": "CmRaAAAAwtClN2XWvgH241RtQuisku5wmULo1KQOc2yRfX7K1Ee5mF3ONiULDoJ56mD2ctZ5tPQxg_mWvWDXIcABUYZvfaBOx0c98uuG_ez3pNJuZQtaq2KzzvhzRk8D3GZDIkCxEhAvdDf9s8U003JKNMzsZS9UGhSoox50bW3VxTScj9C7930qg3l8Yg", "width": 4608}], "place_id": "ChIJJe5a5i98hYARKF0NeaK-9kM", "plus_code": {"compound_code": "VP9W+M3 Berkeley, California, United States", "global_code": "849VVP9W+M3"}, "price_level": 1, "rating": 4.3, "reference": "ChIJJe5a5i98hYARKF0NeaK-9kM", "scope": "GOOGLE", "types": ["cafe", "store", "point_of_interest", "food", "establishment"], "vicinity": "2300 College Avenue, Berkeley"}, "ChIJRzfD3i98hYAR7TeEIqsZjys": {"geometry": {"location": {"lat": 37.8690826, "lng": -122.2543996}, "viewport": {"northeast": {"lat": 37.8705495302915, "lng": -122.2530731197085}, "southwest": {"lat": 37.8678515697085, "lng": -122.2557710802915}}}, "icon": "https://maps.gstatic.com/mapfiles/place_api/icons/restaurant-71.png", "id": "cbe54335ff724783b3aad59b4cf042cec1d97aa4", "name": "Free House", "opening_hours": {"open_now": true}, "photos": [{"height": 4048, "html_attributions": ["<a href=\"https://maps.google.com/maps/contrib/114076125125757577003/photos\">Lukman Winoto</a>"], "photo_reference": "CmRaAAAAI0D5qdcLfU3RwWnFwy7vkAkf_16OpuLbqklUDVgEtGzmSmJPb3mpdWTsPIhxyOrqM6MuNQQxH_SlpM240BSDYzP-SERNC9AkePU0tCJeM1rL6NxRWIOwaOPcpUg7-yk9EhCkJ6OP0etxGTO4yxGifd3EGhQ1DeGaw8sphnrIvA7drVp_5HIl1g", "width": 3036}], "place_id": "ChIJRzfD3i98hYAR7TeEIqsZjys", "plus_code": {"compound_code": "VP9W+J6 Berkeley, California, United States", "global_code": "849VVP9W+J6"}, "price_level": 2, "rating": 4.2, "reference": "ChIJRzfD3i98hYAR7TeEIqsZjys", "scope": "GOOGLE", "types": ["bar", "restaurant", "point_of_interest", "food", "establishment"], "vicinity": "2700 Bancroft Way, Berkeley"}, "ChIJ__8_9C98hYARuReD7qvV6RY": {"geometry": {"location": {"lat": 37.869385, "lng": -122.255143}, "viewport": {"northeast": {"lat": 37.8706594302915, "lng": -122.2537297197085}, "southwest": {"lat": 37.8679614697085, "lng": -122.2564276802915}}}, "icon": "https://maps.gstatic.com/mapfiles/place_api/icons/museum-71.png", "id": "df9e2f8dac7b9f6afab36e958cd52dee29121d1b", "name": "Phoebe A. Hearst Museum of Anthropology", "opening_hours": {"open_now": true}, "photos": [{"height": 3024, "html_attributions": ["<a href=\"https://maps.google.com/maps/contrib/113328398612219720054/photos\">aashish sharma</a>"], "photo_reference": "CmRaAAAAhGyj7S18z2xNLlxhJe7EzzzviSpsIZkB_LnLQl1LML4yNr9QGjlD9vg0GeKIPVmNQF6fpFMRA5cPbUToKDt3k-f1N6KXeNNxYxYLJVbSdpWtPys0u-lHv91vFJD2YAZIEhASeldNoO86PVkZFxzsQrliGhS-N6zEBcibCO4x9Y10XQj4ck_qAw", "width": 4032}], "place_id": "ChIJ__8_9C98hYARuReD7qvV6RY", "plus_code": {"compound_code": "VP9V+QW Berkeley, California, United States", "global_code": "849VVP9V+QW"}, "rating": 3.9, "reference": "ChIJ__8_9C98hYARuReD7qvV6RY", "scope": "GOOGLE", "types": ["museum", "store", "point_of_interest", "establishment"], "vicinity": "103 Kroeber Hall, Berkeley"}, "ChIJRxwrxS98hYARDlCBuiKCVPo": {"geometry": {"location": {"lat": 37.8686492, "lng": -122.2548347}, "viewport": {"northeast": {"lat": 37.86984503029149, "lng": -122.2534645697085}, "southwest": {"lat": 37.8671470697085, "lng": -122.2561625302915}}}, "icon": "https://maps.gstatic.com/mapfiles/place_api/icons/generic_business-71.png", "id": "373c82d5e1d980d4a8ac32efbf1b4347883b7953", "name": "Theta Delta Chi", "photos": [{"height": 4032, "html_attributions": ["<a href=\"https://maps.google.com/maps/contrib/104227255472949627361/photos\">Alan Harnett</a>"], "photo_reference": "CmRaAAAABb2sctyYGwBSAotLH3tnpgevIVN8Z7CH0kaBIxkQSm6hR6kAhC9AlCwpqCetUjmfnSElIrnI5VmSVkhAQSjP7wmUXx5BERnvn_HEnPJd17nD4Yb29gW0BuZZRHS5UtM2EhBMbFt8rjWkHR_Ze26mxvxGGhQtttkorX113NcLANWlccon90CZGQ", "width": 3024}], "place_id": "ChIJRxwrxS98hYARDlCBuiKCVPo", "plus_code": {"compound_code": "VP9W+F3 Berkeley, California, United States", "global_code": "849VVP9W+F3"}, "rating": 5, "reference": "ChIJRxwrxS98hYARDlCBuiKCVPo", "scope": "GOOGLE", "types": ["point_of_interest", "establishment"], "vicinity": "2647 Durant Avenue, Berkeley"}, "ChIJKW0Lwi98hYART9c60gu0Y3c": {"geometry": {"location": {"lat": 37.8689513, "lng": -122.2550275}, "viewport": {"northeast": {"lat": 37.87028498029149, "lng": -122.2538046697085}, "southwest": {"lat": 37.86758701970849, "lng": -122.2565026302915}}}, "icon": "https://maps.gstatic.com/mapfiles/place_api/icons/generic_business-71.png", "id": "3dd5d559d08d9ed679311d20811e1b98cfe276d4", "name": "Bancroft Catering", "place_id": "ChIJKW0Lwi98hYART9c60gu0Y3c", "plus_code": {"compound_code": "VP9V+HX Berkeley, California, United States", "global_code": "849VVP9V+HX"}, "reference": "ChIJKW0Lwi98hYART9c60gu0Y3c", "scope": "GOOGLE", "types": ["point_of_interest", "food", "establishment"], "vicinity": "2680 Bancroft Way, Berkeley"}, "ChIJ3zmo7i98hYARDydUky7nd10": {"geometry": {"location": {"lat": 37.869294, "lng": -122.255129}, "viewport": {"northeast": {"lat": 37.8706429802915, "lng": -122.2537800197085}, "southwest": {"lat": 37.8679450197085, "lng": -122.2564779802915}}}, "icon": "https://maps.gstatic.com/mapfiles/place_api/icons/bus-71.png", "id": "1978e03e31b966ca7c5fde3a72799246486fb26d", "name": "Bancroft/College", "photos": [{"height": 1152, "html_attributions": ["<a href=\"https://maps.google.com/maps/contrib/105838822399816330063/photos\">don willey</a>"], "photo_reference": "CmRaAAAACGFRg1Q4ClUSGQnUGJ3BqRZStcpWyeusD3x8z111a3BvclyWLbdAD-5yrvmINYMIMsRV_cv4fgMPl7_L-UQ5-WGczDmRBXhe5ITBYhAyq-mlHR0EtzNOR0o8WzXXnjX0EhCTv41rbBQBSa5H0oStCCkWGhQsjKyGzAUbEd4YOeYdlIrl3JAElQ", "width": 2048}], "place_id": "ChIJ3zmo7i98hYARDydUky7nd10", "plus_code": {"compound_code": "VP9V+PW Berkeley, California, United States", "global_code": "849VVP9V+PW"}, "reference": "ChIJ3zmo7i98hYARDydUky7nd10", "scope": "GOOGLE", "types": ["bus_station", "transit_station", "point_of_interest", "establishment"], "vicinity": "United States"}, "ChIJz8XA5y98hYAR5z_qz4nQfp8": {"geometry": {"location": {"lat": 37.8691346, "lng": -122.2546085}, "viewport": {"northeast": {"lat": 37.8704748802915, "lng": -122.2532541697085}, "southwest": {"lat": 37.8677769197085, "lng": -122.2559521302915}}}, "icon": "https://maps.gstatic.com/mapfiles/place_api/icons/generic_business-71.png", "id": "50f7290c023da8233447eea94a414b802deb3e70", "name": "College Ave Motorcycle Parking", "photos": [{"height": 4032, "html_attributions": ["<a href=\"https://maps.google.com/maps/contrib/104227255472949627361/photos\">Alan Harnett</a>"], "photo_reference": "CmRaAAAAhhwjgTef_Nk_ehUVx-E_iV42tyBSEL9LJ8RZw9FEwi8LaIKNkJn1EkrbTZsw5tJTq2yyUmbx6G5vpyUToQKV0hz9GQKzA_RB5TSlsiMrWMjQuZsH3yXnGdZTuFR4b0DBEhCgv_Jbg0IDFVOvw2M9EMP4GhRKpxFTIr05skRAsBTUx_pR2KCtzg", "width": 3024}], "place_id": "ChIJz8XA5y98hYAR5z_qz4nQfp8", "plus_code": {"compound_code": "VP9W+M5 Berkeley, California, United States", "global_code": "849VVP9W+M5"}, "rating": 5, "reference": "ChIJz8XA5y98hYAR5z_qz4nQfp8", "scope": "GOOGLE", "types": ["parking", "point_of_interest", "establishment"], "vicinity": "2305 College Avenue, Berkeley"}, "ChIJh1S75S98hYARzQQoJZdpCDM": {"geometry": {"location": {"lat": 37.8694921, "lng": -122.254642}, "viewport": {"northeast": {"lat": 37.87084108029151, "lng": -122.2532930197085}, "southwest": {"lat": 37.86814311970851, "lng": -122.2559909802915}}}, "icon": "https://maps.gstatic.com/mapfiles/place_api/icons/museum-71.png", "id": "c63179234c3447663e332dc5aa8bc89e621f811b", "name": "Class of 1914 Fountain", "place_id": "ChIJh1S75S98hYARzQQoJZdpCDM", "reference": "ChIJh1S75S98hYARzQQoJZdpCDM", "scope": "GOOGLE", "types": ["premise", "point_of_interest", "establishment"], "vicinity": "Berkeley"}, "ChIJ00mFOjZ5hYARk-l1ppUV6pQ": {"geometry": {"location": {"lat": 37.8715926, "lng": -122.272747}, "viewport": {"northeast": {"lat": 37.9058239, "lng": -122.234179}, "southwest": {"lat": 37.835727, "lng": -122.367781}}}, "icon": "https://maps.gstatic.com/mapfiles/place_api/icons/geocode-71.png", "id": "00741fe572fc4084428ab206e1a55830f6a1bf0a", "name": "Berkeley", "photos": [{"height": 1080, "html_attributions": ["<a href=\"https://maps.google.com/maps/contrib/110244590763501513798/photos\">miao hsin sun</a>"], "photo_reference": "CmRaAAAAVr9_X7zFIVGIWZKm-yyjcpewhRytFcQVNJjd5rGn4DBNl6RM0111es-Oyv0G9DsapWt9_KFV1cEOdNRGA4A68vFA3yF0DpD39xdqkZ68wBYTYaillfeuCF9BC1rHh73pEhC4g7Fr5agkxDd_ymGFZxvAGhQCgmO4Rvf6jL7F4J-wmpo0sfvlEw", "width": 1616}], "place_id": "ChIJ00mFOjZ5hYARk-l1ppUV6pQ", "reference": "ChIJ00mFOjZ5hYARk-l1ppUV6pQ", "scope": "GOOGLE", "types": ["locality", "political"], "vicinity": "Berkeley"}}