{"ChIJ_7GJOyh8hYARmd3zEIDBaGE": {"geometry": {"location": {"lat": 37.8657774, "lng": -122.2644371}, "viewport": {"northeast": {"lat": 37.8671263302915, "lng": -122.2630881697085}, "southwest": {"lat": 37.8644283697085, "lng": -122.2657861302915}}}, "icon": "https://maps.gstatic.com/mapfiles/place_api/icons/geocode-71.png", "id": "e15730352010fea9aab5cc760b99e1cc038aee94", "name": "2463-2425 Atherton St", "place_id": "ChIJ_7GJOyh8hYARmd3zEIDBaGE", "reference": "ChIJ_7GJOyh8hYARmd3zEIDBaGE", "scope": "GOOGLE", "types": ["route"], "vicinity": "Berkeley"}, "ChIJCWb1Oyh8hYAR65yL7etq-Iw": {"geometry": {"location": {"lat": 37.8657878, "lng": -122.2641178}, "viewport": {"northeast": {"lat": 37.8671174802915, "lng": -122.2629257197085}, "southwest": {"lat": 37.86441951970851, "lng": -122.2656236802915}}}, "icon": "https://maps.gstatic.com/mapfiles/place_api/icons/school-71.png", "id": "542b69d477943cce0c63191124735d00973e7093", "name": "Harold E. Jones Child Study Center", "place_id": "ChIJCWb1Oyh8hYAR65yL7etq-Iw", "plus_code": {"compound_code": "VP8P+89 Berkeley, California, United States", "global_code": "849VVP8P+89"}, "rating": 4.5, "reference": "ChIJCWb1Oyh8hYAR65yL7etq-Iw", "scope": "GOOGLE", "types": ["point_of_interest", "school", "establishment"], "vicinity": "2425 Atherton Street, Berkeley"}, "ChIJySwHQCh8hYARmlzIdO6BDAs": {"geometry": {"location": {"lat": 37.8660404, "lng": -122.2638085}, "viewport": {"northeast": {"lat": 37.8675032302915, "lng": -122.2624830697085}, "southwest": {"lat": 37.8648052697085, "lng": -122.2651810302915}}}, "icon": "https://maps.gstatic.com/mapfiles/place_api/icons/generic_business-71.png", "id": "f0a4317233e4fc2c5f317f1dadf550901528c95f", "name": "Anfang Chiropractic", "opening_hours": {"open_now": true}, "place_id": "ChIJySwHQCh8hYARmlzIdO6BDAs", "plus_code": {"compound_code": "VP8P+CF Berkeley, California, United States", "global_code": "849VVP8P+CF"}, "rating": 5, "reference": "ChIJySwHQCh8hYARmlzIdO6BDAs", "scope": "GOOGLE", "types": ["health", "point_of_interest", "establishment"], "vicinity": "2234 Channing Way, Berkeley"}, "ChIJl3FUPih8hYAR7KlicHSzQu4": {"geometry": {"location": {"lat": 37.86603520000001, "lng": -122.2643031}, "viewport": {"northeast": {"lat": 37.86746953029149, "lng": -122.2629717697085}, "southwest": {"lat": 37.86477156970849, "lng": -122.2656697302915}}}, "icon": "https://maps.gstatic.com/mapfiles/place_api/icons/generic_business-71.png", "id": "59bee12f551a7f434d4a1c5db4ff93f1bdee7e75", "name": "The East Bay Handyman", "place_id": "ChIJl3FUPih8hYAR7KlicHSzQu4", "reference": "ChIJl3FUPih8hYAR7KlicHSzQu4", "scope": "GOOGLE", "types": ["plumber", "home_goods_store", "store", "general_contractor", "point_of_interest", "establishment"], "vicinity": "2226 Channing Way, Berkeley"}, "ChIJ61oCOSh8hYAROjOrAY8SRsI": {"geometry": {"location": {"lat": 37.8657611, "lng": -122.2641345}, "viewport": {"northeast": {"lat": 37.8670921302915, "lng": -122.2629317197085}, "southwest": {"lat": 37.8643941697085, "lng": -122.2656296802915}}}, "icon": "https://maps.gstatic.com/mapfiles/place_api/icons/school-71.png", "id": "e7f471d7a804e8f583704913c0d807a53c4837ea", "name": "Greater Good Science Center", "place_id": "ChIJ61oCOSh8hYAROjOrAY8SRsI", "plus_code": {"compound_code": "VP8P+88 Berkeley, California, United States", "global_code": "849VVP8P+88"}, "rating": 4.4, "reference": "ChIJ61oCOSh8hYAROjOrAY8SRsI", "scope": "GOOGLE", "types": ["point_of_interest", "establishment"], "vicinity": "2425 Atherton Street, Berkeley"}, "ChIJY8FAESh8hYARqsyTAehAMfs": {"geometry": {"location": {"lat": 37.8664429, "lng": -122.2643696}, "viewport": {"northeast": {"lat": 37.86767448029151, "lng": -122.2629963197085}, "southwest": {"lat": 37.86497651970851, "lng": -122.2656942802915}}}, "icon": "https://maps.gstatic.com/mapfiles/place_api/icons/geocode-71.png", "id": "dccfd43ec8883d7fe5cacba511d5954cd31667dc", "name": "Slum City", "place_id": "ChIJY8FAESh8hYARqsyTAehAMfs", "plus_code": {"compound_code": "VP8P+H7 Berkeley, California, United States", "global_code": "849VVP8P+H7"}, "rating": 5, "reference": "ChIJY8FAESh8hYARqsyTAehAMfs", "scope": "GOOGLE", "types": ["neighborhood", "political", "point_of_interest", "establishment"], "vicinity": "Slum City, 2225 Channing Way, Berkeley"}, "ChIJySwHQCh8hYARfAnadOwVaxw": {"geometry": {"location": {"lat": 37.8660404, "lng": -122.2638085}, "viewport": {"northeast": {"lat": 37.8675032302915, "lng": -122.2624830697085}, "southwest": {"lat": 37.8648052697085, "lng": -122.2651810302915}}}, "icon": "https://maps.gstatic.com/mapfiles/place_api/icons/generic_business-71.png", "id": "2102ac7afb3edc97eb6c8a54414afb01003c61a6", "name": "Nadolny James a DDS", "place_id": "ChIJySwHQCh8hYARfAnadOwVaxw", "plus_code": {"compound_code": "VP8P+CF Berkeley, California, United States", "global_code": "849VVP8P+CF"}, "reference": "ChIJySwHQCh8hYARfAnadOwVaxw", "scope": "GOOGLE", "types": ["dentist", "health", "point_of_interest", "establishment"], "vicinity": "2234 Channing Way, Berkeley"}, "ChIJc_K_n4J-hYARxgPrk2qxJEk": {"geometry": {"location": {"lat": 37.8657523, "lng": -122.2651672}, "viewport": {"northeast": {"lat": 37.86710128029149, "lng": -122.2638182197085}, "southwest": {"lat": 37.86440331970849, "lng": -122.2665161802915}}}, "icon": "https://maps.gstatic.com/mapfiles/place_api/icons/generic_business-71.png", "id": "8301978cab6a5c0385b8bfd3fb3eeb5b367af8e6", "name": "Karen C. Wise, PsyD", "place_id": "ChIJc_K_n4J-hYARxgPrk2qxJEk", "plus_code": {"compound_code": "VP8M+8W Berkeley, California, United States", "global_code": "849VVP8M+8W"}, "reference": "ChIJc_K_n4J-hYARxgPrk2qxJEk", "scope": "GOOGLE", "types": ["health", "point_of_interest", "establishment"], "vicinity": "2405 Fulton Street, Berkeley, CA 94704, Berkeley"}, "ChIJ00mFOjZ5hYARk-l1ppUV6pQ": {"geometry": {"location": {"lat": 37.8715926, "lng": -122.272747}, "viewport": {"northeast": {"lat": 37.9058239, "lng": -122.234179}, "southwest": {"lat": 37.835727, "lng": -122.367781}}}, "icon": "https://maps.gstatic.com/mapfiles/place_api/icons/geocode-71.png", "id": "00741fe572fc4084428ab206e1a55830f6a1bf0a", "name": "Berkeley", "photos": [{"height": 1080, "html_attributions": ["<a href=\"https://maps.google.com/maps/contrib/110244590763501513798/photos\">miao hsin sun</a>"], "photo_reference": "CmRaAAAA-OYt3FvPBx07JtHX1BIx0Q-D-_C3lz6POd3uFGYeEeXZu5idpu2FhqHhhmyzOdQzDVfe31Z0Z_wq6Gjen2BOZ5hOk28hL2PyW0OQczx91HzNdTYa58aPxgZVpSp76sBNEhA4St2rSey3v9-H6BZYTDFGGhSk0DjcA6080Sj1ipc9kMMRS0w8hQ", "width": 1616}], "place_id": "ChIJ00mFOjZ5hYARk-l1ppUV6pQ", "reference": "ChIJ00mFOjZ5hYARk-l1ppUV6pQ", "scope": "GOOGLE", "types": ["locality", "political"], "vicinity": "Berkeley"}}