{"ChIJIWAcSzB8hYAR11QG3vdq7Pc": {"geometry": {"location": {"lat": 37.8686462, "lng": -122.2524654}, "viewport": {"northeast": {"lat": 37.8699951302915, "lng": -122.2511163697085}, "southwest": {"lat": 37.86729716970851, "lng": -122.2538143302915}}}, "icon": "https://maps.gstatic.com/mapfiles/place_api/icons/geocode-71.png", "id": "e546b09279e65879e28e351cee28386b749289f1", "name": "2799-2785 Durant Ave", "place_id": "ChIJIWAcSzB8hYAR11QG3vdq7Pc", "reference": "ChIJIWAcSzB8hYAR11QG3vdq7Pc", "scope": "GOOGLE", "types": ["route"], "vicinity": "Berkeley"}, "ChIJ3ex8tjF8hYARqDqu3uW9-z8": {"geometry": {"location": {"lat": 37.8682353, "lng": -122.2524289}, "viewport": {"northeast": {"lat": 37.86961668029149, "lng": -122.2509476197085}, "southwest": {"lat": 37.86691871970849, "lng": -122.2536455802915}}}, "icon": "https://maps.gstatic.com/mapfiles/place_api/icons/school-71.png", "id": "3728ed707e457ebe87d17f703efdbf34faf77251", "name": "Greenlining Institute - Casa Joaquin House", "place_id": "ChIJ3ex8tjF8hYARqDqu3uW9-z8", "plus_code": {"compound_code": "VP9X+72 Berkeley, California, United States", "global_code": "849VVP9X+72"}, "reference": "ChIJ3ex8tjF8hYARqDqu3uW9-z8", "scope": "GOOGLE", "types": ["university", "point_of_interest", "establishment"], "vicinity": "2336 Piedmont Avenue, Berkeley"}, "ChIJ_SLyzDF8hYAR43dQmExti-o": {"geometry": {"location": {"lat": 37.868295, "lng": -122.2531627}, "viewport": {"northeast": {"lat": 37.8697396802915, "lng": -122.2518466697085}, "southwest": {"lat": 37.8670417197085, "lng": -122.2545446302915}}}, "icon": "https://maps.gstatic.com/mapfiles/place_api/icons/school-71.png", "id": "5344f58437a2a9fbf302e82db9a76ab91d393264", "name": "Wright Institute", "photos": [{"height": 1000, "html_attributions": ["<a href=\"https://maps.google.com/maps/contrib/115555639421197079606/photos\">Wright Institute</a>"], "photo_reference": "CmRaAAAABHPQINaCtK-4lHoBNIWwHn2atFgIk1nd1muH716KhvPggChg51YAORefQLEi1U_zsazgS124Z4BC5gYgBSeSV4mDKPTzQex1oNp0WaBHVIyn9WP1R9Nkv1m0-woYhAJAEhDDOz-az_yfK87iGZp7yr2oGhQs2sSD_PqHx4EN3zu2RehVBRslOQ", "width": 1500}], "place_id": "ChIJ_SLyzDF8hYAR43dQmExti-o", "plus_code": {"compound_code": "VP9W+8P Berkeley, California, United States", "global_code": "849VVP9W+8P"}, "rating": 4.8, "reference": "ChIJ_SLyzDF8hYAR43dQmExti-o", "scope": "GOOGLE", "types": ["university", "health", "point_of_interest", "establishment"], "vicinity": "2728 Durant Avenue, Berkeley"}, "ChIJtbgNtTF8hYARdi0RSpME6ow": {"geometry": {"location": {"lat": 37.8684433, "lng": -122.252518}, "viewport": {"northeast": {"lat": 37.8698175802915, "lng": -122.2510223697085}, "southwest": {"lat": 37.8671196197085, "lng": -122.2537203302915}}}, "icon": "https://maps.gstatic.com/mapfiles/place_api/icons/generic_business-71.png", "id": "a0d7d33a4acb6dea1c9ac2f86486e881910a4454", "name": "Kappa Kappa Gamma", "place_id": "ChIJtbgNtTF8hYARdi0RSpME6ow", "plus_code": {"compound_code": "VP9W+9X Berkeley, California, United States", "global_code": "849VVP9W+9X"}, "rating": 1, "reference": "ChIJtbgNtTF8hYARdi0RSpME6ow", "scope": "GOOGLE", "types": ["point_of_interest", "establishment"], "vicinity": "2328 Piedmont Avenue, Berkeley"}, "ChIJeykiSjB8hYAR8vxUS0S3IEw": {"geometry": {"location": {"lat": 37.8688096, "lng": -122.252494}, "viewport": {"northeast": {"lat": 37.8701309802915, "lng": -122.2512539697085}, "southwest": {"lat": 37.8674330197085, "lng": -122.2539519302915}}}, "icon": "https://maps.gstatic.com/mapfiles/place_api/icons/generic_business-71.png", "id": "b6df0b3c808dc9ab2966520d7d04c409ac3fc201", "name": "Pi Kappa Alpha Fraternity", "photos": [{"height": 4000, "html_attributions": ["<a href=\"https://maps.google.com/maps/contrib/114315763380453729003/photos\">Jean Vincent</a>"], "photo_reference": "CmRaAAAALYhVaVBPqFnO5PHGXuQzlLov3AtupgZCmtcFGlun1FjGKyB1dlAkdW4pSv4s2yxlwgPI_zzuTxNwHhE3kY0F8d86BjLjUExkt4ska3KNQXjcXF72_xCN4W0opMxUx0PxEhCuikqqDp3jNCR_ok7hIjzZGhSR9T0C87vK10AV87cC_FgT_fsCSg", "width": 6000}], "place_id": "ChIJeykiSjB8hYAR8vxUS0S3IEw", "plus_code": {"compound_code": "VP9X+G2 Berkeley, California, United States", "global_code": "849VVP9X+G2"}, "rating": 3.7, "reference": "ChIJeykiSjB8hYAR8vxUS0S3IEw", "scope": "GOOGLE", "types": ["point_of_interest", "establishment"], "vicinity": "2324 Piedmont Avenue, Berkeley"}, "ChIJNSqdNDB8hYARIKswXrfPNHY": {"geometry": {"location": {"lat": 37.8683742, "lng": -122.2528429}, "viewport": {"northeast": {"lat": 37.86981683029149, "lng": -122.2515261197085}, "southwest": {"lat": 37.86711886970849, "lng": -122.2542240802915}}}, "icon": "https://maps.gstatic.com/mapfiles/place_api/icons/generic_business-71.png", "id": "f3c05751c3bbf76ac28baa6ff535b36a46b6be54", "name": "Wolf House", "place_id": "ChIJNSqdNDB8hYARIKswXrfPNHY", "plus_code": {"compound_code": "VP9W+8V Berkeley, California, United States", "global_code": "849VVP9W+8V"}, "rating": 5, "reference": "ChIJNSqdNDB8hYARIKswXrfPNHY", "scope": "GOOGLE", "types": ["university", "point_of_interest", "establishment"], "vicinity": "2732 Durant Avenue, Berkeley"}, "ChIJ1zsVMTB8hYAR362RhNcJeQ8": {"geometry": {"location": {"lat": 37.86874600000001, "lng": -122.253077}, "viewport": {"northeast": {"lat": 37.8700843302915, "lng": -122.2518249197085}, "southwest": {"lat": 37.86738636970851, "lng": -122.2545228802915}}}, "icon": "https://maps.gstatic.com/mapfiles/place_api/icons/generic_business-71.png", "id": "48af80500307843bb90b02c674d002af1a500401", "name": "Durant Residence Hall", "opening_hours": {"open_now": true}, "photos": [{"height": 1152, "html_attributions": ["<a href=\"https://maps.google.com/maps/contrib/110681575200453965227/photos\">Durant Residence Hall</a>"], "photo_reference": "CmRaAAAAU0-8iOPI9OLuJTewe2hEvD9nyhrCmVlw82V8cSRW4IK_XRcfmYib7VkriAXWm93FT05kUz7OIwKjqhNWU-z1jP24l87rVXh9itq6bUuxZn1BC8ybNLQEmSJ9lnMdPCrbEhAexWn3EVII8ibCQ_vGkSvkGhQIQEQ57IA_G3cMZhbyYeLwYhAOTw", "width": 1156}], "place_id": "ChIJ1zsVMTB8hYAR362RhNcJeQ8", "plus_code": {"compound_code": "VP9W+FQ Berkeley, California, United States", "global_code": "849VVP9W+FQ"}, "rating": 3, "reference": "ChIJ1zsVMTB8hYAR362RhNcJeQ8", "scope": "GOOGLE", "types": ["point_of_interest", "establishment"], "vicinity": "2731 Durant Avenue, Berkeley"}, "ChIJCR8btzF8hYARhuvvlRcVJsU": {"geometry": {"location": {"lat": 37.86809640000001, "lng": -122.2524359}, "viewport": {"northeast": {"lat": 37.8694017302915, "lng": -122.2511841697085}, "southwest": {"lat": 37.8667037697085, "lng": -122.2538821302915}}}, "icon": "https://maps.gstatic.com/mapfiles/place_api/icons/generic_business-71.png", "id": "d64e9884cff5cd60545c6d9d9f5dff93a4c8d5ce", "name": "Acacia International Fraternity at University of California-Berkeley", "place_id": "ChIJCR8btzF8hYARhuvvlRcVJsU", "plus_code": {"compound_code": "VP9X+62 Berkeley, California, United States", "global_code": "849VVP9X+62"}, "rating": 4.5, "reference": "ChIJCR8btzF8hYARhuvvlRcVJsU", "scope": "GOOGLE", "types": ["point_of_interest", "establishment"], "vicinity": "2340 Piedmont Avenue, Berkeley"}, "ChIJ_SLyzDF8hYAR1JKRZsTThQU": {"geometry": {"location": {"lat": 37.8682477, "lng": -122.2531144}, "viewport": {"northeast": {"lat": 37.8697192302915, "lng": -122.2518076197085}, "southwest": {"lat": 37.8670212697085, "lng": -122.2545055802915}}}, "icon": "https://maps.gstatic.com/mapfiles/place_api/icons/generic_business-71.png", "id": "3ab0d5346238d604f655ce7bf3a541c74f58d1ad", "name": "Karen M. Davison, PsyD", "place_id": "ChIJ_SLyzDF8hYAR1JKRZsTThQU", "plus_code": {"compound_code": "VP9W+7Q Berkeley, California, United States", "global_code": "849VVP9W+7Q"}, "reference": "ChIJ_SLyzDF8hYAR1JKRZsTThQU", "scope": "GOOGLE", "types": ["health", "point_of_interest", "establishment"], "vicinity": "2728 Durant Avenue, Berkeley"}, "ChIJjQTyzDF8hYARlB1cY_LwYq4": {"geometry": {"location": {"lat": 37.8682532, "lng": -122.2530904}, "viewport": {"northeast": {"lat": 37.8697245802915, "lng": -122.2517835697085}, "southwest": {"lat": 37.8670266197085, "lng": -122.2544815302915}}}, "icon": "https://maps.gstatic.com/mapfiles/place_api/icons/generic_business-71.png", "id": "bf614d587402a31e0be84a33fa317f8c3d0d8f42", "name": "Shervin Tehrani-rad", "place_id": "ChIJjQTyzDF8hYARlB1cY_LwYq4", "plus_code": {"compound_code": "VP9W+8Q Berkeley, California, United States", "global_code": "849VVP9W+8Q"}, "reference": "ChIJjQTyzDF8hYARlB1cY_LwYq4", "scope": "GOOGLE", "types": ["health", "point_of_interest", "establishment"], "vicinity": "2728 Durant Avenue, Berkeley"}, "ChIJjQTyzDF8hYARx2HhkrBNwzo": {"geometry": {"location": {"lat": 37.8682532, "lng": -122.2530905}, "viewport": {"northeast": {"lat": 37.8697245802915, "lng": -122.2517836697085}, "southwest": {"lat": 37.8670266197085, "lng": -122.2544816302915}}}, "icon": "https://maps.gstatic.com/mapfiles/place_api/icons/generic_business-71.png", "id": "78e275215397f7e3d364674d6cb892c13c377aa6", "name": "Dr. del Prado", "place_id": "ChIJjQTyzDF8hYARx2HhkrBNwzo", "plus_code": {"compound_code": "VP9W+8Q Berkeley, California, United States", "global_code": "849VVP9W+8Q"}, "rating": 5, "reference": "ChIJjQTyzDF8hYARx2HhkrBNwzo", "scope": "GOOGLE", "types": ["health", "point_of_interest", "establishment"], "vicinity": "2728 Durant Avenue, Berkeley"}, "ChIJjQTyzDF8hYAR2M4uc4WuItU": {"geometry": {"location": {"lat": 37.8682532, "lng": -122.2530905}, "viewport": {"northeast": {"lat": 37.8697245802915, "lng": -122.2517836697085}, "southwest": {"lat": 37.8670266197085, "lng": -122.2544816302915}}}, "icon": "https://maps.gstatic.com/mapfiles/place_api/icons/generic_business-71.png", "id": "197b7a415fd0634d7e427828431c6ca173f24451", "name": "Bernadette Torrez", "place_id": "ChIJjQTyzDF8hYAR2M4uc4WuItU", "plus_code": {"compound_code": "VP9W+8Q Berkeley, California, United States", "global_code": "849VVP9W+8Q"}, "reference": "ChIJjQTyzDF8hYAR2M4uc4WuItU", "scope": "GOOGLE", "types": ["health", "point_of_interest", "establishment"], "vicinity": "2728 Durant Avenue, Berkeley"}, "ChIJ00mFOjZ5hYARk-l1ppUV6pQ": {"geometry": {"location": {"lat": 37.8715926, "lng": -122.272747}, "viewport": {"northeast": {"lat": 37.9058239, "lng": -122.234179}, "southwest": {"lat": 37.835727, "lng": -122.367781}}}, "icon": "https://maps.gstatic.com/mapfiles/place_api/icons/geocode-71.png", "id": "00741fe572fc4084428ab206e1a55830f6a1bf0a", "name": "Berkeley", "photos": [{"height": 1080, "html_attributions": ["<a href=\"https://maps.google.com/maps/contrib/110244590763501513798/photos\">miao hsin sun</a>"], "photo_reference": "CmRaAAAA4T7jVUtIJrE5oird6uj-YoXj0JvkbM88wg4qfA3iNwHN9pusduwng-_SGkq5s6PvwtFOO-1L1BH4A9iRgpnPbCLHPUSFUFkIOcWaa0D6ToK5S_usxjTa1_3uaV4prZl6EhA58LhGvbzSSahqAwAJJaRlGhTLSVPrArMYTcS3oCpKEe6WGr7s-g", "width": 1616}], "place_id": "ChIJ00mFOjZ5hYARk-l1ppUV6pQ", "reference": "ChIJ00mFOjZ5hYARk-l1ppUV6pQ", "scope": "GOOGLE", "types": ["locality", "political"], "vicinity": "Berkeley"}}