{"ChIJ60q-KcV9hYARGWMF99OUFGo": {"geometry": {"location": {"lat": 37.8492523, "lng": -122.2536158}, "viewport": {"northeast": {"lat": 37.8505837302915, "lng": -122.2519392}, "southwest": {"lat": 37.8478857697085, "lng": -122.255274}}}, "icon": "https://maps.gstatic.com/mapfiles/place_api/icons/geocode-71.png", "id": "5445c724ed0002bf79a667cac094403900655015", "name": "312-350 62nd St", "place_id": "ChIJ60q-KcV9hYARGWMF99OUFGo", "reference": "ChIJ60q-KcV9hYARGWMF99OUFGo", "scope": "GOOGLE", "types": ["route"], "vicinity": "Oakland"}, "ChIJI5A058R9hYARZlK-kmZ1dLw": {"geometry": {"location": {"lat": 37.8493017, "lng": -122.2525735}, "viewport": {"northeast": {"lat": 37.8506801802915, "lng": -122.2511486697085}, "southwest": {"lat": 37.84798221970851, "lng": -122.2538466302915}}}, "icon": "https://maps.gstatic.com/mapfiles/place_api/icons/restaurant-71.png", "id": "8acb7b396d715d7497b34d491afa3db3fadd905d", "name": "Noodle Theory | Rockridge", "opening_hours": {"open_now": true}, "photos": [{"height": 2729, "html_attributions": ["<a href=\"https://maps.google.com/maps/contrib/113918306266499214753/photos\">Jon Travis</a>"], "photo_reference": "CmRaAAAADIH257eowL6pO4DxAZE8JVGkakBGy5J1QB9DiGqOK8y87Dh8fAfbTZqMUfr7wfbsNFIJN5Icf7ksA2beRIxudPGubRucc2VD-SJQ0iCmfMG5cJ5UOkrIYUc7BNbXTIPYEhCjVpYm8mlsvSyIFRXQ7m4AGhQZY9WPnPawTbIcRselIvqSpmqZ2Q", "width": 3639}], "place_id": "ChIJI5A058R9hYARZlK-kmZ1dLw", "plus_code": {"compound_code": "RPXW+PX Oakland, California, United States", "global_code": "849VRPXW+PX"}, "price_level": 2, "rating": 4.5, "reference": "ChIJI5A058R9hYARZlK-kmZ1dLw", "scope": "GOOGLE", "types": ["restaurant", "point_of_interest", "food", "establishment"], "vicinity": "6099 Claremont Avenue, Oakland"}, "ChIJR2B23sR9hYARkDX9ad-Ua5s": {"geometry": {"location": {"lat": 37.8490859, "lng": -122.2526819}, "viewport": {"northeast": {"lat": 37.8504132302915, "lng": -122.2512902697085}, "southwest": {"lat": 37.8477152697085, "lng": -122.2539882302915}}}, "icon": "https://maps.gstatic.com/mapfiles/place_api/icons/generic_business-71.png", "id": "49df097c38f49b49d69f77bf58a67320ac8ddd12", "name": "Claremont Rug Company", "opening_hours": {"open_now": false}, "photos": [{"height": 816, "html_attributions": ["<a href=\"https://maps.google.com/maps/contrib/107236539235813563219/photos\">Claremont Rug Company</a>"], "photo_reference": "CmRaAAAAQ7DI659TDTi6t5G2guYNQhT1V8T1tpVTL9vsBq21tC-qitR7SQycDL_EY7vEedkCTDxIumTxNgYUiRL3BEJLp6WQh3azwbnncS7FHHRB95F6ALc-tIah0J1Pxoc4vtZ7EhAEo8nItTN43HJCoGQ05qBbGhTNEH_6bWOU-JJoIz7R32R7Fm1EFg", "width": 1200}], "place_id": "ChIJR2B23sR9hYARkDX9ad-Ua5s", "plus_code": {"compound_code": "RPXW+JW Oakland, California, United States", "global_code": "849VRPXW+JW"}, "rating": 5, "reference": "ChIJR2B23sR9hYARkDX9ad-Ua5s", "scope": "GOOGLE", "types": ["art_gallery", "home_goods_store", "store", "point_of_interest", "establishment"], "vicinity": "6087 Claremont Avenue, Oakland"}, "ChIJwfqa4cR9hYARBe34M6x3Ma4": {"geometry": {"location": {"lat": 37.849525, "lng": -122.252437}, "viewport": {"northeast": {"lat": 37.8508739802915, "lng": -122.2510880197085}, "southwest": {"lat": 37.8481760197085, "lng": -122.2537859802915}}}, "icon": "https://maps.gstatic.com/mapfiles/place_api/icons/bank_dollar-71.png", "id": "aa3c7b41cc519bc46b168fab466bce1f23c73beb", "name": "Bank of America Financial Center", "opening_hours": {"open_now": false}, "photos": [{"height": 3096, "html_attributions": ["<a href=\"https://maps.google.com/maps/contrib/107721404123505875377/photos\">Albert L.</a>"], "photo_reference": "CmRaAAAAB3HwpLdXRQcqzYNBpIjCr_Nao5HMrQwmJ4M__IUXhj5MShp0xFStQDlHX4fDLmgoPbKI-qN2Ffa7hXkhEzDzMxyOTqszk0oxWryEQL35weOaaX8FPbfQYNAPAyeDemTqEhAKQoPiJpLiO04WuTqanfcTGhSOuVkgo3kUV1KrkaQPje2n3rP9Vg", "width": 4128}], "place_id": "ChIJwfqa4cR9hYARBe34M6x3Ma4", "plus_code": {"compound_code": "RPXX+R2 Oakland, California, United States", "global_code": "849VRPXX+R2"}, "rating": 1.9, "reference": "ChIJwfqa4cR9hYARBe34M6x3Ma4", "scope": "GOOGLE", "types": ["bank", "finance", "point_of_interest", "establishment"], "vicinity": "6201 College Ave, Oakland"}, "ChIJ7_4j3sR9hYARflSOObtFteQ": {"geometry": {"location": {"lat": 37.8491959, "lng": -122.2526518}, "viewport": {"northeast": {"lat": 37.85051258029149, "lng": -122.2512391697085}, "southwest": {"lat": 37.8478146197085, "lng": -122.2539371302915}}}, "icon": "https://maps.gstatic.com/mapfiles/place_api/icons/generic_business-71.png", "id": "77e470db134758606b8d05cd7e4ee3e5bba32756", "name": "Dana Eugenia Locke", "photos": [{"height": 1536, "html_attributions": ["<a href=\"https://maps.google.com/maps/contrib/116059400282368281117/photos\">Dana Eugenia Locke</a>"], "photo_reference": "CmRaAAAAvV9Cu-yPgpGa1It_8sRpZUi1ZgJ6bEFJQF71XPJ--2WLG3pXpHR5nvsySKG1JUs-zcYghsEPx9J4-zbnwX1oYwc8Mutnw6UVGRgRNQn6-5Jxa9f2bs0UHXpApp5w5vy8EhAIiAcLCrxLVSusCSjQU2izGhR0ifcloUUc_k6ZoXqWVfdhCTUD4Q", "width": 2048}], "place_id": "ChIJ7_4j3sR9hYARflSOObtFteQ", "plus_code": {"compound_code": "RPXW+MW Oakland, California, United States", "global_code": "849VRPXW+MW"}, "reference": "ChIJ7_4j3sR9hYARflSOObtFteQ", "scope": "GOOGLE", "types": ["health", "point_of_interest", "establishment"], "vicinity": "6097 Claremont Avenue, Oakland"}, "ChIJ7_4j3sR9hYARk-BYoo_3pd8": {"geometry": {"location": {"lat": 37.8491959, "lng": -122.2526518}, "viewport": {"northeast": {"lat": 37.85051258029149, "lng": -122.2512391697085}, "southwest": {"lat": 37.8478146197085, "lng": -122.2539371302915}}}, "icon": "https://maps.gstatic.com/mapfiles/place_api/icons/generic_business-71.png", "id": "d6ad1f4b9a5bf181ccf331ee6974477955a48bc6", "name": "Journeys Inward CranioSacral Therapy and Integrative Bodywork - Oakland", "opening_hours": {"open_now": false}, "photos": [{"height": 1000, "html_attributions": ["<a href=\"https://maps.google.com/maps/contrib/114086267876872211507/photos\">Journeys Inward CranioSacral Therapy and Integrative Bodywork - Oakland</a>"], "photo_reference": "CmRaAAAAChLrsuXlZvUE_UtHggptUsphcH0iqsnnB9peAVLgsRRU3qmu1cYWKSWhQO516WLpKazynn3NvoPNcfOb9BcwCvrZGrOe35RkD0sP2o4Bo8P-rQeay2KsDq0DO7LZwmXUEhB-3QZRHwvRyJ6Jf1RGehUMGhQg4I4bUIoHnjLeTV0LgRsSZAKKfQ", "width": 1000}], "place_id": "ChIJ7_4j3sR9hYARk-BYoo_3pd8", "plus_code": {"compound_code": "RPXW+MW Oakland, California, United States", "global_code": "849VRPXW+MW"}, "rating": 5, "reference": "ChIJ7_4j3sR9hYARk-BYoo_3pd8", "scope": "GOOGLE", "types": ["health", "point_of_interest", "establishment"], "vicinity": "6097 Claremont Avenue, Oakland"}, "ChIJC1q9odx-hYARdrEu0CVdAuc": {"geometry": {"location": {"lat": 37.84919190000001, "lng": -122.2526403}, "viewport": {"northeast": {"lat": 37.8505112302915, "lng": -122.2512328697085}, "southwest": {"lat": 37.8478132697085, "lng": -122.2539308302915}}}, "icon": "https://maps.gstatic.com/mapfiles/place_api/icons/shopping-71.png", "id": "e5b155b7a17f6030a473997415c3a4e374e2555e", "name": "Claremont 2", "opening_hours": {"open_now": false}, "photos": [{"height": 472, "html_attributions": ["<a href=\"https://maps.google.com/maps/contrib/114846740033287093723/photos\">Claremont 2</a>"], "photo_reference": "CmRaAAAAYZiCHbeBBYggaBhtDTybLN3AsST4W7Muo7rWcF4jJ9QhOK3vXhEnmIAZQbd-f56Ayf4xhm6VG2JNbrQK9jHkmSIX68xvTxLxOGTYGml8pTuBAiXUVd1gO5AyZtkgEURqEhCo6I7kJ7Fk37ph9Dt2p2-6GhRxMSdDHjMcT191VXQuhvz8BGG0sw", "width": 708}], "place_id": "ChIJC1q9odx-hYARdrEu0CVdAuc", "plus_code": {"compound_code": "RPXW+MW Oakland, California, United States", "global_code": "849VRPXW+MW"}, "reference": "ChIJC1q9odx-hYARdrEu0CVdAuc", "scope": "GOOGLE", "types": ["home_goods_store", "store", "point_of_interest", "establishment"], "vicinity": "6093 Claremont Avenue, Oakland"}, "ChIJZROi4MR9hYAR5I7QGXm1kq8": {"geometry": {"location": {"lat": 37.84920079999999, "lng": -122.2526491}, "viewport": {"northeast": {"lat": 37.8505172802915, "lng": -122.2512359697085}, "southwest": {"lat": 37.8478193197085, "lng": -122.2539339302915}}}, "icon": "https://maps.gstatic.com/mapfiles/place_api/icons/generic_business-71.png", "id": "6b1c363d5af8dccec902b5410c2ff4fbd40bb713", "name": "Ellie Waxman, LMFT", "place_id": "ChIJZROi4MR9hYAR5I7QGXm1kq8", "plus_code": {"compound_code": "RPXW+MW Oakland, California, United States", "global_code": "849VRPXW+MW"}, "reference": "ChIJZROi4MR9hYAR5I7QGXm1kq8", "scope": "GOOGLE", "types": ["doctor", "health", "point_of_interest", "establishment"], "vicinity": "6097 Claremont Avenue, Oakland"}, "ChIJ5yKyw8R9hYARsFnSo-S4NWw": {"geometry": {"location": {"lat": 37.8485951, "lng": -122.2528095}, "viewport": {"northeast": {"lat": 37.8499705802915, "lng": -122.2515132197085}, "southwest": {"lat": 37.8472726197085, "lng": -122.2542111802915}}}, "icon": "https://maps.gstatic.com/mapfiles/place_api/icons/school-71.png", "id": "6b08d316b2c1c97a8c00520ea69376a474e44457", "name": "The Breema Center", "photos": [{"height": 621, "html_attributions": ["<a href=\"https://maps.google.com/maps/contrib/103644512146265328690/photos\">The Breema Center</a>"], "photo_reference": "CmRaAAAAVZfSY66NlEbbGBfNUvmYWOdrIacQUUyEwv4py4QBiU0a-svPBh1zl1ojrHrBoON7PDLBZbbqFhx14mR_bs1bKJ7EXIelTf76GF1w4hldpVUfs-c6vRw9N4ztti--tUH_EhCcZbsiQtN-ZPl50YrZ5xY5GhRLyzEYC2aB30Z_K_yh4d48bz1f2w", "width": 652}], "place_id": "ChIJ5yKyw8R9hYARsFnSo-S4NWw", "plus_code": {"compound_code": "RPXW+CV Oakland, California, United States", "global_code": "849VRPXW+CV"}, "reference": "ChIJ5yKyw8R9hYARsFnSo-S4NWw", "scope": "GOOGLE", "types": ["school", "point_of_interest", "establishment"], "vicinity": "6076 Claremont Avenue, Oakland"}, "ChIJ6zk9t-99hYARWUcRjdeyO2c": {"geometry": {"location": {"lat": 37.8495396, "lng": -122.2524902}, "viewport": {"northeast": {"lat": 37.8509896802915, "lng": -122.2511615697085}, "southwest": {"lat": 37.8482917197085, "lng": -122.2538595302915}}}, "icon": "https://maps.gstatic.com/mapfiles/place_api/icons/atm-71.png", "id": "35d17b3dfde8b588abea46678f59954424f60e7c", "name": "ATM (Bank of America)", "opening_hours": {"open_now": true}, "photos": [{"height": 2988, "html_attributions": ["<a href=\"https://maps.google.com/maps/contrib/115075649218413404519/photos\">Nick Musihin</a>"], "photo_reference": "CmRaAAAAF_02dv1fQUnFuEC8qUwaB6uZI2kDhvoAZwtBucyCwM-1rvgfBEoeYx-uxrGsR0TB49MHkEHu4hUyP24m-luJN6dgQmGW0-UiGGTi8SwcVFn3fzY8mq5X9x7StQw_YV3DEhDWmuFkNcpPot8O3g48e3DSGhR8ExqlX_3EKYoATaiJksL5nHs5IQ", "width": 3984}], "place_id": "ChIJ6zk9t-99hYARWUcRjdeyO2c", "plus_code": {"compound_code": "RPXX+R2 Oakland, California, United States", "global_code": "849VRPXX+R2"}, "rating": 4.5, "reference": "ChIJ6zk9t-99hYARWUcRjdeyO2c", "scope": "GOOGLE", "types": ["atm", "finance", "point_of_interest", "establishment"], "vicinity": "6201 College Avenue, Oakland"}, "ChIJ7_4j3sR9hYARgY8ZaqPu9tc": {"geometry": {"location": {"lat": 37.84920079999999, "lng": -122.2526491}, "viewport": {"northeast": {"lat": 37.85054978029149, "lng": -122.2513001197085}, "southwest": {"lat": 37.8478518197085, "lng": -122.2539980802915}}}, "icon": "https://maps.gstatic.com/mapfiles/place_api/icons/generic_business-71.png", "id": "b3a48a1796256979bac2ca57f3af02971043d88d", "name": "Janet A. King, MFC", "place_id": "ChIJ7_4j3sR9hYARgY8ZaqPu9tc", "plus_code": {"compound_code": "RPXW+MW Oakland, California, United States", "global_code": "849VRPXW+MW"}, "reference": "ChIJ7_4j3sR9hYARgY8ZaqPu9tc", "scope": "GOOGLE", "types": ["doctor", "health", "point_of_interest", "establishment"], "vicinity": "6097 Claremont Avenue, Oakland, CA 94618, Oakland"}, "ChIJGygiIMV9hYAR0ETfZkHdCMI": {"geometry": {"location": {"lat": 37.849525, "lng": -122.252437}, "viewport": {"northeast": {"lat": 37.8508773302915, "lng": -122.2510216197085}, "southwest": {"lat": 37.8481793697085, "lng": -122.2537195802915}}}, "icon": "https://maps.gstatic.com/mapfiles/place_api/icons/generic_business-71.png", "id": "83d2b2781fe29969185bc020b53aa7b7046796b2", "name": "Bank of America Mortgage", "place_id": "ChIJGygiIMV9hYAR0ETfZkHdCMI", "plus_code": {"compound_code": "RPXX+R2 Oakland, California, United States", "global_code": "849VRPXX+R2"}, "reference": "ChIJGygiIMV9hYAR0ETfZkHdCMI", "scope": "GOOGLE", "types": ["finance", "point_of_interest", "establishment"], "vicinity": "6201 College Avenue, Oakland"}, "ChIJ7_4j3sR9hYARR_TDwUecX5k": {"geometry": {"location": {"lat": 37.84920079999999, "lng": -122.2526491}, "viewport": {"northeast": {"lat": 37.85054978029149, "lng": -122.2513001197085}, "southwest": {"lat": 37.8478518197085, "lng": -122.2539980802915}}}, "icon": "https://maps.gstatic.com/mapfiles/place_api/icons/generic_business-71.png", "id": "e82112813c6e4482b921b16d190db2549c7c6b4b", "name": "Linda N. Kuwatani, MS", "place_id": "ChIJ7_4j3sR9hYARR_TDwUecX5k", "plus_code": {"compound_code": "RPXW+MW Oakland, California, United States", "global_code": "849VRPXW+MW"}, "reference": "ChIJ7_4j3sR9hYARR_TDwUecX5k", "scope": "GOOGLE", "types": ["doctor", "health", "point_of_interest", "establishment"], "vicinity": "6097 Claremont Avenue, Oakland, CA 94618, Oakland"}, "ChIJ7_4j3sR9hYAR2H6lNwGDFEw": {"geometry": {"location": {"lat": 37.849231, "lng": -122.2526}, "viewport": {"northeast": {"lat": 37.8505518802915, "lng": -122.2511955697085}, "southwest": {"lat": 37.8478539197085, "lng": -122.2538935302915}}}, "icon": "https://maps.gstatic.com/mapfiles/place_api/icons/generic_business-71.png", "id": "be7c6e428bc52bb885c09d9c1adb0cb127bd37c7", "name": "Marian T. Okamura LCSW", "opening_hours": {"open_now": true}, "photos": [{"height": 578, "html_attributions": ["<a href=\"https://maps.google.com/maps/contrib/104140246549673879766/photos\">Marian T. Okamura LCSW</a>"], "photo_reference": "CmRaAAAA2iN8A2jOLdNsVJeJb_Pgybqw-UQDPqp_VDIu9oFFQGysPQnRNe0hMknhpavn9M1mL90bV24YwQoLk1ws3iByPXirZyEEnPdOByM-7hFS9T2HYAb082W0NuhwAOQZbSYZEhCe5kLpXjJoARYE92mHZrnlGhR86yMi88k5XXdzSyhu5EvYrOV0Aw", "width": 1021}], "place_id": "ChIJ7_4j3sR9hYAR2H6lNwGDFEw", "reference": "ChIJ7_4j3sR9hYAR2H6lNwGDFEw", "scope": "GOOGLE", "types": ["health", "point_of_interest", "establishment"], "vicinity": "6097 Claremont Avenue, Oakland"}, "ChIJ7_4j3sR9hYARnk1KCdTl8Eg": {"geometry": {"location": {"lat": 37.8492312, "lng": -122.2525997}, "viewport": {"northeast": {"lat": 37.85055208029149, "lng": -122.2511953197085}, "southwest": {"lat": 37.84785411970849, "lng": -122.2538932802915}}}, "icon": "https://maps.gstatic.com/mapfiles/place_api/icons/generic_business-71.png", "id": "a19b75d2189ae69412b407887f95eb1670cae426", "name": "Moxley K Mona PhD", "place_id": "ChIJ7_4j3sR9hYARnk1KCdTl8Eg", "plus_code": {"compound_code": "RPXW+MX Oakland, California, United States", "global_code": "849VRPXW+MX"}, "reference": "ChIJ7_4j3sR9hYARnk1KCdTl8Eg", "scope": "GOOGLE", "types": ["health", "point_of_interest", "establishment"], "vicinity": "6097 Claremont Avenue, Oakland"}, "ChIJ7_4j3sR9hYARjA6jceWrV0Q": {"geometry": {"location": {"lat": 37.8492312, "lng": -122.2525997}, "viewport": {"northeast": {"lat": 37.85055208029149, "lng": -122.2511953197085}, "southwest": {"lat": 37.84785411970849, "lng": -122.2538932802915}}}, "icon": "https://maps.gstatic.com/mapfiles/place_api/icons/generic_business-71.png", "id": "8f7eb9b5b6800481bfa0d4860c0d2f28c9401fac", "name": "Hennigan Patricia MD", "place_id": "ChIJ7_4j3sR9hYARjA6jceWrV0Q", "plus_code": {"compound_code": "RPXW+MX Oakland, California, United States", "global_code": "849VRPXW+MX"}, "reference": "ChIJ7_4j3sR9hYARjA6jceWrV0Q", "scope": "GOOGLE", "types": ["health", "point_of_interest", "establishment"], "vicinity": "6097 Claremont Avenue, Oakland"}, "ChIJ7_4j3sR9hYARIZEIO-8kHmo": {"geometry": {"location": {"lat": 37.84920079999999, "lng": -122.2526491}, "viewport": {"northeast": {"lat": 37.8505172802915, "lng": -122.2512359697085}, "southwest": {"lat": 37.8478193197085, "lng": -122.2539339302915}}}, "icon": "https://maps.gstatic.com/mapfiles/place_api/icons/generic_business-71.png", "id": "5562656c04c7c01dd5b7ee6a28b2a7c51c3a6828", "name": "Josephine S. Gallup, PSYD", "place_id": "ChIJ7_4j3sR9hYARIZEIO-8kHmo", "plus_code": {"compound_code": "RPXW+MW Oakland, California, United States", "global_code": "849VRPXW+MW"}, "reference": "ChIJ7_4j3sR9hYARIZEIO-8kHmo", "scope": "GOOGLE", "types": ["doctor", "health", "point_of_interest", "establishment"], "vicinity": "6097 Claremont Avenue, Oakland"}, "ChIJ7_4j3sR9hYARSTwKd-JJq-8": {"geometry": {"location": {"lat": 37.8492312, "lng": -122.2525997}, "viewport": {"northeast": {"lat": 37.85055208029149, "lng": -122.2511953197085}, "southwest": {"lat": 37.84785411970849, "lng": -122.2538932802915}}}, "icon": "https://maps.gstatic.com/mapfiles/place_api/icons/generic_business-71.png", "id": "5a57ca2c8c773f7be5518780371d93a4999f1b72", "name": "Brandt Mayflower D", "place_id": "ChIJ7_4j3sR9hYARSTwKd-JJq-8", "plus_code": {"compound_code": "RPXW+MX Oakland, California, United States", "global_code": "849VRPXW+MX"}, "reference": "ChIJ7_4j3sR9hYARSTwKd-JJq-8", "scope": "GOOGLE", "types": ["doctor", "health", "point_of_interest", "establishment"], "vicinity": "6097 Claremont Avenue, Oakland"}, "ChIJtySY7N99hYARcCgsdnlHqoQ": {"geometry": {"location": {"lat": 37.8491959, "lng": -122.2526518}, "viewport": {"northeast": {"lat": 37.85051258029149, "lng": -122.2512391697085}, "southwest": {"lat": 37.8478146197085, "lng": -122.2539371302915}}}, "icon": "https://maps.gstatic.com/mapfiles/place_api/icons/generic_business-71.png", "id": "300dde3f3b7175e4c762b6ec958b7f01f150e670", "name": "Fernando Moratinos. Massage Therapist", "opening_hours": {"open_now": true}, "place_id": "ChIJtySY7N99hYARcCgsdnlHqoQ", "plus_code": {"compound_code": "RPXW+MW Oakland, California, United States", "global_code": "849VRPXW+MW"}, "reference": "ChIJtySY7N99hYARcCgsdnlHqoQ", "scope": "GOOGLE", "types": ["point_of_interest", "establishment"], "vicinity": "1222, 6097 Claremont Avenue, Oakland"}, "ChIJA-2qKIt9hYARZ5N1NdUVtHE": {"geometry": {"location": {"lat": 37.8043637, "lng": -122.2711137}, "viewport": {"northeast": {"lat": 37.88472489999999, "lng": -122.114775}, "southwest": {"lat": 37.6322259, "lng": -122.355881}}}, "icon": "https://maps.gstatic.com/mapfiles/place_api/icons/geocode-71.png", "id": "da4a4da21e013f9d3a24e8eee6d4f84de02148d3", "name": "Oakland", "photos": [{"height": 2848, "html_attributions": ["<a href=\"https://maps.google.com/maps/contrib/113300206259949994494/photos\">Cimino Alberto</a>"], "photo_reference": "CmRaAAAAnM2HIypxxIb3x_IGbhLyp9gWTGyYPwoR_FjTfJ5szCSdcFSZa9rVQNtFswf4GlQg76BjBt2OCuVIqRW5IEgnU2aA_sPeXdryU-GvssYDyDfg3eY1016cBh7sxUIqfJj5EhANTY6VKC5qhERJ73NdabTOGhST5Bi6hlq-DKHm2TVfy6JSpNGpDg", "width": 4256}], "place_id": "ChIJA-2qKIt9hYARZ5N1NdUVtHE", "reference": "ChIJA-2qKIt9hYARZ5N1NdUVtHE", "scope": "GOOGLE", "types": ["locality", "political"], "vicinity": "Oakland"}, "ChIJww9V58R9hYARoxZ2Cy8XpCQ": {"geometry": {"location": {"lat": 37.84914699999999, "lng": -122.252619}, "viewport": {"northeast": {"lat": 37.85049598029149, "lng": -122.2512700197085}, "southwest": {"lat": 37.84779801970849, "lng": -122.2539679802915}}}, "icon": "https://maps.gstatic.com/mapfiles/place_api/icons/bus-71.png", "id": "1330c042930143077f3683c289e3a31263fb31e4", "name": "Claremont Av:College Av", "place_id": "ChIJww9V58R9hYARoxZ2Cy8XpCQ", "plus_code": {"compound_code": "RPXW+MX Oakland, California, United States", "global_code": "849VRPXW+MX"}, "reference": "ChIJww9V58R9hYARoxZ2Cy8XpCQ", "scope": "GOOGLE", "types": ["bus_station", "transit_station", "point_of_interest", "establishment"], "vicinity": "Oakland"}, "ChIJ7_4j3sR9hYAR7J6Lku8Hkt8": {"geometry": {"location": {"lat": 37.8492312, "lng": -122.2525997}, "viewport": {"northeast": {"lat": 37.85055208029149, "lng": -122.2511953197085}, "southwest": {"lat": 37.84785411970849, "lng": -122.2538932802915}}}, "icon": "https://maps.gstatic.com/mapfiles/place_api/icons/generic_business-71.png", "id": "cc2aef8481022d51e27626e86d515e4df6b220b9", "name": "Rogers Lynn S", "place_id": "ChIJ7_4j3sR9hYAR7J6Lku8Hkt8", "plus_code": {"compound_code": "RPXW+MX Oakland, California, United States", "global_code": "849VRPXW+MX"}, "reference": "ChIJ7_4j3sR9hYAR7J6Lku8Hkt8", "scope": "GOOGLE", "types": ["health", "point_of_interest", "establishment"], "vicinity": "6097 Claremont Avenue, Oakland"}, "ChIJZROi4MR9hYARhflwp54d1rs": {"geometry": {"location": {"lat": 37.8492312, "lng": -122.2525997}, "viewport": {"northeast": {"lat": 37.85055208029149, "lng": -122.2511953197085}, "southwest": {"lat": 37.84785411970849, "lng": -122.2538932802915}}}, "icon": "https://maps.gstatic.com/mapfiles/place_api/icons/generic_business-71.png", "id": "b7b6af26b60df51429f1c4f5fd09c75dc15f187a", "name": "Doug Jameson, Psy.D.", "place_id": "ChIJZROi4MR9hYARhflwp54d1rs", "plus_code": {"compound_code": "RPXW+MX Oakland, California, United States", "global_code": "849VRPXW+MX"}, "reference": "ChIJZROi4MR9hYARhflwp54d1rs", "scope": "GOOGLE", "types": ["doctor", "health", "point_of_interest", "establishment"], "vicinity": "6097 Claremont Avenue, Oakland"}, "ChIJtxGw4MR9hYAR8a_mqFUVMrE": {"geometry": {"location": {"lat": 37.849139, "lng": -122.252402}, "viewport": {"northeast": {"lat": 37.8504879802915, "lng": -122.2510530197085}, "southwest": {"lat": 37.8477900197085, "lng": -122.2537509802915}}}, "icon": "https://maps.gstatic.com/mapfiles/place_api/icons/bus-71.png", "id": "79e36e2f7042584d707796b6bc5bc29382b19f56", "name": "Claremont Av:College Av", "place_id": "ChIJtxGw4MR9hYAR8a_mqFUVMrE", "plus_code": {"compound_code": "RPXX+M2 Oakland, California, United States", "global_code": "849VRPXX+M2"}, "reference": "ChIJtxGw4MR9hYAR8a_mqFUVMrE", "scope": "GOOGLE", "types": ["bus_station", "transit_station", "point_of_interest", "establishment"], "vicinity": "Oakland"}}