{"ChIJw08-SfN-hYARWXEiSv1DraU": {"geometry": {"location": {"lat": 37.856084, "lng": -122.2886002}, "viewport": {"northeast": {"lat": 37.85743298029149, "lng": -122.2872512197085}, "southwest": {"lat": 37.85473501970849, "lng": -122.2899491802915}}}, "icon": "https://maps.gstatic.com/mapfiles/place_api/icons/geocode-71.png", "id": "e429e081230fa8cafe7bec8bc48d8c0a2aaa67ae", "name": "1022-1098 Grayson St", "place_id": "ChIJw08-SfN-hYARWXEiSv1DraU", "reference": "ChIJw08-SfN-hYARWXEiSv1DraU", "scope": "GOOGLE", "types": ["route"], "vicinity": "Berkeley"}, "ChIJ92G_sox-hYARm32kIzqfh3A": {"geometry": {"location": {"lat": 37.8559771, "lng": -122.2881874}, "viewport": {"northeast": {"lat": 37.8573465302915, "lng": -122.2867379197085}, "southwest": {"lat": 37.85464856970851, "lng": -122.2894358802915}}}, "icon": "https://maps.gstatic.com/mapfiles/place_api/icons/shopping-71.png", "id": "1c981a2b0ab284ee79dcaf167fed9b7e29d46d91", "name": "Berkeley Tattoo", "opening_hours": {"open_now": false}, "photos": [{"height": 2806, "html_attributions": ["<a href=\"https://maps.google.com/maps/contrib/102188519255465231614/photos\">David Allen</a>"], "photo_reference": "CmRaAAAAHsfeiXFPlHVW0yybBRLvsfP8BGRAnxdU87flMOmlA5YuimyTxycE9oUerFjXTwuDqA7NcJAUoeOka4_0L6vOH_KfQ-GfajKP0WgZMuVBBcJhlSWIpwAsQGeJqVGwZOPNEhCwvaPOrfjDJrmYFzXOWgdHGhRrmabjouZrr7NGW4heZS2QMKHkaQ", "width": 2424}], "place_id": "ChIJ92G_sox-hYARm32kIzqfh3A", "plus_code": {"compound_code": "VP46+9P Berkeley, California, United States", "global_code": "849VVP46+9P"}, "rating": 4.8, "reference": "ChIJ92G_sox-hYARm32kIzqfh3A", "scope": "GOOGLE", "types": ["store", "point_of_interest", "establishment"], "vicinity": "2804 San Pablo Avenue, Berkeley"}, "ChIJSXz8N_N-hYARbveGnKSyy0g": {"geometry": {"location": {"lat": 37.856178, "lng": -122.288864}, "viewport": {"northeast": {"lat": 37.8574574302915, "lng": -122.2874918697085}, "southwest": {"lat": 37.8547594697085, "lng": -122.2901898302915}}}, "icon": "https://maps.gstatic.com/mapfiles/place_api/icons/generic_business-71.png", "id": "7fe650c3c6a923f27b1be1776dc2d6f228c14870", "name": "Center for Early Intervention on Deafness", "opening_hours": {"open_now": false}, "photos": [{"height": 1932, "html_attributions": ["<a href=\"https://maps.google.com/maps/contrib/101875153545816585730/photos\">Jaime Ramirez</a>"], "photo_reference": "CmRaAAAADI00NeboqeUgjpTt_Hodu2iXd-a8RVrBO99Ov0PsHchCQp9xFMgC-4yD32EXBx4unWk_g2mrsWjpw2PUQuCyLSgeTHPoxzITUTHULNCJsf3xAQWe9aab6nFRHgWCTvoPEhD_lHF7E09UwT0SN1yVYEh7GhRUa_w-AZs3fPoVlX5cVUEWjIrr2w", "width": 2576}], "place_id": "ChIJSXz8N_N-hYARbveGnKSyy0g", "plus_code": {"compound_code": "VP46+FF Berkeley, California, United States", "global_code": "849VVP46+FF"}, "rating": 5, "reference": "ChIJSXz8N_N-hYARbveGnKSyy0g", "scope": "GOOGLE", "types": ["point_of_interest", "establishment"], "vicinity": "1035 Grayson Street, Berkeley"}, "ChIJSyL5UvN-hYARBseY1zuzS-I": {"geometry": {"location": {"lat": 37.8556497, "lng": -122.2882531}, "viewport": {"northeast": {"lat": 37.85703558029149, "lng": -122.2867227197085}, "southwest": {"lat": 37.8543376197085, "lng": -122.2894206802915}}}, "icon": "https://maps.gstatic.com/mapfiles/place_api/icons/generic_business-71.png", "id": "f5ac555d309db7d9721e751b12bc1ed3fa801cdd", "name": "Vital Vittles Premium Natural", "place_id": "ChIJSyL5UvN-hYARBseY1zuzS-I", "plus_code": {"compound_code": "VP46+7M Berkeley, California, United States", "global_code": "849VVP46+7M"}, "rating": 3, "reference": "ChIJSyL5UvN-hYARBseY1zuzS-I", "scope": "GOOGLE", "types": ["food", "health", "point_of_interest", "establishment"], "vicinity": "2810 San Pablo Avenue, Berkeley"}, "ChIJAxoTrYx-hYARBKbgYcWkXCY": {"geometry": {"location": {"lat": 37.85587759999999, "lng": -122.2881656}, "viewport": {"northeast": {"lat": 37.85724803029149, "lng": -122.2867111197085}, "southwest": {"lat": 37.85455006970849, "lng": -122.2894090802915}}}, "icon": "https://maps.gstatic.com/mapfiles/place_api/icons/generic_business-71.png", "id": "c06fc8cd6d70226aa5345c50e0c3666469da7091", "name": "Cheng Design & Construction", "place_id": "ChIJAxoTrYx-hYARBKbgYcWkXCY", "plus_code": {"compound_code": "VP46+9P Berkeley, California, United States", "global_code": "849VVP46+9P"}, "rating": 5, "reference": "ChIJAxoTrYx-hYARBKbgYcWkXCY", "scope": "GOOGLE", "types": ["point_of_interest", "establishment"], "vicinity": "2808 San Pablo Avenue, Berkeley"}, "ChIJZU6KTPN-hYARisscMMmQQtc": {"geometry": {"location": {"lat": 37.8560605, "lng": -122.2882403}, "viewport": {"northeast": {"lat": 37.85743238029151, "lng": -122.2867787697085}, "southwest": {"lat": 37.85473441970851, "lng": -122.2894767302915}}}, "icon": "https://maps.gstatic.com/mapfiles/place_api/icons/generic_business-71.png", "id": "c15aab1f7d19bc97668711fb7a9fe4cbf4162141", "name": "MoneyGram", "opening_hours": {"open_now": false}, "photos": [{"height": 1800, "html_attributions": ["<a href=\"https://maps.google.com/maps/contrib/102688446897362622126/photos\">Bridget Canfield</a>"], "photo_reference": "CmRaAAAABjgAs9AmRBY9LresntP9W6Es7VNzK-INDikM5s6fz73Ky-qNtp3ubNvWuuuIs0J_ADPy7BVDg19TY6_0gWQt7FJ7w8oyNd-uFIFeyiZU1QhWkLVK18ef0Jfrwe4mXsc-EhBUfjpD_yejQremygwuhVjRGhTY5bRbnCt2WQzYy6LQ68eNkalgEA", "width": 2520}], "place_id": "ChIJZU6KTPN-hYARisscMMmQQtc", "plus_code": {"compound_code": "VP46+CP Berkeley, California, United States", "global_code": "849VVP46+CP"}, "rating": 4.4, "reference": "ChIJZU6KTPN-hYARisscMMmQQtc", "scope": "GOOGLE", "types": ["finance", "point_of_interest", "establishment"], "vicinity": "2800 San Pablo Avenue, Berkeley"}, "ChIJSXz8N_N-hYARRsepKpb3PgY": {"geometry": {"location": {"lat": 37.856306, "lng": -122.288908}, "viewport": {"northeast": {"lat": 37.85752128029149, "lng": -122.2875145697085}, "southwest": {"lat": 37.85482331970849, "lng": -122.2902125302915}}}, "icon": "https://maps.gstatic.com/mapfiles/place_api/icons/generic_business-71.png", "id": "627dd9b277b5fcd76591963890a0f33139248219", "name": "Center for Early Intervention on Deafnes", "opening_hours": {"open_now": false}, "place_id": "ChIJSXz8N_N-hYARRsepKpb3PgY", "plus_code": {"compound_code": "VP46+GC Berkeley, California, United States", "global_code": "849VVP46+GC"}, "reference": "ChIJSXz8N_N-hYARRsepKpb3PgY", "scope": "GOOGLE", "types": ["doctor", "store", "health", "point_of_interest", "establishment"], "vicinity": "1035 Grayson Street, Berkeley"}, "ChIJzxAcPPN-hYARcMNoa-G1vCY": {"geometry": {"location": {"lat": 37.856461, "lng": -122.289035}, "viewport": {"northeast": {"lat": 37.8577844302915, "lng": -122.2878156197085}, "southwest": {"lat": 37.8550864697085, "lng": -122.2905135802915}}}, "icon": "https://maps.gstatic.com/mapfiles/place_api/icons/generic_business-71.png", "id": "89a6313e26a231569aa8753522efae3b9907fde6", "name": "Tippett Studio", "opening_hours": {"open_now": false}, "photos": [{"height": 4048, "html_attributions": ["<a href=\"https://maps.google.com/maps/contrib/103299304612205728328/photos\">Shauna Lacoste</a>"], "photo_reference": "CmRaAAAAmkwflZPfwrra0Dr9EAoI57jnmX2LLDrf9Cqavfifr65hwXwKVcT90QZPN8olR1uCXk5tX6wWqYffoqSPLY7fiRKYJHJRtklnJU9Lnu4cbfW7D7LJC2P3C5vKnMPRA2L1EhDdKXZifmoFm_T1V2V_ymFSGhQKfCHx4Ihq7A3JuEVoyxTuzP7_IA", "width": 3036}], "place_id": "ChIJzxAcPPN-hYARcMNoa-G1vCY", "plus_code": {"compound_code": "VP46+H9 Berkeley, California, United States", "global_code": "849VVP46+H9"}, "rating": 5, "reference": "ChIJzxAcPPN-hYARcMNoa-G1vCY", "scope": "GOOGLE", "types": ["point_of_interest", "establishment"], "vicinity": "2741 Tenth Street, Berkeley"}, "ChIJSyL5UvN-hYARSFW66gSXnDI": {"geometry": {"location": {"lat": 37.8556969, "lng": -122.2880001}, "viewport": {"northeast": {"lat": 37.8570571802915, "lng": -122.2865955697085}, "southwest": {"lat": 37.8543592197085, "lng": -122.2892935302915}}}, "icon": "https://maps.gstatic.com/mapfiles/place_api/icons/restaurant-71.png", "id": "e017b1c12feab1b2c8efef94263ad959b73c719a", "name": "Vital Vittles Organic Bakery", "opening_hours": {"open_now": false}, "photos": [{"height": 4032, "html_attributions": ["<a href=\"https://maps.google.com/maps/contrib/111574532729357790876/photos\">Andrew Chang</a>"], "photo_reference": "CmRaAAAARDcnlaeK_4mE97EIclOqSSQPYZ09uUFPZytQD21X2-WDFpDbCYeiU2IHCuuC4ETzCPVpIbSGzZRJC970gNfSq-Qi-y0JRm9x3IiZaeQj3xL6dy5IYKiRGqyOuPjX4lDwEhAacox3Eq-ySXtE0m4j7OxzGhQRn-Q6unh2gcCvliJKc1cdgkOC6w", "width": 3024}], "place_id": "ChIJSyL5UvN-hYARSFW66gSXnDI", "plus_code": {"compound_code": "VP46+7Q Berkeley, California, United States", "global_code": "849VVP46+7Q"}, "price_level": 1, "rating": 4.5, "reference": "ChIJSyL5UvN-hYARSFW66gSXnDI", "scope": "GOOGLE", "types": ["bakery", "store", "point_of_interest", "food", "establishment"], "vicinity": "2810 San Pablo Avenue, Berkeley"}, "ChIJSXz8N_N-hYAR_HynaBM999Q": {"geometry": {"location": {"lat": 37.856353, "lng": -122.2888257}, "viewport": {"northeast": {"lat": 37.8575542802915, "lng": -122.2874276197085}, "southwest": {"lat": 37.8548563197085, "lng": -122.2901255802915}}}, "icon": "https://maps.gstatic.com/mapfiles/place_api/icons/generic_business-71.png", "id": "afc0ad465ba2e165c78afe3b86d9d44361d08ae5", "name": "Sabra Carman, AUD", "place_id": "ChIJSXz8N_N-hYAR_HynaBM999Q", "plus_code": {"compound_code": "VP46+GF Berkeley, California, United States", "global_code": "849VVP46+GF"}, "reference": "ChIJSXz8N_N-hYAR_HynaBM999Q", "scope": "GOOGLE", "types": ["doctor", "health", "point_of_interest", "establishment"], "vicinity": "1035 Grayson Street, Berkeley"}, "ChIJSXz8N_N-hYARpTdLNP7E4rk": {"geometry": {"location": {"lat": 37.8563065, "lng": -122.2889086}, "viewport": {"northeast": {"lat": 37.8575214802915, "lng": -122.2875150697085}, "southwest": {"lat": 37.8548235197085, "lng": -122.2902130302915}}}, "icon": "https://maps.gstatic.com/mapfiles/place_api/icons/generic_business-71.png", "id": "f9d17b019a64ca054aa0c590b56bd29914fd5528", "name": "Nachman Alison J", "place_id": "ChIJSXz8N_N-hYARpTdLNP7E4rk", "plus_code": {"compound_code": "VP46+GC Berkeley, California, United States", "global_code": "849VVP46+GC"}, "reference": "ChIJSXz8N_N-hYARpTdLNP7E4rk", "scope": "GOOGLE", "types": ["doctor", "health", "point_of_interest", "establishment"], "vicinity": "1035 Grayson Street, Berkeley"}, "ChIJSXz8N_N-hYARr3rEzMMxuMw": {"geometry": {"location": {"lat": 37.8563065, "lng": -122.2889086}, "viewport": {"northeast": {"lat": 37.8575214802915, "lng": -122.2875150697085}, "southwest": {"lat": 37.8548235197085, "lng": -122.2902130302915}}}, "icon": "https://maps.gstatic.com/mapfiles/place_api/icons/generic_business-71.png", "id": "e9bfd89d98980d160393259e59c67381945a0a86", "name": "Kelly Rebecca J", "place_id": "ChIJSXz8N_N-hYARr3rEzMMxuMw", "plus_code": {"compound_code": "VP46+GC Berkeley, California, United States", "global_code": "849VVP46+GC"}, "reference": "ChIJSXz8N_N-hYARr3rEzMMxuMw", "scope": "GOOGLE", "types": ["doctor", "health", "point_of_interest", "establishment"], "vicinity": "1035 Grayson Street, Berkeley"}, "ChIJ00mFOjZ5hYARk-l1ppUV6pQ": {"geometry": {"location": {"lat": 37.8715926, "lng": -122.272747}, "viewport": {"northeast": {"lat": 37.9058239, "lng": -122.234179}, "southwest": {"lat": 37.835727, "lng": -122.367781}}}, "icon": "https://maps.gstatic.com/mapfiles/place_api/icons/geocode-71.png", "id": "00741fe572fc4084428ab206e1a55830f6a1bf0a", "name": "Berkeley", "photos": [{"height": 1080, "html_attributions": ["<a href=\"https://maps.google.com/maps/contrib/110244590763501513798/photos\">miao hsin sun</a>"], "photo_reference": "CmRaAAAAhWaYAKzuO-CgFxitKexsl6b5n58Dn1yGUesNlK3tMRbGm6MR-VLRDKybv6INmpc4mP9Uvfx_8HMYKGkb_qm8JSLPQ5Sfq1acGJZgXKqwHefonuMsJHvVdXNJgfOaHf3YEhCWSBHPHHzQMEXJPMiCLRgXGhREfiBbFevkQj1rZ4F3q4RosvmCGA", "width": 1616}], "place_id": "ChIJ00mFOjZ5hYARk-l1ppUV6pQ", "reference": "ChIJ00mFOjZ5hYARk-l1ppUV6pQ", "scope": "GOOGLE", "types": ["locality", "political"], "vicinity": "Berkeley"}}