{"ChIJh6oEul9-hYAR0V3-jGDsonI": {"geometry": {"location": {"lat": 37.84822820000001, "lng": -122.2898773}, "viewport": {"northeast": {"lat": 37.84957713029151, "lng": -122.2885282697085}, "southwest": {"lat": 37.84687916970851, "lng": -122.2912262302915}}}, "icon": "https://maps.gstatic.com/mapfiles/place_api/icons/geocode-71.png", "id": "d1f7e92c2bfdc88e56ff0841c5c4d0248bcde1b4", "name": "1283-1245 66th St", "place_id": "ChIJh6oEul9-hYAR0V3-jGDsonI", "reference": "ChIJh6oEul9-hYAR0V3-jGDsonI", "scope": "GOOGLE", "types": ["route"], "vicinity": "Emeryville"}, "ChIJudR4uF9-hYARcgm3h9lUGw4": {"geometry": {"location": {"lat": 37.848405, "lng": -122.289496}, "viewport": {"northeast": {"lat": 37.8497064802915, "lng": -122.2881326197085}, "southwest": {"lat": 37.8470085197085, "lng": -122.2908305802915}}}, "icon": "https://maps.gstatic.com/mapfiles/place_api/icons/generic_business-71.png", "id": "a706087f0a4a09fbcac6ed3881a9b8ee9511f16b", "name": "MT Sobek", "opening_hours": {"open_now": false}, "photos": [{"height": 630, "html_attributions": ["<a href=\"https://maps.google.com/maps/contrib/108993841540619172398/photos\">MT Sobek</a>"], "photo_reference": "CmRaAAAA6Yb6rAHDJHLH-hq48tOdxbw35arH7OBy40oc-Uq3h7atDvnGPjUd7imhu9F5NvBroMLEp79GfBLqgdQ_68mqTmqL58P_tlddyirGyWuriU33ID03p5vE6NJM1SxZ28PcEhCXwL70hq07fcgmRiKNxzDlGhQpf7hy5HnPZxJ2KPaCoazVOzrCgw", "width": 1200}], "place_id": "ChIJudR4uF9-hYARcgm3h9lUGw4", "plus_code": {"compound_code": "RPX6+96 Emeryville, California, United States", "global_code": "849VRPX6+96"}, "rating": 4.5, "reference": "ChIJudR4uF9-hYARcgm3h9lUGw4", "scope": "GOOGLE", "types": ["travel_agency", "point_of_interest", "establishment"], "vicinity": "1266 66th Street, Emeryville"}, "ChIJicY9pV9-hYARLDL5nXGn-30": {"geometry": {"location": {"lat": 37.8482249, "lng": -122.2906053}, "viewport": {"northeast": {"lat": 37.8495051802915, "lng": -122.2892333697085}, "southwest": {"lat": 37.8468072197085, "lng": -122.2919313302915}}}, "icon": "https://maps.gstatic.com/mapfiles/place_api/icons/shopping-71.png", "id": "6d213b4db633e2afc40c8293e44febe28b17d218", "name": "Pictopia", "place_id": "ChIJicY9pV9-hYARLDL5nXGn-30", "plus_code": {"compound_code": "RPX5+7Q Emeryville, California, United States", "global_code": "849VRPX5+7Q"}, "reference": "ChIJicY9pV9-hYARLDL5nXGn-30", "scope": "GOOGLE", "types": ["electronics_store", "home_goods_store", "store", "point_of_interest", "establishment"], "vicinity": "1300 66th Street, Emeryville"}, "ChIJJ8BPtl9-hYAR8dtZ3Jy8oxU": {"geometry": {"location": {"lat": 37.84811699999999, "lng": -122.2897117}, "viewport": {"northeast": {"lat": 37.84946598029149, "lng": -122.2883627197085}, "southwest": {"lat": 37.84676801970849, "lng": -122.2910606802915}}}, "icon": "https://maps.gstatic.com/mapfiles/place_api/icons/generic_business-71.png", "id": "6345de219340355c99d6f1a95cf5d86a2dadc268", "name": "Vadim Smirnov, Crna", "place_id": "ChIJJ8BPtl9-hYAR8dtZ3Jy8oxU", "plus_code": {"compound_code": "RPX6+64 Emeryville, California, United States", "global_code": "849VRPX6+64"}, "reference": "ChIJJ8BPtl9-hYAR8dtZ3Jy8oxU", "scope": "GOOGLE", "types": ["doctor", "health", "point_of_interest", "establishment"], "vicinity": "Emeryville"}, "ChIJnzMsrl9-hYARbmS-Pre8UQM": {"geometry": {"location": {"lat": 37.8479053, "lng": -122.2902315}, "viewport": {"northeast": {"lat": 37.8493713802915, "lng": -122.2889216197085}, "southwest": {"lat": 37.8466734197085, "lng": -122.2916195802915}}}, "icon": "https://maps.gstatic.com/mapfiles/place_api/icons/generic_business-71.png", "id": "2f53e89f1735c7c2add46c15c8a9c798cb899632", "name": "J-SEI Mahjong Club", "opening_hours": {"open_now": false}, "place_id": "ChIJnzMsrl9-hYARbmS-Pre8UQM", "plus_code": {"compound_code": "RPX5+5W Emeryville, California, United States", "global_code": "849VRPX5+5W"}, "reference": "ChIJnzMsrl9-hYARbmS-Pre8UQM", "scope": "GOOGLE", "types": ["point_of_interest", "establishment"], "vicinity": "1285 66th Street, Emeryville"}, "ChIJgxrLr19-hYARsYUolLwbm4c": {"geometry": {"location": {"lat": 37.847823, "lng": -122.290149}, "viewport": {"northeast": {"lat": 37.84933558029149, "lng": -122.2888546697085}, "southwest": {"lat": 37.8466376197085, "lng": -122.2915526302915}}}, "icon": "https://maps.gstatic.com/mapfiles/place_api/icons/generic_business-71.png", "id": "e4db7a1bbcb029f15d9b25c4e7be38e8154aad72", "name": "Netspeed Solutions Inc", "place_id": "ChIJgxrLr19-hYARsYUolLwbm4c", "plus_code": {"compound_code": "RPX5+4W Emeryville, California, United States", "global_code": "849VRPX5+4W"}, "reference": "ChIJgxrLr19-hYARsYUolLwbm4c", "scope": "GOOGLE", "types": ["point_of_interest", "establishment"], "vicinity": "1285 66th Street, Emeryville"}, "ChIJi1SOl4J-hYARmlL6xlyonZ4": {"geometry": {"location": {"lat": 37.8478051, "lng": -122.2901646}, "viewport": {"northeast": {"lat": 37.8493245302915, "lng": -122.2888725197085}, "southwest": {"lat": 37.8466265697085, "lng": -122.2915704802915}}}, "icon": "https://maps.gstatic.com/mapfiles/place_api/icons/generic_business-71.png", "id": "d2f6d4fe9972ed639382d97afb814f2cb0948ee9", "name": "J-Sei", "photos": [{"height": 1080, "html_attributions": ["<a href=\"https://maps.google.com/maps/contrib/104616670780450565502/photos\">Timothy White</a>"], "photo_reference": "CmRaAAAAuPYRWivKmdgaDIqXyRfDT25sRbOmqabIbFJl6aiud_oPzgSOdEhqTX7kybjTBb8VZhh7N-5HgvwxEGY50EzoPboA5NJPVM40oxOten_b_bHj16emvbHXL3BeO1VZcG-mEhAbwhCFuoZudMdRamKXpOghGhTFyluSiDkB0M5Xls-S6gEP49fI6Q", "width": 1920}], "place_id": "ChIJi1SOl4J-hYARmlL6xlyonZ4", "plus_code": {"compound_code": "RPX5+4W Emeryville, California, United States", "global_code": "849VRPX5+4W"}, "rating": 4.9, "reference": "ChIJi1SOl4J-hYARmlL6xlyonZ4", "scope": "GOOGLE", "types": ["point_of_interest", "establishment"], "vicinity": "1285 66th Street, Emeryville"}, "ChIJ-Rloapl-hYARVHEcwAcc2nY": {"geometry": {"location": {"lat": 37.8477781, "lng": -122.2901349}, "viewport": {"northeast": {"lat": 37.8493130302915, "lng": -122.2888480197085}, "southwest": {"lat": 37.84661506970851, "lng": -122.2915459802915}}}, "icon": "https://maps.gstatic.com/mapfiles/place_api/icons/generic_business-71.png", "id": "25cd3db3b9b418a4f58838c75c41453890a3e820", "name": "Marketing Is Bliss", "opening_hours": {"open_now": false}, "place_id": "ChIJ-Rloapl-hYARVHEcwAcc2nY", "plus_code": {"compound_code": "RPX5+4W Emeryville, California, United States", "global_code": "849VRPX5+4W"}, "rating": 5, "reference": "ChIJ-Rloapl-hYARVHEcwAcc2nY", "scope": "GOOGLE", "types": ["point_of_interest", "establishment"], "vicinity": "1285 66th Street #240, Emeryville"}, "ChIJzXQBpl9-hYARFfDnFKFJ-VQ": {"geometry": {"location": {"lat": 37.84775399999999, "lng": -122.290482}, "viewport": {"northeast": {"lat": 37.84926643029149, "lng": -122.2891876197085}, "southwest": {"lat": 37.8465684697085, "lng": -122.2918855802915}}}, "icon": "https://maps.gstatic.com/mapfiles/place_api/icons/shopping-71.png", "id": "5b55610ff4ad795b83070bac363f0452e8365aee", "name": "Future Imaging Systems", "place_id": "ChIJzXQBpl9-hYARFfDnFKFJ-VQ", "plus_code": {"compound_code": "RPX5+4R Emeryville, California, United States", "global_code": "849VRPX5+4R"}, "reference": "ChIJzXQBpl9-hYARFfDnFKFJ-VQ", "scope": "GOOGLE", "types": ["store", "point_of_interest", "establishment"], "vicinity": "1287 66th Street, Emeryville"}, "ChIJzXQBpl9-hYARKMhmm7Kxirs": {"geometry": {"location": {"lat": 37.84774759999999, "lng": -122.2904048}, "viewport": {"northeast": {"lat": 37.84927053029149, "lng": -122.2891139197085}, "southwest": {"lat": 37.84657256970849, "lng": -122.2918118802915}}}, "icon": "https://maps.gstatic.com/mapfiles/place_api/icons/shopping-71.png", "id": "9addf52751d5006d69aee127afb0374ce6819816", "name": "Bacchus Press", "photos": [{"height": 1080, "html_attributions": ["<a href=\"https://maps.google.com/maps/contrib/104616670780450565502/photos\">Timothy White</a>"], "photo_reference": "CmRaAAAAX0tNe_L3sgsX529VJG3jn2uo5YD3yPnxeQfQ5BT_8Wbrv5Q9-hkaHjAiVq7WRxOBXkjH7PK_Jah8NCTeWy4Y2bUOoLWGPTsbkW1rp0jrMY9OUar9kGp_WoYFkovYzJDaEhCUx2LUWcMFy72XhpYDIYq3GhS0scoJ189ZrY1GhZtFnQ70yys7eg", "width": 1920}], "place_id": "ChIJzXQBpl9-hYARKMhmm7Kxirs", "plus_code": {"compound_code": "RPX5+3R Emeryville, California, United States", "global_code": "849VRPX5+3R"}, "rating": 5, "reference": "ChIJzXQBpl9-hYARKMhmm7Kxirs", "scope": "GOOGLE", "types": ["store", "point_of_interest", "establishment"], "vicinity": "1287 66th Street, Emeryville"}, "ChIJ07HORfJ-hYAR6SAGdJCoPUQ": {"geometry": {"location": {"lat": 37.848564, "lng": -122.289712}, "viewport": {"northeast": {"lat": 37.84977128029149, "lng": -122.2883167697085}, "southwest": {"lat": 37.84707331970849, "lng": -122.2910147302915}}}, "icon": "https://maps.gstatic.com/mapfiles/place_api/icons/generic_business-71.png", "id": "698e2e334bdbf4e0b3f7a0a793756ef46de37564", "name": "brick.", "opening_hours": {"open_now": false}, "photos": [{"height": 3026, "html_attributions": ["<a href=\"https://maps.google.com/maps/contrib/117244006450614558252/photos\">brick</a>"], "photo_reference": "CmRaAAAAe-ME0VVNvouzb4qmsU-Lybi4HB1Unlct1uFUSX-vkWHfOTZKg-XIwjXPjTZiiBqyPXOHOF-0trESCsxhQo6UdjCXc4cO0BI4pJd8SQJbtF6tTyJBZBO2ICPAh1PQuX9AEhBvxxnBATDN8USfg8IXI1gBGhS_ARFwLBWt9yVmrFAhsR2U9Tl3rQ", "width": 5380}], "place_id": "ChIJ07HORfJ-hYAR6SAGdJCoPUQ", "plus_code": {"compound_code": "RPX6+C4 Emeryville, California, United States", "global_code": "849VRPX6+C4"}, "reference": "ChIJ07HORfJ-hYAR6SAGdJCoPUQ", "scope": "GOOGLE", "types": ["point_of_interest", "establishment"], "vicinity": "1266 66th Street suite 1, Emeryville"}, "ChIJJ57buV9-hYARZajD7wA_rr0": {"geometry": {"location": {"lat": 37.8482512, "lng": -122.2897292}, "viewport": {"northeast": {"lat": 37.8495762802915, "lng": -122.2883724697085}, "southwest": {"lat": 37.8468783197085, "lng": -122.2910704302915}}}, "icon": "https://maps.gstatic.com/mapfiles/place_api/icons/generic_business-71.png", "id": "4408bde97037e77d697a57d51ff84bc331a077fa", "name": "Tata Raw", "place_id": "ChIJJ57buV9-hYARZajD7wA_rr0", "plus_code": {"compound_code": "RPX6+84 Emeryville, California, United States", "global_code": "849VRPX6+84"}, "reference": "ChIJJ57buV9-hYARZajD7wA_rr0", "scope": "GOOGLE", "types": ["point_of_interest", "establishment"], "vicinity": "1263 66th Street, Emeryville"}, "ChIJq6pqsl9-hYARJBA5NoAVTPE": {"geometry": {"location": {"lat": 37.8477782, "lng": -122.2901348}, "viewport": {"northeast": {"lat": 37.8493131302915, "lng": -122.2888479197085}, "southwest": {"lat": 37.8466151697085, "lng": -122.2915458802915}}}, "icon": "https://maps.gstatic.com/mapfiles/place_api/icons/generic_business-71.png", "id": "c6a4a853c4567520653bf31e2539977749776d52", "name": "FOURM design studio", "place_id": "ChIJq6pqsl9-hYARJBA5NoAVTPE", "plus_code": {"compound_code": "RPX5+4W Emeryville, California, United States", "global_code": "849VRPX5+4W"}, "reference": "ChIJq6pqsl9-hYARJBA5NoAVTPE", "scope": "GOOGLE", "types": ["point_of_interest", "establishment"], "vicinity": "1285 66th Street, Emeryville"}, "ChIJq6pqsl9-hYARUdlHSwNU-oI": {"geometry": {"location": {"lat": 37.8477344, "lng": -122.2901104}, "viewport": {"northeast": {"lat": 37.84929218029151, "lng": -122.2888311197085}, "southwest": {"lat": 37.84659421970851, "lng": -122.2915290802915}}}, "icon": "https://maps.gstatic.com/mapfiles/place_api/icons/generic_business-71.png", "id": "c8c7091e11514344247684545dfea269d2bb209a", "name": "Teresa LeYung Ryan", "place_id": "ChIJq6pqsl9-hYARUdlHSwNU-oI", "plus_code": {"compound_code": "RPX5+3X Emeryville, California, United States", "global_code": "849VRPX5+3X"}, "reference": "ChIJq6pqsl9-hYARUdlHSwNU-oI", "scope": "GOOGLE", "types": ["point_of_interest", "establishment"], "vicinity": "1285 66th Street, Emeryville"}, "ChIJq6qarl9-hYARLXttvR_dK-Y": {"geometry": {"location": {"lat": 37.8477511, "lng": -122.2904205}, "viewport": {"northeast": {"lat": 37.8492708802915, "lng": -122.2891285697085}, "southwest": {"lat": 37.8465729197085, "lng": -122.2918265302915}}}, "icon": "https://maps.gstatic.com/mapfiles/place_api/icons/generic_business-71.png", "id": "41c718ce1a700515d7d85b72d56eecbe3a25f793", "name": "Printing Green", "place_id": "ChIJq6qarl9-hYARLXttvR_dK-Y", "plus_code": {"compound_code": "RPX5+4R Emeryville, California, United States", "global_code": "849VRPX5+4R"}, "reference": "ChIJq6qarl9-hYARLXttvR_dK-Y", "scope": "GOOGLE", "types": ["point_of_interest", "establishment"], "vicinity": "1287 66th Street, Emeryville"}, "ChIJgxrLr19-hYARRcQos2p5Ads": {"geometry": {"location": {"lat": 37.847823, "lng": -122.290149}, "viewport": {"northeast": {"lat": 37.84933558029149, "lng": -122.2888546697085}, "southwest": {"lat": 37.8466376197085, "lng": -122.2915526302915}}}, "icon": "https://maps.gstatic.com/mapfiles/place_api/icons/generic_business-71.png", "id": "ac86512d903a13c2dbd4b7f8d6bdb1d47437956b", "name": "Auroview", "place_id": "ChIJgxrLr19-hYARRcQos2p5Ads", "plus_code": {"compound_code": "RPX5+4W Emeryville, California, United States", "global_code": "849VRPX5+4W"}, "reference": "ChIJgxrLr19-hYARRcQos2p5Ads", "scope": "GOOGLE", "types": ["point_of_interest", "establishment"], "vicinity": "1285 66th Street, Emeryville"}, "ChIJFXe5r19-hYARKj5ubUyXkp8": {"geometry": {"location": {"lat": 37.847823, "lng": -122.290149}, "viewport": {"northeast": {"lat": 37.84933558029149, "lng": -122.2888546697085}, "southwest": {"lat": 37.8466376197085, "lng": -122.2915526302915}}}, "icon": "https://maps.gstatic.com/mapfiles/place_api/icons/generic_business-71.png", "id": "769c78ad80fb3a03ff5bd54a3c780e4de934ab7e", "name": "Gate 3 Workclub", "place_id": "ChIJFXe5r19-hYARKj5ubUyXkp8", "plus_code": {"compound_code": "RPX5+4W Emeryville, California, United States", "global_code": "849VRPX5+4W"}, "reference": "ChIJFXe5r19-hYARKj5ubUyXkp8", "scope": "GOOGLE", "types": ["real_estate_agency", "point_of_interest", "establishment"], "vicinity": "1285 66th Street, Emeryville"}, "ChIJi-cbsl9-hYARJy3qDtN_-oc": {"geometry": {"location": {"lat": 37.8477782, "lng": -122.2901349}, "viewport": {"northeast": {"lat": 37.8493130802915, "lng": -122.2888480197085}, "southwest": {"lat": 37.84661511970851, "lng": -122.2915459802915}}}, "icon": "https://maps.gstatic.com/mapfiles/place_api/icons/generic_business-71.png", "id": "442bc641708609c5b98f804c13ba4e3afb1c3180", "name": "802 Secure", "opening_hours": {"open_now": false}, "photos": [{"height": 1102, "html_attributions": ["<a href=\"https://maps.google.com/maps/contrib/117883212749510768675/photos\">802 Secure</a>"], "photo_reference": "CmRaAAAA-ioECCBwYP5QPggxq8m_tKviwPqlXtbsBkD0Hq19-pMSnyEEcTDiONG9hZ_IU0O4uroaNLjUw515h0XMya7XFCshHR5mOeRXfmL8RDh-iNFs6FOdP8MHlge1F-g37KovEhCd_G8irN-7iTAqei3KgeB_GhQYwgNsnGjBjfdxYGYlaU9wxoBhcg", "width": 1980}], "place_id": "ChIJi-cbsl9-hYARJy3qDtN_-oc", "plus_code": {"compound_code": "RPX5+4W Emeryville, California, United States", "global_code": "849VRPX5+4W"}, "reference": "ChIJi-cbsl9-hYARJy3qDtN_-oc", "scope": "GOOGLE", "types": ["point_of_interest", "establishment"], "vicinity": "1285 66th Street, Emeryville"}, "ChIJs44f6hR-hYARB3GwqDEYHUg": {"geometry": {"location": {"lat": 37.831316, "lng": -122.2852473}, "viewport": {"northeast": {"lat": 37.8499259, "lng": -122.276123}, "southwest": {"lat": 37.8268948, "lng": -122.3154701}}}, "icon": "https://maps.gstatic.com/mapfiles/place_api/icons/geocode-71.png", "id": "50264385d03c71c7c39b656a05a99231106dfb05", "name": "Emeryville", "photos": [{"height": 3024, "html_attributions": ["<a href=\"https://maps.google.com/maps/contrib/105925452919882592532/photos\">Rene&#39; Bennett</a>"], "photo_reference": "CmRaAAAA40CKHG-zHsmg2XWvDvKhtlKlzyC44dsREIdeTVRMDdANUiVGZZ-RfEFJvF6KwTLA6TlMHuECr-ugBcHCvet8vb9Tvx2wrTC-DkPSSlGtcN4-oQrigQ0wFQcFt7vsMzFxEhAUu1A6Jr58PjEYAJRlNCJkGhQd07hw_Q-kexyh7u2PrISaPkd-Zg", "width": 4032}], "place_id": "ChIJs44f6hR-hYARB3GwqDEYHUg", "reference": "ChIJs44f6hR-hYARB3GwqDEYHUg", "scope": "GOOGLE", "types": ["locality", "political"], "vicinity": "Emeryville"}}