{"ChIJ94D205h-hYARRUDZjp7364k": {"geometry": {"location": {"lat": 37.8726162, "lng": -122.2713658}, "viewport": {"northeast": {"lat": 37.8739651802915, "lng": -122.2700167697085}, "southwest": {"lat": 37.8712672197085, "lng": -122.2727147302915}}}, "icon": "https://maps.gstatic.com/mapfiles/place_api/icons/geocode-71.png", "id": "dd255274813e39899478cff705ce4d080f0e1cc6", "name": "1999-1933 Berkeley Way", "place_id": "ChIJ94D205h-hYARRUDZjp7364k", "reference": "ChIJ94D205h-hYARRUDZjp7364k", "scope": "GOOGLE", "types": ["route"], "vicinity": "Berkeley"}, "ChIJOWt205h-hYARCaoDw27hMH4": {"geometry": {"location": {"lat": 37.87275899999999, "lng": -122.2712008}, "viewport": {"northeast": {"lat": 37.8740483802915, "lng": -122.2698398697085}, "southwest": {"lat": 37.8713504197085, "lng": -122.2725378302915}}}, "icon": "https://maps.gstatic.com/mapfiles/place_api/icons/generic_business-71.png", "id": "193eb17e3696f0c0f55d8c612b21d277943a69b9", "name": "M B Apartments", "place_id": "ChIJOWt205h-hYARCaoDw27hMH4", "plus_code": {"compound_code": "VPFH+4G Berkeley, California, United States", "global_code": "849VVPFH+4G"}, "rating": 4, "reference": "ChIJOWt205h-hYARCaoDw27hMH4", "scope": "GOOGLE", "types": ["real_estate_agency", "point_of_interest", "establishment"], "vicinity": "1945 Berkeley Way, Berkeley"}, "ChIJ8x2mxJh-hYARSkhN3kN0gak": {"geometry": {"location": {"lat": 37.8727822, "lng": -122.2720933}, "viewport": {"northeast": {"lat": 37.8741340802915, "lng": -122.2707023197085}, "southwest": {"lat": 37.8714361197085, "lng": -122.2734002802915}}}, "icon": "https://maps.gstatic.com/mapfiles/place_api/icons/generic_business-71.png", "id": "2adfb7d467854d17a7ac66bf4cbef27cf9b8d6d4", "name": "Marlene Winell, Ph.D.", "opening_hours": {"open_now": true}, "photos": [{"height": 561, "html_attributions": ["<a href=\"https://maps.google.com/maps/contrib/107053683889593586318/photos\">Marlene Winell, Ph.D.</a>"], "photo_reference": "CmRaAAAAZaGCHGg5_c4llOJ0JBcvAPRfX3WuopLkv2cq2ZMlOD5ZEAL2O2MNMXro3hDe9qJu0c3CMCjs1HVCVYiGVIMeC8liP91tCnhDtX944SRAI1eVtLl-ErqSBlyIjX-BFWLhEhDhhkQbmHxLNh58X_g8cZGbGhRUtZaCrnAbrZUd5Z3-SywFtH_emg", "width": 521}], "place_id": "ChIJ8x2mxJh-hYARSkhN3kN0gak", "plus_code": {"compound_code": "VPFH+45 Berkeley, California, United States", "global_code": "849VVPFH+45"}, "rating": 5, "reference": "ChIJ8x2mxJh-hYARSkhN3kN0gak", "scope": "GOOGLE", "types": ["health", "point_of_interest", "establishment"], "vicinity": "1918 Bonita Avenue, Berkeley"}, "ChIJWw8Oy5h-hYARPtLOFfkc4rc": {"geometry": {"location": {"lat": 37.8734038, "lng": -122.2712086}, "viewport": {"northeast": {"lat": 37.8748341802915, "lng": -122.2698766197085}, "southwest": {"lat": 37.8721362197085, "lng": -122.2725745802915}}}, "icon": "https://maps.gstatic.com/mapfiles/place_api/icons/generic_business-71.png", "id": "7f47a8fd10643e20ee574d835c740d350676e6f9", "name": "Center For Educational Telecom", "place_id": "ChIJWw8Oy5h-hYARPtLOFfkc4rc", "plus_code": {"compound_code": "VPFH+9G Berkeley, California, United States", "global_code": "849VVPFH+9G"}, "rating": 4, "reference": "ChIJWw8Oy5h-hYARPtLOFfkc4rc", "scope": "GOOGLE", "types": ["point_of_interest", "establishment"], "vicinity": "1940 Hearst Avenue, Berkeley"}, "ChIJI5vuxJh-hYARN6xjlzRtRJs": {"geometry": {"location": {"lat": 37.87281639999999, "lng": -122.2717945}, "viewport": {"northeast": {"lat": 37.87415788029149, "lng": -122.2705536697085}, "southwest": {"lat": 37.87145991970849, "lng": -122.2732516302915}}}, "icon": "https://maps.gstatic.com/mapfiles/place_api/icons/generic_business-71.png", "id": "c27cbac694f866f2ff062309a0a2b92a56e41e0f", "name": "Donnie Gayfield", "place_id": "ChIJI5vuxJh-hYARN6xjlzRtRJs", "plus_code": {"compound_code": "VPFH+47 Berkeley, California, United States", "global_code": "849VVPFH+47"}, "reference": "ChIJI5vuxJh-hYARN6xjlzRtRJs", "scope": "GOOGLE", "types": ["health", "point_of_interest", "establishment"], "vicinity": "1919 Bonita Avenue, Berkeley"}, "ChIJoxvxyJh-hYARD-5ItTzJjCY": {"geometry": {"location": {"lat": 37.87315110000001, "lng": -122.2716361}, "viewport": {"northeast": {"lat": 37.8746773802915, "lng": -122.2703241697085}, "southwest": {"lat": 37.8719794197085, "lng": -122.2730221302915}}}, "icon": "https://maps.gstatic.com/mapfiles/place_api/icons/generic_business-71.png", "id": "7bd1f56bfe7621e5f0a27dc22820502d2ede0f44", "name": "CSpace Hostings", "opening_hours": {"open_now": true}, "photos": [{"height": 466, "html_attributions": ["<a href=\"https://maps.google.com/maps/contrib/116994051805653863332/photos\">CSpace Hostings</a>"], "photo_reference": "CmRaAAAAAzkMZiyukKiApo0YlsM3LuQzxIelGSmsDX0r_DkxfR247GmNv4fKO6Kjki1Jkw6DDSA4ckrJdDWYCgyWISEXkFhrKAFjzTbSBy47l5MHdqLXpY89IW-azlXPNbolqrJZEhATbtdkL5MH_TsuVpOPCI5WGhT40s0s2eW-slV0cPUk8ndPIs3Dpw", "width": 1601}], "place_id": "ChIJoxvxyJh-hYARD-5ItTzJjCY", "plus_code": {"compound_code": "VPFH+78 Berkeley, California, United States", "global_code": "849VVPFH+78"}, "rating": 5, "reference": "ChIJoxvxyJh-hYARD-5ItTzJjCY", "scope": "GOOGLE", "types": ["point_of_interest", "establishment"], "vicinity": "1930 Hearst Avenue, Berkeley"}, "ChIJP1g6kBl_hYAR8OoDpOWkSOg": {"geometry": {"location": {"lat": 37.8731824, "lng": -122.2715795}, "viewport": {"northeast": {"lat": 37.87453138029149, "lng": -122.2702305197085}, "southwest": {"lat": 37.87183341970849, "lng": -122.2729284802915}}}, "icon": "https://maps.gstatic.com/mapfiles/place_api/icons/generic_business-71.png", "id": "a3997027863769a16d92254e87c8147b56f871d8", "name": "Sunday Streets", "opening_hours": {"open_now": false}, "photos": [{"height": 1960, "html_attributions": ["<a href=\"https://maps.google.com/maps/contrib/107721404123505875377/photos\">Albert L.</a>"], "photo_reference": "CmRaAAAAuG8zbUyz_sdutnrBPTkdAs-PWNQMpIpGOui7CHBDnGmwAEoTAW3H9qjZhxCMIFMJ-WSAlZ8mdCU4EXKdg0ctnErvhVQcvcNRd0rKmU_hLI6n0DH8uNOJ99jMU37OT938EhCWj7pgxhgGh8NYdBi_vAx3GhRrHAKudoDysCZIqIeeTalkdmHq-g", "width": 4032}], "place_id": "ChIJP1g6kBl_hYAR8OoDpOWkSOg", "plus_code": {"compound_code": "VPFH+79 Berkeley, California, United States", "global_code": "849VVPFH+79"}, "rating": 5, "reference": "ChIJP1g6kBl_hYAR8OoDpOWkSOg", "scope": "GOOGLE", "types": ["point_of_interest", "establishment"], "vicinity": "Berkeley"}, "ChIJ5_z0w5h-hYARHuDLY7y3uUA": {"geometry": {"location": {"lat": 37.872894, "lng": -122.2721354}, "viewport": {"northeast": {"lat": 37.87424693029149, "lng": -122.2707297197085}, "southwest": {"lat": 37.8715489697085, "lng": -122.2734276802915}}}, "icon": "https://maps.gstatic.com/mapfiles/place_api/icons/generic_business-71.png", "id": "722f2cf5c7a435cc2d8f14488d02d715775d6c6f", "name": "Decisioncounsel", "place_id": "ChIJ5_z0w5h-hYARHuDLY7y3uUA", "plus_code": {"compound_code": "VPFH+54 Berkeley, California, United States", "global_code": "849VVPFH+54"}, "reference": "ChIJ5_z0w5h-hYARHuDLY7y3uUA", "scope": "GOOGLE", "types": ["point_of_interest", "establishment"], "vicinity": "1912 Bonita Avenue, Berkeley"}, "ChIJ00mFOjZ5hYARk-l1ppUV6pQ": {"geometry": {"location": {"lat": 37.8715926, "lng": -122.272747}, "viewport": {"northeast": {"lat": 37.9058239, "lng": -122.234179}, "southwest": {"lat": 37.835727, "lng": -122.367781}}}, "icon": "https://maps.gstatic.com/mapfiles/place_api/icons/geocode-71.png", "id": "00741fe572fc4084428ab206e1a55830f6a1bf0a", "name": "Berkeley", "photos": [{"height": 1080, "html_attributions": ["<a href=\"https://maps.google.com/maps/contrib/110244590763501513798/photos\">miao hsin sun</a>"], "photo_reference": "CmRaAAAAyY2uZ7K4bHZwY4xV0C_v4_zPwJjRiSSV1rGissUgCDQZ-D5qI1Z7pTNB6NFc46rZk2j8yemVQDAjIbwvQSjYHv4zs8j_iF8E1R5TCaFoNvhjNtxRRiNdsRoRXQ-0lpYtEhBLUrLjlylHfa9MIc956iQdGhTc84FBdWLCNWPGAsQvItJuxPj1Pg", "width": 1616}], "place_id": "ChIJ00mFOjZ5hYARk-l1ppUV6pQ", "reference": "ChIJ00mFOjZ5hYARk-l1ppUV6pQ", "scope": "GOOGLE", "types": ["locality", "political"], "vicinity": "Berkeley"}}