{"ChIJxfsY7i58hYARlclKLvWqqGQ": {"geometry": {"location": {"lat": 37.8661545, "lng": -122.2576217}, "viewport": {"northeast": {"lat": 37.8675034302915, "lng": -122.2562727197085}, "southwest": {"lat": 37.8648054697085, "lng": -122.2589706802915}}}, "icon": "https://maps.gstatic.com/mapfiles/place_api/icons/geocode-71.png", "id": "6b71615812c5ef5832b8a350df833aa433d03862", "name": "2530-2556 Haste St", "place_id": "ChIJxfsY7i58hYARlclKLvWqqGQ", "reference": "ChIJxfsY7i58hYARlclKLvWqqGQ", "scope": "GOOGLE", "types": ["route"], "vicinity": "Berkeley"}, "ChIJGzjK-y58hYARab8WBP4a87U": {"geometry": {"location": {"lat": 37.86664200000001, "lng": -122.257316}, "viewport": {"northeast": {"lat": 37.8679897802915, "lng": -122.2557477197085}, "southwest": {"lat": 37.8652918197085, "lng": -122.2584456802915}}}, "icon": "https://maps.gstatic.com/mapfiles/place_api/icons/generic_business-71.png", "id": "18848d87b25ab297dd4da89626e5b87a8dba328d", "name": "Survey Research Center", "place_id": "ChIJGzjK-y58hYARab8WBP4a87U", "plus_code": {"compound_code": "VP8V+M3 Berkeley, California, United States", "global_code": "849VVP8V+M3"}, "reference": "ChIJGzjK-y58hYARab8WBP4a87U", "scope": "GOOGLE", "types": ["point_of_interest", "establishment"], "vicinity": "2538 Channing Way # C, Berkeley"}, "ChIJ6fqUAi98hYARx2MEHvJt_YY": {"geometry": {"location": {"lat": 37.8665216, "lng": -122.2569996}, "viewport": {"northeast": {"lat": 37.8678827802915, "lng": -122.2555762197085}, "southwest": {"lat": 37.8651848197085, "lng": -122.2582741802915}}}, "icon": "https://maps.gstatic.com/mapfiles/place_api/icons/school-71.png", "id": "35897fdd933f3922dd80f0bacd5ead95fbb6cc3f", "name": "Miller Institute", "photos": [{"height": 2448, "html_attributions": ["<a href=\"https://maps.google.com/maps/contrib/100659945207991378309/photos\">Millerinstitute Departmental</a>"], "photo_reference": "CmRaAAAA3iw0m9FVy5cqhBgfzrf9PNchMbTPKZU8DckCWU9jzcbVLAqfdN3xn0jJrW6G4Yh8-bnNvD1TMpfAF63-VSbGOx_SRX5-CKjesgAia6LbRrNo9X4lwwK8kMG1lSiXfa5cEhDEiJXNDibnyzdqfCyJeTA8GhT8b8C6zJaq6m5hWAxUkcoQmv_D3A", "width": 3264}], "place_id": "ChIJ6fqUAi98hYARx2MEHvJt_YY", "plus_code": {"compound_code": "VP8V+J6 Berkeley, California, United States", "global_code": "849VVP8V+J6"}, "reference": "ChIJ6fqUAi98hYARx2MEHvJt_YY", "scope": "GOOGLE", "types": ["university", "point_of_interest", "establishment"], "vicinity": "2538 D-104 Channing Way, Berkeley"}, "ChIJt2Uz-C58hYARSA1o8xoGAzQ": {"geometry": {"location": {"lat": 37.866614, "lng": -122.257051}, "viewport": {"northeast": {"lat": 37.86797728029151, "lng": -122.2556146197085}, "southwest": {"lat": 37.86527931970851, "lng": -122.2583125802915}}}, "icon": "https://maps.gstatic.com/mapfiles/place_api/icons/generic_business-71.png", "id": "e9b3994f7287260a1b436bccce06cf65a8ae9714", "name": "Center for Community Innovation", "place_id": "ChIJt2Uz-C58hYARSA1o8xoGAzQ", "plus_code": {"compound_code": "VP8V+J5 Berkeley, California, United States", "global_code": "849VVP8V+J5"}, "reference": "ChIJt2Uz-C58hYARSA1o8xoGAzQ", "scope": "GOOGLE", "types": ["point_of_interest", "establishment"], "vicinity": "2538 Channing Way Bldg. 9, 204, Berkeley"}, "ChIJ00mFOjZ5hYARk-l1ppUV6pQ": {"geometry": {"location": {"lat": 37.8715926, "lng": -122.272747}, "viewport": {"northeast": {"lat": 37.9058239, "lng": -122.234179}, "southwest": {"lat": 37.835727, "lng": -122.367781}}}, "icon": "https://maps.gstatic.com/mapfiles/place_api/icons/geocode-71.png", "id": "00741fe572fc4084428ab206e1a55830f6a1bf0a", "name": "Berkeley", "photos": [{"height": 1080, "html_attributions": ["<a href=\"https://maps.google.com/maps/contrib/110244590763501513798/photos\">miao hsin sun</a>"], "photo_reference": "CmRaAAAADoKnpr3xFQ5-9iQmNpZXZvoNOFEjXFZLaQZU02016m8Q5Ju72O6z93gv20ULHzVZP3AmL_HXvvroEDbIb895uznmxNLRNxAYZmW3AeNnPsMLvhXP7GLv52HP6YRwgZ-CEhAqmiMqtfpbqF_puNiJAbhTGhRJa5gxgVSJBUyukr9SfzGlp3rAcw", "width": 1616}], "place_id": "ChIJ00mFOjZ5hYARk-l1ppUV6pQ", "reference": "ChIJ00mFOjZ5hYARk-l1ppUV6pQ", "scope": "GOOGLE", "types": ["locality", "political"], "vicinity": "Berkeley"}}