{"ChIJR27_bCV8hYARFzmxIMeAIW4": {"geometry": {"location": {"lat": 37.8709193, "lng": -122.2559708}, "viewport": {"northeast": {"lat": 37.8722707302915, "lng": -122.2546181697085}, "southwest": {"lat": 37.8695727697085, "lng": -122.2573161302915}}}, "icon": "https://maps.gstatic.com/mapfiles/place_api/icons/geocode-71.png", "id": "fa0c1fb4ebc9e344420cb3689aa834643ec07b72", "name": "Birge Path", "place_id": "ChIJR27_bCV8hYARFzmxIMeAIW4", "reference": "ChIJR27_bCV8hYARFzmxIMeAIW4", "scope": "GOOGLE", "types": ["route"], "vicinity": "Berkeley"}, "ChIJI51AQSV8hYARubof_zlgX4E": {"geometry": {"location": {"lat": 37.87124349999999, "lng": -122.2553283}, "viewport": {"northeast": {"lat": 37.8728454802915, "lng": -122.2540549697085}, "southwest": {"lat": 37.8701475197085, "lng": -122.2567529302915}}}, "icon": "https://maps.gstatic.com/mapfiles/place_api/icons/generic_business-71.png", "id": "7dcbf2848f3e59e4e21d9b3b9d33fa9f8a8a06c7", "name": "Meredith W. Morgan University Eye Center", "opening_hours": {"open_now": false}, "photos": [{"height": 2988, "html_attributions": ["<a href=\"https://maps.google.com/maps/contrib/110049409115304935714/photos\">michael moss</a>"], "photo_reference": "CmRaAAAAwFwnNNVDu2dzPnW0_kXopE0tlpEjDz_9mY_f-gCmyapdLnNOsGsc2c63hLfUJ79Vyv9EKzXFNHe8SkObV7VLLQkAfOXTf1avAb2GgcZ92amugmGWcs8iseHs0QJSjAIVEhCKqXRU9oMf5RhvngG6zp2rGhSrqT5rcNfDf5K9kkvrDseWo45d2A", "width": 5312}], "place_id": "ChIJI51AQSV8hYARubof_zlgX4E", "plus_code": {"compound_code": "VPCV+FV Berkeley, California, United States", "global_code": "849VVPCV+FV"}, "rating": 4.7, "reference": "ChIJI51AQSV8hYARubof_zlgX4E", "scope": "GOOGLE", "types": ["health", "point_of_interest", "establishment"], "vicinity": "200 Minor Lane, Berkeley"}, "ChIJd4OfayV8hYARxzqpByLsIkY": {"geometry": {"location": {"lat": 37.8710584, "lng": -122.2557289}, "viewport": {"northeast": {"lat": 37.87240738029149, "lng": -122.2543799197085}, "southwest": {"lat": 37.86970941970849, "lng": -122.2570778802915}}}, "icon": "https://maps.gstatic.com/mapfiles/place_api/icons/generic_business-71.png", "id": "a77ed68de3af558da9aab27e9bded41bc3d151ec", "name": "Hertz Hall", "photos": [{"height": 2510, "html_attributions": ["<a href=\"https://maps.google.com/maps/contrib/101358646977284813316/photos\">Troy Trevino</a>"], "photo_reference": "CmRZAAAA8BgcwgyTsgcktvL04pqHo3VWOaGNhceCb3S2dEUo-e5YHE8_lmUAhlxJ1lj4mPaP48Xz0YsNu184zwTwg7ZyJ76tdyns6bEFkNyY4W7M4Ig2v6kO88JkWFqcrO0eDKTAEhCA6CK0b9eVG3OAPmL2YZHQGhQp6Rxt7DiTKqR-TMBEugmJxykCaQ", "width": 2510}], "place_id": "ChIJd4OfayV8hYARxzqpByLsIkY", "plus_code": {"compound_code": "VPCV+CP Berkeley, California, United States", "global_code": "849VVPCV+CP"}, "rating": 5, "reference": "ChIJd4OfayV8hYARxzqpByLsIkY", "scope": "GOOGLE", "types": ["university", "point_of_interest", "establishment"], "vicinity": "101 Cross-Sproul Path, Berkeley"}, "ChIJ4fONNyV8hYARdhiTzi6_Nfo": {"geometry": {"location": {"lat": 37.871242, "lng": -122.255328}, "viewport": {"northeast": {"lat": 37.8728447302915, "lng": -122.2540548197085}, "southwest": {"lat": 37.8701467697085, "lng": -122.2567527802915}}}, "icon": "https://maps.gstatic.com/mapfiles/place_api/icons/generic_business-71.png", "id": "d2b5b64bcda7574750967b43caaec311d54c855e", "name": "Meredith Morgan Eye Center", "opening_hours": {"open_now": false}, "photos": [{"height": 581, "html_attributions": ["<a href=\"https://maps.google.com/maps/contrib/108158796542186585977/photos\">Sheila Marrow</a>"], "photo_reference": "CmRaAAAA93GpdXe_61F1xWgZIK6a-JOMUFZfqLQuIx9Lv_IFdsrk4W-MDLMFza7f5h3oicOlgwH0Q8Dr0knnMWp3dzyys4cMzxSoGm-oYfQ-w5cPu15805SsjLuSMyYdtWgkp-5JEhBSZupPH8UIGiBOHRf3CmCqGhSoy5BAs5HIK3lBbkb1zGN7hK68eg", "width": 1032}], "place_id": "ChIJ4fONNyV8hYARdhiTzi6_Nfo", "plus_code": {"compound_code": "VPCV+FV Berkeley, California, United States", "global_code": "849VVPCV+FV"}, "rating": 4.1, "reference": "ChIJ4fONNyV8hYARdhiTzi6_Nfo", "scope": "GOOGLE", "types": ["university", "health", "point_of_interest", "establishment"], "vicinity": "200 Minor Lane, Berkeley"}, "ChIJGVolcyV8hYARJM2OT60B5EI": {"geometry": {"location": {"lat": 37.870892, "lng": -122.2563905}, "viewport": {"northeast": {"lat": 37.8717081802915, "lng": -122.2548798697085}, "southwest": {"lat": 37.8690102197085, "lng": -122.2575778302915}}}, "icon": "https://maps.gstatic.com/mapfiles/place_api/icons/school-71.png", "id": "107f957315413adbf083237277455a86ba69f437", "name": "Morrison Hall", "photos": [{"height": 3036, "html_attributions": ["<a href=\"https://maps.google.com/maps/contrib/114076125125757577003/photos\">Lukman Winoto</a>"], "photo_reference": "CmRaAAAA_zM4XfWtiUodtE34seyrA_PjQZbAI_SHsv5dltPWTT_EOSw1F6jdtEe3Vx2saq4Nw7xLAINPluycAIsTsyw_a_vq0jpuyj_4bcHanUgotmTBTYY8i8z4TQZVoRBkvjt3EhCX58b0UGo_XJYRsbhxM7ObGhSatREgHYDglKsWfY36tCsiDWpinw", "width": 4048}], "place_id": "ChIJGVolcyV8hYARJM2OT60B5EI", "plus_code": {"compound_code": "VPCV+9C Berkeley, California, United States", "global_code": "849VVPCV+9C"}, "reference": "ChIJGVolcyV8hYARJM2OT60B5EI", "scope": "GOOGLE", "types": ["university", "point_of_interest", "establishment"], "vicinity": "Berkeley"}, "ChIJO9dYPyV8hYARRbAu9tV4L2Y": {"geometry": {"location": {"lat": 37.8713112, "lng": -122.2551727}, "viewport": {"northeast": {"lat": 37.8725584802915, "lng": -122.2537842697085}, "southwest": {"lat": 37.8698605197085, "lng": -122.2564822302915}}}, "icon": "https://maps.gstatic.com/mapfiles/place_api/icons/school-71.png", "id": "9ba402e16876688d021f8aa12272a4a4180577ed", "name": "Minor Hall Addition", "opening_hours": {"open_now": false}, "photos": [{"height": 4032, "html_attributions": ["<a href=\"https://maps.google.com/maps/contrib/112330736295257726603/photos\">Kevin Jiao</a>"], "photo_reference": "CmRaAAAA6QUytXf9E7Pw3vRRjHI4G5rQ9w62pvFmF_-njsRuEOO66GnGdWW_frk_Xb0kg-NqCz1knhsfQ2OQfdPkmOUYYvpn2CBCL--2doL9M4WGYpiMtUMYYl25aL29gfB3Wf6PEhCaZGEFcGDX2m0r4rCsrp_RGhQFR4tv5k5wVOnE4z-DWauv9dfvvA", "width": 3024}], "place_id": "ChIJO9dYPyV8hYARRbAu9tV4L2Y", "plus_code": {"compound_code": "VPCV+GW Berkeley, California, United States", "global_code": "849VVPCV+GW"}, "rating": 5, "reference": "ChIJO9dYPyV8hYARRbAu9tV4L2Y", "scope": "GOOGLE", "types": ["university", "point_of_interest", "establishment"], "vicinity": "200 Optometry Lane, Berkeley"}, "ChIJ00mFOjZ5hYARk-l1ppUV6pQ": {"geometry": {"location": {"lat": 37.8715926, "lng": -122.272747}, "viewport": {"northeast": {"lat": 37.9058239, "lng": -122.234179}, "southwest": {"lat": 37.835727, "lng": -122.367781}}}, "icon": "https://maps.gstatic.com/mapfiles/place_api/icons/geocode-71.png", "id": "00741fe572fc4084428ab206e1a55830f6a1bf0a", "name": "Berkeley", "photos": [{"height": 1080, "html_attributions": ["<a href=\"https://maps.google.com/maps/contrib/110244590763501513798/photos\">miao hsin sun</a>"], "photo_reference": "CmRaAAAA7OyYrfo3fQPjOzYg0TSlXHimzBFqhn8HgwhmwetjQMw_EuKtwC6dmkUDGSWN-TOcXBy-6WcBEXZrNqL_m4356lJAydUbcJMAHUw9V3qwCnYSNtIIf3URu8hoOzg7s6EJEhAEnBnz2GECyHNl__FceomCGhRCXPTjijAJf8iifa-scsG6tGZTNg", "width": 1616}], "place_id": "ChIJ00mFOjZ5hYARk-l1ppUV6pQ", "reference": "ChIJ00mFOjZ5hYARk-l1ppUV6pQ", "scope": "GOOGLE", "types": ["locality", "political"], "vicinity": "Berkeley"}}