{"ChIJL7tYQJ5-hYAR8Tp5fkZNCdw": {"geometry": {"location": {"lat": 37.8726192, "lng": -122.2669209}, "viewport": {"northeast": {"lat": 37.87396818029151, "lng": -122.2655719697085}, "southwest": {"lat": 37.87127021970851, "lng": -122.2682699302915}}}, "icon": "https://maps.gstatic.com/mapfiles/place_api/icons/geocode-71.png", "id": "d467ae567181bc74fb11c6b375774b4530e9402b", "name": "1900-1998 Walnut St", "place_id": "ChIJL7tYQJ5-hYAR8Tp5fkZNCdw", "reference": "ChIJL7tYQJ5-hYAR8Tp5fkZNCdw", "scope": "GOOGLE", "types": ["route"], "vicinity": "Berkeley"}, "ChIJMcOsP55-hYARHTQro0WwlGY": {"geometry": {"location": {"lat": 37.8725081, "lng": -122.2667857}, "viewport": {"northeast": {"lat": 37.8738029302915, "lng": -122.2654252697085}, "southwest": {"lat": 37.8711049697085, "lng": -122.2681232302915}}}, "icon": "https://maps.gstatic.com/mapfiles/place_api/icons/restaurant-71.png", "id": "ba7bece54efada87ca9772c84390a9d98df9eb64", "name": "Brazil Cafe", "opening_hours": {"open_now": true}, "photos": [{"height": 3000, "html_attributions": ["<a href=\"https://maps.google.com/maps/contrib/108320224573839197933/photos\">Randy F.</a>"], "photo_reference": "CmRaAAAAejg52EHPTt7x60_I35zRX98qHcHIW8FBWFJ_R2tT26EL2ixZ8pLUkCwKzng7PYnuWJloEFzUredydmUM7-IvqBvUifDGsbx4ZD88zQqM5QDkS0-OK0enegc_IN4MbxSFEhCzllTUFq6hM9ioj5G8o7mUGhSvqUiu0yUWEodZlCc2verfgabyWw", "width": 4000}], "place_id": "ChIJMcOsP55-hYARHTQro0WwlGY", "plus_code": {"compound_code": "VPFM+27 Berkeley, California, United States", "global_code": "849VVPFM+27"}, "price_level": 1, "rating": 4.5, "reference": "ChIJMcOsP55-hYARHTQro0WwlGY", "scope": "GOOGLE", "types": ["restaurant", "point_of_interest", "food", "establishment"], "vicinity": "2161 University Avenue, Berkeley"}, "ChIJw5ZlO6F-hYARsH1HZqEg1HM": {"geometry": {"location": {"lat": 37.8725413, "lng": -122.2674269}, "viewport": {"northeast": {"lat": 37.8737805302915, "lng": -122.2660559697085}, "southwest": {"lat": 37.8710825697085, "lng": -122.2687539302915}}}, "icon": "https://maps.gstatic.com/mapfiles/place_api/icons/generic_business-71.png", "id": "0829dc87a2027e09142172b5051b5602fb269516", "name": "Vaya Adventures", "opening_hours": {"open_now": true}, "photos": [{"height": 2600, "html_attributions": ["<a href=\"https://maps.google.com/maps/contrib/107944395978421578185/photos\">Vaya Adventures</a>"], "photo_reference": "CmRaAAAAVYnsz0ZxiLg5mvgeX4rtt63n5W38uc5cp01vOFpTEGhtgYGfBFYI6DbeVfu69prlLkqbDSolNEaKZwWJ7HqO-0kOCEHEHWpAGlic5FhvgLo6ci7mLttI-nUOduVoN3syEhB7DgP-L3xg-CdEKJakDFEkGhR1KPNK_DNt3RVpDM-7yyoNUs2ZzQ", "width": 3900}], "place_id": "ChIJw5ZlO6F-hYARsH1HZqEg1HM", "plus_code": {"compound_code": "VPFM+22 Berkeley, California, United States", "global_code": "849VVPFM+22"}, "rating": 5, "reference": "ChIJw5ZlO6F-hYARsH1HZqEg1HM", "scope": "GOOGLE", "types": ["travel_agency", "point_of_interest", "establishment"], "vicinity": "2120 University Avenue, Berkeley"}, "ChIJD33nXZ5-hYARX4vTFwNv424": {"geometry": {"location": {"lat": 37.87235189999999, "lng": -122.2678677}, "viewport": {"northeast": {"lat": 37.87365673029149, "lng": -122.2665096197085}, "southwest": {"lat": 37.87095876970849, "lng": -122.2692075802915}}}, "icon": "https://maps.gstatic.com/mapfiles/place_api/icons/generic_business-71.png", "id": "8d60302c1467422ae0ac05f426f9bb98d685994b", "name": "Bachenheimer Apartments", "opening_hours": {"open_now": true}, "photos": [{"height": 338, "html_attributions": ["<a href=\"https://maps.google.com/maps/contrib/106259688677973523247/photos\">Bachenheimer Apartments</a>"], "photo_reference": "CmRaAAAAuOUYfjHdvZv3bPo_bkGWgrO0fRkLtsB_QemGYBF26C5hJ7NRmLQ43Km_k5t84WpAF6qZipO4yMp_ZNMcXJ1Ump2dfF1p2XLTlkdFeWmJ9HJsBpkm2FeDoWLylH0ydMnMEhCULr0Gk3tdKfgpQSP8fITTGhTOaEmNp1ziJL6xkSmNxC06wIkfaA", "width": 600}], "place_id": "ChIJD33nXZ5-hYARX4vTFwNv424", "plus_code": {"compound_code": "VPCJ+WV Berkeley, California, United States", "global_code": "849VVPCJ+WV"}, "rating": 2.8, "reference": "ChIJD33nXZ5-hYARX4vTFwNv424", "scope": "GOOGLE", "types": ["real_estate_agency", "point_of_interest", "establishment"], "vicinity": "2119 University Avenue, Berkeley"}, "ChIJjcCJBJZ-hYARNlTdCOKQexY": {"geometry": {"location": {"lat": 37.872754, "lng": -122.267922}, "viewport": {"northeast": {"lat": 37.8742918302915, "lng": -122.2666131197085}, "southwest": {"lat": 37.87159386970851, "lng": -122.2693110802915}}}, "icon": "https://maps.gstatic.com/mapfiles/place_api/icons/worship_general-71.png", "id": "d801de6d14fdffdf5beb5b69ab8a964499638092", "name": "Channel Church", "opening_hours": {"open_now": true}, "photos": [{"height": 2993, "html_attributions": ["<a href=\"https://maps.google.com/maps/contrib/102007995393718403068/photos\">Channel Church</a>"], "photo_reference": "CmRaAAAAn3iN3DIwMX02Km_9aCxCHGWz6gQxQJIOC56mORd2XwSU7TYabhE3ZrAf5u_vnXl9B4rrSCHUSmU5aoaA0jc_dsWay61V54OLOjTY_BNexcde8N_Wkdjn5b-R93DRACIgEhCzS8RW2uFtfm3SXaCrc1fqGhTPsuuFKhAUvl8DzfgEPV_2NJLSAQ", "width": 4489}], "place_id": "ChIJjcCJBJZ-hYARNlTdCOKQexY", "plus_code": {"compound_code": "VPFJ+4R Berkeley, California, United States", "global_code": "849VVPFJ+4R"}, "rating": 5, "reference": "ChIJjcCJBJZ-hYARNlTdCOKQexY", "scope": "GOOGLE", "types": ["church", "place_of_worship", "point_of_interest", "establishment"], "vicinity": "2114 Berkeley Way, Berkeley"}, "ChIJuwvtQp5-hYARapRtav2lhXs": {"geometry": {"location": {"lat": 37.872522, "lng": -122.2674224}, "viewport": {"northeast": {"lat": 37.87377093029149, "lng": -122.2660534197085}, "southwest": {"lat": 37.8710729697085, "lng": -122.2687513802915}}}, "icon": "https://maps.gstatic.com/mapfiles/place_api/icons/generic_business-71.png", "id": "a5d7bd3ffbc9cd90040f5b4db1743529b57987fe", "name": "Simcosm", "place_id": "ChIJuwvtQp5-hYARapRtav2lhXs", "plus_code": {"compound_code": "VPFM+22 Berkeley, California, United States", "global_code": "849VVPFM+22"}, "reference": "ChIJuwvtQp5-hYARapRtav2lhXs", "scope": "GOOGLE", "types": ["point_of_interest", "establishment"], "vicinity": "2131 University Avenue, Berkeley"}, "ChIJuwvtQp5-hYAR4icmccB7eS4": {"geometry": {"location": {"lat": 37.872522, "lng": -122.2674224}, "viewport": {"northeast": {"lat": 37.87377093029149, "lng": -122.2660534197085}, "southwest": {"lat": 37.8710729697085, "lng": -122.2687513802915}}}, "icon": "https://maps.gstatic.com/mapfiles/place_api/icons/generic_business-71.png", "id": "1eeb8720bc4a5a7e35e2e140d9f72b262f770b61", "name": "Better Builders Tech Inc", "place_id": "ChIJuwvtQp5-hYAR4icmccB7eS4", "plus_code": {"compound_code": "VPFM+22 Berkeley, California, United States", "global_code": "849VVPFM+22"}, "reference": "ChIJuwvtQp5-hYAR4icmccB7eS4", "scope": "GOOGLE", "types": ["general_contractor", "point_of_interest", "establishment"], "vicinity": "2131 University Avenue, Berkeley"}, "ChIJX7JVb55-hYARUg9baFqOlZs": {"geometry": {"location": {"lat": 37.8725413, "lng": -122.2674269}, "viewport": {"northeast": {"lat": 37.8737805302915, "lng": -122.2660559697085}, "southwest": {"lat": 37.8710825697085, "lng": -122.2687539302915}}}, "icon": "https://maps.gstatic.com/mapfiles/place_api/icons/generic_business-71.png", "id": "a1b862600fb500720f8a15e9cf143b93518d17c5", "name": "Drop Software Inc.", "photos": [{"height": 283, "html_attributions": ["<a href=\"https://maps.google.com/maps/contrib/105543019657698767114/photos\">Drop Software Inc.</a>"], "photo_reference": "CmRaAAAAfhD_VQVqQLQjD-vRojjed017IcPmije8FpdUkf2RJ89KS-9bgX5Ke3FznFqkP8vFEQ3iRCPv0eOLAIGSmeiHhsnysgYzllyWo5mKzFAoT5iJEtWs5hUbFweMFwo2UXDlEhA14vEb2LDw4nW2guQwiI2SGhQwuQWFy0gb5lqQTaxzKs1wxtQAnw", "width": 283}], "place_id": "ChIJX7JVb55-hYARUg9baFqOlZs", "plus_code": {"compound_code": "VPFM+22 Berkeley, California, United States", "global_code": "849VVPFM+22"}, "reference": "ChIJX7JVb55-hYARUg9baFqOlZs", "scope": "GOOGLE", "types": ["point_of_interest", "establishment"], "vicinity": "2120 University Avenue, Berkeley"}, "ChIJU9GhVp5-hYARvBTUxWRG86o": {"geometry": {"location": {"lat": 37.87302880000001, "lng": -122.2679767}, "viewport": {"northeast": {"lat": 37.8744294802915, "lng": -122.2666387197085}, "southwest": {"lat": 37.8717315197085, "lng": -122.2693366802915}}}, "icon": "https://maps.gstatic.com/mapfiles/place_api/icons/generic_business-71.png", "id": "8db2a6503735254ef5cb4c8e6d5f9ee679e090f8", "name": "Blow Salon", "opening_hours": {"open_now": true}, "photos": [{"height": 3024, "html_attributions": ["<a href=\"https://maps.google.com/maps/contrib/114249549641346171307/photos\">Blow Salon</a>"], "photo_reference": "CmRaAAAAA5xvVphqUUS9KJe9POKQy06ByYXWsrhysXVEkOBVWQ9h5XEnkF-bxTrbTV9JiPTRwEWWclnfQdmPpY5iDiFmCVentebwjTUEIVizqdUnnM-d5Lu4i6NtXMPKoUK3nc1iEhC4bQqPNDSNgtYZOWqgTsfBGhRRycE1AHpNBtleiquCgVp0trdd2A", "width": 3024}], "place_id": "ChIJU9GhVp5-hYARvBTUxWRG86o", "plus_code": {"compound_code": "VPFJ+6R Berkeley, California, United States", "global_code": "849VVPFJ+6R"}, "rating": 4.9, "reference": "ChIJU9GhVp5-hYARvBTUxWRG86o", "scope": "GOOGLE", "types": ["hair_care", "point_of_interest", "establishment"], "vicinity": "2112 Berkeley Way, Berkeley"}, "ChIJhfKlVp5-hYARH5RV3yoxnDU": {"geometry": {"location": {"lat": 37.87303070000001, "lng": -122.2678817}, "viewport": {"northeast": {"lat": 37.87443658029149, "lng": -122.2665448197085}, "southwest": {"lat": 37.87173861970849, "lng": -122.2692427802915}}}, "icon": "https://maps.gstatic.com/mapfiles/place_api/icons/generic_business-71.png", "id": "02f3cc84f7516ed0d7ab9906d99690647c270732", "name": "Channel Center", "opening_hours": {"open_now": true}, "photos": [{"height": 720, "html_attributions": ["<a href=\"https://maps.google.com/maps/contrib/109139526919773737109/photos\">Channel Center</a>"], "photo_reference": "CmRaAAAAlKecCurC_nsImfUNm56EZVQMcF3GnfGSRu1BnFDkg82sbCbfPE6itaCc9HTFdi103u0k5Ygi48y4lDOGYoGfe03g4JCFWrBkd4OmfqheaYGfaLS55SmLDQkvP8S8NT6zEhC-MWXCEOYGBmb_g-DadBBfGhT1vRaxlcRwU-ZJ-S10q935uADPUA", "width": 960}], "place_id": "ChIJhfKlVp5-hYARH5RV3yoxnDU", "plus_code": {"compound_code": "VPFJ+6R Berkeley, California, United States", "global_code": "849VVPFJ+6R"}, "rating": 5, "reference": "ChIJhfKlVp5-hYARH5RV3yoxnDU", "scope": "GOOGLE", "types": ["point_of_interest", "establishment"], "vicinity": "1012, 2114-2116 Berkeley Way, Berkeley"}, "ChIJUTXdVp5-hYARxsfTQk2VaEo": {"geometry": {"location": {"lat": 37.8729384, "lng": -122.267953}, "viewport": {"northeast": {"lat": 37.87438458029149, "lng": -122.2666246697085}, "southwest": {"lat": 37.8716866197085, "lng": -122.2693226302915}}}, "icon": "https://maps.gstatic.com/mapfiles/place_api/icons/generic_business-71.png", "id": "da538666d77171496b8dc499ced13d4761399936", "name": "Eric Allan Hair", "opening_hours": {"open_now": true}, "photos": [{"height": 2560, "html_attributions": ["<a href=\"https://maps.google.com/maps/contrib/115576085972243402812/photos\">Eric Allan Hair</a>"], "photo_reference": "CmRaAAAAdyhNQl9NEsxeFv5SeLIdce06ozyMigO5-CRTMMwupYHrI8tmyWp_-idC1EwXuGTfeJCD_5wEmYJaiRymacVXqj6HiTK7gifx9zxzpWiTERRrBIuEnESnxIMIhIoxPu6dEhDfuxgwcav-ssEyO4Q8QcAHGhTjrnhv55TNQX0LWY_V3NNy7ua3FQ", "width": 3840}], "place_id": "ChIJUTXdVp5-hYARxsfTQk2VaEo", "plus_code": {"compound_code": "VPFJ+5R Berkeley, California, United States", "global_code": "849VVPFJ+5R"}, "rating": 5, "reference": "ChIJUTXdVp5-hYARxsfTQk2VaEo", "scope": "GOOGLE", "types": ["beauty_salon", "hair_care", "health", "point_of_interest", "establishment"], "vicinity": "2112 Berkeley Way, Berkeley"}, "ChIJw2L4qih8hYARoiRbQZwY8OU": {"geometry": {"location": {"lat": 37.8730169, "lng": -122.2667845}, "viewport": {"northeast": {"lat": 37.8743539302915, "lng": -122.2655385697085}, "southwest": {"lat": 37.8716559697085, "lng": -122.2682365302915}}}, "icon": "https://maps.gstatic.com/mapfiles/place_api/icons/school-71.png", "id": "f9da8b827702aaffb96c29da56330bbb3db69070", "name": "Ca University At Berkeley", "photos": [{"height": 3024, "html_attributions": ["<a href=\"https://maps.google.com/maps/contrib/105385686494613771360/photos\">Richard Hintz</a>"], "photo_reference": "CmRaAAAAUDOx4V60LxAjl913LdrHsTGaRyZbi7GU-KEYq1WzMEkPZeL4v3dJw3_jmI1jz07zmB1DN0ZQpa-Hnd3LAmPkX5drw0DeN--So_Bbr7uonniNzs5XfnxHhXO_8zImP8bSEhCmsz8YVAPnuLlfXGCd5yVeGhT9vwknid7HQYH6ZsL7FsNKTsimKQ", "width": 4032}], "place_id": "ChIJw2L4qih8hYARoiRbQZwY8OU", "plus_code": {"compound_code": "VPFM+67 Berkeley, California, United States", "global_code": "849VVPFM+67"}, "reference": "ChIJw2L4qih8hYARoiRbQZwY8OU", "scope": "GOOGLE", "types": ["university", "point_of_interest", "establishment"], "vicinity": "1925 Walnut Street, Berkeley"}, "ChIJIRZZVp5-hYARij5WmqSCSqw": {"geometry": {"location": {"lat": 37.872994, "lng": -122.26806}, "viewport": {"northeast": {"lat": 37.8744062302915, "lng": -122.2667244697085}, "southwest": {"lat": 37.8717082697085, "lng": -122.2694224302915}}}, "icon": "https://maps.gstatic.com/mapfiles/place_api/icons/shopping-71.png", "id": "9fab3a21cae13019d919f0056d80506c1710e8a3", "name": "Berkeley Vacuum & Sewing Center", "opening_hours": {"open_now": true}, "photos": [{"height": 3264, "html_attributions": ["<a href=\"https://maps.google.com/maps/contrib/117834755337058130520/photos\">Susanna Porte</a>"], "photo_reference": "CmRaAAAAf9ZAEyhh5GuYvOe09oEKc08j-PTtVWA9Lijii4Ydlh1CkUqefia4pHfGkwW-frsqtINtrZIUtSZ5kyrrcn12BG07hlLILkrozpY2Z0nzc84wLR9ZTR7k8fesZPo8HD_6EhBU-PVBCnu-9JrJQb5vizIQGhT8MNFM7iLXUjk60E_sBX2A7kcUMQ", "width": 2448}], "place_id": "ChIJIRZZVp5-hYARij5WmqSCSqw", "plus_code": {"compound_code": "VPFJ+5Q Berkeley, California, United States", "global_code": "849VVPFJ+5Q"}, "rating": 4.7, "reference": "ChIJIRZZVp5-hYARij5WmqSCSqw", "scope": "GOOGLE", "types": ["store", "point_of_interest", "establishment"], "vicinity": "2108 Berkeley Way, Berkeley"}, "ChIJX7JVb55-hYARd6ZEfTC2ePU": {"geometry": {"location": {"lat": 37.8725413, "lng": -122.2674269}, "viewport": {"northeast": {"lat": 37.8737805302915, "lng": -122.2660559697085}, "southwest": {"lat": 37.8710825697085, "lng": -122.2687539302915}}}, "icon": "https://maps.gstatic.com/mapfiles/place_api/icons/generic_business-71.png", "id": "062c46e77757969bf3051a6941299a58d8f2ca9a", "name": "Arete Wealth Strategists, LLC.", "opening_hours": {"open_now": true}, "place_id": "ChIJX7JVb55-hYARd6ZEfTC2ePU", "plus_code": {"compound_code": "VPFM+22 Berkeley, California, United States", "global_code": "849VVPFM+22"}, "reference": "ChIJX7JVb55-hYARd6ZEfTC2ePU", "scope": "GOOGLE", "types": ["finance", "point_of_interest", "establishment"], "vicinity": "2120 University Avenue, Berkeley"}, "ChIJo4m3APJ-hYARmHLvpOAlSac": {"geometry": {"location": {"lat": 37.8725413, "lng": -122.2674269}, "viewport": {"northeast": {"lat": 37.8737805302915, "lng": -122.2660559697085}, "southwest": {"lat": 37.8710825697085, "lng": -122.2687539302915}}}, "icon": "https://maps.gstatic.com/mapfiles/place_api/icons/civic_building-71.png", "id": "d710e1336ee3054ae60aaac8a02f9118775acda8", "name": "LabCreatrix", "opening_hours": {"open_now": true}, "place_id": "ChIJo4m3APJ-hYARmHLvpOAlSac", "plus_code": {"compound_code": "VPFM+22 Berkeley, California, United States", "global_code": "849VVPFM+22"}, "reference": "ChIJo4m3APJ-hYARmHLvpOAlSac", "scope": "GOOGLE", "types": ["point_of_interest", "establishment"], "vicinity": "2120 University Avenue, Berkeley"}, "ChIJuwvtQp5-hYARp9WS6AHOCdQ": {"geometry": {"location": {"lat": 37.872522, "lng": -122.2674224}, "viewport": {"northeast": {"lat": 37.87377093029149, "lng": -122.2660534197085}, "southwest": {"lat": 37.8710729697085, "lng": -122.2687513802915}}}, "icon": "https://maps.gstatic.com/mapfiles/place_api/icons/generic_business-71.png", "id": "9fdc0adb6cd7f528e924f2d56f671b1276218989", "name": "Gallup & Associates Inc", "place_id": "ChIJuwvtQp5-hYARp9WS6AHOCdQ", "plus_code": {"compound_code": "VPFM+22 Berkeley, California, United States", "global_code": "849VVPFM+22"}, "rating": 4, "reference": "ChIJuwvtQp5-hYARp9WS6AHOCdQ", "scope": "GOOGLE", "types": ["point_of_interest", "establishment"], "vicinity": "2131 University Avenue # 412, Berkeley"}, "ChIJuwvtQp5-hYARKoimuq_BC7U": {"geometry": {"location": {"lat": 37.872522, "lng": -122.2674224}, "viewport": {"northeast": {"lat": 37.87377093029149, "lng": -122.2660534197085}, "southwest": {"lat": 37.8710729697085, "lng": -122.2687513802915}}}, "icon": "https://maps.gstatic.com/mapfiles/place_api/icons/generic_business-71.png", "id": "1f795881eeb825f18945bcdd72a4b85f1c9eeab7", "name": "Lantek", "place_id": "ChIJuwvtQp5-hYARKoimuq_BC7U", "plus_code": {"compound_code": "VPFM+22 Berkeley, California, United States", "global_code": "849VVPFM+22"}, "rating": 1, "reference": "ChIJuwvtQp5-hYARKoimuq_BC7U", "scope": "GOOGLE", "types": ["point_of_interest", "establishment"], "vicinity": "2131 University Avenue # 412, Berkeley"}, "ChIJ14n9WJ5-hYARoUhABj0uRPk": {"geometry": {"location": {"lat": 37.8725498, "lng": -122.2680473}, "viewport": {"northeast": {"lat": 37.8737470302915, "lng": -122.2666671197085}, "southwest": {"lat": 37.8710490697085, "lng": -122.2693650802915}}}, "icon": "https://maps.gstatic.com/mapfiles/place_api/icons/generic_business-71.png", "id": "101afb3d4b725c08ff47ed255139ed958e734a7b", "name": "2A Construction", "opening_hours": {"open_now": true}, "place_id": "ChIJ14n9WJ5-hYARoUhABj0uRPk", "plus_code": {"compound_code": "VPFJ+2Q Berkeley, California, United States", "global_code": "849VVPFJ+2Q"}, "reference": "ChIJ14n9WJ5-hYARoUhABj0uRPk", "scope": "GOOGLE", "types": ["general_contractor", "point_of_interest", "establishment"], "vicinity": "University Avenue, Berkeley"}, "ChIJ00mFOjZ5hYARk-l1ppUV6pQ": {"geometry": {"location": {"lat": 37.8715926, "lng": -122.272747}, "viewport": {"northeast": {"lat": 37.9058239, "lng": -122.234179}, "southwest": {"lat": 37.835727, "lng": -122.367781}}}, "icon": "https://maps.gstatic.com/mapfiles/place_api/icons/geocode-71.png", "id": "00741fe572fc4084428ab206e1a55830f6a1bf0a", "name": "Berkeley", "photos": [{"height": 1080, "html_attributions": ["<a href=\"https://maps.google.com/maps/contrib/110244590763501513798/photos\">miao hsin sun</a>"], "photo_reference": "CmRaAAAA4ejQ_KLv5wDBvE411MpMEzCUF4d2YizJDBbz-XPuTcQPwi62nJf4oJARN34vukRGzTc9IWtSyzWeevmhP04wM0eaaKD1D6o9uQrmy50yQDDVndxCjmNX_beyR1c-kWoXEhDdU6HemtXPeYWMpQ-W9_XpGhRJgtrmV8bjoU3dYdy7mr5PxsWiIA", "width": 1616}], "place_id": "ChIJ00mFOjZ5hYARk-l1ppUV6pQ", "reference": "ChIJ00mFOjZ5hYARk-l1ppUV6pQ", "scope": "GOOGLE", "types": ["locality", "political"], "vicinity": "Berkeley"}}