{"ChIJ51OZ5JR-hYARcRXx7-ePyww": {"geometry": {"location": {"lat": 37.8674898, "lng": -122.2860553}, "viewport": {"northeast": {"lat": 37.86883878029149, "lng": -122.2847063197085}, "southwest": {"lat": 37.8661408197085, "lng": -122.2874042802915}}}, "icon": "https://maps.gstatic.com/mapfiles/place_api/icons/geocode-71.png", "id": "5ba66e9ca77f030f4511a0ab5bfe6da28b76566b", "name": "2143-2121 West St", "place_id": "ChIJ51OZ5JR-hYARcRXx7-ePyww", "reference": "ChIJ51OZ5JR-hYARcRXx7-ePyww", "scope": "GOOGLE", "types": ["route"], "vicinity": "Berkeley"}, "ChIJmSTm9JR-hYARwgzXEOpXtO0": {"geometry": {"location": {"lat": 37.867546, "lng": -122.285651}, "viewport": {"northeast": {"lat": 37.8685632302915, "lng": -122.2842121697085}, "southwest": {"lat": 37.8658652697085, "lng": -122.2869101302915}}}, "icon": "https://maps.gstatic.com/mapfiles/place_api/icons/generic_business-71.png", "id": "13efafcd1ceeaf9d81450a974530e16547d5147d", "name": "Chaparral House", "opening_hours": {"open_now": true}, "photos": [{"height": 3096, "html_attributions": ["<a href=\"https://maps.google.com/maps/contrib/112553904295699352344/photos\">JohnJoe OReilly</a>"], "photo_reference": "CmRaAAAAayyS1iJNYBcyzHEm-c7pGb_WYYKC0mM4d4FTf-RUvd1ZvlUYzhyCJts3b13BsjmIiz4Zrd2lGx6FbHIxzBag3h-9qzIVoLELjjiHtoMF9hj-Fsocdh-AOpufvm_W9rt0EhCMcbb8gSVpHL2BCuxfhu06GhRQXV1oq5KsNK8E8v5H-VLBD9Pdfw", "width": 4128}], "place_id": "ChIJmSTm9JR-hYARwgzXEOpXtO0", "plus_code": {"compound_code": "VP97+2P Berkeley, California, United States", "global_code": "849VVP97+2P"}, "rating": 4.4, "reference": "ChIJmSTm9JR-hYARwgzXEOpXtO0", "scope": "GOOGLE", "types": ["point_of_interest", "establishment"], "vicinity": "1309 Allston Way, Berkeley"}, "ChIJ2cSImkV_hYARtq1oAxosPhY": {"geometry": {"location": {"lat": 37.8673065, "lng": -122.2862725}, "viewport": {"northeast": {"lat": 37.8685176802915, "lng": -122.2849787197085}, "southwest": {"lat": 37.8658197197085, "lng": -122.2876766802915}}}, "icon": "https://maps.gstatic.com/mapfiles/place_api/icons/generic_business-71.png", "id": "db68929108dd31d9596fb65e86f780a0001b304a", "name": "Strawberry Creek Park Playground", "opening_hours": {"open_now": true}, "photos": [{"height": 3024, "html_attributions": ["<a href=\"https://maps.google.com/maps/contrib/110625635452764056323/photos\">Christiaan Adams</a>"], "photo_reference": "CmRaAAAAKxJ9vxTowUARKz88emJkqCXBKRPcp7FdA3_kL7KE8D6q6f1bzZUZh9JEksjFrW-D2_49jFKtzg5SXTgbwQOkV-h0nHSeZgqj1_jmoqoe-AWttBDjjhCQORSDB901q1bHEhDVGNbL24wIKC5eF5XiIuvsGhSOPmo6eVYgdpw9i2vu125VtBODDA", "width": 4032}], "place_id": "ChIJ2cSImkV_hYARtq1oAxosPhY", "plus_code": {"compound_code": "VP87+WF Berkeley, California, United States", "global_code": "849VVP87+WF"}, "reference": "ChIJ2cSImkV_hYARtq1oAxosPhY", "scope": "GOOGLE", "types": ["point_of_interest", "establishment"], "vicinity": "1260 Allston Way, Berkeley"}, "ChIJ00mFOjZ5hYARk-l1ppUV6pQ": {"geometry": {"location": {"lat": 37.8715926, "lng": -122.272747}, "viewport": {"northeast": {"lat": 37.9058239, "lng": -122.234179}, "southwest": {"lat": 37.835727, "lng": -122.367781}}}, "icon": "https://maps.gstatic.com/mapfiles/place_api/icons/geocode-71.png", "id": "00741fe572fc4084428ab206e1a55830f6a1bf0a", "name": "Berkeley", "photos": [{"height": 1080, "html_attributions": ["<a href=\"https://maps.google.com/maps/contrib/110244590763501513798/photos\">miao hsin sun</a>"], "photo_reference": "CmRaAAAANkEHJr78faFp87ls3GebsitQpe9RmigbTvX0fjkMiRLw8U2KVGdYG_QyNODQ2GNwB9sMfRn__XYr7pmEoD0LGyVDGbe-D_QJST6m2ElAX2mOFJmWzIiZ-84W-eP9AmiKEhA_PQq25sfJsLYD3axpQ4JdGhTkaYxxZfIvJatumB4-fxbvQkR9Dg", "width": 1616}], "place_id": "ChIJ00mFOjZ5hYARk-l1ppUV6pQ", "reference": "ChIJ00mFOjZ5hYARk-l1ppUV6pQ", "scope": "GOOGLE", "types": ["locality", "political"], "vicinity": "Berkeley"}}