{"ChIJS7NXu5h-hYARPZdjm4WYfJY": {"geometry": {"location": {"lat": 37.8737837, "lng": -122.2721233}, "viewport": {"northeast": {"lat": 37.8751326302915, "lng": -122.2707743697085}, "southwest": {"lat": 37.8724346697085, "lng": -122.2734723302915}}}, "icon": "https://maps.gstatic.com/mapfiles/place_api/icons/geocode-71.png", "id": "02bac2e678eadd0eababaf372880b4f0b0ada175", "name": "Bonita Street", "place_id": "ChIJS7NXu5h-hYARPZdjm4WYfJY", "reference": "ChIJS7NXu5h-hYARPZdjm4WYfJY", "scope": "GOOGLE", "types": ["route"], "vicinity": "Berkeley"}, "ChIJmdJjl5h-hYARVFpuCdJOcG4": {"geometry": {"location": {"lat": 37.8736734, "lng": -122.2728803}, "viewport": {"northeast": {"lat": 37.8748855802915, "lng": -122.2715148197085}, "southwest": {"lat": 37.87218761970851, "lng": -122.2742127802915}}}, "icon": "https://maps.gstatic.com/mapfiles/place_api/icons/generic_business-71.png", "id": "7a3dea13a48f61010223cd7f5d4b1942e9eb287d", "name": "Meals On Wheels", "place_id": "ChIJmdJjl5h-hYARVFpuCdJOcG4", "plus_code": {"compound_code": "VPFG+FR Berkeley, California, United States", "global_code": "849VVPFG+FR"}, "rating": 3.5, "reference": "ChIJmdJjl5h-hYARVFpuCdJOcG4", "scope": "GOOGLE", "types": ["point_of_interest", "establishment"], "vicinity": "1901 Hearst Avenue, Berkeley"}, "ChIJF27Dgph-hYARqEgczxeTI5g": {"geometry": {"location": {"lat": 37.8740111, "lng": -122.273125}, "viewport": {"northeast": {"lat": 37.8753546302915, "lng": -122.2718548197085}, "southwest": {"lat": 37.8726566697085, "lng": -122.2745527802915}}}, "icon": "https://maps.gstatic.com/mapfiles/place_api/icons/generic_business-71.png", "id": "662b3ea3688a862a89054c6835c0f828e98f3a1b", "name": "Projects International", "place_id": "ChIJF27Dgph-hYARqEgczxeTI5g", "plus_code": {"compound_code": "VPFG+JQ Berkeley, California, United States", "global_code": "849VVPFG+JQ"}, "reference": "ChIJF27Dgph-hYARqEgczxeTI5g", "scope": "GOOGLE", "types": ["point_of_interest", "establishment"], "vicinity": "1805 Martin Luther King Junior Way, Berkeley"}, "ChIJ7QC5nJh-hYARlo1NBOgbDh0": {"geometry": {"location": {"lat": 37.8739535, "lng": -122.2730706}, "viewport": {"northeast": {"lat": 37.8752953802915, "lng": -122.2718242697085}, "southwest": {"lat": 37.87259741970851, "lng": -122.2745222302915}}}, "icon": "https://maps.gstatic.com/mapfiles/place_api/icons/generic_business-71.png", "id": "fd602115879d7c0429cd1a30b0bdcfe24c162c8e", "name": "Campus Veterinary Clinic", "opening_hours": {"open_now": true}, "photos": [{"height": 315, "html_attributions": ["<a href=\"https://maps.google.com/maps/contrib/114981561769488493169/photos\">Campus Veterinary Clinic</a>"], "photo_reference": "CmRaAAAAEgFa6epmswAF3Bk_ci27_Bq-p7RSKQzn77Mo5LnQYtBWwE-hkEQCRDR2ZoD9TZvgP61gmMeAdx-RG_QymVIDiKWTf906hLt2R2J8OoicrW3G6aEL0P7p1zaUPt1TPAExEhAcJxseb0wO8G4DTlpaIDlwGhSMYKXYgI5PwlAi0v6gQxlwbS5iFw", "width": 851}], "place_id": "ChIJ7QC5nJh-hYARlo1NBOgbDh0", "plus_code": {"compound_code": "VPFG+HQ Berkeley, California, United States", "global_code": "849VVPFG+HQ"}, "rating": 4.8, "reference": "ChIJ7QC5nJh-hYARlo1NBOgbDh0", "scope": "GOOGLE", "types": ["veterinary_care", "point_of_interest", "establishment"], "vicinity": "1807 Martin Luther King Junior Way, Berkeley"}, "ChIJOw9pl5h-hYAR31T_57p8kjI": {"geometry": {"location": {"lat": 37.87368879999999, "lng": -122.2728551}, "viewport": {"northeast": {"lat": 37.8749091802915, "lng": -122.2713286197085}, "southwest": {"lat": 37.8722112197085, "lng": -122.2740265802915}}}, "icon": "https://maps.gstatic.com/mapfiles/place_api/icons/generic_business-71.png", "id": "c97537bd9e2c6581fbfde7bdcfa41cfb3fed734d", "name": "North Berkeley Senior Center", "opening_hours": {"open_now": true}, "photos": [{"height": 3264, "html_attributions": ["<a href=\"https://maps.google.com/maps/contrib/100661599537971978726/photos\">Eliel Brown</a>"], "photo_reference": "CmRaAAAAIxsqPw_uumJUbYbFe6bc4eu4Ql5GFr5BVQdkxUdwXvSTkSIe2vWiZgYWc3qyfohOX3tqG2Kjvffi3CTRrMgZbMCkhwaN5OIT_2fqG70HD2aXHS_CJBQS3oNy8jplyCNTEhCPgIZHpqvyLJ5_yRY1cRfyGhQsDjh6NiXWRHBi7R_3uIIJTKvHXA", "width": 2448}], "place_id": "ChIJOw9pl5h-hYAR31T_57p8kjI", "plus_code": {"compound_code": "VPFG+FV Berkeley, California, United States", "global_code": "849VVPFG+FV"}, "rating": 4.4, "reference": "ChIJOw9pl5h-hYAR31T_57p8kjI", "scope": "GOOGLE", "types": ["point_of_interest", "establishment"], "vicinity": "1901 Hearst Avenue, Berkeley"}, "ChIJmdJjl5h-hYARV015UdFXYRM": {"geometry": {"location": {"lat": 37.8736734, "lng": -122.2728803}, "viewport": {"northeast": {"lat": 37.8748855802915, "lng": -122.2715148197085}, "southwest": {"lat": 37.87218761970851, "lng": -122.2742127802915}}}, "icon": "https://maps.gstatic.com/mapfiles/place_api/icons/generic_business-71.png", "id": "e4c7b41cdbbef4bfbe97942c4e00c7c0e8ffb44d", "name": "Villatoro Saulo", "place_id": "ChIJmdJjl5h-hYARV015UdFXYRM", "plus_code": {"compound_code": "VPFG+FR Berkeley, California, United States", "global_code": "849VVPFG+FR"}, "reference": "ChIJmdJjl5h-hYARV015UdFXYRM", "scope": "GOOGLE", "types": ["health", "point_of_interest", "establishment"], "vicinity": "1901 Hearst Avenue, Berkeley"}, "ChIJO7Oeoph-hYAR0eOZ7WnAxtQ": {"geometry": {"location": {"lat": 37.873846, "lng": -122.272456}, "viewport": {"northeast": {"lat": 37.87499778029149, "lng": -122.2709209697085}, "southwest": {"lat": 37.87229981970849, "lng": -122.2736189302915}}}, "icon": "https://maps.gstatic.com/mapfiles/place_api/icons/generic_business-71.png", "id": "aa52c2d77fef25389eb465f375915f4c7af7ecff", "name": "Quant Five", "place_id": "ChIJO7Oeoph-hYAR0eOZ7WnAxtQ", "plus_code": {"compound_code": "VPFH+G2 Berkeley, California, United States", "global_code": "849VVPFH+G2"}, "reference": "ChIJO7Oeoph-hYAR0eOZ7WnAxtQ", "scope": "GOOGLE", "types": ["point_of_interest", "establishment"], "vicinity": "1810 Bonita Avenue, Berkeley"}, "ChIJcQOdXb1-hYARoCqold8JN0A": {"geometry": {"location": {"lat": 37.8737488, "lng": -122.2717623}, "viewport": {"northeast": {"lat": 37.8750864302915, "lng": -122.2700160197085}, "southwest": {"lat": 37.8723884697085, "lng": -122.2727139802915}}}, "icon": "https://maps.gstatic.com/mapfiles/place_api/icons/generic_recreational-71.png", "id": "2afbe69e8aa9318054f6c403a4cbff713173cea9", "name": "Ohlone Park", "opening_hours": {"open_now": true}, "photos": [{"height": 3024, "html_attributions": ["<a href=\"https://maps.google.com/maps/contrib/100967286423391502693/photos\">Joachim Kainz</a>"], "photo_reference": "CmRaAAAAz526Bl7gM-NnE2AObc_GOKjuplTMOB1hlyR_MS5rn_zCNDnpGOgFY3y8sVpiKzsGDg1qEm8yR9Q3uPlFLRAN3FE-wQ8umg-Ui2HM00e76FcwAnSBc00Hn7H6pJ3pHZ6zEhCfTTbDQ2UuSzqD8J1DB-VEGhRc_4vWa5KVM3xlhCWsY6stSv0bZw", "width": 4032}], "place_id": "ChIJcQOdXb1-hYARoCqold8JN0A", "plus_code": {"compound_code": "VPFH+F7 Berkeley, California, United States", "global_code": "849VVPFH+F7"}, "rating": 4.3, "reference": "ChIJcQOdXb1-hYARoCqold8JN0A", "scope": "GOOGLE", "types": ["park", "point_of_interest", "establishment"], "vicinity": "Milvia Street, Berkeley"}, "ChIJUUr3mZh-hYARCowM78BA2Ec": {"geometry": {"location": {"lat": 37.8736888, "lng": -122.2728111}, "viewport": {"northeast": {"lat": 37.87489593029149, "lng": -122.2714450197085}, "southwest": {"lat": 37.8721979697085, "lng": -122.2741429802915}}}, "icon": "https://maps.gstatic.com/mapfiles/place_api/icons/school-71.png", "id": "8382219d98305dd7ccf90e06c7c1e44dfe85e4b9", "name": "Yuan Chih Dance of America", "place_id": "ChIJUUr3mZh-hYARCowM78BA2Ec", "plus_code": {"compound_code": "VPFG+FV Berkeley, California, United States", "global_code": "849VVPFG+FV"}, "reference": "ChIJUUr3mZh-hYARCowM78BA2Ec", "scope": "GOOGLE", "types": ["point_of_interest", "establishment"], "vicinity": "1901 Hearst Avenue, Berkeley"}, "ChIJEcEmnZh-hYAR11zHG24diu0": {"geometry": {"location": {"lat": 37.8740111, "lng": -122.273125}, "viewport": {"northeast": {"lat": 37.8753546302915, "lng": -122.2718548197085}, "southwest": {"lat": 37.8726566697085, "lng": -122.2745527802915}}}, "icon": "https://maps.gstatic.com/mapfiles/place_api/icons/shopping-71.png", "id": "26bf784dbac1b79b18a8cfadc682b177efbe65ba", "name": "LevGo", "place_id": "ChIJEcEmnZh-hYAR11zHG24diu0", "plus_code": {"compound_code": "VPFG+JQ Berkeley, California, United States", "global_code": "849VVPFG+JQ"}, "reference": "ChIJEcEmnZh-hYAR11zHG24diu0", "scope": "GOOGLE", "types": ["store", "point_of_interest", "establishment"], "vicinity": "1805 Martin Luther King Junior Way, Berkeley"}, "ChIJVb3Lmph-hYARaWopMqRVTp4": {"geometry": {"location": {"lat": 37.873625, "lng": -122.273173}, "viewport": {"northeast": {"lat": 37.8749739802915, "lng": -122.2718240197085}, "southwest": {"lat": 37.8722760197085, "lng": -122.2745219802915}}}, "icon": "https://maps.gstatic.com/mapfiles/place_api/icons/bus-71.png", "id": "779d164a9c2e96bb2f9c1dadc1a41c64bfb7b20e", "name": "Martin Luther King Jr Way:Hearst Av", "place_id": "ChIJVb3Lmph-hYARaWopMqRVTp4", "plus_code": {"compound_code": "VPFG+FP Berkeley, California, United States", "global_code": "849VVPFG+FP"}, "reference": "ChIJVb3Lmph-hYARaWopMqRVTp4", "scope": "GOOGLE", "types": ["bus_station", "transit_station", "point_of_interest", "establishment"], "vicinity": "United States"}, "ChIJF27Dgph-hYAR4s0NJkIW97E": {"geometry": {"location": {"lat": 37.8740111, "lng": -122.273125}, "viewport": {"northeast": {"lat": 37.8753546302915, "lng": -122.2718548197085}, "southwest": {"lat": 37.8726566697085, "lng": -122.2745527802915}}}, "icon": "https://maps.gstatic.com/mapfiles/place_api/icons/generic_business-71.png", "id": "567d49cc143f20479c91c192410251a19e373dc7", "name": "Tang Design Studio", "place_id": "ChIJF27Dgph-hYAR4s0NJkIW97E", "plus_code": {"compound_code": "VPFG+JQ Berkeley, California, United States", "global_code": "849VVPFG+JQ"}, "reference": "ChIJF27Dgph-hYAR4s0NJkIW97E", "scope": "GOOGLE", "types": ["point_of_interest", "establishment"], "vicinity": "1805 Martin Luther King Junior Way, Berkeley"}, "ChIJ00mFOjZ5hYARk-l1ppUV6pQ": {"geometry": {"location": {"lat": 37.8715926, "lng": -122.272747}, "viewport": {"northeast": {"lat": 37.9058239, "lng": -122.234179}, "southwest": {"lat": 37.835727, "lng": -122.367781}}}, "icon": "https://maps.gstatic.com/mapfiles/place_api/icons/geocode-71.png", "id": "00741fe572fc4084428ab206e1a55830f6a1bf0a", "name": "Berkeley", "photos": [{"height": 1080, "html_attributions": ["<a href=\"https://maps.google.com/maps/contrib/110244590763501513798/photos\">miao hsin sun</a>"], "photo_reference": "CmRaAAAAELb4cNbTrZanUytlDgOYNIKODZJ5g7Xr2u6KefpE5sN7INQyJRcCt4CziwHYE5Q5S69Cy651xM7vkoQVSsA0-sAoyGgkbM5GgIpxva0RZPVRUVdxCYuc3BQFGFZJ4qHREhA-_jqlHvoSD9APl5Jde1nfGhREUmYZzsT5rpb2SMNwfQnRvlelWw", "width": 1616}], "place_id": "ChIJ00mFOjZ5hYARk-l1ppUV6pQ", "reference": "ChIJ00mFOjZ5hYARk-l1ppUV6pQ", "scope": "GOOGLE", "types": ["locality", "political"], "vicinity": "Berkeley"}}