{"ChIJWx4vqIp-hYARBSbm3xpx2AA": {"geometry": {"location": {"lat": 37.8507166, "lng": -122.2875295}, "viewport": {"northeast": {"lat": 37.8520655802915, "lng": -122.28505675}, "southwest": {"lat": 37.8493676197085, "lng": -122.29000215}}}, "icon": "https://maps.gstatic.com/mapfiles/place_api/icons/geocode-71.png", "id": "0250cf75726a076237565439ca83873498d5015f", "name": "1000-1098 Folger Ave", "place_id": "ChIJWx4vqIp-hYARBSbm3xpx2AA", "reference": "ChIJWx4vqIp-hYARBSbm3xpx2AA", "scope": "GOOGLE", "types": ["route"], "vicinity": "Berkeley"}, "ChIJP-r0TPV-hYARB9xAvIhEOAE": {"geometry": {"location": {"lat": 37.8512659, "lng": -122.2882347}, "viewport": {"northeast": {"lat": 37.85267038029151, "lng": -122.2869042197085}, "southwest": {"lat": 37.84997241970851, "lng": -122.2896021802915}}}, "icon": "https://maps.gstatic.com/mapfiles/place_api/icons/shopping-71.png", "id": "734339acd311aa0e61e81900b949f7151cb2f428", "name": "Wrench Science", "opening_hours": {"open_now": false}, "photos": [{"height": 2160, "html_attributions": ["<a href=\"https://maps.google.com/maps/contrib/114674157012627705079/photos\">Allan-Michael Adiaheno</a>"], "photo_reference": "CmRaAAAAT9gr_GHWauOkw0vaGkw2emGHJGvKodugtxP_e2fY67z2CPuusxKeuoh1np25ZXrMGI_EmUY5PcC2xsMIqP87MKpCFEPDxyduWvVc23aAI-2rrJ2YJwocusbLEPaauWfyEhDF5KHCbzDtDrXXRCXaUAepGhR2EMJWaVpjxlJ3eju66aSbuifgrQ", "width": 3840}], "place_id": "ChIJP-r0TPV-hYARB9xAvIhEOAE", "plus_code": {"compound_code": "VP26+GP Berkeley, California, United States", "global_code": "849VVP26+GP"}, "rating": 4.8, "reference": "ChIJP-r0TPV-hYARB9xAvIhEOAE", "scope": "GOOGLE", "types": ["bicycle_store", "store", "point_of_interest", "establishment"], "vicinity": "1022 Murray Street, Berkeley"}, "ChIJGSMHp4p-hYAR5zvodBFvY1Q": {"geometry": {"location": {"lat": 37.8509707, "lng": -122.2871504}, "viewport": {"northeast": {"lat": 37.8522241302915, "lng": -122.2858407197085}, "southwest": {"lat": 37.8495261697085, "lng": -122.2885386802915}}}, "icon": "https://maps.gstatic.com/mapfiles/place_api/icons/generic_business-71.png", "id": "05e7f36d9ed2b584c4b6316ebedeb68f34786f32", "name": "Sun Light & Power", "opening_hours": {"open_now": false}, "photos": [{"height": 629, "html_attributions": ["<a href=\"https://maps.google.com/maps/contrib/101692028656114568473/photos\">Sun Light &amp; Power</a>"], "photo_reference": "CmRaAAAAHFs2FjOXp-0qdMQIBL3p9igFDu3bx2QabbdEg9VYsX_oM7OThUKlOmNJI6Wb4c9b1s4hztkBGxKK8-434yPVzGdpi93aSKae4R-inEpTMPVFpSkio0ojwBOif7_AebHMEhCPZli5Ksj-lb6RXM4e04awGhSCvjj3TQ4Km6TV8B1K-ZfCC528Jw", "width": 1119}], "place_id": "ChIJGSMHp4p-hYAR5zvodBFvY1Q", "rating": 4.7, "reference": "ChIJGSMHp4p-hYAR5zvodBFvY1Q", "scope": "GOOGLE", "types": ["store", "point_of_interest", "establishment"], "vicinity": "1035 Folger Avenue, Berkeley"}, "ChIJ1Vt5s4p-hYARFfSORYA0Ng8": {"geometry": {"location": {"lat": 37.851247, "lng": -122.2875853}, "viewport": {"northeast": {"lat": 37.85272338029149, "lng": -122.2862787197085}, "southwest": {"lat": 37.8500254197085, "lng": -122.2889766802915}}}, "icon": "https://maps.gstatic.com/mapfiles/place_api/icons/shopping-71.png", "id": "1b945897e886827a651edfe57a08587850f7300d", "name": "G Engraving", "opening_hours": {"open_now": false}, "photos": [{"height": 1440, "html_attributions": ["<a href=\"https://maps.google.com/maps/contrib/113399039205448721036/photos\">G Engraving</a>"], "photo_reference": "CmRaAAAA0x-j956JGh-gkj6tJxQo7GpAhGKgr9LbH9bMLgU9DC5F3XQblHvM-yywQaexR-BltRxdRvwqhHXas2Pj79ZfEYNXjCQbGGNAglVuJkfYXnTb1KTp5Orz3Oj7fjq7B4IOEhDOzfFH93YjT_GtCGXZK5k8GhTxtvUzX4GWNXZIjEL_Yd3wjXqd-g", "width": 2560}], "place_id": "ChIJ1Vt5s4p-hYARFfSORYA0Ng8", "plus_code": {"compound_code": "VP26+FX Berkeley, California, United States", "global_code": "849VVP26+FX"}, "reference": "ChIJ1Vt5s4p-hYARFfSORYA0Ng8", "scope": "GOOGLE", "types": ["store", "point_of_interest", "establishment"], "vicinity": "1038 Murray Street, Berkeley"}, "ChIJnfVHuop-hYARX-RFUpr8u4M": {"geometry": {"location": {"lat": 37.8511334, "lng": -122.2872752}, "viewport": {"northeast": {"lat": 37.8526929802915, "lng": -122.2859963197085}, "southwest": {"lat": 37.8499950197085, "lng": -122.2886942802915}}}, "icon": "https://maps.gstatic.com/mapfiles/place_api/icons/generic_business-71.png", "id": "ac8f8b5e92a4da909814d6e86e2f97ea7b5379f3", "name": "Fotokai Studios", "place_id": "ChIJnfVHuop-hYARX-RFUpr8u4M", "plus_code": {"compound_code": "VP27+F3 Berkeley, California, United States", "global_code": "849VVP27+F3"}, "reference": "ChIJnfVHuop-hYARX-RFUpr8u4M", "scope": "GOOGLE", "types": ["point_of_interest", "establishment"], "vicinity": "1042 Murray Street, Berkeley"}, "ChIJPaZIuop-hYARgb9-hjLancQ": {"geometry": {"location": {"lat": 37.8511334, "lng": -122.2872752}, "viewport": {"northeast": {"lat": 37.8526929802915, "lng": -122.2859963197085}, "southwest": {"lat": 37.8499950197085, "lng": -122.2886942802915}}}, "icon": "https://maps.gstatic.com/mapfiles/place_api/icons/generic_business-71.png", "id": "c9ab7daba9292d37f9dc00b95cbb83a29095c809", "name": "FOTOKAI", "place_id": "ChIJPaZIuop-hYARgb9-hjLancQ", "plus_code": {"compound_code": "VP27+F3 Berkeley, California, United States", "global_code": "849VVP27+F3"}, "reference": "ChIJPaZIuop-hYARgb9-hjLancQ", "scope": "GOOGLE", "types": ["point_of_interest", "establishment"], "vicinity": "1042 Murray Street, Berkeley"}, "ChIJ-Yn5UfV-hYARc3F4mcMEe2w": {"geometry": {"location": {"lat": 37.850853, "lng": -122.288379}, "viewport": {"northeast": {"lat": 37.8520581302915, "lng": -122.2869839697085}, "southwest": {"lat": 37.8493601697085, "lng": -122.2896819302915}}}, "icon": "https://maps.gstatic.com/mapfiles/place_api/icons/generic_business-71.png", "id": "4f20f1936d898a7e5686c7b4542e750b5e373ac5", "name": "All Power Labs", "opening_hours": {"open_now": false}, "photos": [{"height": 3464, "html_attributions": ["<a href=\"https://maps.google.com/maps/contrib/109828941690741705975/photos\">Jayberrytech</a>"], "photo_reference": "CmRaAAAA3WnEsmFtrflagPjcvvxytm0rvMGUWgkoH7EFtuXU_nCL6r5ZerBsuy8803N-tvRNMUOMB1LlvIXa_s3DMx_I5D6pa8aGh0Xw_mF7WwkRVIGUcxcaMU9hdu4RwVSTntCfEhAa_euRmMbzDmzRU_NnxsYlGhQG8rj9yhuOyOX0hpZ2WlQR__7nCQ", "width": 4618}], "place_id": "ChIJ-Yn5UfV-hYARc3F4mcMEe2w", "plus_code": {"compound_code": "VP26+8J Berkeley, California, United States", "global_code": "849VVP26+8J"}, "rating": 4.8, "reference": "ChIJ-Yn5UfV-hYARc3F4mcMEe2w", "scope": "GOOGLE", "types": ["point_of_interest", "establishment"], "vicinity": "1017 Folger Avenue, Berkeley"}, "ChIJ86kSVPV-hYARAPUAoRtPU3Y": {"geometry": {"location": {"lat": 37.8506955, "lng": -122.2883399}, "viewport": {"northeast": {"lat": 37.85197833029149, "lng": -122.2869697197085}, "southwest": {"lat": 37.8492803697085, "lng": -122.2896676802915}}}, "icon": "https://maps.gstatic.com/mapfiles/place_api/icons/generic_business-71.png", "id": "de6cfd49a622fe4def1261d6ccaf0bdd5dee6c55", "name": "Amazon Berkeley", "opening_hours": {"open_now": false}, "place_id": "ChIJ86kSVPV-hYARAPUAoRtPU3Y", "plus_code": {"compound_code": "VP26+7M Berkeley, California, United States", "global_code": "849VVP26+7M"}, "rating": 4.5, "reference": "ChIJ86kSVPV-hYARAPUAoRtPU3Y", "scope": "GOOGLE", "types": ["point_of_interest", "establishment"], "vicinity": "1017 Folger Avenue, Berkeley"}, "ChIJy2yqTPV-hYARkQzOAIM-O14": {"geometry": {"location": {"lat": 37.8514207, "lng": -122.287725}, "viewport": {"northeast": {"lat": 37.8528022802915, "lng": -122.2863868697085}, "southwest": {"lat": 37.8501043197085, "lng": -122.2890848302915}}}, "icon": "https://maps.gstatic.com/mapfiles/place_api/icons/generic_business-71.png", "id": "94acb7f240c12d24f66f07a09e34587481b6ae07", "name": "Sanges Kubiak LLC", "place_id": "ChIJy2yqTPV-hYARkQzOAIM-O14", "plus_code": {"compound_code": "VP26+HW Berkeley, California, United States", "global_code": "849VVP26+HW"}, "reference": "ChIJy2yqTPV-hYARkQzOAIM-O14", "scope": "GOOGLE", "types": ["point_of_interest", "establishment"], "vicinity": "1030 Murray Street, Berkeley"}, "ChIJLQnSrop-hYARk3PeOhLgsl0": {"geometry": {"location": {"lat": 37.85098, "lng": -122.287584}, "viewport": {"northeast": {"lat": 37.8522000802915, "lng": -122.2861937197085}, "southwest": {"lat": 37.8495021197085, "lng": -122.2888916802915}}}, "icon": "https://maps.gstatic.com/mapfiles/place_api/icons/generic_business-71.png", "id": "5c07229b40ac58d1f43613ce0b2453e69f213878", "name": "Wild Projects", "place_id": "ChIJLQnSrop-hYARk3PeOhLgsl0", "plus_code": {"compound_code": "VP26+9X Berkeley, California, United States", "global_code": "849VVP26+9X"}, "reference": "ChIJLQnSrop-hYARk3PeOhLgsl0", "scope": "GOOGLE", "types": ["point_of_interest", "establishment"], "vicinity": "1039 Folger Avenue, Berkeley"}, "ChIJozN6AyZ_hYARxSgUxW2mfGM": {"geometry": {"location": {"lat": 37.8512765, "lng": -122.2880153}, "viewport": {"northeast": {"lat": 37.8526973302915, "lng": -122.2866902197085}, "southwest": {"lat": 37.8499993697085, "lng": -122.2893881802915}}}, "icon": "https://maps.gstatic.com/mapfiles/place_api/icons/generic_business-71.png", "id": "f1f36b4aeb435b3ba95c227b43016a4945b6c467", "name": "Murray Street Media Lab", "place_id": "ChIJozN6AyZ_hYARxSgUxW2mfGM", "plus_code": {"compound_code": "VP26+GQ Berkeley, California, United States", "global_code": "849VVP26+GQ"}, "rating": 5, "reference": "ChIJozN6AyZ_hYARxSgUxW2mfGM", "scope": "GOOGLE", "types": ["point_of_interest", "establishment"], "vicinity": "1026 Murray Street, Berkeley"}, "ChIJC3dXOdR_hYAR0mmOqKqSb6E": {"geometry": {"location": {"lat": 37.850429, "lng": -122.287516}, "viewport": {"northeast": {"lat": 37.8518200802915, "lng": -122.2855132197085}, "southwest": {"lat": 37.8491221197085, "lng": -122.2882111802915}}}, "icon": "https://maps.gstatic.com/mapfiles/place_api/icons/generic_business-71.png", "id": "fc8871c1cbdf00a9100090d1879f28619be702c3", "name": "Kathryn Malone, MD", "opening_hours": {"open_now": false}, "photos": [{"height": 448, "html_attributions": ["<a href=\"https://maps.google.com/maps/contrib/117377080717079099752/photos\">Kathryn Malone, MD</a>"], "photo_reference": "CmRaAAAA6XxnNkieD2vbq3khv-ixD14zLzsyVdsJL14eL1SKz5-mC7kuFptAMUNWBK2HBqqJsCtowXtifoeN4VQ9loTZ8y6cExQIbdi1LTO2ogB1vYAs70oAnY3til82a5L2NmM3EhDwVJRS4ZvsCAioHz0ePdNdGhQ7pmE9Y1nYYx39wG8u_HVxqfio_A", "width": 448}], "place_id": "ChIJC3dXOdR_hYAR0mmOqKqSb6E", "plus_code": {"compound_code": "VP26+5X Berkeley, California, United States", "global_code": "849VVP26+5X"}, "reference": "ChIJC3dXOdR_hYAR0mmOqKqSb6E", "scope": "GOOGLE", "types": ["doctor", "health", "point_of_interest", "establishment"], "vicinity": "3100 San Pablo Avenue #310, Berkeley"}, "ChIJ17TyvX1_hYARH0eLmqKbsfQ": {"geometry": {"location": {"lat": 37.850429, "lng": -122.287516}, "viewport": {"northeast": {"lat": 37.8518200802915, "lng": -122.2855132197085}, "southwest": {"lat": 37.8491221197085, "lng": -122.2882111802915}}}, "icon": "https://maps.gstatic.com/mapfiles/place_api/icons/generic_business-71.png", "id": "57f2298edd6c032d06ed800138d681aa17c23c4b", "name": "John Muir Health/UCSF Health Berkeley Outpatient Center", "opening_hours": {"open_now": true}, "photos": [{"height": 610, "html_attributions": ["<a href=\"https://maps.google.com/maps/contrib/111746572368771669220/photos\">John Muir Health/UCSF Health Berkeley Outpatient Center</a>"], "photo_reference": "CmRaAAAAcqf7ZN1vLky2pZLupDfdzYoyduYjml7LfGzkSvmckGuWFSMnZoOqakcWlyOLbHElmhNZW6mom3UCwXACz0p8dqECnqDT4d5ZpYx7lshCzdejqKIntvDOiHsUQhlv_VQxEhBidngAPRsbytvCVftb4LQfGhQ1nHWT5vP28Pqvd65H40-iNqSmFg", "width": 1084}], "place_id": "ChIJ17TyvX1_hYARH0eLmqKbsfQ", "plus_code": {"compound_code": "VP26+5X Berkeley, California, United States", "global_code": "849VVP26+5X"}, "rating": 4, "reference": "ChIJ17TyvX1_hYARH0eLmqKbsfQ", "scope": "GOOGLE", "types": ["health", "point_of_interest", "establishment"], "vicinity": "3100 San Pablo Avenue, Berkeley"}, "ChIJdeCn6Sd_hYARdANC-dKuqJE": {"geometry": {"location": {"lat": 37.850429, "lng": -122.287516}, "viewport": {"northeast": {"lat": 37.8518200802915, "lng": -122.2855132197085}, "southwest": {"lat": 37.8491221197085, "lng": -122.2882111802915}}}, "icon": "https://maps.gstatic.com/mapfiles/place_api/icons/generic_business-71.png", "id": "dbb563c532210f5e0ef2174df879fb949a2ffbf0", "name": "Franny Yep, MD", "opening_hours": {"open_now": false}, "photos": [{"height": 448, "html_attributions": ["<a href=\"https://maps.google.com/maps/contrib/100065956043675921110/photos\">Franny Yep, MD</a>"], "photo_reference": "CmRaAAAAxMyQEou8d6_ye2QICHCAokfsalGvD8FUSaMtSkK2K-sAA12oxtIFYk4bOexBYsXlqu6FOZ48bQelxRWIGZqSvRvaqCQrANy4B0RMSyqahQx2fy6jce0-x1CxUmEQZ6KSEhBYmHDdYiaUsITRRvKMtoPtGhT_3axmfW9kvV22rKMN8t-iePo4gw", "width": 448}], "place_id": "ChIJdeCn6Sd_hYARdANC-dKuqJE", "plus_code": {"compound_code": "VP26+5X Berkeley, California, United States", "global_code": "849VVP26+5X"}, "reference": "ChIJdeCn6Sd_hYARdANC-dKuqJE", "scope": "GOOGLE", "types": ["doctor", "health", "point_of_interest", "establishment"], "vicinity": "3100 San Pablo Avenue #310, Berkeley"}, "ChIJ7fQiqqZ_hYARulL6AmWHALM": {"geometry": {"location": {"lat": 37.850429, "lng": -122.287516}, "viewport": {"northeast": {"lat": 37.8518200802915, "lng": -122.2855132197085}, "southwest": {"lat": 37.8491221197085, "lng": -122.2882111802915}}}, "icon": "https://maps.gstatic.com/mapfiles/place_api/icons/generic_business-71.png", "id": "45c9341d55fe5b733791ae449906459f76331fbe", "name": "John Muir Health Urgent Care Center", "opening_hours": {"open_now": true}, "photos": [{"height": 610, "html_attributions": ["<a href=\"https://maps.google.com/maps/contrib/117261341669934577663/photos\">John Muir Health Urgent Care Center</a>"], "photo_reference": "CmRZAAAAeQykSYyHr5fgS0rDkww7zGNMb6yuyILJ2syPPTXvHlqNNPdI-SJqb5H_XMr4w00fdXXbFLVW68v2MnusaFIVSOYReHzoAfGnx_JlkwKn8KHoDUpErmtJl8dM2c4RPT-pEhDhjICxUZMF6rfNhjJxhH6oGhRfbrFhFLFANTE6EQizi_Aim3x9wQ", "width": 1084}], "place_id": "ChIJ7fQiqqZ_hYARulL6AmWHALM", "plus_code": {"compound_code": "VP26+5X Berkeley, California, United States", "global_code": "849VVP26+5X"}, "reference": "ChIJ7fQiqqZ_hYARulL6AmWHALM", "scope": "GOOGLE", "types": ["health", "point_of_interest", "establishment"], "vicinity": "3100 San Pablo Avenue #300, Berkeley"}, "ChIJwYePzDR_hYARTBst4meHh-U": {"geometry": {"location": {"lat": 37.850429, "lng": -122.287516}, "viewport": {"northeast": {"lat": 37.8518200802915, "lng": -122.2855132197085}, "southwest": {"lat": 37.8491221197085, "lng": -122.2882111802915}}}, "icon": "https://maps.gstatic.com/mapfiles/place_api/icons/generic_business-71.png", "id": "a53352efb5fb8d4e7f99c542664c7e90f087fdac", "name": "Matthew Chin, MD", "opening_hours": {"open_now": false}, "photos": [{"height": 400, "html_attributions": ["<a href=\"https://maps.google.com/maps/contrib/113787460341142922788/photos\">Matthew Chin, MD</a>"], "photo_reference": "CmRaAAAAyojT3edlFGunj_gH6cfu7W222-sr-u1Hqnxh1PnwCFyhceq0xOrF9zKHBq2iRpIq_t5tl8yiDdgdy3krg9PxQtvrWZYfoKRAO-3hg196V1RM92zpFLCQi8f5TkZC1d1hEhAkYRZNlg2QEx659o9PcBIJGhSpJwKJ9r4SqDMT70Vn4pVCU3loLQ", "width": 400}], "place_id": "ChIJwYePzDR_hYARTBst4meHh-U", "plus_code": {"compound_code": "VP26+5X Berkeley, California, United States", "global_code": "849VVP26+5X"}, "reference": "ChIJwYePzDR_hYARTBst4meHh-U", "scope": "GOOGLE", "types": ["doctor", "health", "point_of_interest", "establishment"], "vicinity": "3100 San Pablo Avenue #400, Berkeley"}, "ChIJR8fumox_hYARvU2MBKos0fg": {"geometry": {"location": {"lat": 37.850429, "lng": -122.287516}, "viewport": {"northeast": {"lat": 37.8518200802915, "lng": -122.2855132197085}, "southwest": {"lat": 37.8491221197085, "lng": -122.2882111802915}}}, "icon": "https://maps.gstatic.com/mapfiles/place_api/icons/generic_business-71.png", "id": "084bb11c4ded5fcf0b5a15231e1ccd56409e365c", "name": "Avis Logan, MD", "opening_hours": {"open_now": false}, "photos": [{"height": 448, "html_attributions": ["<a href=\"https://maps.google.com/maps/contrib/102196209123290080049/photos\">Avis Logan, MD</a>"], "photo_reference": "CmRaAAAAFo5XsK-1sV37PWysNQD1V4c_1zGZyTvJLJnx48jic8Xn31sNlSpdgeOw3lA28XEC3faCJY5aoP4dTSHrngWqfjVPH6hk0QfatxVeApL9KNJODXBr2j25-YteB22QG0D2EhAbe9OGgEtTnRelFprAlFujGhQKs5D0rkFjhyBiUt9AlN0QG1P-AQ", "width": 448}], "place_id": "ChIJR8fumox_hYARvU2MBKos0fg", "plus_code": {"compound_code": "VP26+5X Berkeley, California, United States", "global_code": "849VVP26+5X"}, "reference": "ChIJR8fumox_hYARvU2MBKos0fg", "scope": "GOOGLE", "types": ["doctor", "health", "point_of_interest", "establishment"], "vicinity": "3100 San Pablo Avenue #310, Berkeley"}, "ChIJX4M5pvd_hYARK_H1fC81I_g": {"geometry": {"location": {"lat": 37.850429, "lng": -122.287516}, "viewport": {"northeast": {"lat": 37.8518200802915, "lng": -122.2855132197085}, "southwest": {"lat": 37.8491221197085, "lng": -122.2882111802915}}}, "icon": "https://maps.gstatic.com/mapfiles/place_api/icons/generic_business-71.png", "id": "22bdbc96593c815d0c32ce92d1778d90c2fb5a49", "name": "Andria Johnson, MD", "opening_hours": {"open_now": false}, "photos": [{"height": 448, "html_attributions": ["<a href=\"https://maps.google.com/maps/contrib/101235433518248909936/photos\">Andria Johnson, MD</a>"], "photo_reference": "CmRaAAAAw5b6GNlazExLwChqB36knrPrXR0Ey0wJtyUQU3Q4Ni2B3McjGgRQRFutNqFfvwHdQMREhWEmZwj23AWGQtgV_TKR_az8SodU6IuX3UO-31uyPDXAjPZbxsR3TxcnygPnEhAQ4jJWMBWhepSqGxj8p_-BGhRnTCCWgpcoIWnFeY_3lAhBSKkUDw", "width": 448}], "place_id": "ChIJX4M5pvd_hYARK_H1fC81I_g", "plus_code": {"compound_code": "VP26+5X Berkeley, California, United States", "global_code": "849VVP26+5X"}, "reference": "ChIJX4M5pvd_hYARK_H1fC81I_g", "scope": "GOOGLE", "types": ["doctor", "health", "point_of_interest", "establishment"], "vicinity": "3100 San Pablo Avenue #310, Berkeley"}, "ChIJNckBfgN_hYARFZmpFU30SUg": {"geometry": {"location": {"lat": 37.850429, "lng": -122.287516}, "viewport": {"northeast": {"lat": 37.8518200802915, "lng": -122.2855132197085}, "southwest": {"lat": 37.8491221197085, "lng": -122.2882111802915}}}, "icon": "https://maps.gstatic.com/mapfiles/place_api/icons/generic_business-71.png", "id": "f51258252703831654337bc3187c074985c3783d", "name": "Audrey D'Andrea, MD", "opening_hours": {"open_now": false}, "photos": [{"height": 448, "html_attributions": ["<a href=\"https://maps.google.com/maps/contrib/106947663946007335185/photos\">Audrey D&#39;Andrea, MD</a>"], "photo_reference": "CmRaAAAA8t-0SP_GadCaaVbkk6iTgtcStD_EvQ-PVTmkQS3-yHyzmZb6gWeEIDRmTn5tbt2ZsJ3dzkUgYNFnPRTqiv_z8pzEyDuXpkBHOT1O3MGxkULGorn6PUjDoOcpNEwcYsrgEhCG2SitInW8205JSFBKMf6TGhTvdKFmiUmyDhI3y_mLjyX8cdFtCw", "width": 448}], "place_id": "ChIJNckBfgN_hYARFZmpFU30SUg", "plus_code": {"compound_code": "VP26+5X Berkeley, California, United States", "global_code": "849VVP26+5X"}, "reference": "ChIJNckBfgN_hYARFZmpFU30SUg", "scope": "GOOGLE", "types": ["doctor", "health", "point_of_interest", "establishment"], "vicinity": "3100 San Pablo Avenue #310, Berkeley"}, "ChIJA-2qKIt9hYARZ5N1NdUVtHE": {"geometry": {"location": {"lat": 37.8043637, "lng": -122.2711137}, "viewport": {"northeast": {"lat": 37.88472489999999, "lng": -122.114775}, "southwest": {"lat": 37.6322259, "lng": -122.355881}}}, "icon": "https://maps.gstatic.com/mapfiles/place_api/icons/geocode-71.png", "id": "da4a4da21e013f9d3a24e8eee6d4f84de02148d3", "name": "Oakland", "photos": [{"height": 2848, "html_attributions": ["<a href=\"https://maps.google.com/maps/contrib/113300206259949994494/photos\">Cimino Alberto</a>"], "photo_reference": "CmRaAAAASo44uXxyo-bE0jI7Jef_LBbfxo6givr-N1AhQh-lV_t3TsIBMWOtpw9lWA-eVzzjrYlJP0BJo8gU3BNb8c01XvVk05MBZtGMTvb-SfQujlUds0R7R9Bpztl7mBOTqVB1EhAhdhfWo3AGca0U0jsh9L_8GhTsTkPtoBcX0PGtaStsopj0irctGw", "width": 4256}], "place_id": "ChIJA-2qKIt9hYARZ5N1NdUVtHE", "reference": "ChIJA-2qKIt9hYARZ5N1NdUVtHE", "scope": "GOOGLE", "types": ["locality", "political"], "vicinity": "Oakland"}, "ChIJ3YoMfTt_hYARgaZviXu4pkA": {"geometry": {"location": {"lat": 37.850429, "lng": -122.287516}, "viewport": {"northeast": {"lat": 37.8518200802915, "lng": -122.2855132197085}, "southwest": {"lat": 37.8491221197085, "lng": -122.2882111802915}}}, "icon": "https://maps.gstatic.com/mapfiles/place_api/icons/generic_business-71.png", "id": "d63392676097102821aa6d8ff947fd2f07215a0d", "name": "Hongha Vu-James, MD", "opening_hours": {"open_now": false}, "photos": [{"height": 400, "html_attributions": ["<a href=\"https://maps.google.com/maps/contrib/104581143515399508300/photos\">Hongha Vu-James, MD</a>"], "photo_reference": "CmRaAAAAvUFSrHpq5RnR03A4HpjxLXCOz3D2T9ASmzolVh1nf_hjgGYguXPUOvEKskNmU404ID9Rcfb_xOw4kFx0QJcMEHcO1pMhnW197H7_tFHnuzOXJqNGtKbv66bOqeHZSwF7EhBWxpH2IWwbnnqTUYXVIwskGhRzloLVTvurRrU4RA3q7aItwWR2HQ", "width": 400}], "place_id": "ChIJ3YoMfTt_hYARgaZviXu4pkA", "plus_code": {"compound_code": "VP26+5X Berkeley, California, United States", "global_code": "849VVP26+5X"}, "reference": "ChIJ3YoMfTt_hYARgaZviXu4pkA", "scope": "GOOGLE", "types": ["doctor", "health", "point_of_interest", "establishment"], "vicinity": "3100 San Pablo Avenue #400, Berkeley"}, "ChIJm_DEOxR_hYARxue9Qm-igQ0": {"geometry": {"location": {"lat": 37.850429, "lng": -122.287516}, "viewport": {"northeast": {"lat": 37.8518200802915, "lng": -122.2855132197085}, "southwest": {"lat": 37.8491221197085, "lng": -122.2882111802915}}}, "icon": "https://maps.gstatic.com/mapfiles/place_api/icons/generic_business-71.png", "id": "19bc01da8ba3df274d53ae77d15e1389ba781e8b", "name": "Elsa Tsutaoa, MD", "opening_hours": {"open_now": false}, "photos": [{"height": 448, "html_attributions": ["<a href=\"https://maps.google.com/maps/contrib/113492840915175885938/photos\">Elsa Tsutaoa, MD</a>"], "photo_reference": "CmRaAAAAvheEu94Wfe5a4ZZc1Gzr9T18BhiL0ax-4Dj8G_yYRf6XYmuLcpIize71AT_GyIhgXUkygDBZpRanWJA8tyvRN_HBP_RfDdYfj9ayml_GxmbX_QGqfxgCKNZ0fxABA-39EhBlLulFFEcF-lvF4VUDl28lGhQElF-TaJlrukCf2T3JqK2fU5vHRA", "width": 448}], "place_id": "ChIJm_DEOxR_hYARxue9Qm-igQ0", "plus_code": {"compound_code": "VP26+5X Berkeley, California, United States", "global_code": "849VVP26+5X"}, "reference": "ChIJm_DEOxR_hYARxue9Qm-igQ0", "scope": "GOOGLE", "types": ["doctor", "health", "point_of_interest", "establishment"], "vicinity": "3100 San Pablo Avenue #310, Berkeley"}, "ChIJFYaUS_d_hYARuCCheLxs6tA": {"geometry": {"location": {"lat": 37.850429, "lng": -122.287516}, "viewport": {"northeast": {"lat": 37.8518200802915, "lng": -122.2855132197085}, "southwest": {"lat": 37.8491221197085, "lng": -122.2882111802915}}}, "icon": "https://maps.gstatic.com/mapfiles/place_api/icons/generic_business-71.png", "id": "0c8b214538028afeb72f429b2ef7c3078ec13f7b", "name": "Sarah White, FNP", "opening_hours": {"open_now": false}, "photos": [{"height": 448, "html_attributions": ["<a href=\"https://maps.google.com/maps/contrib/114582532700882033844/photos\">Sarah White, FNP</a>"], "photo_reference": "CmRaAAAAJOJhGvlizX-ZmKPuTZAuJwKZTQkxkd9Vv9YhCKapq9ydadL4ALTi1FUuc2ZeWk7kqk8w-e0ZqDaI3mz9jYn_kzNNeSSem4svDdy4ib9PeVTeZD-JahxmPyAGhsXSp1IbEhD-hUAQgRSf65PzJwFuDBywGhS2oaydEAeF-iEKN8pgTx48j3EIZw", "width": 448}], "place_id": "ChIJFYaUS_d_hYARuCCheLxs6tA", "plus_code": {"compound_code": "VP26+5X Berkeley, California, United States", "global_code": "849VVP26+5X"}, "reference": "ChIJFYaUS_d_hYARuCCheLxs6tA", "scope": "GOOGLE", "types": ["doctor", "health", "point_of_interest", "establishment"], "vicinity": "3100 San Pablo Avenue #310, Berkeley"}, "ChIJlZbJmJZ-hYARM5kPWjYKX3E": {"geometry": {"location": {"lat": 37.8514273, "lng": -122.2879562}, "viewport": {"northeast": {"lat": 37.8527599302915, "lng": -122.2866017697085}, "southwest": {"lat": 37.8500619697085, "lng": -122.2892997302915}}}, "icon": "https://maps.gstatic.com/mapfiles/place_api/icons/shopping-71.png", "id": "3a6853068d9f185e85426d38f90b2a0b45c6f300", "name": "Telesis Plumbing-Sewer Replacement", "place_id": "ChIJlZbJmJZ-hYARM5kPWjYKX3E", "plus_code": {"compound_code": "VP26+HR Berkeley, California, United States", "global_code": "849VVP26+HR"}, "reference": "ChIJlZbJmJZ-hYARM5kPWjYKX3E", "scope": "GOOGLE", "types": ["plumber", "home_goods_store", "store", "point_of_interest", "establishment"], "vicinity": "1028 Murray Street, Berkeley"}}