{"ChIJRRNOxNR9hYARl9XwZD9lKRc": {"geometry": {"location": {"lat": 37.8578456, "lng": -122.2616105}, "viewport": {"northeast": {"lat": 37.85919458029149, "lng": -122.2602615697085}, "southwest": {"lat": 37.85649661970849, "lng": -122.2629595302915}}}, "icon": "https://maps.gstatic.com/mapfiles/place_api/icons/geocode-71.png", "id": "6689ce5ef7cce0ab36992eccc39e187d8cca383f", "name": "2899-2825 Ellsworth St", "place_id": "ChIJRRNOxNR9hYARl9XwZD9lKRc", "reference": "ChIJRRNOxNR9hYARl9XwZD9lKRc", "scope": "GOOGLE", "types": ["route"], "vicinity": "Berkeley"}, "ChIJoeIk3NR9hYARLw0CDneI5bw": {"geometry": {"location": {"lat": 37.8577982, "lng": -122.2623072}, "viewport": {"northeast": {"lat": 37.85890208029149, "lng": -122.2609035197085}, "southwest": {"lat": 37.85620411970849, "lng": -122.2636014802915}}}, "icon": "https://maps.gstatic.com/mapfiles/place_api/icons/school-71.png", "id": "011061b76c4b838715dcdbdaf0c005a4fb86b2d5", "name": "Sylvia Mendez Elementary School", "photos": [{"height": 2448, "html_attributions": ["<a href=\"https://maps.google.com/maps/contrib/118159986254258402989/photos\">tanya spanier</a>"], "photo_reference": "CmRaAAAA8jeUTBJ8ULH-8Jsrt-1ZvMuIIMzfPj3i_b93a4x6C62qo7kAf9xqQqzffAgdWIL-o0tbICBJIAn6Cla8_fIjg0AyuUM0PIwazYw_i9rAFyyQRFyyi1qRbUCEOiVnI1nEEhBYXSqsNDyJ7EhhOgMdANO0GhTibEEuCDEs28U3MwWkKjEUxEvQ0w", "width": 3264}], "place_id": "ChIJoeIk3NR9hYARLw0CDneI5bw", "plus_code": {"compound_code": "VP5Q+43 Berkeley, California, United States", "global_code": "849VVP5Q+43"}, "rating": 3.3, "reference": "ChIJoeIk3NR9hYARLw0CDneI5bw", "scope": "GOOGLE", "types": ["school", "point_of_interest", "establishment"], "vicinity": "2241 Russell Street, Berkeley"}, "ChIJ_dTVxdR9hYAR1XwWyA8fstc": {"geometry": {"location": {"lat": 37.85793609999999, "lng": -122.2613344}, "viewport": {"northeast": {"lat": 37.8592648802915, "lng": -122.2601291197085}, "southwest": {"lat": 37.8565669197085, "lng": -122.2628270802915}}}, "icon": "https://maps.gstatic.com/mapfiles/place_api/icons/generic_business-71.png", "id": "ab75fe3de73a8f3ba879c852c95f45b90695a126", "name": "Kalub J. Jarosh, Lac", "place_id": "ChIJ_dTVxdR9hYAR1XwWyA8fstc", "plus_code": {"compound_code": "VP5Q+5F Berkeley, California, United States", "global_code": "849VVP5Q+5F"}, "reference": "ChIJ_dTVxdR9hYAR1XwWyA8fstc", "scope": "GOOGLE", "types": ["health", "point_of_interest", "establishment"], "vicinity": "2835 Ellsworth Street, Berkeley"}, "ChIJ00mFOjZ5hYARk-l1ppUV6pQ": {"geometry": {"location": {"lat": 37.8715926, "lng": -122.272747}, "viewport": {"northeast": {"lat": 37.9058239, "lng": -122.234179}, "southwest": {"lat": 37.835727, "lng": -122.367781}}}, "icon": "https://maps.gstatic.com/mapfiles/place_api/icons/geocode-71.png", "id": "00741fe572fc4084428ab206e1a55830f6a1bf0a", "name": "Berkeley", "photos": [{"height": 1080, "html_attributions": ["<a href=\"https://maps.google.com/maps/contrib/110244590763501513798/photos\">miao hsin sun</a>"], "photo_reference": "CmRaAAAA7rXOH_hAeaWkZEl9bGGRO8QeF9bp2YYnIyHM2pYe0hIma_66qQCsjfavOArE7VToAvdNGRWL1NWe1KrQnSO_p0vo5aDmbRMTfSqI2gLMvBnMxdzBQ6KEOdxcvJBTd0sCEhDG_ztuNjReSg4zttdyz90bGhSkR_RrBcWUAkCVXFaYWOXtdPQ9Yg", "width": 1616}], "place_id": "ChIJ00mFOjZ5hYARk-l1ppUV6pQ", "reference": "ChIJ00mFOjZ5hYARk-l1ppUV6pQ", "scope": "GOOGLE", "types": ["locality", "political"], "vicinity": "Berkeley"}}