{"ChIJTyvCq4F-hYARa3hlcVeg-wk": {"geometry": {"location": {"lat": 37.8592945, "lng": -122.2679696}, "viewport": {"northeast": {"lat": 37.8606434802915, "lng": -122.2666205697085}, "southwest": {"lat": 37.8579455197085, "lng": -122.2693185302915}}}, "icon": "https://maps.gstatic.com/mapfiles/place_api/icons/geocode-71.png", "id": "5320676c69b1cb3984f97f6859feb73648bf4e32", "name": "2081-2071 Ward St", "place_id": "ChIJTyvCq4F-hYARa3hlcVeg-wk", "reference": "ChIJTyvCq4F-hYARa3hlcVeg-wk", "scope": "GOOGLE", "types": ["route"], "vicinity": "Berkeley"}, "ChIJie2DvoF-hYARbPNgJk_yJj0": {"geometry": {"location": {"lat": 37.8595052, "lng": -122.2678139}, "viewport": {"northeast": {"lat": 37.8609064802915, "lng": -122.2665405197085}, "southwest": {"lat": 37.8582085197085, "lng": -122.2692384802915}}}, "icon": "https://maps.gstatic.com/mapfiles/place_api/icons/shopping-71.png", "id": "a8bd752789f480607db5270f6cc030bbbd325206", "name": "McKevitt Fiat of Berkeley", "opening_hours": {"open_now": true}, "photos": [{"height": 1667, "html_attributions": ["<a href=\"https://maps.google.com/maps/contrib/102874598184079882396/photos\">McKevitt Fiat of Berkeley</a>"], "photo_reference": "CmRaAAAA8rRZlkin4R-4n5Zrd0A2zCbmq51I5bZWk1DXM239YdOumynxO-0PvauRnTBsZH8HQYihM7N4NPD2wK5NcK-34LaaC_nXOGFj7oVwrWQesRj9Z7YHE7ztlj7lEJJJiHh7EhCVJ4nbyOuxKg_Ni6ZXZvB7GhQFzFy6Bm3kWiwzaKD2iGSRLQRGRg", "width": 2500}], "place_id": "ChIJie2DvoF-hYARbPNgJk_yJj0", "plus_code": {"compound_code": "VP5J+RV Berkeley, California, United States", "global_code": "849VVP5J+RV"}, "rating": 3.4, "reference": "ChIJie2DvoF-hYARbPNgJk_yJj0", "scope": "GOOGLE", "types": ["car_dealer", "store", "point_of_interest", "establishment"], "vicinity": "1009 2700 Shattuck Avenue #200, Berkeley"}, "ChIJMQjQpYF-hYARakLHSUF7z0I": {"geometry": {"location": {"lat": 37.85980199999999, "lng": -122.267829}, "viewport": {"northeast": {"lat": 37.8611590802915, "lng": -122.2664809197085}, "southwest": {"lat": 37.8584611197085, "lng": -122.2691788802915}}}, "icon": "https://maps.gstatic.com/mapfiles/place_api/icons/shopping-71.png", "id": "a8c14026ba6a9fee05b2b05a1767e411a8581d5f", "name": "McKevitt Alfa Romeo of Berkeley", "opening_hours": {"open_now": true}, "photos": [{"height": 3024, "html_attributions": ["<a href=\"https://maps.google.com/maps/contrib/108778507020505646874/photos\">Vafa</a>"], "photo_reference": "CmRaAAAAM54N873D9PcYtN_sxZE5_Aj8PqWj4Bhs3mcdd6rcRebhtebRbpLwOpiIzHr7ADdr1E0l5uGjwsY3xISSXugn3rMlCa-aCgyZRxkcxUbpkOSGfI87dYmZA7CTI_o9C6b-EhDmVSbKDKZ2Xaf1-9Z6PTI4GhRN_4_X5tvjxpy8ARbC0etJZtU_CQ", "width": 4032}], "place_id": "ChIJMQjQpYF-hYARakLHSUF7z0I", "plus_code": {"compound_code": "VP5J+WV Berkeley, California, United States", "global_code": "849VVP5J+WV"}, "rating": 4, "reference": "ChIJMQjQpYF-hYARakLHSUF7z0I", "scope": "GOOGLE", "types": ["car_dealer", "car_repair", "store", "point_of_interest", "establishment"], "vicinity": "2700 Shattuck Avenue #200, Berkeley"}, "ChIJF0aJDoF-hYARi6reI05kijw": {"geometry": {"location": {"lat": 37.85969099999999, "lng": -122.268703}, "viewport": {"northeast": {"lat": 37.86099308029149, "lng": -122.2676956697085}, "southwest": {"lat": 37.85829511970849, "lng": -122.2703936302915}}}, "icon": "https://maps.gstatic.com/mapfiles/place_api/icons/shopping-71.png", "id": "cd938bb4f8fc78e6e8cd0d51be5b9ba144a29836", "name": "Sports Basement Berkeley", "opening_hours": {"open_now": true}, "photos": [{"height": 3024, "html_attributions": ["<a href=\"https://maps.google.com/maps/contrib/116162280728527985973/photos\">Ton T</a>"], "photo_reference": "CmRaAAAAdeYtXOWNhnDJo7K8wz4Z7xFjDsUqosYi6f3DGuy1d3PgIoduAUtQ7sxLmVCMy5J0KoJmJtmNiI9Z0RT0LMGZYspVF7WUghNeQAA_q7qeb5N5Al1QQTE9j4MjYQ3Cob56EhA1H7raJZXb3yJKso-HVeZrGhSYW2k1WqPUhzH6A2Ftb9b1rKV-yA", "width": 4032}], "place_id": "ChIJF0aJDoF-hYARi6reI05kijw", "plus_code": {"compound_code": "VP5J+VG Berkeley, California, United States", "global_code": "849VVP5J+VG"}, "rating": 4.6, "reference": "ChIJF0aJDoF-hYARi6reI05kijw", "scope": "GOOGLE", "types": ["bicycle_store", "store", "point_of_interest", "establishment"], "vicinity": "2727 Milvia Street, Berkeley"}, "ChIJMQjQpYF-hYAREJsqaAkrb2s": {"geometry": {"location": {"lat": 37.860018, "lng": -122.2676466}, "viewport": {"northeast": {"lat": 37.8613455802915, "lng": -122.2661844197085}, "southwest": {"lat": 37.85864761970851, "lng": -122.2688823802915}}}, "icon": "https://maps.gstatic.com/mapfiles/place_api/icons/shopping-71.png", "id": "3f47499cb1e1f07295f8ff1644584bffa46f284f", "name": "McKevitt Chrysler Dodge Jeep Ram", "opening_hours": {"open_now": true}, "photos": [{"height": 3024, "html_attributions": ["<a href=\"https://maps.google.com/maps/contrib/108778507020505646874/photos\">Vafa</a>"], "photo_reference": "CmRaAAAAfnYzEPbVEwXZcZl54QUECaKpt4IvwFpiWMjVDtzTf3wwn7Sh7n1-lEpUtI0-og2saK6i9aTK7SZtAlD19J9u0gQhkT-N-l6yZHDTGWDofXH8gNrgfjAhgUcqR8wwYarzEhCxaoyKyJu5yRsLn79Gg64UGhR9BiUkY5GkgyEU_O0PxXn-tGASOA", "width": 4032}], "place_id": "ChIJMQjQpYF-hYAREJsqaAkrb2s", "plus_code": {"compound_code": "VP6J+2W Berkeley, California, United States", "global_code": "849VVP6J+2W"}, "rating": 3.8, "reference": "ChIJMQjQpYF-hYAREJsqaAkrb2s", "scope": "GOOGLE", "types": ["car_dealer", "store", "point_of_interest", "establishment"], "vicinity": "2700 Shattuck Avenue #100, Berkeley"}, "ChIJMQjQpYF-hYAR8PZ7eB46McI": {"geometry": {"location": {"lat": 37.85980199999999, "lng": -122.267829}, "viewport": {"northeast": {"lat": 37.8611590802915, "lng": -122.2664809197085}, "southwest": {"lat": 37.8584611197085, "lng": -122.2691788802915}}}, "icon": "https://maps.gstatic.com/mapfiles/place_api/icons/generic_business-71.png", "id": "737ac334976d63988da431b13c2ea99abc17d8c1", "name": "MOPAR Parts and Accessories", "place_id": "ChIJMQjQpYF-hYAR8PZ7eB46McI", "plus_code": {"compound_code": "VP5J+WV Berkeley, California, United States", "global_code": "849VVP5J+WV"}, "reference": "ChIJMQjQpYF-hYAR8PZ7eB46McI", "scope": "GOOGLE", "types": ["car_repair", "point_of_interest", "establishment"], "vicinity": "2700 Shattuck Avenue, Berkeley"}, "ChIJ00mFOjZ5hYARk-l1ppUV6pQ": {"geometry": {"location": {"lat": 37.8715926, "lng": -122.272747}, "viewport": {"northeast": {"lat": 37.9058239, "lng": -122.234179}, "southwest": {"lat": 37.835727, "lng": -122.367781}}}, "icon": "https://maps.gstatic.com/mapfiles/place_api/icons/geocode-71.png", "id": "00741fe572fc4084428ab206e1a55830f6a1bf0a", "name": "Berkeley", "photos": [{"height": 1080, "html_attributions": ["<a href=\"https://maps.google.com/maps/contrib/110244590763501513798/photos\">miao hsin sun</a>"], "photo_reference": "CmRaAAAA4wIBNkab7zNH0hgb6TJBpPksJKPLSr5Koze_7AMdWqP3v47ZfM0mHsdlHjzecUdWqGsO0cltCBYrFUCtuzABFGMqN8zuJK9RRYtv5v5EFSdC-eS1fJsALMHwOcraLjTfEhAeZm4Q6tVYgFSTxkZDn8iIGhTRXOupWVn0RUGTobWxCBpe97gwNQ", "width": 1616}], "place_id": "ChIJ00mFOjZ5hYARk-l1ppUV6pQ", "reference": "ChIJ00mFOjZ5hYARk-l1ppUV6pQ", "scope": "GOOGLE", "types": ["locality", "political"], "vicinity": "Berkeley"}}