{"ChIJI2ZcN19-hYARpeGGytI-tGA": {"geometry": {"location": {"lat": 37.8475656, "lng": -122.2931062}, "viewport": {"northeast": {"lat": 37.8489095302915, "lng": -122.2905589}, "southwest": {"lat": 37.8462115697085, "lng": -122.2956501}}}, "icon": "https://maps.gstatic.com/mapfiles/place_api/icons/geocode-71.png", "id": "87d467c6b215af192a43f099c85c096644b6bc3e", "name": "1491-1401 66th St", "place_id": "ChIJI2ZcN19-hYARpeGGytI-tGA", "reference": "ChIJI2ZcN19-hYARpeGGytI-tGA", "scope": "GOOGLE", "types": ["route"], "vicinity": "Emeryville"}, "ChIJeZJEN19-hYARFM7JsM7Jm-g": {"geometry": {"location": {"lat": 37.8474344, "lng": -122.2926147}, "viewport": {"northeast": {"lat": 37.8488914802915, "lng": -122.2913006697085}, "southwest": {"lat": 37.8461935197085, "lng": -122.2939986302915}}}, "icon": "https://maps.gstatic.com/mapfiles/place_api/icons/shopping-71.png", "id": "470760e2cbff3a1ae753a22b5d4bd207c2ed3d53", "name": "Clif Bar & Company", "opening_hours": {"open_now": false}, "photos": [{"height": 3024, "html_attributions": ["<a href=\"https://maps.google.com/maps/contrib/111734708105751370368/photos\">Sean Herrera</a>"], "photo_reference": "CmRaAAAAJyyUMxtD3BTNi-MXRO9RzcgaNy-lYYHNCN53VtH9z1aQlLRxlJnQ43h7lsSFyd8ojDXX94ASf3JTqr5U1-pen7j4fXUrlknAo64h-_AE89Zcxu1Gy2qVx8TQo95o0kz1EhDhLLHRM_c3cZNmTVM4HnDWGhRP666sRP2zUCJl73wLQTSKzK9AoQ", "width": 4032}], "place_id": "ChIJeZJEN19-hYARFM7JsM7Jm-g", "plus_code": {"compound_code": "RPW4+XX Emeryville, California, United States", "global_code": "849VRPW4+XX"}, "rating": 3.8, "reference": "ChIJeZJEN19-hYARFM7JsM7Jm-g", "scope": "GOOGLE", "types": ["grocery_or_supermarket", "store", "point_of_interest", "food", "establishment"], "vicinity": "1451 66th Street, Emeryville"}, "ChIJnaWWN19-hYAR5VFSZQeSqEE": {"geometry": {"location": {"lat": 37.8476783, "lng": -122.2931393}, "viewport": {"northeast": {"lat": 37.8489712802915, "lng": -122.2917722197085}, "southwest": {"lat": 37.8462733197085, "lng": -122.2944701802915}}}, "icon": "https://maps.gstatic.com/mapfiles/place_api/icons/shopping-71.png", "id": "3a8f97937681903abc11dcbd929e6f54c8a347ef", "name": "Cal Steam, a Wolseley Company", "opening_hours": {"open_now": false}, "photos": [{"height": 2592, "html_attributions": ["<a href=\"https://maps.google.com/maps/contrib/117108843413236121620/photos\">Manuel Madrid</a>"], "photo_reference": "CmRaAAAAjL0FLKfQESLwLT7oQPPhSEoIHxx1bjtXbHc0XXXloTSF2gU2deqwevHNVBMb5iRH7WEoTvgRAQIWp5bU3hGco0ejgeob9rVEoWH5t6uGQ962bXvNhIXaJOeusWx0mwsfEhBlLK-XMEkUwLJwoRDo7ZfjGhRHyR4K_wZzxmtTsWp58xxx1EXSUg", "width": 1944}], "place_id": "ChIJnaWWN19-hYAR5VFSZQeSqEE", "plus_code": {"compound_code": "RPX4+3P Emeryville, California, United States", "global_code": "849VRPX4+3P"}, "rating": 4.3, "reference": "ChIJnaWWN19-hYAR5VFSZQeSqEE", "scope": "GOOGLE", "types": ["store", "point_of_interest", "establishment"], "vicinity": "1472 66th Street, Emeryville"}, "ChIJbVE9Tl9-hYARanaj_9d9uM0": {"geometry": {"location": {"lat": 37.8478975, "lng": -122.292944}, "viewport": {"northeast": {"lat": 37.84910603029149, "lng": -122.2915496197085}, "southwest": {"lat": 37.8464080697085, "lng": -122.2942475802915}}}, "icon": "https://maps.gstatic.com/mapfiles/place_api/icons/generic_business-71.png", "id": "58b001cbd0fcd42fdd696c01f024231a6522b700", "name": "Jayco Hawaii-California", "opening_hours": {"open_now": false}, "place_id": "ChIJbVE9Tl9-hYARanaj_9d9uM0", "plus_code": {"compound_code": "RPX4+5R Emeryville, California, United States", "global_code": "849VRPX4+5R"}, "rating": 1, "reference": "ChIJbVE9Tl9-hYARanaj_9d9uM0", "scope": "GOOGLE", "types": ["point_of_interest", "establishment"], "vicinity": "1468 66th Street, Emeryville"}, "ChIJMdx1MV9-hYARhtNyj1ZwO0I": {"geometry": {"location": {"lat": 37.8472314, "lng": -122.293374}, "viewport": {"northeast": {"lat": 37.8487110802915, "lng": -122.2920695697085}, "southwest": {"lat": 37.84601311970851, "lng": -122.2947675302915}}}, "icon": "https://maps.gstatic.com/mapfiles/place_api/icons/generic_business-71.png", "id": "0a0c0a810e40d3b9b0a04904ede4799e4f9b51be", "name": "State Farm Operations Center - Emeryville", "opening_hours": {"open_now": false}, "place_id": "ChIJMdx1MV9-hYARhtNyj1ZwO0I", "plus_code": {"compound_code": "RPW4+VM Emeryville, California, United States", "global_code": "849VRPW4+VM"}, "reference": "ChIJMdx1MV9-hYARhtNyj1ZwO0I", "scope": "GOOGLE", "types": ["point_of_interest", "establishment"], "vicinity": "1475 66th Street #204, Emeryville"}, "ChIJBw2-lp1-hYARBqgFvO4GRgo": {"geometry": {"location": {"lat": 37.8470059, "lng": -122.2929301}, "viewport": {"northeast": {"lat": 37.8481121802915, "lng": -122.2915030697085}, "southwest": {"lat": 37.8454142197085, "lng": -122.2942010302915}}}, "icon": "https://maps.gstatic.com/mapfiles/place_api/icons/generic_business-71.png", "id": "15ad641aa76258ab185309a419d0cbe1ea635e79", "name": "The Center for Investigative Reporting", "opening_hours": {"open_now": false}, "place_id": "ChIJBw2-lp1-hYARBqgFvO4GRgo", "plus_code": {"compound_code": "RPW4+RR Emeryville, California, United States", "global_code": "849VRPW4+RR"}, "rating": 5, "reference": "ChIJBw2-lp1-hYARBqgFvO4GRgo", "scope": "GOOGLE", "types": ["point_of_interest", "establishment"], "vicinity": "1400 65th Street #200, Emeryville"}, "ChIJNVGRPF9-hYARHh6vca3Tcic": {"geometry": {"location": {"lat": 37.8474344, "lng": -122.2926147}, "viewport": {"northeast": {"lat": 37.8488914802915, "lng": -122.2913006697085}, "southwest": {"lat": 37.8461935197085, "lng": -122.2939986302915}}}, "icon": "https://maps.gstatic.com/mapfiles/place_api/icons/bar-71.png", "id": "524c9f7763f79dc48abc5029b9ae2f085507c142", "name": "CLIF BAR FAMILY FOUNDATION", "place_id": "ChIJNVGRPF9-hYARHh6vca3Tcic", "plus_code": {"compound_code": "RPW4+XX Emeryville, California, United States", "global_code": "849VRPW4+XX"}, "rating": 1, "reference": "ChIJNVGRPF9-hYARHh6vca3Tcic", "scope": "GOOGLE", "types": ["bar", "point_of_interest", "establishment"], "vicinity": "1451 66th Street, Emeryville"}, "ChIJAQAAAO2AhYARgfxXbp78CiE": {"geometry": {"location": {"lat": 37.8477457, "lng": -122.293477}, "viewport": {"northeast": {"lat": 37.8489754302915, "lng": -122.2920873697085}, "southwest": {"lat": 37.8462774697085, "lng": -122.2947853302915}}}, "icon": "https://maps.gstatic.com/mapfiles/place_api/icons/shopping-71.png", "id": "c23f805c09ab232e90c3f9049615d11cab0271f7", "name": "E Wightman & Co", "place_id": "ChIJAQAAAO2AhYARgfxXbp78CiE", "plus_code": {"compound_code": "RPX4+3J Emeryville, California, United States", "global_code": "849VRPX4+3J"}, "reference": "ChIJAQAAAO2AhYARgfxXbp78CiE", "scope": "GOOGLE", "types": ["store", "point_of_interest", "establishment"], "vicinity": "1476 66th Street, Emeryville"}, "ChIJq6qqLV9-hYARixycvCsBiiw": {"geometry": {"location": {"lat": 37.8470539, "lng": -122.2930284}, "viewport": {"northeast": {"lat": 37.84812833029149, "lng": -122.2915911697085}, "southwest": {"lat": 37.8454303697085, "lng": -122.2942891302915}}}, "icon": "https://maps.gstatic.com/mapfiles/place_api/icons/generic_business-71.png", "id": "15b6ae7d2c6348379e132ac18ae634085e90e505", "name": "logo pie tech", "place_id": "ChIJq6qqLV9-hYARixycvCsBiiw", "plus_code": {"compound_code": "RPW4+RQ Emeryville, California, United States", "global_code": "849VRPW4+RQ"}, "reference": "ChIJq6qqLV9-hYARixycvCsBiiw", "scope": "GOOGLE", "types": ["point_of_interest", "establishment"], "vicinity": "1400 65th Street, Emeryville"}, "ChIJs44f6hR-hYARB3GwqDEYHUg": {"geometry": {"location": {"lat": 37.831316, "lng": -122.2852473}, "viewport": {"northeast": {"lat": 37.8499259, "lng": -122.276123}, "southwest": {"lat": 37.8268948, "lng": -122.3154701}}}, "icon": "https://maps.gstatic.com/mapfiles/place_api/icons/geocode-71.png", "id": "50264385d03c71c7c39b656a05a99231106dfb05", "name": "Emeryville", "photos": [{"height": 3024, "html_attributions": ["<a href=\"https://maps.google.com/maps/contrib/105925452919882592532/photos\">Rene&#39; Bennett</a>"], "photo_reference": "CmRaAAAALnabqxX5Sdnv4hD6FSMZyvMQ9iAF76UNts_VGM9xe4Cw1o23r4G5F4VjRC0KlmBCAqjMtiLu007gC3absq8jLRcI4J8ogezk6EIawcM3gi88msfoLIBbFPufR21e6OTUEhBmND6PReGJqgxgGA3wmiujGhQRlEPf14yzuh3CyZQ42X-SJJYjHg", "width": 4032}], "place_id": "ChIJs44f6hR-hYARB3GwqDEYHUg", "reference": "ChIJs44f6hR-hYARB3GwqDEYHUg", "scope": "GOOGLE", "types": ["locality", "political"], "vicinity": "Emeryville"}}