{"ChIJJXWN5qF-hYARy2SsDezmrNM": {"geometry": {"location": {"lat": 37.8755523, "lng": -122.2699794}, "viewport": {"northeast": {"lat": 37.8768866802915, "lng": -122.26770525}, "southwest": {"lat": 37.8741887197085, "lng": -122.27224985}}}, "icon": "https://maps.gstatic.com/mapfiles/place_api/icons/geocode-71.png", "id": "e754a3e14d1c99c67a370ef8be9e62ca3c6df8a5", "name": "2099-2001 Francisco St", "place_id": "ChIJJXWN5qF-hYARy2SsDezmrNM", "reference": "ChIJJXWN5qF-hYARy2SsDezmrNM", "scope": "GOOGLE", "types": ["route"], "vicinity": "Berkeley"}, "ChIJccdve59-hYARSNQ5SVaNfW0": {"geometry": {"location": {"lat": 37.8752056, "lng": -122.2690146}, "viewport": {"northeast": {"lat": 37.8765628802915, "lng": -122.2675525197085}, "southwest": {"lat": 37.8738649197085, "lng": -122.2702504802915}}}, "icon": "https://maps.gstatic.com/mapfiles/place_api/icons/shopping-71.png", "id": "98ddc49843c559e0577c3607447622991c7703f2", "name": "Celtic Inheritance | MacManus and Sons Celtic Jewelers", "opening_hours": {"open_now": true}, "photos": [{"height": 5344, "html_attributions": ["<a href=\"https://maps.google.com/maps/contrib/102075195216525523515/photos\">Sean Schluntz</a>"], "photo_reference": "CmRaAAAAYHBoGbklFKK_h9SnSmOIHLbVeGdGM2Lli2SrbryggxecIFF4JsFQ59yiFcMPS69Y7mDQKa-pDpM4NDAEAeE47sNhf9_P2pVi4PrZYOOZSltt7jrN3E2ZYaL_TOF5CUKTEhAxnuVzweYhDwH6KDVLERfpGhQpLagv9Rdz0jjCwIzzFiYZY3b1Dg", "width": 3006}], "place_id": "ChIJccdve59-hYARSNQ5SVaNfW0", "plus_code": {"compound_code": "VPGJ+39 Berkeley, California, United States", "global_code": "849VVPGJ+39"}, "rating": 4.9, "reference": "ChIJccdve59-hYARSNQ5SVaNfW0", "scope": "GOOGLE", "types": ["jewelry_store", "store", "point_of_interest", "establishment"], "vicinity": "1778 Shattuck Avenue, Berkeley"}, "ChIJE5H8ep9-hYARYpxLSzekYjQ": {"geometry": {"location": {"lat": 37.875042, "lng": -122.268931}, "viewport": {"northeast": {"lat": 37.8763971802915, "lng": -122.2675008697085}, "southwest": {"lat": 37.8736992197085, "lng": -122.2701988302915}}}, "icon": "https://maps.gstatic.com/mapfiles/place_api/icons/restaurant-71.png", "id": "d883acd148f60e5d8625e2b808fda0bdf898a096", "name": "Corso", "opening_hours": {"open_now": false}, "photos": [{"height": 3670, "html_attributions": ["<a href=\"https://maps.google.com/maps/contrib/108322840438709021635/photos\">Corso</a>"], "photo_reference": "CmRaAAAAZVqki5aEMpFE59IV22mEXV-yOG15onbLKnHDXO3nnAFK-bHX60s8JxH_2ziA_2dHFrua2njZaz_MQ63nAiwWhn83_IaiWwwkbFX72kjA9U5wvVXck_F2Fy_XUzRFXHMdEhBsU7GZ8kwNPR1JGvouAjo6GhRgz-HisySYFEdxS8OgKKVOWAEF3A", "width": 5510}], "place_id": "ChIJE5H8ep9-hYARYpxLSzekYjQ", "plus_code": {"compound_code": "VPGJ+2C Berkeley, California, United States", "global_code": "849VVPGJ+2C"}, "price_level": 2, "rating": 4.5, "reference": "ChIJE5H8ep9-hYARYpxLSzekYjQ", "scope": "GOOGLE", "types": ["restaurant", "point_of_interest", "food", "establishment"], "vicinity": "1788 Shattuck Avenue, Berkeley"}, "ChIJ7Zxke59-hYAR7EP2l9MAVfQ": {"geometry": {"location": {"lat": 37.8752661, "lng": -122.2689078}, "viewport": {"northeast": {"lat": 37.8766192302915, "lng": -122.2675022197085}, "southwest": {"lat": 37.8739212697085, "lng": -122.2702001802915}}}, "icon": "https://maps.gstatic.com/mapfiles/place_api/icons/restaurant-71.png", "id": "aaa7df7db8320eea6b7f0f558fe5b775a0b06ed9", "name": "Party Sushi", "opening_hours": {"open_now": false}, "photos": [{"height": 1000, "html_attributions": ["<a href=\"https://maps.google.com/maps/contrib/111572304429025640339/photos\">Party Sushi</a>"], "photo_reference": "CmRaAAAAeLMHuSuMIXzcn90cYE90O8dUIk3M2Y5afGRiWLT_lDqyWzff67MGLrOBcmLdwa0f1wG6zYtqkhg8YkI358ShnGS_FvefUMjiH1A8ek6js17PPJHiX0Kp09J5rfsiup4pEhDUVii8ECGXKH64yRbEzMOgGhSX2BcNYOPilWD32-RlRPxf1Jy54A", "width": 1500}], "place_id": "ChIJ7Zxke59-hYAR7EP2l9MAVfQ", "plus_code": {"compound_code": "VPGJ+4C Berkeley, California, United States", "global_code": "849VVPGJ+4C"}, "price_level": 2, "rating": 4.3, "reference": "ChIJ7Zxke59-hYAR7EP2l9MAVfQ", "scope": "GOOGLE", "types": ["restaurant", "point_of_interest", "food", "establishment"], "vicinity": "1750, 1776 Shattuck Avenue, Berkeley"}, "ChIJkzmXxaF-hYARV8AZMlJbaHM": {"geometry": {"location": {"lat": 37.8761729, "lng": -122.2690877}, "viewport": {"northeast": {"lat": 37.8775285302915, "lng": -122.2676448697085}, "southwest": {"lat": 37.8748305697085, "lng": -122.2703428302915}}}, "icon": "https://maps.gstatic.com/mapfiles/place_api/icons/shopping-71.png", "id": "a9ca7dcf41d275f90008d83ab5e656ef33601e31", "name": "Sumito's Floral Design", "opening_hours": {"open_now": true}, "photos": [{"height": 3264, "html_attributions": ["<a href=\"https://maps.google.com/maps/contrib/104424108021576972368/photos\">Sumito&#39;s Floral Design</a>"], "photo_reference": "CmRaAAAAV4zesUBe4zSibh1og4Bj-3P9SYg8z1Ty4G2kYIitIJ-WJUxWA6LsGXzaqLxzfGSwIhpBQ5J7GwQk6oC7tn716F0P8xin56Q9SwdVCKvV-cOT6ey3BbExsrNvENTkacGJEhDuqhPwnM8KAwnX2w2XSNAFGhTKOZLX1w008cZwr6ELT8yMXYf_8g", "width": 2448}], "place_id": "ChIJkzmXxaF-hYARV8AZMlJbaHM", "plus_code": {"compound_code": "VPGJ+F9 Berkeley, California, United States", "global_code": "849VVPGJ+F9"}, "rating": 5, "reference": "ChIJkzmXxaF-hYARV8AZMlJbaHM", "scope": "GOOGLE", "types": ["florist", "store", "point_of_interest", "establishment"], "vicinity": "1708 Shattuck Avenue, Berkeley"}, "ChIJF7xc56F-hYARpYUuHMf0eGE": {"geometry": {"location": {"lat": 37.875437, "lng": -122.269557}, "viewport": {"northeast": {"lat": 37.8768690802915, "lng": -122.2682255197085}, "southwest": {"lat": 37.8741711197085, "lng": -122.2709234802915}}}, "icon": "https://maps.gstatic.com/mapfiles/place_api/icons/school-71.png", "id": "2c5653be5489bf1b63bfd2955117e98df8f69262", "name": "The Berkeley School - Early Childhood Center", "place_id": "ChIJF7xc56F-hYARpYUuHMf0eGE", "plus_code": {"compound_code": "VPGJ+55 Berkeley, California, United States", "global_code": "849VVPGJ+55"}, "reference": "ChIJF7xc56F-hYARpYUuHMf0eGE", "scope": "GOOGLE", "types": ["point_of_interest", "school", "establishment"], "vicinity": "2030 Francisco Street, Berkeley"}, "ChIJu3mP0KF-hYARXK3lQxwD_Us": {"geometry": {"location": {"lat": 37.87585979999999, "lng": -122.2690774}, "viewport": {"northeast": {"lat": 37.8772163302915, "lng": -122.2676220197085}, "southwest": {"lat": 37.8745183697085, "lng": -122.2703199802915}}}, "icon": "https://maps.gstatic.com/mapfiles/place_api/icons/shopping-71.png", "id": "904e335674924d62f66c1ddce9583cd8558c4be4", "name": "North Berkeley Frame", "opening_hours": {"open_now": true}, "place_id": "ChIJu3mP0KF-hYARXK3lQxwD_Us", "plus_code": {"compound_code": "VPGJ+89 Berkeley, California, United States", "global_code": "849VVPGJ+89"}, "rating": 5, "reference": "ChIJu3mP0KF-hYARXK3lQxwD_Us", "scope": "GOOGLE", "types": ["store", "point_of_interest", "establishment"], "vicinity": "1744 Shattuck Avenue, Berkeley"}, "ChIJY49AxaF-hYAR7tcGfb41nMU": {"geometry": {"location": {"lat": 37.8759957, "lng": -122.2691524}, "viewport": {"northeast": {"lat": 37.8773543302915, "lng": -122.2676674697085}, "southwest": {"lat": 37.8746563697085, "lng": -122.2703654302915}}}, "icon": "https://maps.gstatic.com/mapfiles/place_api/icons/generic_business-71.png", "id": "0f5dd4d0e126aeb8b9035c904c20dde90ab17c16", "name": "Robinson Real Estate - Scott Robinson", "opening_hours": {"open_now": true}, "photos": [{"height": 665, "html_attributions": ["<a href=\"https://maps.google.com/maps/contrib/104658741908559366696/photos\">Robinson Real Estate - Scott Robinson</a>"], "photo_reference": "CmRaAAAAAY4jXj_-1N3sMuRCgYNJHCjeU8fKpI_BPcKh7IR4Gkfl5lXq9Xb1iTMPOdpcUv6VVjHh4ufuCfwAUIFP5efCwJB8NDrHHKk0H4YqKr8VxzI0rY4B1aH8k9UaPFzTaY9pEhAK27EIO-hgBnJPtFgic7s-GhQlSKiaea9vMmFq19-mDXApTvbkbw", "width": 960}], "place_id": "ChIJY49AxaF-hYAR7tcGfb41nMU", "plus_code": {"compound_code": "VPGJ+98 Berkeley, California, United States", "global_code": "849VVPGJ+98"}, "rating": 5, "reference": "ChIJY49AxaF-hYAR7tcGfb41nMU", "scope": "GOOGLE", "types": ["real_estate_agency", "point_of_interest", "establishment"], "vicinity": "1720 Shattuck Avenue, Berkeley"}, "ChIJgyxl2qF-hYAR-OY7gZdWltU": {"geometry": {"location": {"lat": 37.875812, "lng": -122.269095}, "viewport": {"northeast": {"lat": 37.87716933029149, "lng": -122.2676281697085}, "southwest": {"lat": 37.87447136970849, "lng": -122.2703261302915}}}, "icon": "https://maps.gstatic.com/mapfiles/place_api/icons/shopping-71.png", "id": "ea8a930e0158cbc093a388bd1ce8f1c956cbc119", "name": "Foxglove", "opening_hours": {"open_now": true}, "photos": [{"height": 533, "html_attributions": ["<a href=\"https://maps.google.com/maps/contrib/100139130928441058865/photos\">Foxglove</a>"], "photo_reference": "CmRaAAAAnzUA0csGLoSUwT3-tppky3rMDues1rRTr9CiWOGuoPi5DwXsX2J_w4HbtHdnA2BkpK3W19N43Vw6k16PR-UpIrEpwLMh48xIs-GPVp1xvhCc2vi5Y7fSmFV4R8hkXK84EhDswiVm3yU2WvJbXeISVHjBGhR2QABRqwsfDLLesD1O9uh4YcqKcQ", "width": 800}], "place_id": "ChIJgyxl2qF-hYAR-OY7gZdWltU", "plus_code": {"compound_code": "VPGJ+89 Berkeley, California, United States", "global_code": "849VVPGJ+89"}, "rating": 5, "reference": "ChIJgyxl2qF-hYAR-OY7gZdWltU", "scope": "GOOGLE", "types": ["clothing_store", "store", "point_of_interest", "establishment"], "vicinity": "1746 Shattuck Avenue, Berkeley"}, "ChIJqY-xfJ9-hYARlhzYbVcX9L0": {"geometry": {"location": {"lat": 37.87517940000001, "lng": -122.2689505}, "viewport": {"northeast": {"lat": 37.8765344802915, "lng": -122.2675186697085}, "southwest": {"lat": 37.8738365197085, "lng": -122.2702166302915}}}, "icon": "https://maps.gstatic.com/mapfiles/place_api/icons/generic_business-71.png", "id": "63014c6ea50f7a753aa3a36b1eba79596aa232fe", "name": "Image Beauty Salon", "opening_hours": {"open_now": true}, "photos": [{"height": 921, "html_attributions": ["<a href=\"https://maps.google.com/maps/contrib/110613154202756762264/photos\">Michael Tu</a>"], "photo_reference": "CmRaAAAA6kxtC7CeAWPssUR6NcXCXR9oCNfM9h7UupKL9ehD3cJ00RiJVkVycoWkDJtmRPycttw5r6Xdn0zt6E4taNf4puTSAWUPFzIMVMqVLNgc6z2M-DRNRKBPvMxq9NdlCyvVEhBeNBCmD2j-4fWPazgRnGYUGhQeiADa-sZT3f4BPYihZr7FgBB5LQ", "width": 2048}], "place_id": "ChIJqY-xfJ9-hYARlhzYbVcX9L0", "plus_code": {"compound_code": "VPGJ+3C Berkeley, California, United States", "global_code": "849VVPGJ+3C"}, "rating": 4.1, "reference": "ChIJqY-xfJ9-hYARlhzYbVcX9L0", "scope": "GOOGLE", "types": ["beauty_salon", "hair_care", "point_of_interest", "establishment"], "vicinity": "1780 Shattuck Avenue, Berkeley"}, "ChIJc4U-eZ9-hYAR5ih4d-bZpBI": {"geometry": {"location": {"lat": 37.8753594, "lng": -122.2685236}, "viewport": {"northeast": {"lat": 37.8767040802915, "lng": -122.2672585697085}, "southwest": {"lat": 37.8740061197085, "lng": -122.2699565302915}}}, "icon": "https://maps.gstatic.com/mapfiles/place_api/icons/cafe-71.png", "id": "e9375ecf6705b62617ecc9d513db8062c40a2118", "name": "Victory Point Cafe", "opening_hours": {"open_now": true}, "photos": [{"height": 3024, "html_attributions": ["<a href=\"https://maps.google.com/maps/contrib/100587407115936003473/photos\">Jeremy Karnowski</a>"], "photo_reference": "CmRaAAAAXHqGvgKSNpkxqiPcgQKmP4A7j5zTIO1MELtuewdPL4WeNUZmn2GIcycNMp-E9KuMCLOTd_Pl-Pppc6Kev5tZgtZ3EVFPcK5TbdkWr578sQ81QBPrfqjLCRofLrf6PfrKEhC58fq1qHxY6LKwEcq-Kdy9GhSCGUAjyRrDQ6o46dyTEfFRepA13A", "width": 4032}], "place_id": "ChIJc4U-eZ9-hYAR5ih4d-bZpBI", "plus_code": {"compound_code": "VPGJ+4H Berkeley, California, United States", "global_code": "849VVPGJ+4H"}, "price_level": 1, "rating": 4.7, "reference": "ChIJc4U-eZ9-hYAR5ih4d-bZpBI", "scope": "GOOGLE", "types": ["cafe", "point_of_interest", "food", "establishment"], "vicinity": "1797-A, Shattuck Avenue, Berkeley"}, "ChIJkzmXxaF-hYARI0W7nUeMemw": {"geometry": {"location": {"lat": 37.8761685, "lng": -122.2691328}, "viewport": {"northeast": {"lat": 37.8775257302915, "lng": -122.2676673697085}, "southwest": {"lat": 37.8748277697085, "lng": -122.2703653302915}}}, "icon": "https://maps.gstatic.com/mapfiles/place_api/icons/generic_business-71.png", "id": "a196c1dde9a01e98d82394b75dc259bab4a74ab4", "name": "Dana Carr, PsyD", "place_id": "ChIJkzmXxaF-hYARI0W7nUeMemw", "plus_code": {"compound_code": "VPGJ+F8 Berkeley, California, United States", "global_code": "849VVPGJ+F8"}, "reference": "ChIJkzmXxaF-hYARI0W7nUeMemw", "scope": "GOOGLE", "types": ["health", "point_of_interest", "establishment"], "vicinity": "1708 Shattuck Avenue, Berkeley"}, "ChIJv_162KF-hYARFJNcKQOOI44": {"geometry": {"location": {"lat": 37.8753547, "lng": -122.2691704}, "viewport": {"northeast": {"lat": 37.87671703029149, "lng": -122.2676398197085}, "southwest": {"lat": 37.8740190697085, "lng": -122.2703377802915}}}, "icon": "https://maps.gstatic.com/mapfiles/place_api/icons/generic_business-71.png", "id": "a369680e3aba4b6ea119ca26fd689574b9a4c1b6", "name": "Campus Auto Care", "opening_hours": {"open_now": true}, "photos": [{"height": 608, "html_attributions": ["<a href=\"https://maps.google.com/maps/contrib/106302393629274189633/photos\">Rick Henrikson</a>"], "photo_reference": "CmRaAAAAXaKEPc6wzlC_y5NfW6FCgLOS-kdvr0W_fU0zEHBsuoe2iRfGYapuNbOV817l_xcWk5Znf4EwbENJ5Go30dJNJIpsYyu4PvpEc3Kf4nrDt2gBvjCE9HH9tv2N-6PwcuDdEhA6PdqLA75tzZml9iqxajlJGhRJgobqReQwafUf61Xu73beUzFlLg", "width": 1080}], "place_id": "ChIJv_162KF-hYARFJNcKQOOI44", "plus_code": {"compound_code": "VPGJ+48 Berkeley, California, United States", "global_code": "849VVPGJ+48"}, "rating": 4.9, "reference": "ChIJv_162KF-hYARFJNcKQOOI44", "scope": "GOOGLE", "types": ["car_repair", "point_of_interest", "establishment"], "vicinity": "1752 Shattuck Avenue, Berkeley"}, "ChIJkzmXxaF-hYARDbxVwQ4FgHE": {"geometry": {"location": {"lat": 37.87617099999999, "lng": -122.2691559}, "viewport": {"northeast": {"lat": 37.87752903029149, "lng": -122.2676791197085}, "southwest": {"lat": 37.87483106970849, "lng": -122.2703770802915}}}, "icon": "https://maps.gstatic.com/mapfiles/place_api/icons/generic_business-71.png", "id": "e1ebbfcd334306e156ac02878cf4756d48ac473e", "name": "Kaplan Laurence PHD", "place_id": "ChIJkzmXxaF-hYARDbxVwQ4FgHE", "plus_code": {"compound_code": "VPGJ+F8 Berkeley, California, United States", "global_code": "849VVPGJ+F8"}, "reference": "ChIJkzmXxaF-hYARDbxVwQ4FgHE", "scope": "GOOGLE", "types": ["health", "point_of_interest", "establishment"], "vicinity": "1708 Shattuck Avenue, Berkeley"}, "ChIJkzmXxaF-hYARcOLVfy5ga78": {"geometry": {"location": {"lat": 37.8761719, "lng": -122.2691435}, "viewport": {"northeast": {"lat": 37.87752948029149, "lng": -122.2676729197085}, "southwest": {"lat": 37.8748315197085, "lng": -122.2703708802915}}}, "icon": "https://maps.gstatic.com/mapfiles/place_api/icons/generic_business-71.png", "id": "678968481efcb1145ab11322682a23fdb5a78527", "name": "Blume Capital Management Inc", "place_id": "ChIJkzmXxaF-hYARcOLVfy5ga78", "plus_code": {"compound_code": "VPGJ+F8 Berkeley, California, United States", "global_code": "849VVPGJ+F8"}, "reference": "ChIJkzmXxaF-hYARcOLVfy5ga78", "scope": "GOOGLE", "types": ["finance", "point_of_interest", "establishment"], "vicinity": "1708 Shattuck Avenue # 3, Berkeley"}, "ChIJaXXf56F-hYAR1jmqfoEP-dU": {"geometry": {"location": {"lat": 37.875773, "lng": -122.2697422}, "viewport": {"northeast": {"lat": 37.8770297802915, "lng": -122.2683738197085}, "southwest": {"lat": 37.8743318197085, "lng": -122.2710717802915}}}, "icon": "https://maps.gstatic.com/mapfiles/place_api/icons/generic_business-71.png", "id": "a9284b36a5a1720ba3c23625a82131b382147de1", "name": "Erin Babnik Photography", "opening_hours": {"open_now": true}, "photos": [{"height": 915, "html_attributions": ["<a href=\"https://maps.google.com/maps/contrib/107845475285621924487/photos\">Erin Babnik Photography</a>"], "photo_reference": "CmRaAAAAXWlxKeQtSvm9zOVRt2n1rnYLvNyHwX2sjMEsvVPdpsxsRT7LpLtOO0lqZLsf_GDf8pZ5_0F8bnULjiKulfMAyBVfApOtt9-CLp_kK31-NVnQiMC5subdvwTiBb5rqAAcEhDK0obaFyo820H5WjPQCIsBGhS_2GKIn8ghHL-Gle5IA93xlw7aeA", "width": 1280}], "place_id": "ChIJaXXf56F-hYAR1jmqfoEP-dU", "plus_code": {"compound_code": "VPGJ+84 Berkeley, California, United States", "global_code": "849VVPGJ+84"}, "reference": "ChIJaXXf56F-hYAR1jmqfoEP-dU", "scope": "GOOGLE", "types": ["point_of_interest", "establishment"], "vicinity": "2035 Francisco Street, Berkeley"}, "ChIJTQcSe59-hYAR7cneHCTlrpo": {"geometry": {"location": {"lat": 37.875142, "lng": -122.2689299}, "viewport": {"northeast": {"lat": 37.8764964802915, "lng": -122.2675061197085}, "southwest": {"lat": 37.8737985197085, "lng": -122.2702040802915}}}, "icon": "https://maps.gstatic.com/mapfiles/place_api/icons/restaurant-71.png", "id": "ea546fda5d832c7ff9407459812ef56d788b0a46", "name": "Oriental Restaurant", "opening_hours": {"open_now": true}, "photos": [{"height": 3456, "html_attributions": ["<a href=\"https://maps.google.com/maps/contrib/101609806765891657355/photos\">Abinaya Manimaran</a>"], "photo_reference": "CmRaAAAAq3Z5640Bg-GW6j3Dwi6I8TNqpYsKOlAGM1Uc2YA5Up7eNvK6I3vMkUZaQIsfGNPpkLimOT6kgexRFLclPXnfD-REevPPkqT1u7OXok_aAR76ho2DSV_IemombXNpSa_0EhC_oL7zCLiXaR2yprFO4xkXGhTnW7WUlpMRl2uX9yWOTjOtiaHFHg", "width": 4608}], "place_id": "ChIJTQcSe59-hYAR7cneHCTlrpo", "plus_code": {"compound_code": "VPGJ+3C Berkeley, California, United States", "global_code": "849VVPGJ+3C"}, "price_level": 1, "rating": 4.4, "reference": "ChIJTQcSe59-hYAR7cneHCTlrpo", "scope": "GOOGLE", "types": ["restaurant", "point_of_interest", "food", "establishment"], "vicinity": "1782 Shattuck Avenue, Berkeley"}, "ChIJFx1JxKF-hYARATyrtwDlQ9E": {"geometry": {"location": {"lat": 37.8761719, "lng": -122.2691434}, "viewport": {"northeast": {"lat": 37.87752948029149, "lng": -122.2676728697085}, "southwest": {"lat": 37.8748315197085, "lng": -122.2703708302915}}}, "icon": "https://maps.gstatic.com/mapfiles/place_api/icons/generic_business-71.png", "id": "b1014dde6635476e65cce92da38741e37a38687f", "name": "Rachel Goodman, MFT", "opening_hours": {"open_now": true}, "photos": [{"height": 2000, "html_attributions": ["<a href=\"https://maps.google.com/maps/contrib/107374746244084813676/photos\">Rachel Goodman, MFT</a>"], "photo_reference": "CmRaAAAAnWsh0dz2TcGOPR0aXd8VsGmTyX-OkuoTffgJ7Sb2DWyHpzyaA89PukMmEwomyy7q-aoaId-pmNrsQVeilCZxAbQjlxnVyL0GLrmP_FWqGiUocfyT0RAs5wNT13k0B1bhEhAwotpVlm82pC2Hy4MxFFuYGhT7vDJPyyIjfJ5sMmYEjfzS40MA_A", "width": 1600}], "place_id": "ChIJFx1JxKF-hYARATyrtwDlQ9E", "plus_code": {"compound_code": "VPGJ+F8 Berkeley, California, United States", "global_code": "849VVPGJ+F8"}, "rating": 5, "reference": "ChIJFx1JxKF-hYARATyrtwDlQ9E", "scope": "GOOGLE", "types": ["health", "point_of_interest", "establishment"], "vicinity": "1708 Shattuck Avenue, Berkeley"}, "ChIJPx1JxKF-hYARqoVBg1vQZSI": {"geometry": {"location": {"lat": 37.8761719, "lng": -122.2691435}, "viewport": {"northeast": {"lat": 37.87752948029149, "lng": -122.2676729197085}, "southwest": {"lat": 37.8748315197085, "lng": -122.2703708802915}}}, "icon": "https://maps.gstatic.com/mapfiles/place_api/icons/generic_business-71.png", "id": "c71e84c4955ddb716de6816556fd0892c9eedad4", "name": "Susan Rook-Thomas, MA, MFT, Psychotherapy", "place_id": "ChIJPx1JxKF-hYARqoVBg1vQZSI", "plus_code": {"compound_code": "VPGJ+F8 Berkeley, California, United States", "global_code": "849VVPGJ+F8"}, "reference": "ChIJPx1JxKF-hYARqoVBg1vQZSI", "scope": "GOOGLE", "types": ["doctor", "health", "point_of_interest", "establishment"], "vicinity": "1708 Shattuck Avenue, Berkeley"}, "ChIJ00mFOjZ5hYARk-l1ppUV6pQ": {"geometry": {"location": {"lat": 37.8715926, "lng": -122.272747}, "viewport": {"northeast": {"lat": 37.9058239, "lng": -122.234179}, "southwest": {"lat": 37.835727, "lng": -122.367781}}}, "icon": "https://maps.gstatic.com/mapfiles/place_api/icons/geocode-71.png", "id": "00741fe572fc4084428ab206e1a55830f6a1bf0a", "name": "Berkeley", "photos": [{"height": 1080, "html_attributions": ["<a href=\"https://maps.google.com/maps/contrib/110244590763501513798/photos\">miao hsin sun</a>"], "photo_reference": "CmRaAAAAIxdxiqMhDLo1jm_ENiIReCYs7fNRAs-7LWwD7Lr4bS5CncFCV9H3eOeq6Fwql5_k3ej7v79MPfrG64-ghPh1uWHVK_EkBd1_cSJfbzHj8wRiA1ihtn1hFVT55jBJp6IEEhCmAx3cW-B9B1SXJKPc06OHGhRsOy4qf5ij9dUNLoSOk3PtaY7y7g", "width": 1616}], "place_id": "ChIJ00mFOjZ5hYARk-l1ppUV6pQ", "reference": "ChIJ00mFOjZ5hYARk-l1ppUV6pQ", "scope": "GOOGLE", "types": ["locality", "political"], "vicinity": "Berkeley"}, "ChIJRUgFe59-hYAR7Bmcc-tAMic": {"geometry": {"location": {"lat": 37.8751213, "lng": -122.268974}, "viewport": {"northeast": {"lat": 37.87647748029151, "lng": -122.2675271197085}, "southwest": {"lat": 37.87377951970851, "lng": -122.2702250802915}}}, "icon": "https://maps.gstatic.com/mapfiles/place_api/icons/generic_business-71.png", "id": "43da349f2be4d67647ee0a3c67e4bef26b2c69d0", "name": "Sam's Cleaners", "opening_hours": {"open_now": true}, "photos": [{"height": 4128, "html_attributions": ["<a href=\"https://maps.google.com/maps/contrib/102906406498358266836/photos\">dede Weadock</a>"], "photo_reference": "CmRaAAAAcXMnUCIbA04r1j_K6qHXIC1wsKauMj49ZAOem76NqgjzPSd0hi0yQkijuErTieF0liNXsyFpv70ScufV1Gw3eBat-DYUDmW-FFlPwjSKE9JEwJ_lJACMN0tTWumVG9RxEhC5RG1Nyh8Td7rslOtxF39cGhQNmUmCZ0umMofkadVqKWoTd1-DrA", "width": 2322}], "place_id": "ChIJRUgFe59-hYAR7Bmcc-tAMic", "plus_code": {"compound_code": "VPGJ+2C Berkeley, California, United States", "global_code": "849VVPGJ+2C"}, "rating": 5, "reference": "ChIJRUgFe59-hYAR7Bmcc-tAMic", "scope": "GOOGLE", "types": ["laundry", "point_of_interest", "establishment"], "vicinity": "1784 Shattuck Avenue, Berkeley"}, "ChIJMzBg2aF-hYARcgqymECMxeE": {"geometry": {"location": {"lat": 37.87566989999999, "lng": -122.2691948}, "viewport": {"northeast": {"lat": 37.87701888029149, "lng": -122.2678458197085}, "southwest": {"lat": 37.87432091970849, "lng": -122.2705437802915}}}, "icon": "https://maps.gstatic.com/mapfiles/place_api/icons/generic_business-71.png", "id": "0ab9901c90f200204a82e10117db50ee0be70986", "name": "Martha W. Knobler, MA", "place_id": "ChIJMzBg2aF-hYARcgqymECMxeE", "plus_code": {"compound_code": "VPGJ+78 Berkeley, California, United States", "global_code": "849VVPGJ+78"}, "reference": "ChIJMzBg2aF-hYARcgqymECMxeE", "scope": "GOOGLE", "types": ["doctor", "health", "point_of_interest", "establishment"], "vicinity": "2045 Francisco Street, Berkeley, CA 94709, Berkeley"}, "ChIJkTjDyZl_hYARPEox8iaKRQQ": {"geometry": {"location": {"lat": 37.8757788, "lng": -122.2690656}, "viewport": {"northeast": {"lat": 37.87713523029149, "lng": -122.2676114697085}, "southwest": {"lat": 37.87443726970849, "lng": -122.2703094302915}}}, "icon": "https://maps.gstatic.com/mapfiles/place_api/icons/generic_business-71.png", "id": "7397e68af9109fd0a3ba42e5d8d06a745fbf0def", "name": "DHL Express Office Center", "place_id": "ChIJkTjDyZl_hYARPEox8iaKRQQ", "plus_code": {"compound_code": "VPGJ+89 Berkeley, California, United States", "global_code": "849VVPGJ+89"}, "reference": "ChIJkTjDyZl_hYARPEox8iaKRQQ", "scope": "GOOGLE", "types": ["point_of_interest", "establishment"], "vicinity": "1748 Shattuck Avenue, Berkeley"}, "ChIJAwpt2qF-hYARJJX61BALJW8": {"geometry": {"location": {"lat": 37.8757951, "lng": -122.2689846}, "viewport": {"northeast": {"lat": 37.87714863029149, "lng": -122.2675715697085}, "southwest": {"lat": 37.87445066970849, "lng": -122.2702695302915}}}, "icon": "https://maps.gstatic.com/mapfiles/place_api/icons/generic_business-71.png", "id": "61393072ecbcc151decc655ba7dcb6879b7efa19", "name": "Pocketme", "place_id": "ChIJAwpt2qF-hYARJJX61BALJW8", "plus_code": {"compound_code": "VPGJ+8C Berkeley, California, United States", "global_code": "849VVPGJ+8C"}, "reference": "ChIJAwpt2qF-hYARJJX61BALJW8", "scope": "GOOGLE", "types": ["point_of_interest", "establishment"], "vicinity": "1748 Shattuck Avenue, Berkeley"}, "ChIJsZfq2qF-hYARdJSPA66dyv8": {"geometry": {"location": {"lat": 37.875966, "lng": -122.26902}, "viewport": {"northeast": {"lat": 37.8773200802915, "lng": -122.2675990697085}, "southwest": {"lat": 37.8746221197085, "lng": -122.2702970302915}}}, "icon": "https://maps.gstatic.com/mapfiles/place_api/icons/restaurant-71.png", "id": "6682143274ca2c203033428c3191d81807d14e34", "name": "Agrodolce Osteria", "opening_hours": {"open_now": false}, "photos": [{"height": 2048, "html_attributions": ["<a href=\"https://maps.google.com/maps/contrib/117962639534419414559/photos\">Agrodolce Osteria</a>"], "photo_reference": "CmRaAAAAV3XaSQU7Gl2dzenpBQ0ggwLgIRU1maapgcJavNUxDQrY1lwLQ827lihIvejmQyDxz1C2xk0wXl8QIg86jzYKiAL7hNfXi4_yYiDRFSiwzZQ9KlJ2ffnvQjrKyOiBkVK8EhAR4o-tGAyc428j-uzF-PnXGhQzrVbnq0KNkHCrUpH1Q65qooX35A", "width": 1536}], "place_id": "ChIJsZfq2qF-hYARdJSPA66dyv8", "plus_code": {"compound_code": "VPGJ+99 Berkeley, California, United States", "global_code": "849VVPGJ+99"}, "price_level": 2, "rating": 4.3, "reference": "ChIJsZfq2qF-hYARdJSPA66dyv8", "scope": "GOOGLE", "types": ["restaurant", "bar", "point_of_interest", "food", "establishment"], "vicinity": "1730 Shattuck Avenue, Berkeley"}, "ChIJ929te59-hYAR_xjryFC2UNQ": {"geometry": {"location": {"lat": 37.87517940000001, "lng": -122.2689505}, "viewport": {"northeast": {"lat": 37.8765344802915, "lng": -122.2675186697085}, "southwest": {"lat": 37.8738365197085, "lng": -122.2702166302915}}}, "icon": "https://maps.gstatic.com/mapfiles/place_api/icons/generic_business-71.png", "id": "19db35d57e0ad3c65556a7601a36bf2cc8be5d9f", "name": "Chic Beauty Center", "place_id": "ChIJ929te59-hYAR_xjryFC2UNQ", "plus_code": {"compound_code": "VPGJ+3C Berkeley, California, United States", "global_code": "849VVPGJ+3C"}, "reference": "ChIJ929te59-hYAR_xjryFC2UNQ", "scope": "GOOGLE", "types": ["beauty_salon", "point_of_interest", "establishment"], "vicinity": "1780 Shattuck Avenue, Berkeley"}, "ChIJmdRAxaF-hYAR4DUcYIquuRE": {"geometry": {"location": {"lat": 37.87603999999999, "lng": -122.2691027}, "viewport": {"northeast": {"lat": 37.87739668029149, "lng": -122.2676449197085}, "southwest": {"lat": 37.8746987197085, "lng": -122.2703428802915}}}, "icon": "https://maps.gstatic.com/mapfiles/place_api/icons/generic_business-71.png", "id": "984418ddca91ac4f3f4f4eb0453cf2903437f6c9", "name": "Robinson Real Estate", "place_id": "ChIJmdRAxaF-hYAR4DUcYIquuRE", "plus_code": {"compound_code": "VPGJ+C9 Berkeley, California, United States", "global_code": "849VVPGJ+C9"}, "reference": "ChIJmdRAxaF-hYAR4DUcYIquuRE", "scope": "GOOGLE", "types": ["real_estate_agency", "point_of_interest", "establishment"], "vicinity": "1720 Shattuck Avenue, Berkeley"}, "ChIJz94PfJ9-hYARPtreSNnAkm4": {"geometry": {"location": {"lat": 37.87526099999999, "lng": -122.26863}, "viewport": {"northeast": {"lat": 37.87660998029149, "lng": -122.2672810197085}, "southwest": {"lat": 37.87391201970849, "lng": -122.2699789802915}}}, "icon": "https://maps.gstatic.com/mapfiles/place_api/icons/bus-71.png", "id": "4bc4887422fa2f8bc9423e12bafec72239213dfb", "name": "Shattuck Av:Delaware St", "place_id": "ChIJz94PfJ9-hYARPtreSNnAkm4", "plus_code": {"compound_code": "VPGJ+4G Berkeley, California, United States", "global_code": "849VVPGJ+4G"}, "reference": "ChIJz94PfJ9-hYARPtreSNnAkm4", "scope": "GOOGLE", "types": ["bus_station", "transit_station", "point_of_interest", "establishment"], "vicinity": "United States"}, "ChIJkzmXxaF-hYARWDswNBqpY8g": {"geometry": {"location": {"lat": 37.87617099999999, "lng": -122.2691559}, "viewport": {"northeast": {"lat": 37.87752903029149, "lng": -122.2676791197085}, "southwest": {"lat": 37.87483106970849, "lng": -122.2703770802915}}}, "icon": "https://maps.gstatic.com/mapfiles/place_api/icons/generic_business-71.png", "id": "78aa8e4eee4e3386aa8fff9dc11f507fdbe2229a", "name": "Case Laurie PhD", "place_id": "ChIJkzmXxaF-hYARWDswNBqpY8g", "plus_code": {"compound_code": "VPGJ+F8 Berkeley, California, United States", "global_code": "849VVPGJ+F8"}, "reference": "ChIJkzmXxaF-hYARWDswNBqpY8g", "scope": "GOOGLE", "types": ["health", "point_of_interest", "establishment"], "vicinity": "1708 Shattuck Avenue, Berkeley"}, "ChIJkzmXxaF-hYARgjKjPVswess": {"geometry": {"location": {"lat": 37.8761685, "lng": -122.2691328}, "viewport": {"northeast": {"lat": 37.8775174802915, "lng": -122.2677838197085}, "southwest": {"lat": 37.8748195197085, "lng": -122.2704817802915}}}, "icon": "https://maps.gstatic.com/mapfiles/place_api/icons/generic_business-71.png", "id": "40494849a87b3a4bae98b2c3062a9aa6f26114d8", "name": "Carol Hirth, LCSW", "place_id": "ChIJkzmXxaF-hYARgjKjPVswess", "plus_code": {"compound_code": "VPGJ+F8 Berkeley, California, United States", "global_code": "849VVPGJ+F8"}, "reference": "ChIJkzmXxaF-hYARgjKjPVswess", "scope": "GOOGLE", "types": ["doctor", "health", "point_of_interest", "establishment"], "vicinity": "1708 Shattuck Avenue, Berkeley, CA 94709, Berkeley"}, "ChIJkzmXxaF-hYAR-X6sGTktgkY": {"geometry": {"location": {"lat": 37.87617099999999, "lng": -122.2691559}, "viewport": {"northeast": {"lat": 37.87752903029149, "lng": -122.2676791197085}, "southwest": {"lat": 37.87483106970849, "lng": -122.2703770802915}}}, "icon": "https://maps.gstatic.com/mapfiles/place_api/icons/generic_business-71.png", "id": "11afa9681860102cb34439df951774ff03663427", "name": "Jacobs James PhD", "place_id": "ChIJkzmXxaF-hYAR-X6sGTktgkY", "plus_code": {"compound_code": "VPGJ+F8 Berkeley, California, United States", "global_code": "849VVPGJ+F8"}, "reference": "ChIJkzmXxaF-hYAR-X6sGTktgkY", "scope": "GOOGLE", "types": ["health", "point_of_interest", "establishment"], "vicinity": "1708 Shattuck Avenue, Berkeley"}, "ChIJkzmXxaF-hYARRPfT52VjdfA": {"geometry": {"location": {"lat": 37.8761719, "lng": -122.2691435}, "viewport": {"northeast": {"lat": 37.87752948029149, "lng": -122.2676729197085}, "southwest": {"lat": 37.8748315197085, "lng": -122.2703708802915}}}, "icon": "https://maps.gstatic.com/mapfiles/place_api/icons/civic_building-71.png", "id": "c2fd80b26f2c1ad234494495de45cb3d10473133", "name": "Frank Kathryn W", "place_id": "ChIJkzmXxaF-hYARRPfT52VjdfA", "plus_code": {"compound_code": "VPGJ+F8 Berkeley, California, United States", "global_code": "849VVPGJ+F8"}, "reference": "ChIJkzmXxaF-hYARRPfT52VjdfA", "scope": "GOOGLE", "types": ["health", "point_of_interest", "establishment"], "vicinity": "1708 Shattuck Avenue, Berkeley"}, "ChIJkzmXxaF-hYARtqGyNMj64AI": {"geometry": {"location": {"lat": 37.87617099999999, "lng": -122.2691559}, "viewport": {"northeast": {"lat": 37.87752903029149, "lng": -122.2676791197085}, "southwest": {"lat": 37.87483106970849, "lng": -122.2703770802915}}}, "icon": "https://maps.gstatic.com/mapfiles/place_api/icons/generic_business-71.png", "id": "600d065bc02785686737f091106ef4816d0db1c4", "name": "Barry Rose a PhD", "place_id": "ChIJkzmXxaF-hYARtqGyNMj64AI", "plus_code": {"compound_code": "VPGJ+F8 Berkeley, California, United States", "global_code": "849VVPGJ+F8"}, "reference": "ChIJkzmXxaF-hYARtqGyNMj64AI", "scope": "GOOGLE", "types": ["health", "point_of_interest", "establishment"], "vicinity": "1708 Shattuck Avenue, Berkeley"}, "ChIJkzmXxaF-hYAR6rNvMtoHfT4": {"geometry": {"location": {"lat": 37.8761685, "lng": -122.2691328}, "viewport": {"northeast": {"lat": 37.8775257302915, "lng": -122.2676673697085}, "southwest": {"lat": 37.8748277697085, "lng": -122.2703653302915}}}, "icon": "https://maps.gstatic.com/mapfiles/place_api/icons/generic_business-71.png", "id": "b45cd8e6f096fcde391704c5ef9220b3b178cfa0", "name": "Margeaux R. Lieberman, PSYD", "place_id": "ChIJkzmXxaF-hYAR6rNvMtoHfT4", "plus_code": {"compound_code": "VPGJ+F8 Berkeley, California, United States", "global_code": "849VVPGJ+F8"}, "reference": "ChIJkzmXxaF-hYAR6rNvMtoHfT4", "scope": "GOOGLE", "types": ["health", "point_of_interest", "establishment"], "vicinity": "1708 Shattuck Avenue, Berkeley"}, "ChIJkzmXxaF-hYARZnd7bKkq4mQ": {"geometry": {"location": {"lat": 37.8761685, "lng": -122.2691328}, "viewport": {"northeast": {"lat": 37.8775174802915, "lng": -122.2677838197085}, "southwest": {"lat": 37.8748195197085, "lng": -122.2704817802915}}}, "icon": "https://maps.gstatic.com/mapfiles/place_api/icons/generic_business-71.png", "id": "a6e766e06e3367515e6ed202874cb3b23f468f46", "name": "Mary Jo Ahlborn, MA", "place_id": "ChIJkzmXxaF-hYARZnd7bKkq4mQ", "plus_code": {"compound_code": "VPGJ+F8 Berkeley, California, United States", "global_code": "849VVPGJ+F8"}, "reference": "ChIJkzmXxaF-hYARZnd7bKkq4mQ", "scope": "GOOGLE", "types": ["doctor", "health", "point_of_interest", "establishment"], "vicinity": "1708 Shattuck Avenue, Berkeley, CA 94709, Berkeley"}, "ChIJkzmXxaF-hYAR4IYQUn0JFZc": {"geometry": {"location": {"lat": 37.8761685, "lng": -122.2691328}, "viewport": {"northeast": {"lat": 37.8775257302915, "lng": -122.2676673697085}, "southwest": {"lat": 37.8748277697085, "lng": -122.2703653302915}}}, "icon": "https://maps.gstatic.com/mapfiles/place_api/icons/generic_business-71.png", "id": "f4c3e159378c306cc7ac5644b6f9621a8a0a213f", "name": "Gordon P. Hollib, PHD", "place_id": "ChIJkzmXxaF-hYAR4IYQUn0JFZc", "plus_code": {"compound_code": "VPGJ+F8 Berkeley, California, United States", "global_code": "849VVPGJ+F8"}, "reference": "ChIJkzmXxaF-hYAR4IYQUn0JFZc", "scope": "GOOGLE", "types": ["doctor", "health", "point_of_interest", "establishment"], "vicinity": "1708 Shattuck Avenue, Berkeley"}, "ChIJH_JExEd_hYARir-8vLualXI": {"geometry": {"location": {"lat": 37.876168, "lng": -122.269145}, "viewport": {"northeast": {"lat": 37.87752568029149, "lng": -122.2676734697085}, "southwest": {"lat": 37.8748277197085, "lng": -122.2703714302915}}}, "icon": "https://maps.gstatic.com/mapfiles/place_api/icons/generic_business-71.png", "id": "ac6683b17ba99c64d8421277aa5a181ec55d7665", "name": "Jeremy Daniel Marshman, MFT", "opening_hours": {"open_now": true}, "place_id": "ChIJH_JExEd_hYARir-8vLualXI", "plus_code": {"compound_code": "VPGJ+F8 Berkeley, California, United States", "global_code": "849VVPGJ+F8"}, "reference": "ChIJH_JExEd_hYARir-8vLualXI", "scope": "GOOGLE", "types": ["health", "point_of_interest", "establishment"], "vicinity": "1708 Shattuck Avenue, Berkeley"}}