{"ChIJ797PA8B-hYARS7lRBlOvp4A": {"geometry": {"location": {"lat": 37.8696327, "lng": -122.2884696}, "viewport": {"northeast": {"lat": 37.87098163029149, "lng": -122.2871206197085}, "southwest": {"lat": 37.86828366970849, "lng": -122.2898185802915}}}, "icon": "https://maps.gstatic.com/mapfiles/place_api/icons/geocode-71.png", "id": "7aa6f472ee5069f2791dc935c8551877149657c3", "name": "1249-1213 University Ave", "place_id": "ChIJ797PA8B-hYARS7lRBlOvp4A", "reference": "ChIJ797PA8B-hYARS7lRBlOvp4A", "scope": "GOOGLE", "types": ["route"], "vicinity": "Berkeley"}, "ChIJN9y5CMB-hYARg4w1tAd3-C8": {"geometry": {"location": {"lat": 37.8700917, "lng": -122.2883768}, "viewport": {"northeast": {"lat": 37.87144978029149, "lng": -122.2868871197085}, "southwest": {"lat": 37.86875181970849, "lng": -122.2895850802915}}}, "icon": "https://maps.gstatic.com/mapfiles/place_api/icons/generic_business-71.png", "id": "17922aa26745f218579914bc45f2af591ff0acf5", "name": "The Finnish Hall", "photos": [{"height": 3120, "html_attributions": ["<a href=\"https://maps.google.com/maps/contrib/108275841801262628619/photos\">Larry Goldfarb</a>"], "photo_reference": "CmRaAAAAepKf3BEwLSfMqgJaNBhwWOGuFKei9cMWl5iBJPwP05lEzqxZZJkZSXiGwpCuX9orm_1SYGk7e6CuA07JNwPXA6994jF3C2JrO13ED9c0808pVYknOSWICE8D2w1MfALrEhDlvF5Wdx9FLEQvINZ4ZNsVGhQg2H1-DBALx6Alt5JWJ90cQHr9cw", "width": 4160}], "place_id": "ChIJN9y5CMB-hYARg4w1tAd3-C8", "plus_code": {"compound_code": "VPC6+2J Berkeley, California, United States", "global_code": "849VVPC6+2J"}, "rating": 4.6, "reference": "ChIJN9y5CMB-hYARg4w1tAd3-C8", "scope": "GOOGLE", "types": ["point_of_interest", "establishment"], "vicinity": "1970 Chestnut Street, Berkeley"}, "ChIJN9y5CMB-hYARz-l7nDPZmkE": {"geometry": {"location": {"lat": 37.8701382, "lng": -122.2882131}, "viewport": {"northeast": {"lat": 37.8714908802915, "lng": -122.2868071197085}, "southwest": {"lat": 37.8687929197085, "lng": -122.2895050802915}}}, "icon": "https://maps.gstatic.com/mapfiles/place_api/icons/generic_business-71.png", "id": "5c6c76e2e2a8522f2a53c641f47f0b745eeac10e", "name": "Cozy Cat", "photos": [{"height": 308, "html_attributions": ["<a href=\"https://maps.google.com/maps/contrib/115256649863942865560/photos\">Cozy Cat</a>"], "photo_reference": "CmRaAAAA3yFljTpRR0HfDhTnN7yY64n_DOsb50D9VXh951p12SgsX65_HrOWMp39Qn1FjoEHZp0l9e6VBKUaWaixhjnThm8nc5LDEoXOprKagcf6NOlID71PRsjII6mNMpC7SXVTEhDExsBz7PK6LNlnVwDdkfnIGhQHiAYfnXIFgmzcl5kv5HhTHFoZsQ", "width": 572}], "place_id": "ChIJN9y5CMB-hYARz-l7nDPZmkE", "plus_code": {"compound_code": "VPC6+3P Berkeley, California, United States", "global_code": "849VVPC6+3P"}, "reference": "ChIJN9y5CMB-hYARz-l7nDPZmkE", "scope": "GOOGLE", "types": ["point_of_interest", "establishment"], "vicinity": "1970 Chestnut Street, Berkeley"}, "ChIJid-lCMB-hYARnqztLyaVoDQ": {"geometry": {"location": {"lat": 37.8700918, "lng": -122.2883767}, "viewport": {"northeast": {"lat": 37.8714498802915, "lng": -122.2868870697085}, "southwest": {"lat": 37.8687519197085, "lng": -122.2895850302915}}}, "icon": "https://maps.gstatic.com/mapfiles/place_api/icons/school-71.png", "id": "079a0f037182296ef1091971c6f90867a7d49dc1", "name": "InterKinected", "place_id": "ChIJid-lCMB-hYARnqztLyaVoDQ", "plus_code": {"compound_code": "VPC6+2J Berkeley, California, United States", "global_code": "849VVPC6+2J"}, "reference": "ChIJid-lCMB-hYARnqztLyaVoDQ", "scope": "GOOGLE", "types": ["point_of_interest", "establishment"], "vicinity": "1970 Chestnut Street, Berkeley"}, "ChIJH6rIGcB-hYARTRjBBwlbii4": {"geometry": {"location": {"lat": 37.869743, "lng": -122.289269}, "viewport": {"northeast": {"lat": 37.87098783029149, "lng": -122.2878990697085}, "southwest": {"lat": 37.86828986970849, "lng": -122.2905970302915}}}, "icon": "https://maps.gstatic.com/mapfiles/place_api/icons/generic_business-71.png", "id": "2f1ecdcd0fedb4cdfc410bf4755511f4c9d70b1b", "name": "Shotgun Studios", "photos": [{"height": 2988, "html_attributions": ["<a href=\"https://maps.google.com/maps/contrib/106587189556291795979/photos\">Donna Haiman</a>"], "photo_reference": "CmRaAAAAKDH7nCL7FHD56uPxAt1IYc6JLkdNvU6fewvelNNOEmCnRg6wHRhOixwNfsZZ_tUFpPH9VNW-S9LgNv3rR6KqwdeAjZ0SunORphHnUFZAhf_xO4BiuJQDZgdzMsw2ivi-EhB5QYMYXbAQ3o4Xh2pUAp2PGhT6yM46XVSg_ft1D5t5qf9B0LQEHg", "width": 5312}], "place_id": "ChIJH6rIGcB-hYARTRjBBwlbii4", "plus_code": {"compound_code": "VP96+V7 Berkeley, California, United States", "global_code": "849VVP96+V7"}, "rating": 4.6, "reference": "ChIJH6rIGcB-hYARTRjBBwlbii4", "scope": "GOOGLE", "types": ["point_of_interest", "establishment"], "vicinity": "1201 University Avenue, Berkeley"}, "ChIJfZh4_lpihYAR5QCOSf4ZgYI": {"geometry": {"location": {"lat": 37.86973559999999, "lng": -122.2893072}, "viewport": {"northeast": {"lat": 37.87098168029149, "lng": -122.2879375197085}, "southwest": {"lat": 37.8682837197085, "lng": -122.2906354802915}}}, "icon": "https://maps.gstatic.com/mapfiles/place_api/icons/generic_business-71.png", "id": "9b87e9ed33e77a30a183c1a6240d50474c8d3896", "name": "Synergy Theater", "photos": [{"height": 755, "html_attributions": ["<a href=\"https://maps.google.com/maps/contrib/116694335508810529728/photos\">Synergy Theater</a>"], "photo_reference": "CmRaAAAA1twOxP4OHwurc5La7Ep05ldR_O6Zqh461CYIXbgnkI6XovmjG3POr_CefyWxdPnrlOJBmCOYB7lN8WBjjwxkIIozC3de-NfXBhwwi2ELYkEAb3haeTY3wZrAC46pysG7EhCXRDt33TX0mhXTJ53Q-qAOGhSQ4_H3cSUkvbRphr3rJCWqv_8FWw", "width": 1128}], "place_id": "ChIJfZh4_lpihYAR5QCOSf4ZgYI", "plus_code": {"compound_code": "VP96+V7 Berkeley, California, United States", "global_code": "849VVP96+V7"}, "reference": "ChIJfZh4_lpihYAR5QCOSf4ZgYI", "scope": "GOOGLE", "types": ["point_of_interest", "establishment"], "vicinity": "1201 University Avenue, Berkeley"}, "ChIJF0oxGMB-hYARq8CQ_QEteB0": {"geometry": {"location": {"lat": 37.8697232, "lng": -122.2893404}, "viewport": {"northeast": {"lat": 37.8709732802915, "lng": -122.2879715697085}, "southwest": {"lat": 37.8682753197085, "lng": -122.2906695302915}}}, "icon": "https://maps.gstatic.com/mapfiles/place_api/icons/generic_business-71.png", "id": "51dc2506c383ff2791d9543546cf7028bcaf1d72", "name": "Shotgun Players Rehearsal Space/Scenic Shop", "place_id": "ChIJF0oxGMB-hYARq8CQ_QEteB0", "plus_code": {"compound_code": "VP96+V7 Berkeley, California, United States", "global_code": "849VVP96+V7"}, "rating": 5, "reference": "ChIJF0oxGMB-hYARq8CQ_QEteB0", "scope": "GOOGLE", "types": ["point_of_interest", "establishment"], "vicinity": "1201 University Avenue, Berkeley"}, "ChIJid-lCMB-hYAR4VHIAHtReTc": {"geometry": {"location": {"lat": 37.8700918, "lng": -122.2883767}, "viewport": {"northeast": {"lat": 37.8714498802915, "lng": -122.2868870697085}, "southwest": {"lat": 37.8687519197085, "lng": -122.2895850302915}}}, "icon": "https://maps.gstatic.com/mapfiles/place_api/icons/generic_business-71.png", "id": "b4826ead21928908e0d550cf6722173c3cf8652b", "name": "BIODANZA", "place_id": "ChIJid-lCMB-hYAR4VHIAHtReTc", "plus_code": {"compound_code": "VPC6+2J Berkeley, California, United States", "global_code": "849VVPC6+2J"}, "reference": "ChIJid-lCMB-hYAR4VHIAHtReTc", "scope": "GOOGLE", "types": ["health", "point_of_interest", "establishment"], "vicinity": "Finnish Hall, 1970 Chestnut Street, Berkeley"}, "ChIJ50XcBsB-hYARGTzWobJf7lk": {"geometry": {"location": {"lat": 37.8697649, "lng": -122.2882898}, "viewport": {"northeast": {"lat": 37.87106118029149, "lng": -122.2869295697085}, "southwest": {"lat": 37.86836321970849, "lng": -122.2896275302915}}}, "icon": "https://maps.gstatic.com/mapfiles/place_api/icons/generic_business-71.png", "id": "ac5ebdaee838b79a383a4d6e79783a12abbfa6d3", "name": "Frank's Engineering Clinic", "opening_hours": {"open_now": true}, "photos": [{"height": 4128, "html_attributions": ["<a href=\"https://maps.google.com/maps/contrib/101340425998424332382/photos\">Matt Bragg</a>"], "photo_reference": "CmRaAAAAOLcv60U9lcU_4jmrR2aZ1Lfosx0x0vidSR_3HuP08gHKfvdm7vGvhulk9fvZggvFbedoE0n9AJ6M5GPgNm2zSS7CTDqnWdbrcRqWwfyhk41GSbWgP046Gny7pvuip6mQEhAJ7O0_LJmi1fp_ZY2GLYXiGhTKK3sK70tEAXzxoWS24XfgtJTkAw", "width": 3096}], "place_id": "ChIJ50XcBsB-hYARGTzWobJf7lk", "plus_code": {"compound_code": "VP96+WM Berkeley, California, United States", "global_code": "849VVP96+WM"}, "rating": 4.4, "reference": "ChIJ50XcBsB-hYARGTzWobJf7lk", "scope": "GOOGLE", "types": ["car_repair", "store", "point_of_interest", "establishment"], "vicinity": "1245 University Avenue, Berkeley"}, "ChIJE1qtEsB-hYARSu-fGue7GP8": {"geometry": {"location": {"lat": 37.8705386, "lng": -122.2887855}, "viewport": {"northeast": {"lat": 37.8718849302915, "lng": -122.2874757697085}, "southwest": {"lat": 37.8691869697085, "lng": -122.2901737302915}}}, "icon": "https://maps.gstatic.com/mapfiles/place_api/icons/generic_business-71.png", "id": "4c40d19b7cf3fd608d92c28879d5ba8ea18611e1", "name": "William Lamb, EA", "opening_hours": {"open_now": true}, "photos": [{"height": 701, "html_attributions": ["<a href=\"https://maps.google.com/maps/contrib/117832786025983718227/photos\">William Lamb, EA</a>"], "photo_reference": "CmRaAAAAiKoVnjt3_7hbKG6CkMAarCiPDyueOzR_jSfZ1EdOoMPPcLFNXWrKty-CPGtxfeaSW3OB5ch8jpr-rS1WEeOiHjynXqgo0hDpm0_k65ZQxHUn_t5BfYCocbRnBXtCzFLgEhAnE0Z_NvNEQvNup4ZjPSf0GhS5_MbWVix7MCnPSZmDSMfcrDjwuA", "width": 701}], "place_id": "ChIJE1qtEsB-hYARSu-fGue7GP8", "plus_code": {"compound_code": "VPC6+6F Berkeley, California, United States", "global_code": "849VVPC6+6F"}, "reference": "ChIJE1qtEsB-hYARSu-fGue7GP8", "scope": "GOOGLE", "types": ["accounting", "finance", "point_of_interest", "establishment"], "vicinity": "1244 Hearst Avenue #3, Berkeley"}, "ChIJ7x6kgrN_hYARfyuRpqFZeko": {"geometry": {"location": {"lat": 37.8696134, "lng": -122.2893632}, "viewport": {"northeast": {"lat": 37.87096238029149, "lng": -122.2880142197085}, "southwest": {"lat": 37.8682644197085, "lng": -122.2907121802915}}}, "icon": "https://maps.gstatic.com/mapfiles/place_api/icons/generic_business-71.png", "id": "bc831adc69d3370f7e136e7162a36ed5feb56320", "name": "Mail Box", "photos": [{"height": 4160, "html_attributions": ["<a href=\"https://maps.google.com/maps/contrib/113025072809047078618/photos\">Ian Wulfson</a>"], "photo_reference": "CmRaAAAAThzqHGpqtAv6P4h9ynbEFusmA4ij6UMBiRJbhYye5iNyO32JRtwWAH7xNXkD9e4HizpyQS-_O5WcWbWfYodn-CvahBlz1jssvSnjpzNr0OASyAM1uxVRdCgkR64TXYs9EhCXEsZjEFNC2lUvp-4UUfuOGhRRBDcElh3wNGEHUyKZhHu0DfY1gA", "width": 3120}], "place_id": "ChIJ7x6kgrN_hYARfyuRpqFZeko", "plus_code": {"compound_code": "VP96+R7 Berkeley, California, United States", "global_code": "849VVP96+R7"}, "reference": "ChIJ7x6kgrN_hYARfyuRpqFZeko", "scope": "GOOGLE", "types": ["point_of_interest", "establishment"], "vicinity": "057 208302300, Berkeley"}, "ChIJ00mFOjZ5hYARk-l1ppUV6pQ": {"geometry": {"location": {"lat": 37.8715926, "lng": -122.272747}, "viewport": {"northeast": {"lat": 37.9058239, "lng": -122.234179}, "southwest": {"lat": 37.835727, "lng": -122.367781}}}, "icon": "https://maps.gstatic.com/mapfiles/place_api/icons/geocode-71.png", "id": "00741fe572fc4084428ab206e1a55830f6a1bf0a", "name": "Berkeley", "photos": [{"height": 1080, "html_attributions": ["<a href=\"https://maps.google.com/maps/contrib/110244590763501513798/photos\">miao hsin sun</a>"], "photo_reference": "CmRaAAAAcu88MYeOuq9IC3sghPSDwsplw4qij6oi9poldXa_We5h7kYnxEPtzCBnahyd_9_962_x1vln-UCBU4-Sxw0nYkMhhGlAzsrCex9LgA3nz94ZbpGmmiyZXc20Lv2L9quSEhBlj8hN_mVCFtJ3sLFhIKAWGhQY1C6hBeujQTEFJ5mt-OPc0MX1Mg", "width": 1616}], "place_id": "ChIJ00mFOjZ5hYARk-l1ppUV6pQ", "reference": "ChIJ00mFOjZ5hYARk-l1ppUV6pQ", "scope": "GOOGLE", "types": ["locality", "political"], "vicinity": "Berkeley"}}