{"ChIJnRsjKn9-hYARPV28jyCKMkQ": {"geometry": {"location": {"lat": 37.8521275, "lng": -122.2681352}, "viewport": {"northeast": {"lat": 37.85347643029149, "lng": -122.2667862197085}, "southwest": {"lat": 37.85077846970849, "lng": -122.2694841802915}}}, "icon": "https://maps.gstatic.com/mapfiles/place_api/icons/geocode-71.png", "id": "ca45ba0ac156f1a21c229cba41d9cec62bd3dcad", "name": "1999-1989 Woolsey St", "place_id": "ChIJnRsjKn9-hYARPV28jyCKMkQ", "reference": "ChIJnRsjKn9-hYARPV28jyCKMkQ", "scope": "GOOGLE", "types": ["route"], "vicinity": "Berkeley"}, "ChIJ7ejE0nh-hYARlVkigHpoI80": {"geometry": {"location": {"lat": 37.8519838, "lng": -122.2676493}, "viewport": {"northeast": {"lat": 37.85343333029149, "lng": -122.2663207197085}, "southwest": {"lat": 37.8507353697085, "lng": -122.2690186802915}}}, "icon": "https://maps.gstatic.com/mapfiles/place_api/icons/school-71.png", "id": "cee650bdc9b7477a01caf04ac08030a14c762b4a", "name": "Alliance Francaise de Berkeley", "photos": [{"height": 2112, "html_attributions": ["<a href=\"https://maps.google.com/maps/contrib/103401393184225420394/photos\">Alliance Francaise de Berkeley</a>"], "photo_reference": "CmRaAAAArnv_H3dAPRts4kXxID1Dvbwpk9mXhlZcy-zBmNtXXweMzdbRwfnXLh0sYQB3upa3MKrTfN3Z_uUygy_H22ijnBeesBdXStlnsbL9EXgTTX4HA-tuZcVMqlx0xBmHLWMQEhCwjPhlSr_V8zJOf5WiAzr2GhSxGXpfa45qG3F1cVydjp3jfYmDqA", "width": 2816}], "place_id": "ChIJ7ejE0nh-hYARlVkigHpoI80", "plus_code": {"compound_code": "VP2J+QW Oakland, California, United States", "global_code": "849VVP2J+QW"}, "rating": 4.8, "reference": "ChIJ7ejE0nh-hYARlVkigHpoI80", "scope": "GOOGLE", "types": ["point_of_interest", "establishment"], "vicinity": "2004 Woolsey Street, Berkeley"}, "ChIJ89n3Ln9-hYARQmCjRBIbKy0": {"geometry": {"location": {"lat": 37.85249999999999, "lng": -122.2677778}, "viewport": {"northeast": {"lat": 37.8536899802915, "lng": -122.2663965697085}, "southwest": {"lat": 37.8509920197085, "lng": -122.2690945302915}}}, "icon": "https://maps.gstatic.com/mapfiles/place_api/icons/worship_general-71.png", "id": "8bc48ae63b728b654b752b902736bf1932e8397c", "name": "All Nations Church-Christ Hlnss", "photos": [{"height": 4928, "html_attributions": ["<a href=\"https://maps.google.com/maps/contrib/114397479669890378989/photos\">Franco Folini</a>"], "photo_reference": "CmRaAAAAQcXLkx8xvAqYhCrBhQam-CGEG8P7s6fyKp3WMqHylJgV_SiCr90aFCYOhza11GzM2UNxJX29CUWJARETFYRCYzN0ZQbQlbMeOIA2nWPawaPz6nG8i6GGLKFgr0ywbGBNEhDh27FSgJXq1eHuvI1HEdmfGhQUM6c3Y9RmGthkfqn0QO1MkdHw-Q", "width": 3264}], "place_id": "ChIJ89n3Ln9-hYARQmCjRBIbKy0", "plus_code": {"compound_code": "VP2J+XV Berkeley, California, United States", "global_code": "849VVP2J+XV"}, "reference": "ChIJ89n3Ln9-hYARQmCjRBIbKy0", "scope": "GOOGLE", "types": ["church", "place_of_worship", "point_of_interest", "establishment"], "vicinity": "2003 Woolsey Street, Berkeley"}, "ChIJOb870nh-hYAR0GrBeGpEskk": {"geometry": {"location": {"lat": 37.8517544, "lng": -122.2676706}, "viewport": {"northeast": {"lat": 37.8530891802915, "lng": -122.2664410197085}, "southwest": {"lat": 37.8503912197085, "lng": -122.2691389802915}}}, "icon": "https://maps.gstatic.com/mapfiles/place_api/icons/generic_business-71.png", "id": "888b98ba9316262fc2f66e296091544f95f381a6", "name": "Dr. Hui Dong, DDS", "place_id": "ChIJOb870nh-hYAR0GrBeGpEskk", "plus_code": {"compound_code": "VP2J+PW Oakland, California, United States", "global_code": "849VVP2J+PW"}, "reference": "ChIJOb870nh-hYAR0GrBeGpEskk", "scope": "GOOGLE", "types": ["dentist", "health", "point_of_interest", "establishment"], "vicinity": "6622 Tremont Street, Oakland"}, "ChIJA-2qKIt9hYARZ5N1NdUVtHE": {"geometry": {"location": {"lat": 37.8043637, "lng": -122.2711137}, "viewport": {"northeast": {"lat": 37.88472489999999, "lng": -122.114775}, "southwest": {"lat": 37.6322259, "lng": -122.355881}}}, "icon": "https://maps.gstatic.com/mapfiles/place_api/icons/geocode-71.png", "id": "da4a4da21e013f9d3a24e8eee6d4f84de02148d3", "name": "Oakland", "photos": [{"height": 2848, "html_attributions": ["<a href=\"https://maps.google.com/maps/contrib/113300206259949994494/photos\">Cimino Alberto</a>"], "photo_reference": "CmRaAAAAanMBH4BH1LReAbcvbg6YTdyy0n0VyZ6MEUUspFMRmfDGJSPNn8eZDdAMCbnP9r3kV8S7mwJnLnLR9maVMzVUARX1k_IClSHLZv1X4SrjVppjFqjkEu0xvXmEiGv68gsfEhDS8wD0QwaJw7DkaPdNM7d4GhSFDFTtqe7uHA07tkilMrseJotxkw", "width": 4256}], "place_id": "ChIJA-2qKIt9hYARZ5N1NdUVtHE", "reference": "ChIJA-2qKIt9hYARZ5N1NdUVtHE", "scope": "GOOGLE", "types": ["locality", "political"], "vicinity": "Oakland"}}