{"ChIJaSlnm899hYARzUY9uNUEktc": {"geometry": {"location": {"lat": 37.8528359, "lng": -122.251588}, "viewport": {"northeast": {"lat": 37.85510195000005, "lng": -122.2502390197085}, "southwest": {"lat": 37.85056974999995, "lng": -122.2529369802915}}}, "icon": "https://maps.gstatic.com/mapfiles/place_api/icons/geocode-71.png", "id": "e2c5937cd75e3f0767d0757793a67226baf0cc7d", "name": "3100-3198 Lewiston Ave", "place_id": "ChIJaSlnm899hYARzUY9uNUEktc", "reference": "ChIJaSlnm899hYARzUY9uNUEktc", "scope": "GOOGLE", "types": ["route"], "vicinity": "Berkeley"}, "ChIJPTzvhc99hYAR2J7U8sfYHho": {"geometry": {"location": {"lat": 37.85240900000001, "lng": -122.251856}, "viewport": {"northeast": {"lat": 37.8537671302915, "lng": -122.2503535197085}, "southwest": {"lat": 37.8510691697085, "lng": -122.2530514802915}}}, "icon": "https://maps.gstatic.com/mapfiles/place_api/icons/generic_business-71.png", "id": "4f9eed5fe5ae5df03303b304bc88a70b3642adea", "name": "Premedia Systems Inc", "place_id": "ChIJPTzvhc99hYAR2J7U8sfYHho", "plus_code": {"compound_code": "VP2X+X7 Berkeley, California, United States", "global_code": "849VVP2X+X7"}, "reference": "ChIJPTzvhc99hYAR2J7U8sfYHho", "scope": "GOOGLE", "types": ["point_of_interest", "establishment"], "vicinity": "3138 Lewiston Avenue, Berkeley"}, "ChIJX5mvms99hYARbDkTsmwYjkU": {"geometry": {"location": {"lat": 37.852689, "lng": -122.251883}, "viewport": {"northeast": {"lat": 37.8540471302915, "lng": -122.2503803697085}, "southwest": {"lat": 37.8513491697085, "lng": -122.2530783302915}}}, "icon": "https://maps.gstatic.com/mapfiles/place_api/icons/generic_business-71.png", "id": "0d107c495cc1148f1ab7dc8026cb7320fdf9f447", "name": "Capius Consulting", "place_id": "ChIJX5mvms99hYARbDkTsmwYjkU", "plus_code": {"compound_code": "VP3X+36 Berkeley, California, United States", "global_code": "849VVP3X+36"}, "rating": 5, "reference": "ChIJX5mvms99hYARbDkTsmwYjkU", "scope": "GOOGLE", "types": ["point_of_interest", "establishment"], "vicinity": "3132 Lewiston Avenue, Berkeley"}, "ChIJ00mFOjZ5hYARk-l1ppUV6pQ": {"geometry": {"location": {"lat": 37.8715926, "lng": -122.272747}, "viewport": {"northeast": {"lat": 37.9058239, "lng": -122.234179}, "southwest": {"lat": 37.835727, "lng": -122.367781}}}, "icon": "https://maps.gstatic.com/mapfiles/place_api/icons/geocode-71.png", "id": "00741fe572fc4084428ab206e1a55830f6a1bf0a", "name": "Berkeley", "photos": [{"height": 1080, "html_attributions": ["<a href=\"https://maps.google.com/maps/contrib/110244590763501513798/photos\">miao hsin sun</a>"], "photo_reference": "CmRaAAAAPilTU2T5ktkhQ_xVifirRBqy5VRwF2TjxwqdS7f4_QONgABkWmB3xYvRvyrPjGcF5nuJYu35P3HdaWPjUOWapyPvi38S96V6lo_iTmBzeeZnSGxeoRYJNl93tnXxlFdhEhDPCV0DWR2zwLBKvk3miv3LGhS5bMj-ZxwmEfjcC1q0CWft-LibKQ", "width": 1616}], "place_id": "ChIJ00mFOjZ5hYARk-l1ppUV6pQ", "reference": "ChIJ00mFOjZ5hYARk-l1ppUV6pQ", "scope": "GOOGLE", "types": ["locality", "political"], "vicinity": "Berkeley"}}