{"ChIJRTaYxZx-hYARmfdIbNhzTOE": {"geometry": {"location": {"lat": 37.8664998, "lng": -122.269159}, "viewport": {"northeast": {"lat": 37.8678487302915, "lng": -122.26716545}, "southwest": {"lat": 37.8651507697085, "lng": -122.27115245}}}, "icon": "https://maps.gstatic.com/mapfiles/place_api/icons/geocode-71.png", "id": "02097de2a5b67ce77124f090e1e925a3d2de671f", "name": "2000-2080 Durant Ave", "place_id": "ChIJRTaYxZx-hYARmfdIbNhzTOE", "reference": "ChIJRTaYxZx-hYARmfdIbNhzTOE", "scope": "GOOGLE", "types": ["route"], "vicinity": "Berkeley"}, "ChIJVSmb7px-hYAR5UcWKqKpXrc": {"geometry": {"location": {"lat": 37.8670414, "lng": -122.2691228}, "viewport": {"northeast": {"lat": 37.8685759302915, "lng": -122.2678125697085}, "southwest": {"lat": 37.8658779697085, "lng": -122.2705105302915}}}, "icon": "https://maps.gstatic.com/mapfiles/place_api/icons/generic_business-71.png", "id": "190b4ba967648f608b68935f5ffa395948c6cc80", "name": "MyTechBerkeley", "place_id": "ChIJVSmb7px-hYAR5UcWKqKpXrc", "plus_code": {"compound_code": "VP8J+R9 Berkeley, California, United States", "global_code": "849VVP8J+R9"}, "reference": "ChIJVSmb7px-hYAR5UcWKqKpXrc", "scope": "GOOGLE", "types": ["point_of_interest", "establishment"], "vicinity": "2020 Bancroft Way #212, Berkeley"}, "ChIJMxkKwpx-hYARRhLTYB8IAqg": {"geometry": {"location": {"lat": 37.8670124, "lng": -122.2690921}, "viewport": {"northeast": {"lat": 37.8681151802915, "lng": -122.2676943697085}, "southwest": {"lat": 37.8654172197085, "lng": -122.2703923302915}}}, "icon": "https://maps.gstatic.com/mapfiles/place_api/icons/generic_business-71.png", "id": "af6327715205100dc95966c7f60bf432ba5660d9", "name": "Bay Auto Glass", "opening_hours": {"open_now": true}, "place_id": "ChIJMxkKwpx-hYARRhLTYB8IAqg", "plus_code": {"compound_code": "VP8J+R9 Berkeley, California, United States", "global_code": "849VVP8J+R9"}, "reference": "ChIJMxkKwpx-hYARRhLTYB8IAqg", "scope": "GOOGLE", "types": ["car_repair", "point_of_interest", "establishment"], "vicinity": "2025 Durant Avenue, Berkeley"}, "ChIJHQRi25x-hYARXbkyuSDcn3E": {"geometry": {"location": {"lat": 37.8668083, "lng": -122.2688441}, "viewport": {"northeast": {"lat": 37.86802563029149, "lng": -122.2674690697085}, "southwest": {"lat": 37.8653276697085, "lng": -122.2701670302915}}}, "icon": "https://maps.gstatic.com/mapfiles/place_api/icons/generic_business-71.png", "id": "ddfae8483fb63a79fb638ff4d4b552bf2108f476", "name": "A Center For Psychotherapy: Rosenberg Sanford PHD", "place_id": "ChIJHQRi25x-hYARXbkyuSDcn3E", "plus_code": {"compound_code": "VP8J+PF Berkeley, California, United States", "global_code": "849VVP8J+PF"}, "reference": "ChIJHQRi25x-hYARXbkyuSDcn3E", "scope": "GOOGLE", "types": ["health", "point_of_interest", "establishment"], "vicinity": "2029 Durant Avenue, Berkeley"}, "ChIJHQRi25x-hYARrYqOopG5dVM": {"geometry": {"location": {"lat": 37.8668083, "lng": -122.2688441}, "viewport": {"northeast": {"lat": 37.86802563029149, "lng": -122.2674690697085}, "southwest": {"lat": 37.8653276697085, "lng": -122.2701670302915}}}, "icon": "https://maps.gstatic.com/mapfiles/place_api/icons/generic_business-71.png", "id": "eaaf8ac578c04a14127c485845c7b106e13dbdab", "name": "Bodymind Healing Center", "place_id": "ChIJHQRi25x-hYARrYqOopG5dVM", "plus_code": {"compound_code": "VP8J+PF Berkeley, California, United States", "global_code": "849VVP8J+PF"}, "reference": "ChIJHQRi25x-hYARrYqOopG5dVM", "scope": "GOOGLE", "types": ["health", "point_of_interest", "establishment"], "vicinity": "2029 Durant Avenue, Berkeley"}, "ChIJHQRi25x-hYAR3ak_93j-k_M": {"geometry": {"location": {"lat": 37.8668111, "lng": -122.2688226}, "viewport": {"northeast": {"lat": 37.8680283802915, "lng": -122.2674475697085}, "southwest": {"lat": 37.8653304197085, "lng": -122.2701455302915}}}, "icon": "https://maps.gstatic.com/mapfiles/place_api/icons/school-71.png", "id": "d24ab92af993fd72a2e089ecc0f50cef0b15f599", "name": "Berkeley Tutoring Coalition", "photos": [{"height": 284, "html_attributions": ["<a href=\"https://maps.google.com/maps/contrib/101228546975934810763/photos\">Berkeley Tutoring Coalition</a>"], "photo_reference": "CmRaAAAAb2h9fM2fZvR4bYArF2VE_3nypwFYaUk-EX0QZX4leFhIOsq_mTOVQafQa-NDHAbLcRl1pKFy6prq1zH9yZfQaBTXYJ6d7HWTiQ1jtVzTcENUOpDIOdNIXkcwe7hvX4ooEhCtQ8w2z_WhAT9KN-3jYmb_GhRq06egDm-yqYDj6otuN-CG6qrS4Q", "width": 511}], "place_id": "ChIJHQRi25x-hYAR3ak_93j-k_M", "plus_code": {"compound_code": "VP8J+PF Berkeley, California, United States", "global_code": "849VVP8J+PF"}, "reference": "ChIJHQRi25x-hYAR3ak_93j-k_M", "scope": "GOOGLE", "types": ["point_of_interest", "establishment"], "vicinity": "2029 Durant Avenue, Berkeley"}, "ChIJHQRi25x-hYAR5xNV_5M_iH4": {"geometry": {"location": {"lat": 37.866829, "lng": -122.268821}, "viewport": {"northeast": {"lat": 37.8680376302915, "lng": -122.2674442197085}, "southwest": {"lat": 37.8653396697085, "lng": -122.2701421802915}}}, "icon": "https://maps.gstatic.com/mapfiles/place_api/icons/generic_business-71.png", "id": "c0da48ad09a5bf2b0680d1fe2e4ffb139b46b4d5", "name": "Kimbo Prichard, MA, MFT", "opening_hours": {"open_now": true}, "photos": [{"height": 1536, "html_attributions": ["<a href=\"https://maps.google.com/maps/contrib/114066021523034863074/photos\">Kimbo Prichard, MA, MFT</a>"], "photo_reference": "CmRaAAAA9ziKrsaR0hI9mCIWC1jAxMWgs-RVoAu5qNqL_h4NdFg2rIj6qf5WGsaCHuS2rAKh1JTYEZL2ioBsnLT5fWjQ6fd1qPv2Uezkck1a8R5hYtP11JdwGkQxtMYaBgGGahsWEhBiReXBjuDHCocK6G1tAT4zGhRm_Vhkl7ccrDJ7q6KTbwRBTQi1fA", "width": 2048}], "place_id": "ChIJHQRi25x-hYAR5xNV_5M_iH4", "plus_code": {"compound_code": "VP8J+PF Berkeley, California, United States", "global_code": "849VVP8J+PF"}, "rating": 5, "reference": "ChIJHQRi25x-hYAR5xNV_5M_iH4", "scope": "GOOGLE", "types": ["health", "point_of_interest", "establishment"], "vicinity": "2029 Durant Avenue, Berkeley"}, "ChIJHQRi25x-hYARCKgIcfsNr9M": {"geometry": {"location": {"lat": 37.8668083, "lng": -122.2688441}, "viewport": {"northeast": {"lat": 37.86802563029149, "lng": -122.2674690697085}, "southwest": {"lat": 37.8653276697085, "lng": -122.2701670302915}}}, "icon": "https://maps.gstatic.com/mapfiles/place_api/icons/generic_business-71.png", "id": "2fe66b36e8b0d4bf6e38604043fa86b49b1ca713", "name": "Persian Center", "photos": [{"height": 3024, "html_attributions": ["<a href=\"https://maps.google.com/maps/contrib/102169586960394498145/photos\">Behrang Aghili</a>"], "photo_reference": "CmRaAAAAB7UlOkzkf-K_OYr9vasskDCuHwZFj_-s6vSSnBIbgEFJywee66mDmSQ8RkyyVFSqcRhDGg04BM544FwwJWYkc_eRUoucr-t1QBaaPdWPjQmw7eZxfmPI9S0zni-p5vIOEhAwBBHKl5vOfE4CssV5LH67GhSnOyB8wcaylQkukhr_-4wl3RF9pQ", "width": 4032}], "place_id": "ChIJHQRi25x-hYARCKgIcfsNr9M", "plus_code": {"compound_code": "VP8J+PF Berkeley, California, United States", "global_code": "849VVP8J+PF"}, "rating": 4.8, "reference": "ChIJHQRi25x-hYARCKgIcfsNr9M", "scope": "GOOGLE", "types": ["point_of_interest", "establishment"], "vicinity": "2029 Durant Avenue, Berkeley"}, "ChIJHQRi25x-hYARIq2oR0IaFlY": {"geometry": {"location": {"lat": 37.866829, "lng": -122.268821}, "viewport": {"northeast": {"lat": 37.8680376302915, "lng": -122.2674442197085}, "southwest": {"lat": 37.8653396697085, "lng": -122.2701421802915}}}, "icon": "https://maps.gstatic.com/mapfiles/place_api/icons/school-71.png", "id": "ec89db2727dc391808aedbe5cef0bb2cad032135", "name": "New College Berkeley", "place_id": "ChIJHQRi25x-hYARIq2oR0IaFlY", "plus_code": {"compound_code": "VP8J+PF Berkeley, California, United States", "global_code": "849VVP8J+PF"}, "reference": "ChIJHQRi25x-hYARIq2oR0IaFlY", "scope": "GOOGLE", "types": ["point_of_interest", "school", "establishment"], "vicinity": "2029 Durant Avenue # 300, Berkeley"}, "ChIJHQRi25x-hYARhg4cQkN-DQM": {"geometry": {"location": {"lat": 37.8668083, "lng": -122.2688441}, "viewport": {"northeast": {"lat": 37.86802563029149, "lng": -122.2674690697085}, "southwest": {"lat": 37.8653276697085, "lng": -122.2701670302915}}}, "icon": "https://maps.gstatic.com/mapfiles/place_api/icons/generic_business-71.png", "id": "d44f88610cc759360b886a4003649d23a2782161", "name": "Radix Magazine", "place_id": "ChIJHQRi25x-hYARhg4cQkN-DQM", "plus_code": {"compound_code": "VP8J+PF Berkeley, California, United States", "global_code": "849VVP8J+PF"}, "reference": "ChIJHQRi25x-hYARhg4cQkN-DQM", "scope": "GOOGLE", "types": ["point_of_interest", "establishment"], "vicinity": "2029 Durant Avenue, Berkeley"}, "ChIJHQRi25x-hYARd5gENWlBUrY": {"geometry": {"location": {"lat": 37.8668083, "lng": -122.2688441}, "viewport": {"northeast": {"lat": 37.86802563029149, "lng": -122.2674690697085}, "southwest": {"lat": 37.8653276697085, "lng": -122.2701670302915}}}, "icon": "https://maps.gstatic.com/mapfiles/place_api/icons/generic_business-71.png", "id": "717488bb0ebeecbc7b438b37f517b90b47ce4fa9", "name": "Experience In Software Inc", "place_id": "ChIJHQRi25x-hYARd5gENWlBUrY", "plus_code": {"compound_code": "VP8J+PF Berkeley, California, United States", "global_code": "849VVP8J+PF"}, "reference": "ChIJHQRi25x-hYARd5gENWlBUrY", "scope": "GOOGLE", "types": ["point_of_interest", "establishment"], "vicinity": "2029 Durant Avenue # 201, Berkeley"}, "ChIJHQRi25x-hYARiCGDwasr1IY": {"geometry": {"location": {"lat": 37.8668083, "lng": -122.2688441}, "viewport": {"northeast": {"lat": 37.86802563029149, "lng": -122.2674690697085}, "southwest": {"lat": 37.8653276697085, "lng": -122.2701670302915}}}, "icon": "https://maps.gstatic.com/mapfiles/place_api/icons/generic_business-71.png", "id": "3f4c3466c3eee6809d7f6f8383d853e356e4fd9c", "name": "A Center For Psychotherapy", "place_id": "ChIJHQRi25x-hYARiCGDwasr1IY", "plus_code": {"compound_code": "VP8J+PF Berkeley, California, United States", "global_code": "849VVP8J+PF"}, "reference": "ChIJHQRi25x-hYARiCGDwasr1IY", "scope": "GOOGLE", "types": ["health", "point_of_interest", "establishment"], "vicinity": "2029 Durant Avenue, Berkeley"}, "ChIJnfNII6J-hYARS4mYQgy3ZYg": {"geometry": {"location": {"lat": 37.8668083, "lng": -122.2688441}, "viewport": {"northeast": {"lat": 37.86802563029149, "lng": -122.2674690697085}, "southwest": {"lat": 37.8653276697085, "lng": -122.2701670302915}}}, "icon": "https://maps.gstatic.com/mapfiles/place_api/icons/generic_business-71.png", "id": "c9c4fa3490b44ee7f9022b26fab3f26459124c2a", "name": "Maya Diamond, MA Dating and Relationship Coach", "opening_hours": {"open_now": true}, "photos": [{"height": 816, "html_attributions": ["<a href=\"https://maps.google.com/maps/contrib/101612410316988105633/photos\">Maya Diamond, MA Dating and Relationship Coach</a>"], "photo_reference": "CmRaAAAA1-3-9U_ZdqQUWnwRo_JgWob1BaqARDwknkkMfIe2U6sREcj7R4bZ2MjC3L1cLMLGn5yX_gOPU9VjM-1lZ1d6zv2-d9DuGNgBBkQhASo9--BV02qLG4hFXfl7g6sjPxpREhCU_blIqAAvD5syG9ncKjG7GhSqFUF8xPlsVp4Qc8x6eBWGqs2WKQ", "width": 816}], "place_id": "ChIJnfNII6J-hYARS4mYQgy3ZYg", "plus_code": {"compound_code": "VP8J+PF Berkeley, California, United States", "global_code": "849VVP8J+PF"}, "reference": "ChIJnfNII6J-hYARS4mYQgy3ZYg", "scope": "GOOGLE", "types": ["health", "point_of_interest", "establishment"], "vicinity": "2029 Durant Avenue #206, Berkeley"}, "ChIJHQRi25x-hYAROuyGkjpaLoI": {"geometry": {"location": {"lat": 37.8668083, "lng": -122.2688441}, "viewport": {"northeast": {"lat": 37.8681572802915, "lng": -122.2674951197085}, "southwest": {"lat": 37.8654593197085, "lng": -122.2701930802915}}}, "icon": "https://maps.gstatic.com/mapfiles/place_api/icons/school-71.png", "id": "7d868ac46843eb20f5c58f761393b5c4ba937199", "name": "Learn Persian (SF Bay) Farsi Language Lessons, Berkeley, CA", "photos": [{"height": 560, "html_attributions": ["<a href=\"https://maps.google.com/maps/contrib/100773307151229475960/photos\">Learn Persian (SF Bay) Farsi Language Lessons, Berkeley, CA</a>"], "photo_reference": "CmRaAAAAMIR--Lm9IRASP8JgiCtgbAgd8F2w9aG1s_4jObYg02J6TkADAa5oBftrPcZrJOJCgiajK-GVZupiuEHKtlz6S3xAN0JylaulUFBAqaaGpiDwV5KOK_UO4Q7g06owb8cdEhAI0REtvqmLr_FAUXj20DXGGhQIpyRphvYym7MAdw4u2PF5F42OXw", "width": 667}], "place_id": "ChIJHQRi25x-hYAROuyGkjpaLoI", "plus_code": {"compound_code": "VP8J+PF Berkeley, California, United States", "global_code": "849VVP8J+PF"}, "reference": "ChIJHQRi25x-hYAROuyGkjpaLoI", "scope": "GOOGLE", "types": ["point_of_interest", "establishment"], "vicinity": "Persian Center, 2029 Durant Avenue, Berkeley"}, "ChIJUYFrlJx-hYARxWfqMB45UmA": {"geometry": {"location": {"lat": 37.86703989999999, "lng": -122.2698958}, "viewport": {"northeast": {"lat": 37.8685261802915, "lng": -122.2685755197085}, "southwest": {"lat": 37.8658282197085, "lng": -122.2712734802915}}}, "icon": "https://maps.gstatic.com/mapfiles/place_api/icons/generic_business-71.png", "id": "57142edbc68d55aa55d1a304b2c939a4c4b113e9", "name": "2000 Bancroft Way Parking", "place_id": "ChIJUYFrlJx-hYARxWfqMB45UmA", "plus_code": {"compound_code": "VP8J+R2 Berkeley, California, United States", "global_code": "849VVP8J+R2"}, "reference": "ChIJUYFrlJx-hYARxWfqMB45UmA", "scope": "GOOGLE", "types": ["parking", "point_of_interest", "establishment"], "vicinity": "2000 Bancroft Way, Berkeley"}, "ChIJjwg2w5x-hYARRcrB7VOz6qc": {"geometry": {"location": {"lat": 37.8668657, "lng": -122.2689564}, "viewport": {"northeast": {"lat": 37.86821468029149, "lng": -122.2676074197085}, "southwest": {"lat": 37.8655167197085, "lng": -122.2703053802915}}}, "icon": "https://maps.gstatic.com/mapfiles/place_api/icons/school-71.png", "id": "60629e332fc8db919cfc653f113864673d0ddf05", "name": "Boones University School", "place_id": "ChIJjwg2w5x-hYARRcrB7VOz6qc", "plus_code": {"compound_code": "VP8J+PC Berkeley, California, United States", "global_code": "849VVP8J+PC"}, "reference": "ChIJjwg2w5x-hYARRcrB7VOz6qc", "scope": "GOOGLE", "types": ["school", "point_of_interest", "establishment"], "vicinity": "Berkeley"}, "ChIJAQBk25x-hYARVdN0fJbVxaE": {"geometry": {"location": {"lat": 37.8668111, "lng": -122.2688226}, "viewport": {"northeast": {"lat": 37.8680283802915, "lng": -122.2674475697085}, "southwest": {"lat": 37.8653304197085, "lng": -122.2701455302915}}}, "icon": "https://maps.gstatic.com/mapfiles/place_api/icons/generic_business-71.png", "id": "323d5aef02efe474a04aff457a467cc022cfee3c", "name": "kendra f. dunlap, ms, lmft", "place_id": "ChIJAQBk25x-hYARVdN0fJbVxaE", "plus_code": {"compound_code": "VP8J+PF Berkeley, California, United States", "global_code": "849VVP8J+PF"}, "reference": "ChIJAQBk25x-hYARVdN0fJbVxaE", "scope": "GOOGLE", "types": ["point_of_interest", "establishment"], "vicinity": "2029 Durant Avenue, Berkeley"}, "ChIJHQRi25x-hYAROWDO8yEI9Co": {"geometry": {"location": {"lat": 37.8668111, "lng": -122.2688226}, "viewport": {"northeast": {"lat": 37.8680283802915, "lng": -122.2674475697085}, "southwest": {"lat": 37.8653304197085, "lng": -122.2701455302915}}}, "icon": "https://maps.gstatic.com/mapfiles/place_api/icons/generic_business-71.png", "id": "906df95f2615add53686c8dca8a7f1cdca9c8197", "name": "Michael H. Mayer, PHD", "place_id": "ChIJHQRi25x-hYAROWDO8yEI9Co", "plus_code": {"compound_code": "VP8J+PF Berkeley, California, United States", "global_code": "849VVP8J+PF"}, "reference": "ChIJHQRi25x-hYAROWDO8yEI9Co", "scope": "GOOGLE", "types": ["health", "point_of_interest", "establishment"], "vicinity": "2029 Durant Avenue, Berkeley"}, "ChIJJfMzMZ9-hYARW-TP8hdTLZg": {"geometry": {"location": {"lat": 37.8668083, "lng": -122.2688441}, "viewport": {"northeast": {"lat": 37.86802563029149, "lng": -122.2674690697085}, "southwest": {"lat": 37.8653276697085, "lng": -122.2701670302915}}}, "icon": "https://maps.gstatic.com/mapfiles/place_api/icons/generic_business-71.png", "id": "a7a163c7b48858194cb5045c90c4366643c1f631", "name": "Dr. Sarah L. Stadler, MD", "place_id": "ChIJJfMzMZ9-hYARW-TP8hdTLZg", "plus_code": {"compound_code": "VP8J+PF Berkeley, California, United States", "global_code": "849VVP8J+PF"}, "rating": 5, "reference": "ChIJJfMzMZ9-hYARW-TP8hdTLZg", "scope": "GOOGLE", "types": ["doctor", "health", "point_of_interest", "establishment"], "vicinity": "2029 Durant Avenue #203, Berkeley"}, "ChIJ00mFOjZ5hYARk-l1ppUV6pQ": {"geometry": {"location": {"lat": 37.8715926, "lng": -122.272747}, "viewport": {"northeast": {"lat": 37.9058239, "lng": -122.234179}, "southwest": {"lat": 37.835727, "lng": -122.367781}}}, "icon": "https://maps.gstatic.com/mapfiles/place_api/icons/geocode-71.png", "id": "00741fe572fc4084428ab206e1a55830f6a1bf0a", "name": "Berkeley", "photos": [{"height": 1080, "html_attributions": ["<a href=\"https://maps.google.com/maps/contrib/110244590763501513798/photos\">miao hsin sun</a>"], "photo_reference": "CmRaAAAA6jKTFHD8irT6hlVp3PqhNDdRSlLgmJlQaSnMY6-XtMD3VKFBTu6lNdXwTutbbyXO7t_3-CwmoGi8JwvESspZvCXa1mm2ucIGyMUDK9xJFajb3GygiPgp8x7oV3vEtvm9EhAiGCP3bpV4PUeb0upWVjmqGhQmGu7h6_6FqWz3L1hIt5FlfG0BoA", "width": 1616}], "place_id": "ChIJ00mFOjZ5hYARk-l1ppUV6pQ", "reference": "ChIJ00mFOjZ5hYARk-l1ppUV6pQ", "scope": "GOOGLE", "types": ["locality", "political"], "vicinity": "Berkeley"}, "ChIJHQRi25x-hYAREHTobor6shw": {"geometry": {"location": {"lat": 37.8668083, "lng": -122.2688441}, "viewport": {"northeast": {"lat": 37.86802563029149, "lng": -122.2674690697085}, "southwest": {"lat": 37.8653276697085, "lng": -122.2701670302915}}}, "icon": "https://maps.gstatic.com/mapfiles/place_api/icons/generic_business-71.png", "id": "d55db79a163022c3a1b971c865a5b86f7e6c2b4d", "name": "Center For Social Research", "place_id": "ChIJHQRi25x-hYAREHTobor6shw", "plus_code": {"compound_code": "VP8J+PF Berkeley, California, United States", "global_code": "849VVP8J+PF"}, "reference": "ChIJHQRi25x-hYAREHTobor6shw", "scope": "GOOGLE", "types": ["point_of_interest", "establishment"], "vicinity": "2029 Durant Avenue, Berkeley"}, "ChIJHQRi25x-hYAR6zoi-NucGaM": {"geometry": {"location": {"lat": 37.866829, "lng": -122.268821}, "viewport": {"northeast": {"lat": 37.8680376302915, "lng": -122.2674442197085}, "southwest": {"lat": 37.8653396697085, "lng": -122.2701421802915}}}, "icon": "https://maps.gstatic.com/mapfiles/place_api/icons/generic_business-71.png", "id": "7ac47dde29a9dd89262e1d484bf7ecbef1d4699c", "name": "Hyman Edward J PhD", "place_id": "ChIJHQRi25x-hYAR6zoi-NucGaM", "plus_code": {"compound_code": "VP8J+PF Berkeley, California, United States", "global_code": "849VVP8J+PF"}, "reference": "ChIJHQRi25x-hYAR6zoi-NucGaM", "scope": "GOOGLE", "types": ["health", "point_of_interest", "establishment"], "vicinity": "2029 Durant Avenue, Berkeley"}, "ChIJHQRi25x-hYARSRqF2KfsXo4": {"geometry": {"location": {"lat": 37.866829, "lng": -122.268821}, "viewport": {"northeast": {"lat": 37.8680376302915, "lng": -122.2674442197085}, "southwest": {"lat": 37.8653396697085, "lng": -122.2701421802915}}}, "icon": "https://maps.gstatic.com/mapfiles/place_api/icons/generic_business-71.png", "id": "04a93540ca1aa5f8d5699071bd8de03be44b4176", "name": "Sarah L. Stadler, MD", "photos": [{"height": 2048, "html_attributions": ["<a href=\"https://maps.google.com/maps/contrib/105998471750535902072/photos\">Sarah L. Stadler, MD</a>"], "photo_reference": "CmRaAAAAy71A6AkUiVENBzi2F8-qyKWaOd7UoA15zQI5DwNyV98hwQYMCgUoPTWFJOi0W8r-B-EyhH7OQp_t3SJaB2ddEplLkpZSzU40Afilwgt2EKTYFUAk9HKQf_MsbkTXJ6RwEhAOK7LKp-nxxIHKOoxiO36pGhTzDyhae0xT-9l_WtkV95Up6gQOJQ", "width": 1362}], "place_id": "ChIJHQRi25x-hYARSRqF2KfsXo4", "plus_code": {"compound_code": "VP8J+PF Berkeley, California, United States", "global_code": "849VVP8J+PF"}, "reference": "ChIJHQRi25x-hYARSRqF2KfsXo4", "scope": "GOOGLE", "types": ["doctor", "health", "point_of_interest", "establishment"], "vicinity": "2029 Durant Avenue #203, Berkeley"}, "ChIJHQRi25x-hYARIQyzYUSbVn8": {"geometry": {"location": {"lat": 37.866829, "lng": -122.268821}, "viewport": {"northeast": {"lat": 37.8680376302915, "lng": -122.2674442197085}, "southwest": {"lat": 37.8653396697085, "lng": -122.2701421802915}}}, "icon": "https://maps.gstatic.com/mapfiles/place_api/icons/generic_business-71.png", "id": "422a4575485f08b907a8db8f422c5f6fae9e6c9d", "name": "Mc Donald Deborah A", "place_id": "ChIJHQRi25x-hYARIQyzYUSbVn8", "plus_code": {"compound_code": "VP8J+PF Berkeley, California, United States", "global_code": "849VVP8J+PF"}, "reference": "ChIJHQRi25x-hYARIQyzYUSbVn8", "scope": "GOOGLE", "types": ["health", "point_of_interest", "establishment"], "vicinity": "2029 Durant Avenue, Berkeley"}, "ChIJHQRi25x-hYARR1B5dX6398s": {"geometry": {"location": {"lat": 37.866829, "lng": -122.268821}, "viewport": {"northeast": {"lat": 37.8680376302915, "lng": -122.2674442197085}, "southwest": {"lat": 37.8653396697085, "lng": -122.2701421802915}}}, "icon": "https://maps.gstatic.com/mapfiles/place_api/icons/generic_business-71.png", "id": "f9b1a82a83f1e000cb6f4f602ea09de41e64003b", "name": "Lamb Marian", "place_id": "ChIJHQRi25x-hYARR1B5dX6398s", "plus_code": {"compound_code": "VP8J+PF Berkeley, California, United States", "global_code": "849VVP8J+PF"}, "reference": "ChIJHQRi25x-hYARR1B5dX6398s", "scope": "GOOGLE", "types": ["health", "point_of_interest", "establishment"], "vicinity": "2029 Durant Avenue, Berkeley"}}