{"ChIJfZfOH5h-hYARHRwf4W6Tl4g": {"geometry": {"location": {"lat": 37.8719948, "lng": -122.2766708}, "viewport": {"northeast": {"lat": 37.8733437302915, "lng": -122.27476585}, "southwest": {"lat": 37.8706457697085, "lng": -122.27857565}}}, "icon": "https://maps.gstatic.com/mapfiles/place_api/icons/geocode-71.png", "id": "626053d85181d72973ecdfcb4c99cf0bd14478a1", "name": "1700-1782 Berkeley Way", "place_id": "ChIJfZfOH5h-hYARHRwf4W6Tl4g", "reference": "ChIJfZfOH5h-hYARHRwf4W6Tl4g", "scope": "GOOGLE", "types": ["route"], "vicinity": "Berkeley"}, "ChIJ36KHMJh-hYAR34R5-11TpB8": {"geometry": {"location": {"lat": 37.8715741, "lng": -122.2758724}, "viewport": {"northeast": {"lat": 37.87276893029149, "lng": -122.2744386697085}, "southwest": {"lat": 37.8700709697085, "lng": -122.2771366302915}}}, "icon": "https://maps.gstatic.com/mapfiles/place_api/icons/generic_business-71.png", "id": "540148f2e1796deb34932ee56b08c7961b40309e", "name": "AAA Berkeley", "opening_hours": {"open_now": true}, "photos": [{"height": 2448, "html_attributions": ["<a href=\"https://maps.google.com/maps/contrib/111945700723368471433/photos\">Usman Malik</a>"], "photo_reference": "CmRaAAAAQ4BkVpxxCNqt-u-vvKHu6BlTaUDftW_bvx8I3ljw8n5qnSYMwM6CGeELuksUWh9hhXRCuw4-7eKnhgwipJxanwZY7usEn01MQdUjH87wB-I-vCMlV2_FKdueK4NvKP61EhD2VYw1psPj5lZ7P75GlPb0GhTo57BWYb4rMUhZXT0-By8DXX5KpQ", "width": 3264}], "place_id": "ChIJ36KHMJh-hYAR34R5-11TpB8", "plus_code": {"compound_code": "VPCF+JM Berkeley, California, United States", "global_code": "849VVPCF+JM"}, "rating": 4.1, "reference": "ChIJ36KHMJh-hYAR34R5-11TpB8", "scope": "GOOGLE", "types": ["travel_agency", "insurance_agency", "car_repair", "point_of_interest", "establishment"], "vicinity": "1775 University Avenue, Berkeley"}, "ChIJ36KHMJh-hYARfmYOUjrPCxI": {"geometry": {"location": {"lat": 37.87154, "lng": -122.275853}, "viewport": {"northeast": {"lat": 37.8727460802915, "lng": -122.2744752697085}, "southwest": {"lat": 37.8700481197085, "lng": -122.2771732302915}}}, "icon": "https://maps.gstatic.com/mapfiles/place_api/icons/generic_business-71.png", "id": "66393a1ef6b68b2c025dbbca410356d8874cfd0e", "name": "Sukhi Kahlon AAA Insurance Agent", "opening_hours": {"open_now": true}, "photos": [{"height": 2048, "html_attributions": ["<a href=\"https://maps.google.com/maps/contrib/115820404194071159941/photos\">Sukhi Kahlon AAA Insurance Agent</a>"], "photo_reference": "CmRaAAAApgjUEils91rCqnO5fgXShv-s410wo_8YIW951HKrIVmxTV23odxyw9q2L13skWJ9PCTfPOKZYO8bB4IvlI8r3RjW-A_0nGk7rWLJZ44SAY-CUZ8lTuep-uz_nRfJFqt4EhBNQlTo-t25BGHit0gVx9i_GhSxRoLuVaZvApFSysxGguQ7H0oAQg", "width": 1807}], "place_id": "ChIJ36KHMJh-hYARfmYOUjrPCxI", "plus_code": {"compound_code": "VPCF+JM Berkeley, California, United States", "global_code": "849VVPCF+JM"}, "rating": 3, "reference": "ChIJ36KHMJh-hYARfmYOUjrPCxI", "scope": "GOOGLE", "types": ["insurance_agency", "point_of_interest", "establishment"], "vicinity": "1775 University Avenue, Berkeley"}, "ChIJ36KHMJh-hYARmVcaEmdOZes": {"geometry": {"location": {"lat": 37.871329, "lng": -122.2758048}, "viewport": {"northeast": {"lat": 37.8726409302915, "lng": -122.2744483697085}, "southwest": {"lat": 37.8699429697085, "lng": -122.2771463302915}}}, "icon": "https://maps.gstatic.com/mapfiles/place_api/icons/generic_business-71.png", "id": "33fd0da77a178ebd99099606ca879b04d23d500d", "name": "California State Auto Association", "opening_hours": {"open_now": true}, "place_id": "ChIJ36KHMJh-hYARmVcaEmdOZes", "plus_code": {"compound_code": "VPCF+GM Berkeley, California, United States", "global_code": "849VVPCF+GM"}, "reference": "ChIJ36KHMJh-hYARmVcaEmdOZes", "scope": "GOOGLE", "types": ["point_of_interest", "establishment"], "vicinity": "1775 University Avenue, Berkeley"}, "ChIJ00mFOjZ5hYARk-l1ppUV6pQ": {"geometry": {"location": {"lat": 37.8715926, "lng": -122.272747}, "viewport": {"northeast": {"lat": 37.9058239, "lng": -122.234179}, "southwest": {"lat": 37.835727, "lng": -122.367781}}}, "icon": "https://maps.gstatic.com/mapfiles/place_api/icons/geocode-71.png", "id": "00741fe572fc4084428ab206e1a55830f6a1bf0a", "name": "Berkeley", "photos": [{"height": 1080, "html_attributions": ["<a href=\"https://maps.google.com/maps/contrib/110244590763501513798/photos\">miao hsin sun</a>"], "photo_reference": "CmRaAAAAYXDqksxdrkYoL_LCHmhCBmAsK50e6B7uLhKJGJQ-NkRy1dU-43mhJ_dxlHu2ZFIWoOsTYgrS6bhFNDETJDeF7f9w70FGpqT1jQD9q0YM6phkXIcGV0WJjpO-46nBlDVCEhCX2ZCGz5EzqCCBdXUk_IjuGhS0T2sl5rSjLDAiyla8IinN4XDn9A", "width": 1616}], "place_id": "ChIJ00mFOjZ5hYARk-l1ppUV6pQ", "reference": "ChIJ00mFOjZ5hYARk-l1ppUV6pQ", "scope": "GOOGLE", "types": ["locality", "political"], "vicinity": "Berkeley"}}