{"ChIJNYzMK_N-hYARb5twIYJYQ_A": {"geometry": {"location": {"lat": 37.8574284, "lng": -122.2883063}, "viewport": {"northeast": {"lat": 37.85877738029149, "lng": -122.2869573197085}, "southwest": {"lat": 37.85607941970849, "lng": -122.2896552802915}}}, "icon": "https://maps.gstatic.com/mapfiles/place_api/icons/geocode-71.png", "id": "8d4f0a0da2cbb24fb6b8fce78ceae3a5539190a3", "name": "San Pablo Avenue", "place_id": "ChIJNYzMK_N-hYARb5twIYJYQ_A", "reference": "ChIJNYzMK_N-hYARb5twIYJYQ_A", "scope": "GOOGLE", "types": ["route"], "vicinity": "Berkeley"}, "ChIJX7QC04x-hYARosvjeSSkf4U": {"geometry": {"location": {"lat": 37.857242, "lng": -122.288096}, "viewport": {"northeast": {"lat": 37.8585767302915, "lng": -122.2868171197085}, "southwest": {"lat": 37.8558787697085, "lng": -122.2895150802915}}}, "icon": "https://maps.gstatic.com/mapfiles/place_api/icons/shopping-71.png", "id": "63d83317137f74ca9a60a19aa03b0c9fad2570d7", "name": "Nordic House", "opening_hours": {"open_now": false}, "photos": [{"height": 3036, "html_attributions": ["<a href=\"https://maps.google.com/maps/contrib/103647928455294277946/photos\">Johnny C</a>"], "photo_reference": "CmRaAAAAcSCPeSiQqMHPZWFhl5rNxexU1uGTbw4mAZAm3QpCQkz6fmPvYtoJCnVhnwndM3rse-XJJ26CTYATrxfsBalxom4W3bPj02K_CP0JpIKKfW5_ym4mcNwsyXRvr2ZmS7EtEhBq0vkiYy9D1tKRDxdeaF3yGhTpQ-YS4qGter9b8jWce9-_3O6hjA", "width": 4048}], "place_id": "ChIJX7QC04x-hYARosvjeSSkf4U", "plus_code": {"compound_code": "VP46+VQ Berkeley, California, United States", "global_code": "849VVP46+VQ"}, "price_level": 2, "rating": 4.6, "reference": "ChIJX7QC04x-hYARosvjeSSkf4U", "scope": "GOOGLE", "types": ["bakery", "store", "point_of_interest", "food", "establishment"], "vicinity": "2709 San Pablo Avenue, Berkeley"}, "ChIJEUNi04x-hYAR8NQ8l1y-CJo": {"geometry": {"location": {"lat": 37.85739969999999, "lng": -122.2881743}, "viewport": {"northeast": {"lat": 37.8587369802915, "lng": -122.2868828197085}, "southwest": {"lat": 37.8560390197085, "lng": -122.2895807802915}}}, "icon": "https://maps.gstatic.com/mapfiles/place_api/icons/generic_business-71.png", "id": "854e902c75f1f35cd14f3c9182c74c5295e23451", "name": "Berkeley Bob's Foreign Auto Service & Repair", "opening_hours": {"open_now": false}, "photos": [{"height": 1536, "html_attributions": ["<a href=\"https://maps.google.com/maps/contrib/118196071129838499859/photos\">Berkeley Bob&#39;s Foreign Auto Service &amp; Repair</a>"], "photo_reference": "CmRaAAAAg1Ao5Sk2jGJKd_wNtVwJQcCRYCpLW-ulgZ3L-Zb0BOzinM0injJsN7FAtjO0WC4f4RI19b8NVyCbQnaQ4KPc6ip2FbU_9PNMPKGSQvsfmexYS8BRfen0mOSYSJvax8E9EhBOOK3fzWolQjlXr-jjxpa7GhRql_3ESHA4DUC7GJWN_MXJRlN7Jg", "width": 2048}], "place_id": "ChIJEUNi04x-hYAR8NQ8l1y-CJo", "plus_code": {"compound_code": "VP46+XP Berkeley, California, United States", "global_code": "849VVP46+XP"}, "rating": 5, "reference": "ChIJEUNi04x-hYAR8NQ8l1y-CJo", "scope": "GOOGLE", "types": ["car_repair", "health", "point_of_interest", "establishment"], "vicinity": "2705 San Pablo Avenue, Berkeley"}, "ChIJ6yMKzYx-hYAR4QowxQ61k60": {"geometry": {"location": {"lat": 37.85698060000001, "lng": -122.2880063}, "viewport": {"northeast": {"lat": 37.85831478029149, "lng": -122.2867285197085}, "southwest": {"lat": 37.8556168197085, "lng": -122.2894264802915}}}, "icon": "https://maps.gstatic.com/mapfiles/place_api/icons/generic_business-71.png", "id": "0c9562e905571871dfe873908edcab6284863a14", "name": "Timothy Carter: Allstate Insurance", "opening_hours": {"open_now": false}, "photos": [{"height": 539, "html_attributions": ["<a href=\"https://maps.google.com/maps/contrib/102763011797617990457/photos\">Timothy Carter: Allstate Insurance</a>"], "photo_reference": "CmRaAAAAGHYeiJhOtXxjaFBWutPUngiX7yO2D_67uzMnnsVJRDlU1iaJqQVZw5lAWxbK5AgomsuSB-umHOUxD6KcUIFd_TSIM3U7P1PwdNtADBDwZ-2769W2eO4Qn11jDHuDw04REhCjKuiLpIibuKhgOGHuPTEWGhRot_-gu-16yIeP0RSnWB1LialGSg", "width": 960}], "place_id": "ChIJ6yMKzYx-hYAR4QowxQ61k60", "plus_code": {"compound_code": "VP46+QQ Berkeley, California, United States", "global_code": "849VVP46+QQ"}, "rating": 5, "reference": "ChIJ6yMKzYx-hYAR4QowxQ61k60", "scope": "GOOGLE", "types": ["insurance_agency", "point_of_interest", "establishment"], "vicinity": "2717 San Pablo Avenue, Berkeley"}, "ChIJEfcg1Yx-hYARPYPiYIiTDGg": {"geometry": {"location": {"lat": 37.8575284, "lng": -122.2881079}, "viewport": {"northeast": {"lat": 37.8588553302915, "lng": -122.2868672197085}, "southwest": {"lat": 37.8561573697085, "lng": -122.2895651802915}}}, "icon": "https://maps.gstatic.com/mapfiles/place_api/icons/generic_business-71.png", "id": "b0d3b05ba0763a66255ce30936046e4a4d158e44", "name": "Cooper & Hawkins Engineering", "opening_hours": {"open_now": false}, "place_id": "ChIJEfcg1Yx-hYARPYPiYIiTDGg", "plus_code": {"compound_code": "VP56+2Q Berkeley, California, United States", "global_code": "849VVP56+2Q"}, "rating": 2.6, "reference": "ChIJEfcg1Yx-hYARPYPiYIiTDGg", "scope": "GOOGLE", "types": ["general_contractor", "point_of_interest", "establishment"], "vicinity": "2701 San Pablo Avenue, Berkeley"}, "ChIJUT_HMfN-hYAR3C5z3BsvrFU": {"geometry": {"location": {"lat": 37.856915, "lng": -122.288424}, "viewport": {"northeast": {"lat": 37.8582790302915, "lng": -122.2870033197085}, "southwest": {"lat": 37.85558106970851, "lng": -122.2897012802915}}}, "icon": "https://maps.gstatic.com/mapfiles/place_api/icons/generic_business-71.png", "id": "dc4161b152e6e0a631b8aca96c93701e090776bb", "name": "Berkeley Radiator Works", "opening_hours": {"open_now": false}, "photos": [{"height": 495, "html_attributions": ["<a href=\"https://maps.google.com/maps/contrib/109477512026317817976/photos\">Berkeley Radiator Works</a>"], "photo_reference": "CmRaAAAAGt1wmfZrFhZcwfKys0MyzdpLu6VcoM7x2xSBN6gPiyLuj71eRDRUTw8JIs0_O4HyK_UxiDW3h7CLQi7mimgUDEQflDYBcU0FO6oMhy9NZPBPqs0uxo6yBvlzQJ8DUwiHEhB6Xj9FNV-6nZ1r-hkQCuRtGhRU3y--XjWpYl1493ZaMqUvlJNx8g", "width": 1500}], "place_id": "ChIJUT_HMfN-hYAR3C5z3BsvrFU", "plus_code": {"compound_code": "VP46+QJ Berkeley, California, United States", "global_code": "849VVP46+QJ"}, "rating": 4.5, "reference": "ChIJUT_HMfN-hYAR3C5z3BsvrFU", "scope": "GOOGLE", "types": ["car_repair", "point_of_interest", "establishment"], "vicinity": "2732 San Pablo Avenue, Berkeley"}, "ChIJHceE0ox-hYARYDhT0PYrhpQ": {"geometry": {"location": {"lat": 37.8571199, "lng": -122.2879996}, "viewport": {"northeast": {"lat": 37.8584489302915, "lng": -122.2867466697085}, "southwest": {"lat": 37.8557509697085, "lng": -122.2894446302915}}}, "icon": "https://maps.gstatic.com/mapfiles/place_api/icons/generic_business-71.png", "id": "9581106139e1a222c34cf8997117d45f28cf259c", "name": "Knutek International", "place_id": "ChIJHceE0ox-hYARYDhT0PYrhpQ", "plus_code": {"compound_code": "VP46+RR Berkeley, California, United States", "global_code": "849VVP46+RR"}, "reference": "ChIJHceE0ox-hYARYDhT0PYrhpQ", "scope": "GOOGLE", "types": ["point_of_interest", "establishment"], "vicinity": "2713 San Pablo Avenue, Berkeley"}, "ChIJq5vs0_J-hYARTfEqF_RQ-Cw": {"geometry": {"location": {"lat": 37.85721799999999, "lng": -122.2880062}, "viewport": {"northeast": {"lat": 37.8585444802915, "lng": -122.2867654697085}, "southwest": {"lat": 37.8558465197085, "lng": -122.2894634302915}}}, "icon": "https://maps.gstatic.com/mapfiles/place_api/icons/shopping-71.png", "id": "4c1aef70ea32be6d7e4ec4090d7576e4b2e37d32", "name": "Nordic Distribution LLC", "place_id": "ChIJq5vs0_J-hYARTfEqF_RQ-Cw", "plus_code": {"compound_code": "VP46+VQ Berkeley, California, United States", "global_code": "849VVP46+VQ"}, "reference": "ChIJq5vs0_J-hYARTfEqF_RQ-Cw", "scope": "GOOGLE", "types": ["electronics_store", "home_goods_store", "store", "point_of_interest", "establishment"], "vicinity": "2709 San Pablo Avenue, Berkeley"}, "ChIJBSc31PJ-hYARm5TP51D7_k4": {"geometry": {"location": {"lat": 37.85779409999999, "lng": -122.2882859}, "viewport": {"northeast": {"lat": 37.85913368029149, "lng": -122.2869985197085}, "southwest": {"lat": 37.85643571970849, "lng": -122.2896964802915}}}, "icon": "https://maps.gstatic.com/mapfiles/place_api/icons/generic_business-71.png", "id": "818611c28348c253f25aabcf599bc197be1e4c78", "name": "Davidson Chiropractic Method", "opening_hours": {"open_now": false}, "place_id": "ChIJBSc31PJ-hYARm5TP51D7_k4", "plus_code": {"compound_code": "VP56+4M Berkeley, California, United States", "global_code": "849VVP56+4M"}, "reference": "ChIJBSc31PJ-hYARm5TP51D7_k4", "scope": "GOOGLE", "types": ["health", "point_of_interest", "establishment"], "vicinity": "2649 San Pablo Avenue, Berkeley"}, "ChIJbXrAy4x-hYARlgUBfS2jW5E": {"geometry": {"location": {"lat": 37.8567619, "lng": -122.2879672}, "viewport": {"northeast": {"lat": 37.8580998802915, "lng": -122.2866751197085}, "southwest": {"lat": 37.8554019197085, "lng": -122.2893730802915}}}, "icon": "https://maps.gstatic.com/mapfiles/place_api/icons/restaurant-71.png", "id": "761d75235825c1f91f33de5a1a3064ad4273ed7a", "name": "Broom Bush Cafe", "opening_hours": {"open_now": false}, "photos": [{"height": 2642, "html_attributions": ["<a href=\"https://maps.google.com/maps/contrib/102823329427504641321/photos\">Fowana Terry</a>"], "photo_reference": "CmRaAAAA5l9YF9aVXaQ9zpdn_NG6yKdB0VdzmzSP_h-Z23xZpayuOEN-xOODWIa9OyBiMWJ63y53xukz9LUy5r4DSdsPa2y24SGFN15KQJrp8jGTKmACdwIOgeGdK9zhVR5bECRREhD0JiykIkuoyckLDO5hsobsGhQTN73yDCSqJuy35Mugpp0Sn5rcaA", "width": 2642}], "place_id": "ChIJbXrAy4x-hYARlgUBfS2jW5E", "plus_code": {"compound_code": "VP46+PR Berkeley, California, United States", "global_code": "849VVP46+PR"}, "price_level": 1, "rating": 4.4, "reference": "ChIJbXrAy4x-hYARlgUBfS2jW5E", "scope": "GOOGLE", "types": ["cafe", "store", "restaurant", "point_of_interest", "food", "establishment"], "vicinity": "2725 San Pablo Avenue, Berkeley"}, "ChIJkxusLvN-hYARjmrcYuCp3AQ": {"geometry": {"location": {"lat": 37.8572314, "lng": -122.2884529}, "viewport": {"northeast": {"lat": 37.85858038029149, "lng": -122.2871039197085}, "southwest": {"lat": 37.85588241970849, "lng": -122.2898018802915}}}, "icon": "https://maps.gstatic.com/mapfiles/place_api/icons/bus-71.png", "id": "95ff699fad2cf05f8098d9d53eb74fcd15d864e0", "name": "San Pablo Av:Pardee St", "place_id": "ChIJkxusLvN-hYARjmrcYuCp3AQ", "plus_code": {"compound_code": "VP46+VJ Berkeley, California, United States", "global_code": "849VVP46+VJ"}, "reference": "ChIJkxusLvN-hYARjmrcYuCp3AQ", "scope": "GOOGLE", "types": ["bus_station", "transit_station", "point_of_interest", "establishment"], "vicinity": "United States"}, "ChIJ-13aMvN-hYARUI1MGMIS0Y0": {"geometry": {"location": {"lat": 37.8569555, "lng": -122.2880752}, "viewport": {"northeast": {"lat": 37.8582979302915, "lng": -122.2867577697085}, "southwest": {"lat": 37.85559996970851, "lng": -122.2894557302915}}}, "icon": "https://maps.gstatic.com/mapfiles/place_api/icons/shopping-71.png", "id": "18f4f27f2ba96f33d4be823d33c08f36e6ef1b0e", "name": "Pockets", "place_id": "ChIJ-13aMvN-hYARUI1MGMIS0Y0", "plus_code": {"compound_code": "VP46+QQ Berkeley, California, United States", "global_code": "849VVP46+QQ"}, "reference": "ChIJ-13aMvN-hYARUI1MGMIS0Y0", "scope": "GOOGLE", "types": ["store", "point_of_interest", "establishment"], "vicinity": "2719 San Pablo Avenue, Berkeley"}, "ChIJh0n7LfN-hYARI2EzPtFS3AY": {"geometry": {"location": {"lat": 37.8570032, "lng": -122.2883998}, "viewport": {"northeast": {"lat": 37.8583521802915, "lng": -122.2870508197085}, "southwest": {"lat": 37.85565421970851, "lng": -122.2897487802915}}}, "icon": "https://maps.gstatic.com/mapfiles/place_api/icons/generic_business-71.png", "id": "06ca373a5b3eee5875ada3b92e995df09f061e23", "name": "The Barkeley Dog Daycare & Hotel", "place_id": "ChIJh0n7LfN-hYARI2EzPtFS3AY", "plus_code": {"compound_code": "VP46+RJ Berkeley, California, United States", "global_code": "849VVP46+RJ"}, "reference": "ChIJh0n7LfN-hYARI2EzPtFS3AY", "scope": "GOOGLE", "types": ["point_of_interest", "establishment"], "vicinity": "Berkeley"}, "ChIJTZxHLvN-hYARcWbEQJPD_ug": {"geometry": {"location": {"lat": 37.85699899999999, "lng": -122.28855}, "viewport": {"northeast": {"lat": 37.8583726302915, "lng": -122.2870837197085}, "southwest": {"lat": 37.8556746697085, "lng": -122.2897816802915}}}, "icon": "https://maps.gstatic.com/mapfiles/place_api/icons/generic_business-71.png", "id": "f92fdd2cb21166a210c1999d0310e827343efc8f", "name": "The Barkmont", "opening_hours": {"open_now": false}, "photos": [{"height": 1837, "html_attributions": ["<a href=\"https://maps.google.com/maps/contrib/115801356450743543484/photos\">The Barkmont</a>"], "photo_reference": "CmRaAAAAXvsqDPgKPx5O2uGb0l_5KLxJp5A0_8asC1b1nUaXFECP456UYI8sYr947JUjtG5MqU0Nm9bLlvNDFc1KK-JHfGQe8qIcI0jHRyXX9dcaZXSMR1a-mgyKUfd4TmUVyQy-EhDFTfrGszJtFACspR2nCrvvGhQV0atiaDWMBhXxBYP8hpdtcBgsYQ", "width": 3264}], "place_id": "ChIJTZxHLvN-hYARcWbEQJPD_ug", "plus_code": {"compound_code": "VP46+QH Berkeley, California, United States", "global_code": "849VVP46+QH"}, "rating": 5, "reference": "ChIJTZxHLvN-hYARcWbEQJPD_ug", "scope": "GOOGLE", "types": ["point_of_interest", "establishment"], "vicinity": "2730 San Pablo Avenue, Berkeley"}, "ChIJ00mFOjZ5hYARk-l1ppUV6pQ": {"geometry": {"location": {"lat": 37.8715926, "lng": -122.272747}, "viewport": {"northeast": {"lat": 37.9058239, "lng": -122.234179}, "southwest": {"lat": 37.835727, "lng": -122.367781}}}, "icon": "https://maps.gstatic.com/mapfiles/place_api/icons/geocode-71.png", "id": "00741fe572fc4084428ab206e1a55830f6a1bf0a", "name": "Berkeley", "photos": [{"height": 1080, "html_attributions": ["<a href=\"https://maps.google.com/maps/contrib/110244590763501513798/photos\">miao hsin sun</a>"], "photo_reference": "CmRaAAAAhtOSCST0hOjTa6wVGIRUGvxBKSgWlhtdrT4roorbvaTF0VDUB43UvGF0xcheft0oSp_OmrpCENe_Orz7CFNutawBB429QMWcuc2dVZp_xbfgBfmejN3Uf6KTH7bmb9OyEhCaUfR4iAk5YfCSLL52pvRVGhQw1oJ1PrOyFROuMoCbUEbMzCfFXg", "width": 1616}], "place_id": "ChIJ00mFOjZ5hYARk-l1ppUV6pQ", "reference": "ChIJ00mFOjZ5hYARk-l1ppUV6pQ", "scope": "GOOGLE", "types": ["locality", "political"], "vicinity": "Berkeley"}}