{"ChIJ506X9IN-hYAR58T9tKAOy9k": {"geometry": {"location": {"lat": 37.8616911, "lng": -122.2707638}, "viewport": {"northeast": {"lat": 37.8630400802915, "lng": -122.26851085}, "southwest": {"lat": 37.8603421197085, "lng": -122.27301665}}}, "icon": "https://maps.gstatic.com/mapfiles/place_api/icons/geocode-71.png", "id": "fd479c01735736f4534b640d6dafcd20fa924006", "name": "1999-1901 Parker St", "place_id": "ChIJ506X9IN-hYAR58T9tKAOy9k", "reference": "ChIJ506X9IN-hYAR58T9tKAOy9k", "scope": "GOOGLE", "types": ["route"], "vicinity": "Berkeley"}, "ChIJ7-L95YN-hYAR0db2z0mBeKI": {"geometry": {"location": {"lat": 37.8613889, "lng": -122.27}, "viewport": {"northeast": {"lat": 37.8627378802915, "lng": -122.2686510197085}, "southwest": {"lat": 37.86003991970851, "lng": -122.2713489802915}}}, "icon": "https://maps.gstatic.com/mapfiles/place_api/icons/worship_general-71.png", "id": "21eb75930efc8f5c6bf03ee720b961ff32c0c936", "name": "Russian Orthodox Memorial Church", "place_id": "ChIJ7-L95YN-hYAR0db2z0mBeKI", "plus_code": {"compound_code": "VP6J+H2 Berkeley, California, United States", "global_code": "849VVP6J+H2"}, "reference": "ChIJ7-L95YN-hYAR0db2z0mBeKI", "scope": "GOOGLE", "types": ["church", "place_of_worship", "point_of_interest", "establishment"], "vicinity": "Berkeley"}, "ChIJq2sF74N-hYAR4UscD6xSdts": {"geometry": {"location": {"lat": 37.8615898, "lng": -122.2701962}, "viewport": {"northeast": {"lat": 37.8630248802915, "lng": -122.2688656697085}, "southwest": {"lat": 37.8603269197085, "lng": -122.2715636302915}}}, "icon": "https://maps.gstatic.com/mapfiles/place_api/icons/school-71.png", "id": "2562c7fa930bdca74e9941f0ac081b252db2dcc1", "name": "Robin's Nest", "opening_hours": {"open_now": true}, "place_id": "ChIJq2sF74N-hYAR4UscD6xSdts", "plus_code": {"compound_code": "VP6H+JW Berkeley, California, United States", "global_code": "849VVP6H+JW"}, "reference": "ChIJq2sF74N-hYAR4UscD6xSdts", "scope": "GOOGLE", "types": ["point_of_interest", "establishment"], "vicinity": "1934 Parker Street, Berkeley"}, "ChIJjZwzUYF-hYAROxYnwrRLZM4": {"geometry": {"location": {"lat": 37.8602988, "lng": -122.2707057}, "viewport": {"northeast": {"lat": 37.8617062802915, "lng": -122.2692659197085}, "southwest": {"lat": 37.85900831970851, "lng": -122.2719638802915}}}, "icon": "https://maps.gstatic.com/mapfiles/place_api/icons/generic_business-71.png", "id": "1c4d3b329af95318c741656161b37e706af0e2b3", "name": "Tim Moellering Field", "place_id": "ChIJjZwzUYF-hYAROxYnwrRLZM4", "reference": "ChIJjZwzUYF-hYAROxYnwrRLZM4", "scope": "GOOGLE", "types": ["premise", "point_of_interest", "school", "establishment"], "vicinity": "Berkeley"}, "ChIJ00mFOjZ5hYARk-l1ppUV6pQ": {"geometry": {"location": {"lat": 37.8715926, "lng": -122.272747}, "viewport": {"northeast": {"lat": 37.9058239, "lng": -122.234179}, "southwest": {"lat": 37.835727, "lng": -122.367781}}}, "icon": "https://maps.gstatic.com/mapfiles/place_api/icons/geocode-71.png", "id": "00741fe572fc4084428ab206e1a55830f6a1bf0a", "name": "Berkeley", "photos": [{"height": 1080, "html_attributions": ["<a href=\"https://maps.google.com/maps/contrib/110244590763501513798/photos\">miao hsin sun</a>"], "photo_reference": "CmRaAAAAIKOfPXSCTg0P1rsgrTyAnxBODwXnRUf1R6unBhSeUerVfjGMKTVOVzOco9KDIgIoTw5qO6YChigZBGJVZ8r0D2CPnHSmT29jbHivLhyWqYxqbA4nxo1NxO8PzCSRD1vkEhA2i98PVISghM4j6044VSyYGhSFsmla3gzL4rVQdvAgbknZhaZu_g", "width": 1616}], "place_id": "ChIJ00mFOjZ5hYARk-l1ppUV6pQ", "reference": "ChIJ00mFOjZ5hYARk-l1ppUV6pQ", "scope": "GOOGLE", "types": ["locality", "political"], "vicinity": "Berkeley"}}