{"ChIJbRxMFMR9hYARNzmp0sXERl0": {"geometry": {"location": {"lat": 37.8491191, "lng": -122.2495729}, "viewport": {"northeast": {"lat": 37.85038108029149, "lng": -122.2478296}, "southwest": {"lat": 37.84768311970849, "lng": -122.251272}}}, "icon": "https://maps.gstatic.com/mapfiles/place_api/icons/geocode-71.png", "id": "501ab262a02e45e1313796169e1a4c2b73b78ba1", "name": "6162-6100 Harwood Ave", "place_id": "ChIJbRxMFMR9hYARNzmp0sXERl0", "reference": "ChIJbRxMFMR9hYARNzmp0sXERl0", "scope": "GOOGLE", "types": ["route"], "vicinity": "Oakland"}, "ChIJIRIJp8Z9hYARPU3h8IKPffY": {"geometry": {"location": {"lat": 37.84916, "lng": -122.248255}, "viewport": {"northeast": {"lat": 37.8506170802915, "lng": -122.2470283197085}, "southwest": {"lat": 37.8479191197085, "lng": -122.2497262802915}}}, "icon": "https://maps.gstatic.com/mapfiles/place_api/icons/shopping-71.png", "id": "b302f4db62af29038d46e6d202e9b2e1556f00df", "name": "Microhydrin Distributor", "place_id": "ChIJIRIJp8Z9hYARPU3h8IKPffY", "plus_code": {"compound_code": "RQX2+MM Oakland, California, United States", "global_code": "849VRQX2+MM"}, "reference": "ChIJIRIJp8Z9hYARPU3h8IKPffY", "scope": "GOOGLE", "types": ["store", "health", "point_of_interest", "food", "establishment"], "vicinity": "6169 Harwood Avenue, Oakland"}, "ChIJA-2qKIt9hYARZ5N1NdUVtHE": {"geometry": {"location": {"lat": 37.8043637, "lng": -122.2711137}, "viewport": {"northeast": {"lat": 37.88472489999999, "lng": -122.114775}, "southwest": {"lat": 37.6322259, "lng": -122.355881}}}, "icon": "https://maps.gstatic.com/mapfiles/place_api/icons/geocode-71.png", "id": "da4a4da21e013f9d3a24e8eee6d4f84de02148d3", "name": "Oakland", "photos": [{"height": 2848, "html_attributions": ["<a href=\"https://maps.google.com/maps/contrib/113300206259949994494/photos\">Cimino Alberto</a>"], "photo_reference": "CmRaAAAAeTOejiWZ7r_pWoajdge0ufvj6_vjhLB63-mJWauYtyVFh4dn06JN9wOzxR7uBqMDutQfaA1EqH1IUglgIlEHJxw1ZgMdgL5re59_yzg2wu5sLyW-LTm0AoejbaOLk0PREhD-MIOkOHvfRNSMQUG4l0ueGhQjLDJOLwjfOnahVElCx5s9a0kBKA", "width": 4256}], "place_id": "ChIJA-2qKIt9hYARZ5N1NdUVtHE", "reference": "ChIJA-2qKIt9hYARZ5N1NdUVtHE", "scope": "GOOGLE", "types": ["locality", "political"], "vicinity": "Oakland"}}