{"ChIJ5-WBo1J5hYARVfPgCfghfHE": {"geometry": {"location": {"lat": 37.8931874, "lng": -122.276285}, "viewport": {"northeast": {"lat": 37.89503570000004, "lng": -122.2748370697085}, "southwest": {"lat": 37.89128049999994, "lng": -122.2775350302915}}}, "icon": "https://maps.gstatic.com/mapfiles/place_api/icons/geocode-71.png", "id": "6dc9e7c73f71034c100c1feabe861158fd696268", "name": "810-866 Contra Costa Ave", "place_id": "ChIJ5-WBo1J5hYARVfPgCfghfHE", "reference": "ChIJ5-WBo1J5hYARVfPgCfghfHE", "scope": "GOOGLE", "types": ["route"], "vicinity": "Berkeley"}, "ChIJJyWPUq1-hYARfJlrGMViqfM": {"geometry": {"location": {"lat": 37.8921842, "lng": -122.2760667}, "viewport": {"northeast": {"lat": 37.8935011302915, "lng": -122.2748426697085}, "southwest": {"lat": 37.8908031697085, "lng": -122.2775406302915}}}, "icon": "https://maps.gstatic.com/mapfiles/place_api/icons/generic_recreational-71.png", "id": "4b87c047ff78ba5e5e4ceb866fdcd7b938989a6a", "name": "Contra Costa Rock Park", "photos": [{"height": 1836, "html_attributions": ["<a href=\"https://maps.google.com/maps/contrib/110761436428314376739/photos\">Charley Sithinamsuwan</a>"], "photo_reference": "CmRaAAAA98S8pAEx4IrEbyZV2VpcdP8OC_zYpEWThOUWD0mmpg8G1Ndb3n7mGzBX-gY6lkmRBfAtsDjjwRQWLRpnp-WDigqt6V6f0j-bQm_GeDg8v2xbCtExtYNpXhofLortYUItEhAq7Kb7vPl8gmZP12CevsMlGhQutk2yTYU1dbt3onN1saZr41HZFA", "width": 3264}], "place_id": "ChIJJyWPUq1-hYARfJlrGMViqfM", "plus_code": {"compound_code": "VPRF+VH Berkeley, California, United States", "global_code": "849VVPRF+VH"}, "rating": 4.6, "reference": "ChIJJyWPUq1-hYARfJlrGMViqfM", "scope": "GOOGLE", "types": ["park", "point_of_interest", "establishment"], "vicinity": "869-A Contra Costa Avenue, Berkeley"}, "ChIJxV4iqlJ5hYARzaS3d524ZPE": {"geometry": {"location": {"lat": 37.892392, "lng": -122.276636}, "viewport": {"northeast": {"lat": 37.8937520302915, "lng": -122.2751672197085}, "southwest": {"lat": 37.8910540697085, "lng": -122.2778651802915}}}, "icon": "https://maps.gstatic.com/mapfiles/place_api/icons/generic_business-71.png", "id": "e4bc5ec88b9067841b9307ce319c1c9dedd0933b", "name": "Brian Ng Engineering", "place_id": "ChIJxV4iqlJ5hYARzaS3d524ZPE", "plus_code": {"compound_code": "VPRF+X8 Berkeley, California, United States", "global_code": "849VVPRF+X8"}, "reference": "ChIJxV4iqlJ5hYARzaS3d524ZPE", "scope": "GOOGLE", "types": ["point_of_interest", "establishment"], "vicinity": "860 Contra Costa Avenue, Berkeley"}, "ChIJaSrCpBt5hYARu7ickvOwvWc": {"geometry": {"location": {"lat": 37.89219870000001, "lng": -122.2769306}, "viewport": {"northeast": {"lat": 37.8935258802915, "lng": -122.2757433697085}, "southwest": {"lat": 37.8908279197085, "lng": -122.2784413302915}}}, "icon": "https://maps.gstatic.com/mapfiles/place_api/icons/shopping-71.png", "id": "5b2c5e8adb019f8b5e0dbbbb87c0be7551e60188", "name": "Crystal Casman Jewelry", "opening_hours": {"open_now": true}, "place_id": "ChIJaSrCpBt5hYARu7ickvOwvWc", "plus_code": {"compound_code": "VPRF+V6 Berkeley, California, United States", "global_code": "849VVPRF+V6"}, "reference": "ChIJaSrCpBt5hYARu7ickvOwvWc", "scope": "GOOGLE", "types": ["jewelry_store", "store", "point_of_interest", "establishment"], "vicinity": "859 The Alameda, Berkeley"}, "ChIJq9XHqVJ5hYAROwdJV4a9Tew": {"geometry": {"location": {"lat": 37.892525, "lng": -122.276653}, "viewport": {"northeast": {"lat": 37.8938771302915, "lng": -122.2751816697085}, "southwest": {"lat": 37.8911791697085, "lng": -122.2778796302915}}}, "icon": "https://maps.gstatic.com/mapfiles/place_api/icons/generic_business-71.png", "id": "52ed1c50dba38c35a1e9b9e53bbae179eb049b51", "name": "Dr. Stephen J. Kane, DMD", "place_id": "ChIJq9XHqVJ5hYAROwdJV4a9Tew", "plus_code": {"compound_code": "VPVF+28 Berkeley, California, United States", "global_code": "849VVPVF+28"}, "reference": "ChIJq9XHqVJ5hYAROwdJV4a9Tew", "scope": "GOOGLE", "types": ["dentist", "health", "point_of_interest", "establishment"], "vicinity": "856 Contra Costa Avenue, Berkeley"}, "ChIJ00mFOjZ5hYARk-l1ppUV6pQ": {"geometry": {"location": {"lat": 37.8715926, "lng": -122.272747}, "viewport": {"northeast": {"lat": 37.9058239, "lng": -122.234179}, "southwest": {"lat": 37.835727, "lng": -122.367781}}}, "icon": "https://maps.gstatic.com/mapfiles/place_api/icons/geocode-71.png", "id": "00741fe572fc4084428ab206e1a55830f6a1bf0a", "name": "Berkeley", "photos": [{"height": 1080, "html_attributions": ["<a href=\"https://maps.google.com/maps/contrib/110244590763501513798/photos\">miao hsin sun</a>"], "photo_reference": "CmRaAAAAhM3o9cc88wUJ1Ctu2QhbI6zLtBrAipKfEC52KahA04UL3cxK5m6vWuf2B-zHAfmNe7UeCaueh0SxEb4YwK4wJY68UIZQjYmvpFlUGxx1CAmmooZo4BUnyDgPii6TZXygEhA1PQMdGJLuQxAPYsM4Mqc0GhReUpDUvMo-3ydF_Hi_E1PjxlH-RQ", "width": 1616}], "place_id": "ChIJ00mFOjZ5hYARk-l1ppUV6pQ", "reference": "ChIJ00mFOjZ5hYARk-l1ppUV6pQ", "scope": "GOOGLE", "types": ["locality", "political"], "vicinity": "Berkeley"}}