{"ChIJI5WSfFl-hYAROfQpM4pwxys": {"geometry": {"location": {"lat": 37.8435551, "lng": -122.2959968}, "viewport": {"northeast": {"lat": 37.8449040302915, "lng": -122.2946477697085}, "southwest": {"lat": 37.8422060697085, "lng": -122.2973457302915}}}, "icon": "https://maps.gstatic.com/mapfiles/place_api/icons/geocode-71.png", "id": "a9ab8c377b6b4349255dbecbec3ba05df0b59137", "name": "1700-1738 64th St", "place_id": "ChIJI5WSfFl-hYAROfQpM4pwxys", "reference": "ChIJI5WSfFl-hYAROfQpM4pwxys", "scope": "GOOGLE", "types": ["route"], "vicinity": "Emeryville"}, "ChIJe9HsYll-hYARIwqA7h7o63I": {"geometry": {"location": {"lat": 37.8434013, "lng": -122.2958706}, "viewport": {"northeast": {"lat": 37.84477038029149, "lng": -122.2944180697085}, "southwest": {"lat": 37.84207241970849, "lng": -122.2971160302915}}}, "icon": "https://maps.gstatic.com/mapfiles/place_api/icons/restaurant-71.png", "id": "91163bd83204abc2a9ddedbd4c54063b6716cc3a", "name": "Subway Restaurants", "opening_hours": {"open_now": true}, "photos": [{"height": 3024, "html_attributions": ["<a href=\"https://maps.google.com/maps/contrib/113894032360823229969/photos\">Ivan Bahdanau</a>"], "photo_reference": "CmRaAAAAw1ZXbwNtVgB6C9aoeHRfR7fReaZzNI5VrJXRsGgE9_LavE34hKsNnUZw6S7wzucJ1CiUBy49-tndP-p8U2JjZMUEt5MYjrfzfVaJ4s_s83qUZ849HIHMGCd6OyxLntyDEhBCTR6s67Aqlvy1cLKoUI-ZGhTVgTYm_0o8YcdgcmlBNjTzzhiKbA", "width": 4032}], "place_id": "ChIJe9HsYll-hYARIwqA7h7o63I", "plus_code": {"compound_code": "RPV3+9M Emeryville, California, United States", "global_code": "849VRPV3+9M"}, "price_level": 1, "rating": 3.2, "reference": "ChIJe9HsYll-hYARIwqA7h7o63I", "scope": "GOOGLE", "types": ["restaurant", "point_of_interest", "food", "establishment"], "vicinity": "6399 Christie Avenue Suite C, Emeryville"}, "ChIJU85KcFl-hYARTMso0m3hXno": {"geometry": {"location": {"lat": 37.8440252, "lng": -122.2962677}, "viewport": {"northeast": {"lat": 37.84546308029149, "lng": -122.2951086197085}, "southwest": {"lat": 37.8427651197085, "lng": -122.2978065802915}}}, "icon": "https://maps.gstatic.com/mapfiles/place_api/icons/generic_business-71.png", "id": "5a9c77052ec6694f15ab2d21771f745f7d8ae6bf", "name": "GXS Inc", "place_id": "ChIJU85KcFl-hYARTMso0m3hXno", "plus_code": {"compound_code": "RPV3+JF Emeryville, California, United States", "global_code": "849VRPV3+JF"}, "reference": "ChIJU85KcFl-hYARTMso0m3hXno", "scope": "GOOGLE", "types": ["point_of_interest", "establishment"], "vicinity": "6425 Christie Avenue # 300, Emeryville"}, "ChIJTz-tZVl-hYARMHW4Du7ZCFc": {"geometry": {"location": {"lat": 37.8440461, "lng": -122.2954704}, "viewport": {"northeast": {"lat": 37.8453587802915, "lng": -122.2943025697085}, "southwest": {"lat": 37.84266081970851, "lng": -122.2970005302915}}}, "icon": "https://maps.gstatic.com/mapfiles/place_api/icons/generic_business-71.png", "id": "0b10a4f86c442ee17c232ff145c7e85705ac276d", "name": "Bridgewater Owners Association", "opening_hours": {"open_now": false}, "photos": [{"height": 3024, "html_attributions": ["<a href=\"https://maps.google.com/maps/contrib/113894032360823229969/photos\">Ivan Bahdanau</a>"], "photo_reference": "CmRaAAAAjJp1C6H2UVEER_6MfiW11ZmucbYFu2IAZHJxNRJAG1nvb6sGsic32XXaSHU46F2u9r3wJhhS-hWAJge5XO8zeeAxiwsHBoqbpZBizdL53AmjNGiqbDCLnQMnFCZAWPwHEhDXZOjAGXpNaJgtygBwu1bFGhSOBEqmfSvON3EobNoFS7znX4fTTA", "width": 4032}], "place_id": "ChIJTz-tZVl-hYARMHW4Du7ZCFc", "plus_code": {"compound_code": "RPV3+JR Emeryville, California, United States", "global_code": "849VRPV3+JR"}, "rating": 4.3, "reference": "ChIJTz-tZVl-hYARMHW4Du7ZCFc", "scope": "GOOGLE", "types": ["point_of_interest", "establishment"], "vicinity": "6400 Christie Avenue, Emeryville"}, "ChIJAy2v_1h-hYARrSR846rXTSw": {"geometry": {"location": {"lat": 37.8440252, "lng": -122.2962677}, "viewport": {"northeast": {"lat": 37.84546308029149, "lng": -122.2951086197085}, "southwest": {"lat": 37.8427651197085, "lng": -122.2978065802915}}}, "icon": "https://maps.gstatic.com/mapfiles/place_api/icons/generic_business-71.png", "id": "d46a7e72265e467d77e81d76f4eb128aa4a32d7e", "name": "Harvest Properties Inc", "place_id": "ChIJAy2v_1h-hYARrSR846rXTSw", "plus_code": {"compound_code": "RPV3+JF Emeryville, California, United States", "global_code": "849VRPV3+JF"}, "reference": "ChIJAy2v_1h-hYARrSR846rXTSw", "scope": "GOOGLE", "types": ["real_estate_agency", "point_of_interest", "establishment"], "vicinity": "6425 Christie Avenue, Emeryville"}, "ChIJbyIodll-hYARTCUG0VnxjMQ": {"geometry": {"location": {"lat": 37.8438605, "lng": -122.2963162}, "viewport": {"northeast": {"lat": 37.8451179302915, "lng": -122.2950365197085}, "southwest": {"lat": 37.8424199697085, "lng": -122.2977344802915}}}, "icon": "https://maps.gstatic.com/mapfiles/place_api/icons/generic_business-71.png", "id": "1c77b764dfba2ba2b08486ee14a3b8549988d416", "name": "America's Army Public Applications", "opening_hours": {"open_now": true}, "place_id": "ChIJbyIodll-hYARTCUG0VnxjMQ", "plus_code": {"compound_code": "RPV3+GF Emeryville, California, United States", "global_code": "849VRPV3+GF"}, "rating": 4.8, "reference": "ChIJbyIodll-hYARTCUG0VnxjMQ", "scope": "GOOGLE", "types": ["point_of_interest", "establishment"], "vicinity": "6425 Christie Avenue, Emeryville"}, "ChIJw2-EUFB-hYARNTRgW27yW-4": {"geometry": {"location": {"lat": 37.8440175, "lng": -122.2962574}, "viewport": {"northeast": {"lat": 37.8454581302915, "lng": -122.2951042697085}, "southwest": {"lat": 37.8427601697085, "lng": -122.2978022302915}}}, "icon": "https://maps.gstatic.com/mapfiles/place_api/icons/school-71.png", "id": "012233a3d116222e603970541b540642aba11105", "name": "Caldwell Flores Winters Inc", "place_id": "ChIJw2-EUFB-hYARNTRgW27yW-4", "plus_code": {"compound_code": "RPV3+JF Emeryville, California, United States", "global_code": "849VRPV3+JF"}, "reference": "ChIJw2-EUFB-hYARNTRgW27yW-4", "scope": "GOOGLE", "types": ["finance", "point_of_interest", "establishment"], "vicinity": "6425 Christie Avenue, Emeryville"}, "ChIJETmcu5qHj4ARSgI6OxfyK-U": {"geometry": {"location": {"lat": 37.8440257, "lng": -122.2955038}, "viewport": {"northeast": {"lat": 37.8453746802915, "lng": -122.2941548197085}, "southwest": {"lat": 37.8426767197085, "lng": -122.2968527802915}}}, "icon": "https://maps.gstatic.com/mapfiles/place_api/icons/generic_business-71.png", "id": "a59a191c831aabc5cfb5aefa14694ed1ea79d58c", "name": "The Cal Agents Realty Inc.", "opening_hours": {"open_now": false}, "photos": [{"height": 1050, "html_attributions": ["<a href=\"https://maps.google.com/maps/contrib/108520273268121867381/photos\">The Cal Agents Realty Inc.</a>"], "photo_reference": "CmRaAAAAN4nR2GdISBD9Dd7nx2GZ_LHS_Eqyeuy-PYYzfodaEB3hElRRiJjd2i7Up1YPIwRMBuoZ_s35GvskZwMQlMLa6oU3hxtjAHtrMEh1Du9naCa8_O0W9qXifpIZHd88Tf9jEhDM2WgU6LW9rVFURW3LTKdQGhRo2eBMeIBjB09Qf-Z4sv6rvK0NBg", "width": 1680}], "place_id": "ChIJETmcu5qHj4ARSgI6OxfyK-U", "rating": 5, "reference": "ChIJETmcu5qHj4ARSgI6OxfyK-U", "scope": "GOOGLE", "types": ["real_estate_agency", "point_of_interest", "establishment"], "vicinity": "6400 Christie ave, Ground Floor Commercial, Emeryville"}, "ChIJX4Jzmml-hYARsN-4fL6G4uE": {"geometry": {"location": {"lat": 37.8440252, "lng": -122.2962677}, "viewport": {"northeast": {"lat": 37.84546308029149, "lng": -122.2951086197085}, "southwest": {"lat": 37.8427651197085, "lng": -122.2978065802915}}}, "icon": "https://maps.gstatic.com/mapfiles/place_api/icons/generic_business-71.png", "id": "679ab2835550e61e8d01d3d3b5f787d6818c5399", "name": "Backbone Entertainment", "place_id": "ChIJX4Jzmml-hYARsN-4fL6G4uE", "plus_code": {"compound_code": "RPV3+JF Emeryville, California, United States", "global_code": "849VRPV3+JF"}, "rating": 5, "reference": "ChIJX4Jzmml-hYARsN-4fL6G4uE", "scope": "GOOGLE", "types": ["point_of_interest", "establishment"], "vicinity": "6425 Christie Avenue, Emeryville"}, "ChIJU85KcFl-hYAR7Jzf2Bx-B8Q": {"geometry": {"location": {"lat": 37.84393, "lng": -122.2964225}, "viewport": {"northeast": {"lat": 37.84518033029149, "lng": -122.2951482197085}, "southwest": {"lat": 37.84248236970849, "lng": -122.2978461802915}}}, "icon": "https://maps.gstatic.com/mapfiles/place_api/icons/generic_business-71.png", "id": "630fbc477f5e5163707b5a9c25300d3a25c14bce", "name": "Children First Medical Group", "opening_hours": {"open_now": false}, "photos": [{"height": 423, "html_attributions": ["<a href=\"https://maps.google.com/maps/contrib/107272917053556722900/photos\">Children First Medical Group</a>"], "photo_reference": "CmRaAAAA82osg1l1C3hgCV81TddkZ1DjXPCtQVmzSNWwHHJ1m_jFMYyA7Gm8wzh9R6gxdqrYADYZuV9M9pPFTnQoXdNUG4oh8KNmqeu18G4R98UKQm-q0x9dID4MpoixdMvE-qeGEhBV5Jl6RRwqKNLEVnIik-1vGhSbhAkEgVnc3z0OjwH65EE7ghtdcQ", "width": 973}], "place_id": "ChIJU85KcFl-hYAR7Jzf2Bx-B8Q", "plus_code": {"compound_code": "RPV3+HC Emeryville, California, United States", "global_code": "849VRPV3+HC"}, "reference": "ChIJU85KcFl-hYAR7Jzf2Bx-B8Q", "scope": "GOOGLE", "types": ["health", "point_of_interest", "establishment"], "vicinity": "6425 Christie Avenue #110, Emeryville"}, "ChIJU85KcFl-hYARNOUwj2RR-Fs": {"geometry": {"location": {"lat": 37.84393, "lng": -122.2964225}, "viewport": {"northeast": {"lat": 37.84518033029149, "lng": -122.2951482197085}, "southwest": {"lat": 37.84248236970849, "lng": -122.2978461802915}}}, "icon": "https://maps.gstatic.com/mapfiles/place_api/icons/generic_business-71.png", "id": "01f9050d0547938745f8dba09056a1aec9b00241", "name": "Bio Soteria Inc", "place_id": "ChIJU85KcFl-hYARNOUwj2RR-Fs", "plus_code": {"compound_code": "RPV3+HC Emeryville, California, United States", "global_code": "849VRPV3+HC"}, "reference": "ChIJU85KcFl-hYARNOUwj2RR-Fs", "scope": "GOOGLE", "types": ["health", "point_of_interest", "establishment"], "vicinity": "6425 Christie Avenue, Emeryville"}, "ChIJuxfdZVl-hYARmORdkOPomQE": {"geometry": {"location": {"lat": 37.8440461, "lng": -122.2954704}, "viewport": {"northeast": {"lat": 37.8454273302915, "lng": -122.2943225197085}, "southwest": {"lat": 37.8427293697085, "lng": -122.2970204802915}}}, "icon": "https://maps.gstatic.com/mapfiles/place_api/icons/restaurant-71.png", "id": "0365258b59b36fb568f55ee66a82d1ccc58e1b4b", "name": "Emery Bay North LLC", "place_id": "ChIJuxfdZVl-hYARmORdkOPomQE", "plus_code": {"compound_code": "RPV3+JR Emeryville, California, United States", "global_code": "849VRPV3+JR"}, "reference": "ChIJuxfdZVl-hYARmORdkOPomQE", "scope": "GOOGLE", "types": ["restaurant", "point_of_interest", "food", "establishment"], "vicinity": "6400 Christie Avenue # 2105, Emeryville"}, "ChIJqX3TZFl-hYAR4hXCgfBwy-c": {"geometry": {"location": {"lat": 37.843706, "lng": -122.295826}, "viewport": {"northeast": {"lat": 37.84505498029149, "lng": -122.2944770197085}, "southwest": {"lat": 37.8423570197085, "lng": -122.2971749802915}}}, "icon": "https://maps.gstatic.com/mapfiles/place_api/icons/bus-71.png", "id": "ac9ac1db91850681b55d9a3715efd5bb943c38b8", "name": "Christie Ave. at 64th St.", "place_id": "ChIJqX3TZFl-hYAR4hXCgfBwy-c", "plus_code": {"compound_code": "RPV3+FM Emeryville, California, United States", "global_code": "849VRPV3+FM"}, "reference": "ChIJqX3TZFl-hYAR4hXCgfBwy-c", "scope": "GOOGLE", "types": ["bus_station", "transit_station", "point_of_interest", "establishment"], "vicinity": "United States"}, "ChIJR7-4gFt-hYARxIT4rKKg2iA": {"geometry": {"location": {"lat": 37.8437972, "lng": -122.2960536}, "viewport": {"northeast": {"lat": 37.84517228029149, "lng": -122.2945742197085}, "southwest": {"lat": 37.84247431970849, "lng": -122.2972721802915}}}, "icon": "https://maps.gstatic.com/mapfiles/place_api/icons/generic_business-71.png", "id": "e48211ea6a7903f6cd8ad52da358dbb647af3318", "name": "Dct Industrial Trust Inc", "place_id": "ChIJR7-4gFt-hYARxIT4rKKg2iA", "plus_code": {"compound_code": "RPV3+GH Emeryville, California, United States", "global_code": "849VRPV3+GH"}, "reference": "ChIJR7-4gFt-hYARxIT4rKKg2iA", "scope": "GOOGLE", "types": ["real_estate_agency", "point_of_interest", "establishment"], "vicinity": "6425 Christie Avenue Suite 255, Emeryville"}, "ChIJuxfdZVl-hYARCudx1jSdQa0": {"geometry": {"location": {"lat": 37.8439743, "lng": -122.295557}, "viewport": {"northeast": {"lat": 37.8452973302915, "lng": -122.2943376697085}, "southwest": {"lat": 37.8425993697085, "lng": -122.2970356302915}}}, "icon": "https://maps.gstatic.com/mapfiles/place_api/icons/generic_business-71.png", "id": "a347a2a59d53c3d8bc238c49e65b78983ab45955", "name": "Wanda Van De Griend, PT", "place_id": "ChIJuxfdZVl-hYARCudx1jSdQa0", "plus_code": {"compound_code": "RPV3+HQ Emeryville, California, United States", "global_code": "849VRPV3+HQ"}, "rating": 1, "reference": "ChIJuxfdZVl-hYARCudx1jSdQa0", "scope": "GOOGLE", "types": ["physiotherapist", "health", "point_of_interest", "establishment"], "vicinity": "6400 Christie Avenue, Emeryville"}, "ChIJSYerd1l-hYARwsn3c4abHq4": {"geometry": {"location": {"lat": 37.8440046, "lng": -122.2962426}, "viewport": {"northeast": {"lat": 37.8453912302915, "lng": -122.2947057697085}, "southwest": {"lat": 37.8426932697085, "lng": -122.2974037302915}}}, "icon": "https://maps.gstatic.com/mapfiles/place_api/icons/generic_business-71.png", "id": "6a0d5983f26ddff5857cf834355b5a86044d8cbf", "name": "Theos work UCSF", "place_id": "ChIJSYerd1l-hYARwsn3c4abHq4", "plus_code": {"compound_code": "RPV3+JG Emeryville, California, United States", "global_code": "849VRPV3+JG"}, "reference": "ChIJSYerd1l-hYARwsn3c4abHq4", "scope": "GOOGLE", "types": ["point_of_interest", "establishment"], "vicinity": "6425 Christie Avenue, Emeryville"}, "ChIJTfzQdll-hYARvdCfSHzjNHo": {"geometry": {"location": {"lat": 37.8440175, "lng": -122.2962574}, "viewport": {"northeast": {"lat": 37.8454581302915, "lng": -122.2951042697085}, "southwest": {"lat": 37.8427601697085, "lng": -122.2978022302915}}}, "icon": "https://maps.gstatic.com/mapfiles/place_api/icons/generic_business-71.png", "id": "5b8de172b33f4761910f6b04904621762189019e", "name": "Ontellus", "opening_hours": {"open_now": false}, "photos": [{"height": 500, "html_attributions": ["<a href=\"https://maps.google.com/maps/contrib/100521904913599870379/photos\">Ontellus</a>"], "photo_reference": "CmRaAAAArUAxtwNz6SSwAxqGqonbf3xjE4E3UjXpdRdTMbZAD69aOBrrCFP39xyaeR7EVgDJLid9lenuNva4TU8P4WJfV9lK__CRN90Fz9j_XVsSdUPT1F9C70Z844EQ-aGlkEdrEhD_HaZ6okm0gr4yFZJwPrHOGhTsy_J2ipk-Jny56nkdaZHsJEWl8A", "width": 500}], "place_id": "ChIJTfzQdll-hYARvdCfSHzjNHo", "plus_code": {"compound_code": "RPV3+JF Emeryville, California, United States", "global_code": "849VRPV3+JF"}, "reference": "ChIJTfzQdll-hYARvdCfSHzjNHo", "scope": "GOOGLE", "types": ["storage", "point_of_interest", "establishment"], "vicinity": "6425 Christie Avenue #260, Emeryville"}, "ChIJIXXZcVl-hYARPfFAM4ObbUc": {"geometry": {"location": {"lat": 37.84415199999999, "lng": -122.295886}, "viewport": {"northeast": {"lat": 37.84550098029149, "lng": -122.2945370197085}, "southwest": {"lat": 37.84280301970849, "lng": -122.2972349802915}}}, "icon": "https://maps.gstatic.com/mapfiles/place_api/icons/generic_business-71.png", "id": "5629a92bf6b06871308238d5d138c5d79ad16097", "name": "Christie St:64th St", "place_id": "ChIJIXXZcVl-hYARPfFAM4ObbUc", "plus_code": {"compound_code": "RPV3+MJ Emeryville, California, United States", "global_code": "849VRPV3+MJ"}, "reference": "ChIJIXXZcVl-hYARPfFAM4ObbUc", "scope": "GOOGLE", "types": ["transit_station", "point_of_interest", "establishment"], "vicinity": "United States"}, "ChIJs44f6hR-hYARB3GwqDEYHUg": {"geometry": {"location": {"lat": 37.831316, "lng": -122.2852473}, "viewport": {"northeast": {"lat": 37.8499259, "lng": -122.276123}, "southwest": {"lat": 37.8268948, "lng": -122.3154701}}}, "icon": "https://maps.gstatic.com/mapfiles/place_api/icons/geocode-71.png", "id": "50264385d03c71c7c39b656a05a99231106dfb05", "name": "Emeryville", "photos": [{"height": 3024, "html_attributions": ["<a href=\"https://maps.google.com/maps/contrib/105925452919882592532/photos\">Rene&#39; Bennett</a>"], "photo_reference": "CmRaAAAALXNhQeXd1s8xMbHeVfPs6sfH32nh3mj5DElU4PtFNcRewepgTd_TKdji-yl8WKZOdNLiXmQyxlUnG2y3CcW3bGaw0daE8r2gozKAszF-Vad-ObpiDGKFaEgi4SrAEKJsEhDqPYmaShFLC0PhHJwgAXRuGhQkHdWytGyOFM88jXzVJehAfuL4Vw", "width": 4032}], "place_id": "ChIJs44f6hR-hYARB3GwqDEYHUg", "reference": "ChIJs44f6hR-hYARB3GwqDEYHUg", "scope": "GOOGLE", "types": ["locality", "political"], "vicinity": "Emeryville"}}