{"ChIJ7WMOJIJ-hYARoWka-0iaA5s": {"geometry": {"location": {"lat": 37.8620208, "lng": -122.2671955}, "viewport": {"northeast": {"lat": 37.8633697802915, "lng": -122.2658465197085}, "southwest": {"lat": 37.8606718197085, "lng": -122.2685444802915}}}, "icon": "https://maps.gstatic.com/mapfiles/place_api/icons/geocode-71.png", "id": "a4b4466d9df371ab11fc126e1b4ac94dda1516cc", "name": "2600 Shattuck Ave", "place_id": "ChIJ7WMOJIJ-hYARoWka-0iaA5s", "reference": "ChIJ7WMOJIJ-hYARoWka-0iaA5s", "scope": "GOOGLE", "types": ["route"], "vicinity": "Berkeley"}, "ChIJfRw8PYJ-hYAREIwJ_P_nvrk": {"geometry": {"location": {"lat": 37.8624561, "lng": -122.2667765}, "viewport": {"northeast": {"lat": 37.8637925302915, "lng": -122.2655971697085}, "southwest": {"lat": 37.8610945697085, "lng": -122.2682951302915}}}, "icon": "https://maps.gstatic.com/mapfiles/place_api/icons/shopping-71.png", "id": "b9a0475bdd1b6a514825f5dea241f280df5bec7b", "name": "Viking Trader", "opening_hours": {"open_now": false}, "photos": [{"height": 350, "html_attributions": ["<a href=\"https://maps.google.com/maps/contrib/103453340711844863802/photos\">Viking Trader</a>"], "photo_reference": "CmRaAAAAdSdl5jDKtSRSCVPjwjQALtBXP6jWkMbgpfU44nOpr__Nq5XBHFZ2EJLqxB31wCLe2_imOBo7clE-5zrPIlmu9ZGmzmY1QVCsed6eOQtuJm-Bw1VqAc5G7dr-trhZEmEaEhDmeMTRs_rNYSlWjgdMd6gCGhQzjZwTEj1UyjP7wAJPA-1OtICPbQ", "width": 650}], "place_id": "ChIJfRw8PYJ-hYAREIwJ_P_nvrk", "plus_code": {"compound_code": "VP6M+X7 Berkeley, California, United States", "global_code": "849VVP6M+X7"}, "rating": 4.3, "reference": "ChIJfRw8PYJ-hYAREIwJ_P_nvrk", "scope": "GOOGLE", "types": ["furniture_store", "home_goods_store", "store", "point_of_interest", "establishment"], "vicinity": "2585 Shattuck Avenue, Berkeley"}, "ChIJ3VsuN4J-hYARmVPFzB0UW9A": {"geometry": {"location": {"lat": 37.8624505, "lng": -122.2676263}, "viewport": {"northeast": {"lat": 37.8638081802915, "lng": -122.2661290697085}, "southwest": {"lat": 37.86111021970851, "lng": -122.2688270302915}}}, "icon": "https://maps.gstatic.com/mapfiles/place_api/icons/generic_business-71.png", "id": "2499523715c6c386a357a63a7c0a9aa277f370df", "name": "Magnets for Healing: Biomagnetism at Integrated Energy Therapies", "photos": [{"height": 384, "html_attributions": ["<a href=\"https://maps.google.com/maps/contrib/110317439798578791490/photos\">Magnets for Healing: Biomagnetism at Integrated Energy Therapies</a>"], "photo_reference": "CmRaAAAAgbLO4D4ZIZNeftnS7Bb5-xlnO8SL2I2cDhf0beWJd3A1y3Ixw_duebihLHDYEIjIdP3hHu_btFub2OkBs1_2kaHDPqQYTAO-w96-XfqqKd_4tJ-ptezD9wjx8F8qUi9fEhBTjAXKF0D7qYHxupDnDGYfGhQLm89TMWEChWO-s7fPy3pr7YhazA", "width": 512}], "place_id": "ChIJ3VsuN4J-hYARmVPFzB0UW9A", "plus_code": {"compound_code": "VP6J+XW Berkeley, California, United States", "global_code": "849VVP6J+XW"}, "reference": "ChIJ3VsuN4J-hYARmVPFzB0UW9A", "scope": "GOOGLE", "types": ["health", "point_of_interest", "establishment"], "vicinity": "2576 Shattuck Avenue Suite # 9, Berkeley"}, "ChIJ3VsuN4J-hYARnFJpCsn-ogY": {"geometry": {"location": {"lat": 37.862447, "lng": -122.267658}, "viewport": {"northeast": {"lat": 37.8638064802915, "lng": -122.2661449197085}, "southwest": {"lat": 37.8611085197085, "lng": -122.2688428802915}}}, "icon": "https://maps.gstatic.com/mapfiles/place_api/icons/generic_business-71.png", "id": "fc9702efc26a302ae9ce9f7573caedcec1bde46c", "name": "Transpersonal Integrated Energy Therapies", "place_id": "ChIJ3VsuN4J-hYARnFJpCsn-ogY", "plus_code": {"compound_code": "VP6J+XW Berkeley, California, United States", "global_code": "849VVP6J+XW"}, "reference": "ChIJ3VsuN4J-hYARnFJpCsn-ogY", "scope": "GOOGLE", "types": ["health", "point_of_interest", "establishment"], "vicinity": "2576 Shattuck Avenue Suite # 9, Berkeley"}, "ChIJx1suN4J-hYAR6hPsnE251Qk": {"geometry": {"location": {"lat": 37.8624471, "lng": -122.2676579}, "viewport": {"northeast": {"lat": 37.8638870802915, "lng": -122.2664001697085}, "southwest": {"lat": 37.8611891197085, "lng": -122.2690981302915}}}, "icon": "https://maps.gstatic.com/mapfiles/place_api/icons/generic_business-71.png", "id": "7544bb247d8a81080e752afbed8a53b31e7a222f", "name": "Flores Consulting", "place_id": "ChIJx1suN4J-hYAR6hPsnE251Qk", "plus_code": {"compound_code": "VP6J+XW Berkeley, California, United States", "global_code": "849VVP6J+XW"}, "reference": "ChIJx1suN4J-hYAR6hPsnE251Qk", "scope": "GOOGLE", "types": ["point_of_interest", "establishment"], "vicinity": "2576 Shattuck Avenue #11, Berkeley"}, "ChIJUxFRKIJ-hYARzp65F74uvro": {"geometry": {"location": {"lat": 37.861656, "lng": -122.2676637}, "viewport": {"northeast": {"lat": 37.8632170802915, "lng": -122.2663575197085}, "southwest": {"lat": 37.8605191197085, "lng": -122.2690554802915}}}, "icon": "https://maps.gstatic.com/mapfiles/place_api/icons/generic_business-71.png", "id": "3a56060e8c21ac61ce2bd3fb6bb8e2ad047e7b20", "name": "Parker Berkeley", "place_id": "ChIJUxFRKIJ-hYARzp65F74uvro", "plus_code": {"compound_code": "VP6J+MW Berkeley, California, United States", "global_code": "849VVP6J+MW"}, "reference": "ChIJUxFRKIJ-hYARzp65F74uvro", "scope": "GOOGLE", "types": ["point_of_interest", "establishment"], "vicinity": "2038 Parker Street, Berkeley"}, "ChIJ3VsuN4J-hYARCkUrra0GwT8": {"geometry": {"location": {"lat": 37.8624505, "lng": -122.2676263}, "viewport": {"northeast": {"lat": 37.8638126302915, "lng": -122.2661296697085}, "southwest": {"lat": 37.8611146697085, "lng": -122.2688276302915}}}, "icon": "https://maps.gstatic.com/mapfiles/place_api/icons/generic_business-71.png", "id": "9326e7b2c211afe303a181221a6b77d1442dfdd6", "name": "David L. Raughton, MFT", "place_id": "ChIJ3VsuN4J-hYARCkUrra0GwT8", "plus_code": {"compound_code": "VP6J+XW Berkeley, California, United States", "global_code": "849VVP6J+XW"}, "reference": "ChIJ3VsuN4J-hYARCkUrra0GwT8", "scope": "GOOGLE", "types": ["doctor", "health", "point_of_interest", "establishment"], "vicinity": "2576 Shattuck Avenue, Berkeley"}, "ChIJ3VsuN4J-hYAR92oFEodXHEY": {"geometry": {"location": {"lat": 37.8624505, "lng": -122.2676263}, "viewport": {"northeast": {"lat": 37.8638126302915, "lng": -122.2661296697085}, "southwest": {"lat": 37.8611146697085, "lng": -122.2688276302915}}}, "icon": "https://maps.gstatic.com/mapfiles/place_api/icons/generic_business-71.png", "id": "db4548e1a2abfc572e39c7bea48df5870599af76", "name": "Brenna Stein, PHD", "place_id": "ChIJ3VsuN4J-hYAR92oFEodXHEY", "plus_code": {"compound_code": "VP6J+XW Berkeley, California, United States", "global_code": "849VVP6J+XW"}, "reference": "ChIJ3VsuN4J-hYAR92oFEodXHEY", "scope": "GOOGLE", "types": ["health", "point_of_interest", "establishment"], "vicinity": "2576 Shattuck Avenue, Berkeley"}, "ChIJ3VsuN4J-hYAR9jZW1b7EZ-Q": {"geometry": {"location": {"lat": 37.8624505, "lng": -122.2676263}, "viewport": {"northeast": {"lat": 37.8638080802915, "lng": -122.2661290697085}, "southwest": {"lat": 37.8611101197085, "lng": -122.2688270302915}}}, "icon": "https://maps.gstatic.com/mapfiles/place_api/icons/generic_business-71.png", "id": "dac188497780ef711ef344ceff11abe3b25b08d9", "name": "Raeburn Susan PHD", "place_id": "ChIJ3VsuN4J-hYAR9jZW1b7EZ-Q", "plus_code": {"compound_code": "VP6J+XW Berkeley, California, United States", "global_code": "849VVP6J+XW"}, "reference": "ChIJ3VsuN4J-hYAR9jZW1b7EZ-Q", "scope": "GOOGLE", "types": ["health", "point_of_interest", "establishment"], "vicinity": "2576 Shattuck Avenue, Berkeley"}, "ChIJod_7I4J-hYARGQvmT0tlzRA": {"geometry": {"location": {"lat": 37.8620095, "lng": -122.2671385}, "viewport": {"northeast": {"lat": 37.8633584802915, "lng": -122.2657895197085}, "southwest": {"lat": 37.8606605197085, "lng": -122.2684874802915}}}, "icon": "https://maps.gstatic.com/mapfiles/place_api/icons/generic_business-71.png", "id": "0a3c6f56e37a1fc75b4f90582693501654406f3c", "name": "Shattuck Av:Parker St", "place_id": "ChIJod_7I4J-hYARGQvmT0tlzRA", "plus_code": {"compound_code": "VP6M+R4 Berkeley, California, United States", "global_code": "849VVP6M+R4"}, "reference": "ChIJod_7I4J-hYARGQvmT0tlzRA", "scope": "GOOGLE", "types": ["transit_station", "point_of_interest", "establishment"], "vicinity": "United States"}, "ChIJiW6cJoJ-hYARsukMKKut7Rk": {"geometry": {"location": {"lat": 37.861927, "lng": -122.267279}, "viewport": {"northeast": {"lat": 37.8632759802915, "lng": -122.2659300197085}, "southwest": {"lat": 37.86057801970851, "lng": -122.2686279802915}}}, "icon": "https://maps.gstatic.com/mapfiles/place_api/icons/bus-71.png", "id": "e7649836f8d9a3c0f7724acd02adbb547973e0d8", "name": "Shattuck Av:Parker St", "place_id": "ChIJiW6cJoJ-hYARsukMKKut7Rk", "plus_code": {"compound_code": "VP6M+Q3 Berkeley, California, United States", "global_code": "849VVP6M+Q3"}, "reference": "ChIJiW6cJoJ-hYARsukMKKut7Rk", "scope": "GOOGLE", "types": ["bus_station", "transit_station", "point_of_interest", "establishment"], "vicinity": "United States"}, "ChIJa0V-IYJ-hYARZNrfnrYaUFk": {"geometry": {"location": {"lat": 37.862092, "lng": -122.266998}, "viewport": {"northeast": {"lat": 37.8634409802915, "lng": -122.2656490197085}, "southwest": {"lat": 37.8607430197085, "lng": -122.2683469802915}}}, "icon": "https://maps.gstatic.com/mapfiles/place_api/icons/bus-71.png", "id": "99a1234e997ef59b3d7d5d4374580d96cf593279", "name": "Shattuck Av:Parker St", "place_id": "ChIJa0V-IYJ-hYARZNrfnrYaUFk", "plus_code": {"compound_code": "VP6M+R6 Berkeley, California, United States", "global_code": "849VVP6M+R6"}, "reference": "ChIJa0V-IYJ-hYARZNrfnrYaUFk", "scope": "GOOGLE", "types": ["bus_station", "transit_station", "point_of_interest", "establishment"], "vicinity": "United States"}, "ChIJXWtHlH9-hYAR5sHzoMLSPBE": {"geometry": {"location": {"lat": 37.8619566, "lng": -122.2676657}, "viewport": {"northeast": {"lat": 37.86303718029149, "lng": -122.2660527697085}, "southwest": {"lat": 37.8603392197085, "lng": -122.2687507302915}}}, "icon": "https://maps.gstatic.com/mapfiles/place_api/icons/generic_business-71.png", "id": "ae9ed11d98afd1df4206708a8de5655b1b7adb52", "name": "Equinox Berkeley", "opening_hours": {"open_now": true}, "photos": [{"height": 4032, "html_attributions": ["<a href=\"https://maps.google.com/maps/contrib/110196974606068957051/photos\">\u738b\u79c9\u5f18Ping-Hong Wang</a>"], "photo_reference": "CmRaAAAASN5ls0RSyF6YGf6xj28yAAhMMMu_uaQ8dyPa91e0SRMsRtbfXZGQJo6ZatADcSvLC9Mp6ia2xRoRgki3vrB-N_RHfAXkaInt1b5srtC7HSzN9sr4pwxC-8OqLtWbzQpcEhChPSudhETHKzG-2R3ObSCOGhQzXix0XgYJGVBvahc-fJW3TAWU4w", "width": 3024}], "place_id": "ChIJXWtHlH9-hYAR5sHzoMLSPBE", "plus_code": {"compound_code": "VP6J+QW Berkeley, California, United States", "global_code": "849VVP6J+QW"}, "rating": 4, "reference": "ChIJXWtHlH9-hYAR5sHzoMLSPBE", "scope": "GOOGLE", "types": ["gym", "health", "point_of_interest", "establishment"], "vicinity": "3223, 2600 Shattuck Avenue, Berkeley"}, "ChIJ3VsuN4J-hYARBVPQi8vlRyo": {"geometry": {"location": {"lat": 37.862447, "lng": -122.267658}, "viewport": {"northeast": {"lat": 37.8638870302915, "lng": -122.2664002197085}, "southwest": {"lat": 37.8611890697085, "lng": -122.2690981802915}}}, "icon": "https://maps.gstatic.com/mapfiles/place_api/icons/generic_business-71.png", "id": "892f59c735be5e1151d783857cc9a523d7df88ae", "name": "Clark Thomas L", "place_id": "ChIJ3VsuN4J-hYARBVPQi8vlRyo", "plus_code": {"compound_code": "VP6J+XW Berkeley, California, United States", "global_code": "849VVP6J+XW"}, "reference": "ChIJ3VsuN4J-hYARBVPQi8vlRyo", "scope": "GOOGLE", "types": ["doctor", "health", "point_of_interest", "establishment"], "vicinity": "2576 Shattuck Avenue, Berkeley"}, "ChIJd9yQOoJ-hYARZLx-ARptMv8": {"geometry": {"location": {"lat": 37.861656, "lng": -122.2676637}, "viewport": {"northeast": {"lat": 37.8632170802915, "lng": -122.2663575197085}, "southwest": {"lat": 37.8605191197085, "lng": -122.2690554802915}}}, "icon": "https://maps.gstatic.com/mapfiles/place_api/icons/generic_business-71.png", "id": "c8f36d7cc4483142f8a1fbd53365aa58f41545cd", "name": "Parker Apartments", "opening_hours": {"open_now": false}, "photos": [{"height": 3678, "html_attributions": ["<a href=\"https://maps.google.com/maps/contrib/102844598608092286357/photos\">LCP360 Production</a>"], "photo_reference": "CmRZAAAAjQeeCfB0Ch-DfOrVejWdrc5rv8UpAK1ucs8Nve9ozg04ZgnyKihzvn0HzhaPZcWgewIIB7jWmopdhC5c2EbwTw8dZiz-P5HHV3fKK9RMNm7BI4K0HYZlj69rHJmtf21XEhAgvBe3eDwh-zS-gr-K-1vaGhSacYhd8gnfEstk-x6JjPQiUFRPtA", "width": 5532}], "place_id": "ChIJd9yQOoJ-hYARZLx-ARptMv8", "plus_code": {"compound_code": "VP6J+MW Berkeley, California, United States", "global_code": "849VVP6J+MW"}, "rating": 4.3, "reference": "ChIJd9yQOoJ-hYARZLx-ARptMv8", "scope": "GOOGLE", "types": ["real_estate_agency", "point_of_interest", "establishment"], "vicinity": "2038 Parker Street, Berkeley"}, "ChIJO79NKIJ-hYARpbg-uoG_Oxs": {"geometry": {"location": {"lat": 37.86162929999999, "lng": -122.2676766}, "viewport": {"northeast": {"lat": 37.86299418029149, "lng": -122.2660694197085}, "southwest": {"lat": 37.86029621970849, "lng": -122.2687673802915}}}, "icon": "https://maps.gstatic.com/mapfiles/place_api/icons/generic_business-71.png", "id": "c40b083427ea1e5d299784980f3b89143964f21e", "name": "Zipcar", "opening_hours": {"open_now": true}, "photos": [{"height": 499, "html_attributions": ["<a href=\"https://maps.google.com/maps/contrib/106596185941568841302/photos\">Zipcar</a>"], "photo_reference": "CmRaAAAAdGBZKWKW_j1ABvXs1kO_4i4292Tp9wF5rSd1N6_J3YHgCh0rU5Qyjw_1p1-hSKQmzuBvubhXReWnQkzs71C2Gex_fDSNf4t5ERCS3oRRCNoVO9UIxKWgR4uBkX0MT2hEEhDdzqX4JYr0WTtMZW1P2nPmGhQTprMZFA-s1tBxSsV-cCN4AR67SA", "width": 499}], "place_id": "ChIJO79NKIJ-hYARpbg-uoG_Oxs", "plus_code": {"compound_code": "VP6J+MW Berkeley, California, United States", "global_code": "849VVP6J+MW"}, "reference": "ChIJO79NKIJ-hYARpbg-uoG_Oxs", "scope": "GOOGLE", "types": ["car_rental", "point_of_interest", "establishment"], "vicinity": "2600 Shattuck Avenue, Berkeley"}, "ChIJF7LBioF-hYARG35hw_wRJ3A": {"geometry": {"location": {"lat": 37.8616635, "lng": -122.2667875}, "viewport": {"northeast": {"lat": 37.86300463029149, "lng": -122.2655579197085}, "southwest": {"lat": 37.8603066697085, "lng": -122.2682558802915}}}, "icon": "https://maps.gstatic.com/mapfiles/place_api/icons/generic_business-71.png", "id": "fb06a5e7070183f74395dff27dd24d8a4c9a21d4", "name": "Wick's", "place_id": "ChIJF7LBioF-hYARG35hw_wRJ3A", "plus_code": {"compound_code": "VP6M+M7 Berkeley, California, United States", "global_code": "849VVP6M+M7"}, "reference": "ChIJF7LBioF-hYARG35hw_wRJ3A", "scope": "GOOGLE", "types": ["point_of_interest", "establishment"], "vicinity": "2615 Shattuck Avenue, Berkeley"}, "ChIJ3VsuN4J-hYARFYPgzeyiIok": {"geometry": {"location": {"lat": 37.862447, "lng": -122.267658}, "viewport": {"northeast": {"lat": 37.8638870302915, "lng": -122.2664002197085}, "southwest": {"lat": 37.8611890697085, "lng": -122.2690981802915}}}, "icon": "https://maps.gstatic.com/mapfiles/place_api/icons/generic_business-71.png", "id": "6ed7e84714c6422527946d0528d4f020c42ae765", "name": "Karen Baughman Educational", "place_id": "ChIJ3VsuN4J-hYARFYPgzeyiIok", "plus_code": {"compound_code": "VP6J+XW Berkeley, California, United States", "global_code": "849VVP6J+XW"}, "reference": "ChIJ3VsuN4J-hYARFYPgzeyiIok", "scope": "GOOGLE", "types": ["point_of_interest", "establishment"], "vicinity": "2576 Shattuck Avenue, Berkeley"}, "ChIJ3VsuN4J-hYARviVKVh1L8dc": {"geometry": {"location": {"lat": 37.862447, "lng": -122.267658}, "viewport": {"northeast": {"lat": 37.8638870302915, "lng": -122.2664002197085}, "southwest": {"lat": 37.8611890697085, "lng": -122.2690981802915}}}, "icon": "https://maps.gstatic.com/mapfiles/place_api/icons/generic_business-71.png", "id": "f01324eb7fdc84340538bb2675f5c2693e079dac", "name": "H. Ameeta Singh", "place_id": "ChIJ3VsuN4J-hYARviVKVh1L8dc", "plus_code": {"compound_code": "VP6J+XW Berkeley, California, United States", "global_code": "849VVP6J+XW"}, "reference": "ChIJ3VsuN4J-hYARviVKVh1L8dc", "scope": "GOOGLE", "types": ["health", "point_of_interest", "establishment"], "vicinity": "2576 Shattuck Avenue, Berkeley"}, "ChIJ00mFOjZ5hYARk-l1ppUV6pQ": {"geometry": {"location": {"lat": 37.8715926, "lng": -122.272747}, "viewport": {"northeast": {"lat": 37.9058239, "lng": -122.234179}, "southwest": {"lat": 37.835727, "lng": -122.367781}}}, "icon": "https://maps.gstatic.com/mapfiles/place_api/icons/geocode-71.png", "id": "00741fe572fc4084428ab206e1a55830f6a1bf0a", "name": "Berkeley", "photos": [{"height": 1080, "html_attributions": ["<a href=\"https://maps.google.com/maps/contrib/110244590763501513798/photos\">miao hsin sun</a>"], "photo_reference": "CmRaAAAAglKiU32NgKw1sApzRz6xqlOYBC6QR1tZgL5e_AG2DGHhfeQyOdT4zq8yCLmzIMsoh311AHA6ldAERF4XVwn-TfISTSkyrhwrMXQafaOvtgv49E2RISYyxK1dgaXSquZ0EhDp5t2MB8w1SaN10xDw0qXHGhRYKLu8N-NudJnvwZMJFBd-2Z239g", "width": 1616}], "place_id": "ChIJ00mFOjZ5hYARk-l1ppUV6pQ", "reference": "ChIJ00mFOjZ5hYARk-l1ppUV6pQ", "scope": "GOOGLE", "types": ["locality", "political"], "vicinity": "Berkeley"}, "ChIJ3VsuN4J-hYARn50ePWs9msU": {"geometry": {"location": {"lat": 37.862447, "lng": -122.267658}, "viewport": {"northeast": {"lat": 37.8638870302915, "lng": -122.2664002197085}, "southwest": {"lat": 37.8611890697085, "lng": -122.2690981802915}}}, "icon": "https://maps.gstatic.com/mapfiles/place_api/icons/generic_business-71.png", "id": "b0d21eeb5cf5d937d6b5c1b86fbeec240e151470", "name": "Heather Collins, LCSW", "photos": [{"height": 1439, "html_attributions": ["<a href=\"https://maps.google.com/maps/contrib/105329688575825732642/photos\">Heather Collins, LCSW</a>"], "photo_reference": "CmRaAAAAMRk9OJ8DW4k28-qz4rX4ISBO1g6Z8JYUiR55aNjt66Acig1molqo8vMBqTKTNt6mWZbTt6OcA56BXLMcT6QN9gU263P5iGfrIGV3UlnhSIa998Oz4MVuVxfMbueqikO3EhBN_mhfLAsdwoBbd6XaKrXDGhTaKrOSi9gDbqXeVsOwZ494pPrnGw", "width": 1440}], "place_id": "ChIJ3VsuN4J-hYARn50ePWs9msU", "plus_code": {"compound_code": "VP6J+XW Berkeley, California, United States", "global_code": "849VVP6J+XW"}, "reference": "ChIJ3VsuN4J-hYARn50ePWs9msU", "scope": "GOOGLE", "types": ["health", "point_of_interest", "establishment"], "vicinity": "2724, 2576 Shattuck Avenue Suite #4, Berkeley"}, "ChIJ3VsuN4J-hYAR3qga4eGoh0Y": {"geometry": {"location": {"lat": 37.862447, "lng": -122.267658}, "viewport": {"northeast": {"lat": 37.8638063302915, "lng": -122.2661449197085}, "southwest": {"lat": 37.8611083697085, "lng": -122.2688428802915}}}, "icon": "https://maps.gstatic.com/mapfiles/place_api/icons/generic_business-71.png", "id": "f524227eefa87b8dbbf5640ed1a7b155ef1d7bd0", "name": "Kanner Allen D PhD", "place_id": "ChIJ3VsuN4J-hYAR3qga4eGoh0Y", "plus_code": {"compound_code": "VP6J+XW Berkeley, California, United States", "global_code": "849VVP6J+XW"}, "reference": "ChIJ3VsuN4J-hYAR3qga4eGoh0Y", "scope": "GOOGLE", "types": ["health", "point_of_interest", "establishment"], "vicinity": "2576 Shattuck Avenue, Berkeley"}, "ChIJ3VsuN4J-hYAR_at92a9mh0s": {"geometry": {"location": {"lat": 37.862447, "lng": -122.267658}, "viewport": {"northeast": {"lat": 37.8638870302915, "lng": -122.2664002197085}, "southwest": {"lat": 37.8611890697085, "lng": -122.2690981802915}}}, "icon": "https://maps.gstatic.com/mapfiles/place_api/icons/generic_business-71.png", "id": "d1a41b9c3621889a51e8efc4cc919591889bbd51", "name": "Clark Johanna", "place_id": "ChIJ3VsuN4J-hYAR_at92a9mh0s", "plus_code": {"compound_code": "VP6J+XW Berkeley, California, United States", "global_code": "849VVP6J+XW"}, "reference": "ChIJ3VsuN4J-hYAR_at92a9mh0s", "scope": "GOOGLE", "types": ["health", "point_of_interest", "establishment"], "vicinity": "925 The Alameda #14, Berkeley"}, "ChIJewOLh4F-hYARs_-1rZj8NHI": {"geometry": {"location": {"lat": 37.8615324, "lng": -122.267613}, "viewport": {"northeast": {"lat": 37.8628956302915, "lng": -122.2660326697085}, "southwest": {"lat": 37.8601976697085, "lng": -122.2687306302915}}}, "icon": "https://maps.gstatic.com/mapfiles/place_api/icons/generic_business-71.png", "id": "bd68f9c92413548717d0ea681bf75334196af97c", "name": "ChargePoint Charging Station", "place_id": "ChIJewOLh4F-hYARs_-1rZj8NHI", "plus_code": {"compound_code": "VP6J+JX Berkeley, California, United States", "global_code": "849VVP6J+JX"}, "reference": "ChIJewOLh4F-hYARs_-1rZj8NHI", "scope": "GOOGLE", "types": ["point_of_interest", "establishment"], "vicinity": "2600 Shattuck Avenue, Berkeley"}}