{"ChIJI40rSmh-hYARIcXF_7NY2OM": {"geometry": {"location": {"lat": 37.8393701, "lng": -122.2864942}, "viewport": {"northeast": {"lat": 37.8407190802915, "lng": -122.2851451697085}, "southwest": {"lat": 37.8380211197085, "lng": -122.2878431302915}}}, "icon": "https://maps.gstatic.com/mapfiles/place_api/icons/geocode-71.png", "id": "872981923abd2063c40c889f1946de0b846820a3", "name": "1307-1301 Stanford Ave", "place_id": "ChIJI40rSmh-hYARIcXF_7NY2OM", "reference": "ChIJI40rSmh-hYARIcXF_7NY2OM", "scope": "GOOGLE", "types": ["route"], "vicinity": "Emeryville"}, "ChIJGU-rtWl-hYARjDjX4wLHToQ": {"geometry": {"location": {"lat": 37.8389333, "lng": -122.2864557}, "viewport": {"northeast": {"lat": 37.8403070802915, "lng": -122.2849898197085}, "southwest": {"lat": 37.8376091197085, "lng": -122.2876877802915}}}, "icon": "https://maps.gstatic.com/mapfiles/place_api/icons/school-71.png", "id": "3fbc4c1555bbfda3d28f69e72da71ad5551c6fed", "name": "Axes of E'ville", "opening_hours": {"open_now": true}, "place_id": "ChIJGU-rtWl-hYARjDjX4wLHToQ", "plus_code": {"compound_code": "RPQ7+HC Emeryville, California, United States", "global_code": "849VRPQ7+HC"}, "rating": 4.5, "reference": "ChIJGU-rtWl-hYARjDjX4wLHToQ", "scope": "GOOGLE", "types": ["point_of_interest", "school", "establishment"], "vicinity": "5531 Beaudry Street, Emeryville"}, "ChIJM3aYOWh-hYARVcIJEq8oOAI": {"geometry": {"location": {"lat": 37.839672, "lng": -122.286921}, "viewport": {"northeast": {"lat": 37.8411614802915, "lng": -122.2856182197085}, "southwest": {"lat": 37.8384635197085, "lng": -122.2883161802915}}}, "icon": "https://maps.gstatic.com/mapfiles/place_api/icons/generic_business-71.png", "id": "82c584097b18be22b70dc5e3b7f70bf0ad5733a6", "name": "Becherer Kannett & Schweitzer", "place_id": "ChIJM3aYOWh-hYARVcIJEq8oOAI", "plus_code": {"compound_code": "RPQ7+V6 Emeryville, California, United States", "global_code": "849VRPQ7+V6"}, "reference": "ChIJM3aYOWh-hYARVcIJEq8oOAI", "scope": "GOOGLE", "types": ["lawyer", "point_of_interest", "establishment"], "vicinity": "1255 Powell Street, Emeryville"}, "ChIJM3aYOWh-hYAREmTJzoIrcVg": {"geometry": {"location": {"lat": 37.839672, "lng": -122.286921}, "viewport": {"northeast": {"lat": 37.8411614802915, "lng": -122.2856182197085}, "southwest": {"lat": 37.8384635197085, "lng": -122.2883161802915}}}, "icon": "https://maps.gstatic.com/mapfiles/place_api/icons/generic_business-71.png", "id": "9e93b775a8c5c56e9abfe798fcc6f01a4d41320e", "name": "Becherer Kannett & Schweitzer: Bergstrom Emily D", "place_id": "ChIJM3aYOWh-hYAREmTJzoIrcVg", "plus_code": {"compound_code": "RPQ7+V6 Emeryville, California, United States", "global_code": "849VRPQ7+V6"}, "reference": "ChIJM3aYOWh-hYAREmTJzoIrcVg", "scope": "GOOGLE", "types": ["lawyer", "point_of_interest", "establishment"], "vicinity": "1255 Powell Street, Emeryville"}, "ChIJkyaMaRV-hYAREsPtt24HODY": {"geometry": {"location": {"lat": 37.83904829999999, "lng": -122.2867089}, "viewport": {"northeast": {"lat": 37.8403515802915, "lng": -122.2855732697085}, "southwest": {"lat": 37.8376536197085, "lng": -122.2882712302915}}}, "icon": "https://maps.gstatic.com/mapfiles/place_api/icons/generic_business-71.png", "id": "8f0d146ebacb725cf9694202b099228a240a068a", "name": "Icon at Doyle Apartments", "opening_hours": {"open_now": false}, "photos": [{"height": 1230, "html_attributions": ["<a href=\"https://maps.google.com/maps/contrib/110634406582017616876/photos\">Icon at Doyle Apartments</a>"], "photo_reference": "CmRaAAAAZbVF-IxejbytKPLLs9Ql-nNBvUQcTircZptDRoTpnxjEYkIxSsm3U0fdhXpG-O-UXaH0HBIDsbHnoq8aypURkfkAy4pfLvGTU1aqII0pRT16AsCvDsL0cNEY9a8TsfNrEhAFIiA8TbOWRsf_bGwKtCTFGhRivyFiPm-iiboZlS3KYghmdXLnKw", "width": 2048}], "place_id": "ChIJkyaMaRV-hYAREsPtt24HODY", "plus_code": {"compound_code": "RPQ7+J8 Emeryville, California, United States", "global_code": "849VRPQ7+J8"}, "rating": 3.7, "reference": "ChIJkyaMaRV-hYAREsPtt24HODY", "scope": "GOOGLE", "types": ["point_of_interest", "establishment"], "vicinity": "5540 Doyle Street, Emeryville"}, "ChIJM3aYOWh-hYARhuqO6XZv3O8": {"geometry": {"location": {"lat": 37.8397064, "lng": -122.2867879}, "viewport": {"northeast": {"lat": 37.84119253029151, "lng": -122.2854840197085}, "southwest": {"lat": 37.83849456970851, "lng": -122.2881819802915}}}, "icon": "https://maps.gstatic.com/mapfiles/place_api/icons/generic_business-71.png", "id": "a8ce44f39546602eff6a5ddfa1aa1ec434994673", "name": "Shahrad Milanfar - Mediator", "opening_hours": {"open_now": false}, "place_id": "ChIJM3aYOWh-hYARhuqO6XZv3O8", "reference": "ChIJM3aYOWh-hYARhuqO6XZv3O8", "scope": "GOOGLE", "types": ["lawyer", "point_of_interest", "establishment"], "vicinity": "1255 Powell Street, Emeryville"}, "ChIJM3aYOWh-hYARBY1joeSjZwc": {"geometry": {"location": {"lat": 37.83973369999999, "lng": -122.2867887}, "viewport": {"northeast": {"lat": 37.84120698029149, "lng": -122.2854806197085}, "southwest": {"lat": 37.83850901970849, "lng": -122.2881785802915}}}, "icon": "https://maps.gstatic.com/mapfiles/place_api/icons/generic_business-71.png", "id": "902ae7cf52087c1ab6eac97e0d209515ff8bfa36", "name": "Angus \u201cSandy\u201d MacLeod", "place_id": "ChIJM3aYOWh-hYARBY1joeSjZwc", "plus_code": {"compound_code": "RPQ7+V7 Emeryville, California, United States", "global_code": "849VRPQ7+V7"}, "reference": "ChIJM3aYOWh-hYARBY1joeSjZwc", "scope": "GOOGLE", "types": ["lawyer", "point_of_interest", "establishment"], "vicinity": "The Water Tower, 1255 Powell Street, Emeryville"}, "ChIJ7dOfzGl-hYARxcq0wwI09Z4": {"geometry": {"location": {"lat": 37.8389549, "lng": -122.2869014}, "viewport": {"northeast": {"lat": 37.84028058029151, "lng": -122.2856612197085}, "southwest": {"lat": 37.83758261970851, "lng": -122.2883591802915}}}, "icon": "https://maps.gstatic.com/mapfiles/place_api/icons/generic_business-71.png", "id": "f179215a76b80827dd72021b6278a3d888675335", "name": "Loeb Insights", "place_id": "ChIJ7dOfzGl-hYARxcq0wwI09Z4", "plus_code": {"compound_code": "RPQ7+H6 Emeryville, California, United States", "global_code": "849VRPQ7+H6"}, "reference": "ChIJ7dOfzGl-hYARxcq0wwI09Z4", "scope": "GOOGLE", "types": ["point_of_interest", "establishment"], "vicinity": "5540 Doyle Street, Emeryville"}, "ChIJi7UfSWh-hYARGddTlEnVr6o": {"geometry": {"location": {"lat": 37.8394392, "lng": -122.2865664}, "viewport": {"northeast": {"lat": 37.8409090802915, "lng": -122.2850502697085}, "southwest": {"lat": 37.8382111197085, "lng": -122.2877482302915}}}, "icon": "https://maps.gstatic.com/mapfiles/place_api/icons/generic_recreational-71.png", "id": "2fc5d01554bc258465e787a829de57e884648223", "name": "Stanford Av Park", "place_id": "ChIJi7UfSWh-hYARGddTlEnVr6o", "reference": "ChIJi7UfSWh-hYARGddTlEnVr6o", "scope": "GOOGLE", "types": ["park", "premise", "point_of_interest", "establishment"], "vicinity": "Emeryville"}, "ChIJA-2qKIt9hYARZ5N1NdUVtHE": {"geometry": {"location": {"lat": 37.8043637, "lng": -122.2711137}, "viewport": {"northeast": {"lat": 37.88472489999999, "lng": -122.114775}, "southwest": {"lat": 37.6322259, "lng": -122.355881}}}, "icon": "https://maps.gstatic.com/mapfiles/place_api/icons/geocode-71.png", "id": "da4a4da21e013f9d3a24e8eee6d4f84de02148d3", "name": "Oakland", "photos": [{"height": 2848, "html_attributions": ["<a href=\"https://maps.google.com/maps/contrib/113300206259949994494/photos\">Cimino Alberto</a>"], "photo_reference": "CmRaAAAAdejJ86RoPJNf5HNJnpAAK9lpwqM6onM8owS1mn0GwHIswKyWxaTEZhqQu5Hwuqzw_2jH6QznMFT3qf3gVctS0er7unLjv2XDzpFsJW99CH6doAGJfAHTG6A8oHRTo-TAEhCjmATdH4jkJkSdK7YBcD95GhTj-VZeDzQb3dLmb-uHUPXpHlHG1A", "width": 4256}], "place_id": "ChIJA-2qKIt9hYARZ5N1NdUVtHE", "reference": "ChIJA-2qKIt9hYARZ5N1NdUVtHE", "scope": "GOOGLE", "types": ["locality", "political"], "vicinity": "Oakland"}}