{"ChIJxQozMdF9hYAREb3id4RAAmM": {"geometry": {"location": {"lat": 37.8530797, "lng": -122.2592094}, "viewport": {"northeast": {"lat": 37.8544286802915, "lng": -122.257499}, "southwest": {"lat": 37.85173071970851, "lng": -122.2609198}}}, "icon": "https://maps.gstatic.com/mapfiles/place_api/icons/geocode-71.png", "id": "267e7c99fd2140ff8af2f0b4f72d82ae7ea654e9", "name": "2399-2337 Woolsey St", "place_id": "ChIJxQozMdF9hYAREb3id4RAAmM", "reference": "ChIJxQozMdF9hYAREb3id4RAAmM", "scope": "GOOGLE", "types": ["route"], "vicinity": "Berkeley"}, "ChIJ73EIy9Z9hYARX19hqw9lr5U": {"geometry": {"location": {"lat": 37.8531154, "lng": -122.2599194}, "viewport": {"northeast": {"lat": 37.8544001802915, "lng": -122.2586367697085}, "southwest": {"lat": 37.8517022197085, "lng": -122.2613347302915}}}, "icon": "https://maps.gstatic.com/mapfiles/place_api/icons/restaurant-71.png", "id": "ecee312291d187c7ec25f7fe5e9d95c1f864cc61", "name": "Smokehouse", "opening_hours": {"open_now": true}, "photos": [{"height": 3036, "html_attributions": ["<a href=\"https://maps.google.com/maps/contrib/114249720405212933972/photos\">nadia a</a>"], "photo_reference": "CmRaAAAAZjdqrh5FrWZqYMtnRPmbCK7AbbyoC6ZyvlUjCj5SDFtN-4KR01UGVSePuOrIey44-bHrDmoB_IdKoWMho-BzD9A25by4m0CF9ZAeYj8Jy0aLzcQaMy4P_ZnvYZE7oAI8EhA5VMMN7gEwrM9F_7CV7gGDGhQHNBNx9RkJxq_dqgcEXiqncjTI7Q", "width": 4048}], "place_id": "ChIJ73EIy9Z9hYARX19hqw9lr5U", "plus_code": {"compound_code": "VP3R+62 Berkeley, California, United States", "global_code": "849VVP3R+62"}, "price_level": 1, "rating": 4.3, "reference": "ChIJ73EIy9Z9hYARX19hqw9lr5U", "scope": "GOOGLE", "types": ["restaurant", "point_of_interest", "food", "establishment"], "vicinity": "3115 Telegraph Avenue, Berkeley"}, "ChIJjWLDzdZ9hYARDi5ae0D61nU": {"geometry": {"location": {"lat": 37.8526241, "lng": -122.2599164}, "viewport": {"northeast": {"lat": 37.85398438029149, "lng": -122.2586948697085}, "southwest": {"lat": 37.85128641970849, "lng": -122.2613928302915}}}, "icon": "https://maps.gstatic.com/mapfiles/place_api/icons/shopping-71.png", "id": "936ed63b72526e624dc0aab4d65390a7e5e45b43", "name": "Custom Kitchens by John Wilkins, Inc.", "opening_hours": {"open_now": false}, "photos": [{"height": 3646, "html_attributions": ["<a href=\"https://maps.google.com/maps/contrib/108988340404914906158/photos\">Custom Kitchens by John Wilkins, Inc.</a>"], "photo_reference": "CmRaAAAAbQmVF6drr3dsvDBJku0k5R5L2KqngSLzQbXMDvoZLecMguGz1F7EACvTn0U8ladBW_6ticKLCemwP_GLq9Z5lkzJiVwwh6SoxwsTZHmCbc0_V7m6q6PtiuYQHNS4c65mEhBdDDi5G3DtZyqDoJQ0eO0vGhTCg1-pXFaNO7OBD9VPIzmWJPjanQ", "width": 5374}], "place_id": "ChIJjWLDzdZ9hYARDi5ae0D61nU", "rating": 5, "reference": "ChIJjWLDzdZ9hYARDi5ae0D61nU", "scope": "GOOGLE", "types": ["home_goods_store", "store", "general_contractor", "point_of_interest", "establishment"], "vicinity": "6624 Telegraph Avenue, Oakland"}, "ChIJcXWxztZ9hYAR-ogUNjUoTJU": {"geometry": {"location": {"lat": 37.8528461, "lng": -122.2598315}, "viewport": {"northeast": {"lat": 37.8542298302915, "lng": -122.2586105197085}, "southwest": {"lat": 37.8515318697085, "lng": -122.2613084802915}}}, "icon": "https://maps.gstatic.com/mapfiles/place_api/icons/shopping-71.png", "id": "f09c247399df1c8571f598851f54c3c6c1b8b66f", "name": "Telegraph Hardware", "opening_hours": {"open_now": false}, "photos": [{"height": 3264, "html_attributions": ["<a href=\"https://maps.google.com/maps/contrib/102418028147528341580/photos\">Brian Witt</a>"], "photo_reference": "CmRaAAAAFDZLE2UnWYJeIpn-VIAMSVey--Q9P9U_dfZp7AhYgg46nY8axeVPxZay7d7Tc8GUWnv0L-QJfC3KFPQPtEcN8ObdEV7ZoSt5cLECaHMKCJuSAQ0ZNob2GDiBlwLUcx_-EhC0SKymm4mzOZeZUORO5_LpGhQ_YIDeBSkCM0z3GMHczO6fiU9A2Q", "width": 2448}], "place_id": "ChIJcXWxztZ9hYAR-ogUNjUoTJU", "plus_code": {"compound_code": "VP3R+43 Oakland, California, United States", "global_code": "849VVP3R+43"}, "price_level": 2, "rating": 4.6, "reference": "ChIJcXWxztZ9hYAR-ogUNjUoTJU", "scope": "GOOGLE", "types": ["hardware_store", "home_goods_store", "store", "point_of_interest", "establishment"], "vicinity": "6640 Telegraph Avenue, Oakland"}, "ChIJ18NiftN9hYARBSBaLjKm4U4": {"geometry": {"location": {"lat": 37.8529712, "lng": -122.2601381}, "viewport": {"northeast": {"lat": 37.8543203302915, "lng": -122.2587942197085}, "southwest": {"lat": 37.8516223697085, "lng": -122.2614921802915}}}, "icon": "https://maps.gstatic.com/mapfiles/place_api/icons/generic_business-71.png", "id": "deaf45429f51e2cf8a6cc46c4be3e8e5d841223d", "name": "Dr. Grace Carlson, M.D., MBA", "opening_hours": {"open_now": false}, "place_id": "ChIJ18NiftN9hYARBSBaLjKm4U4", "plus_code": {"compound_code": "VP3Q+5W Berkeley, California, United States", "global_code": "849VVP3Q+5W"}, "reference": "ChIJ18NiftN9hYARBSBaLjKm4U4", "scope": "GOOGLE", "types": ["doctor", "health", "point_of_interest", "establishment"], "vicinity": "2850 Telegraph Avenue #130, Berkeley"}, "ChIJj-Vx0tZ9hYARImCxBjQMAu0": {"geometry": {"location": {"lat": 37.8525386, "lng": -122.2600073}, "viewport": {"northeast": {"lat": 37.8538954302915, "lng": -122.2587468697085}, "southwest": {"lat": 37.8511974697085, "lng": -122.2614448302915}}}, "icon": "https://maps.gstatic.com/mapfiles/place_api/icons/generic_business-71.png", "id": "2ef8855cfda9ee7dc4c8d39a44bec731e3c9707a", "name": "Patricia Becker, PhD Psychotherapy & Consultation", "opening_hours": {"open_now": false}, "place_id": "ChIJj-Vx0tZ9hYARImCxBjQMAu0", "plus_code": {"compound_code": "VP3Q+2X Oakland, California, United States", "global_code": "849VVP3Q+2X"}, "reference": "ChIJj-Vx0tZ9hYARImCxBjQMAu0", "scope": "GOOGLE", "types": ["health", "point_of_interest", "establishment"], "vicinity": "3120 Telegraph Avenue, Berkeley"}, "ChIJu1fJzdZ9hYARZFZd26okIYg": {"geometry": {"location": {"lat": 37.8527039, "lng": -122.2600119}, "viewport": {"northeast": {"lat": 37.8540594802915, "lng": -122.2587376197085}, "southwest": {"lat": 37.8513615197085, "lng": -122.2614355802915}}}, "icon": "https://maps.gstatic.com/mapfiles/place_api/icons/generic_business-71.png", "id": "90c96a1b265a925af44a3a1c64a01290c439fb53", "name": "A Royal Nail Spa", "opening_hours": {"open_now": true}, "place_id": "ChIJu1fJzdZ9hYARZFZd26okIYg", "plus_code": {"compound_code": "VP3Q+3X Oakland, California, United States", "global_code": "849VVP3Q+3X"}, "rating": 4.5, "reference": "ChIJu1fJzdZ9hYARZFZd26okIYg", "scope": "GOOGLE", "types": ["beauty_salon", "point_of_interest", "establishment"], "vicinity": "6632 Telegraph Avenue, Oakland"}, "ChIJk1rzy9Z9hYARZgWJEeE5C2c": {"geometry": {"location": {"lat": 37.8528785, "lng": -122.259986}, "viewport": {"northeast": {"lat": 37.8542761302915, "lng": -122.2586471697085}, "southwest": {"lat": 37.8515781697085, "lng": -122.2613451302915}}}, "icon": "https://maps.gstatic.com/mapfiles/place_api/icons/shopping-71.png", "id": "a78bf4a4dea4ec6e048a2e76be1cc2dc3e8f279b", "name": "Fuller Obrien Paint", "place_id": "ChIJk1rzy9Z9hYARZgWJEeE5C2c", "plus_code": {"compound_code": "VP3R+52 Berkeley, California, United States", "global_code": "849VVP3R+52"}, "reference": "ChIJk1rzy9Z9hYARZgWJEeE5C2c", "scope": "GOOGLE", "types": ["home_goods_store", "store", "point_of_interest", "establishment"], "vicinity": "2354 Woolsey Street, Berkeley"}, "ChIJM39yc9R9hYARImUC48QoV_A": {"geometry": {"location": {"lat": 37.8532276, "lng": -122.2598869}, "viewport": {"northeast": {"lat": 37.8545823302915, "lng": -122.2586092197085}, "southwest": {"lat": 37.8518843697085, "lng": -122.2613071802915}}}, "icon": "https://maps.gstatic.com/mapfiles/place_api/icons/generic_business-71.png", "id": "bb4f7b84e23f59ff160286ff9252eb6c5d48e69d", "name": "Inge DeanLMFT", "place_id": "ChIJM39yc9R9hYARImUC48QoV_A", "plus_code": {"compound_code": "VP3R+72 Berkeley, California, United States", "global_code": "849VVP3R+72"}, "reference": "ChIJM39yc9R9hYARImUC48QoV_A", "scope": "GOOGLE", "types": ["doctor", "health", "point_of_interest", "establishment"], "vicinity": "3120 Telegraph Avenue, Berkeley"}, "ChIJp32sudZ9hYARZbQtmO0u5hQ": {"geometry": {"location": {"lat": 37.85317389999999, "lng": -122.2600223}, "viewport": {"northeast": {"lat": 37.85452288029149, "lng": -122.2586733197085}, "southwest": {"lat": 37.8518249197085, "lng": -122.2613712802915}}}, "icon": "https://maps.gstatic.com/mapfiles/place_api/icons/generic_business-71.png", "id": "28c94a15f933b0fd4c37042e6f121e4d0d254e06", "name": "Tuchman Shendl PsyD", "place_id": "ChIJp32sudZ9hYARZbQtmO0u5hQ", "plus_code": {"compound_code": "VP3Q+7X Berkeley, California, United States", "global_code": "849VVP3Q+7X"}, "reference": "ChIJp32sudZ9hYARZbQtmO0u5hQ", "scope": "GOOGLE", "types": ["health", "point_of_interest", "establishment"], "vicinity": "2 Crow Canyon Court #200, San Ramon"}, "ChIJWx06zNZ9hYAROkW4vM1SSlw": {"geometry": {"location": {"lat": 37.8527429, "lng": -122.2600051}, "viewport": {"northeast": {"lat": 37.85409188029149, "lng": -122.2586561197085}, "southwest": {"lat": 37.8513939197085, "lng": -122.2613540802915}}}, "icon": "https://maps.gstatic.com/mapfiles/place_api/icons/generic_business-71.png", "id": "315314680767998a69e2915765c976f10984c5bc", "name": "Bampmacc Tax Services", "place_id": "ChIJWx06zNZ9hYAROkW4vM1SSlw", "plus_code": {"compound_code": "VP3Q+3X Oakland, California, United States", "global_code": "849VVP3Q+3X"}, "reference": "ChIJWx06zNZ9hYAROkW4vM1SSlw", "scope": "GOOGLE", "types": ["accounting", "finance", "point_of_interest", "establishment"], "vicinity": "Oakland"}, "ChIJu3wKNtF9hYARnlH992gp7Go": {"geometry": {"location": {"lat": 37.8532714, "lng": -122.2593309}, "viewport": {"northeast": {"lat": 37.8545193802915, "lng": -122.2579608197085}, "southwest": {"lat": 37.8518214197085, "lng": -122.2606587802915}}}, "icon": "https://maps.gstatic.com/mapfiles/place_api/icons/shopping-71.png", "id": "cd5fe085a3109801fb82724cb3687fa16583d58b", "name": "Rw Points Super Store", "place_id": "ChIJu3wKNtF9hYARnlH992gp7Go", "plus_code": {"compound_code": "VP3R+87 Berkeley, California, United States", "global_code": "849VVP3R+87"}, "reference": "ChIJu3wKNtF9hYARnlH992gp7Go", "scope": "GOOGLE", "types": ["store", "point_of_interest", "establishment"], "vicinity": "2355 Woolsey Street, Berkeley"}, "ChIJGX8mTH9-hYARhMZVwstTCIg": {"geometry": {"location": {"lat": 37.8530781, "lng": -122.2602619}, "viewport": {"northeast": {"lat": 37.8544257802915, "lng": -122.2588709197085}, "southwest": {"lat": 37.8517278197085, "lng": -122.2615688802915}}}, "icon": "https://maps.gstatic.com/mapfiles/place_api/icons/generic_business-71.png", "id": "87a7896f37707f82c8ace83bfcefea73d80bc137", "name": "inge dean LMFT", "place_id": "ChIJGX8mTH9-hYARhMZVwstTCIg", "plus_code": {"compound_code": "VP3Q+6V Berkeley, California, United States", "global_code": "849VVP3Q+6V"}, "reference": "ChIJGX8mTH9-hYARhMZVwstTCIg", "scope": "GOOGLE", "types": ["doctor", "health", "point_of_interest", "establishment"], "vicinity": "3109 Telegraph Avenue, Berkeley"}, "ChIJgfzHyNZ9hYAR5IWf4A9dxyw": {"geometry": {"location": {"lat": 37.8527895, "lng": -122.2603352}, "viewport": {"northeast": {"lat": 37.85421548029149, "lng": -122.2590024197085}, "southwest": {"lat": 37.8515175197085, "lng": -122.2617003802915}}}, "icon": "https://maps.gstatic.com/mapfiles/place_api/icons/generic_business-71.png", "id": "9243969afa2526a6993ae930a2c6c5a0edeed38a", "name": "Telegraph Medical Center", "place_id": "ChIJgfzHyNZ9hYAR5IWf4A9dxyw", "plus_code": {"compound_code": "VP3Q+4V Oakland, California, United States", "global_code": "849VVP3Q+4V"}, "reference": "ChIJgfzHyNZ9hYAR5IWf4A9dxyw", "scope": "GOOGLE", "types": ["doctor", "health", "point_of_interest", "establishment"], "vicinity": "Woolsey Street, Berkeley"}, "ChIJaTJFxtZ9hYARZoYmTVXa7ac": {"geometry": {"location": {"lat": 37.852745, "lng": -122.2603267}, "viewport": {"northeast": {"lat": 37.8540865802915, "lng": -122.2588940697085}, "southwest": {"lat": 37.8513886197085, "lng": -122.2615920302915}}}, "icon": "https://maps.gstatic.com/mapfiles/place_api/icons/generic_business-71.png", "id": "666b82e62679c83b973b8416fd3f741096c368e0", "name": "Paik Susie", "place_id": "ChIJaTJFxtZ9hYARZoYmTVXa7ac", "plus_code": {"compound_code": "VP3Q+3V Oakland, California, United States", "global_code": "849VVP3Q+3V"}, "reference": "ChIJaTJFxtZ9hYARZoYmTVXa7ac", "scope": "GOOGLE", "types": ["point_of_interest", "establishment"], "vicinity": "6699 Telegraph Avenue, Oakland"}, "ChIJaTJFxtZ9hYAR8FPiwHqwXzg": {"geometry": {"location": {"lat": 37.852745, "lng": -122.2603267}, "viewport": {"northeast": {"lat": 37.8540865802915, "lng": -122.2588940697085}, "southwest": {"lat": 37.8513886197085, "lng": -122.2615920302915}}}, "icon": "https://maps.gstatic.com/mapfiles/place_api/icons/generic_business-71.png", "id": "e781948042e598cf9f99e65ec67e02ed5e7f0da7", "name": "Cheng Ernest Y DO", "place_id": "ChIJaTJFxtZ9hYAR8FPiwHqwXzg", "plus_code": {"compound_code": "VP3Q+3V Oakland, California, United States", "global_code": "849VVP3Q+3V"}, "reference": "ChIJaTJFxtZ9hYAR8FPiwHqwXzg", "scope": "GOOGLE", "types": ["health", "point_of_interest", "establishment"], "vicinity": "6699 Telegraph Avenue, Oakland"}, "ChIJA-2qKIt9hYARZ5N1NdUVtHE": {"geometry": {"location": {"lat": 37.8043637, "lng": -122.2711137}, "viewport": {"northeast": {"lat": 37.88472489999999, "lng": -122.114775}, "southwest": {"lat": 37.6322259, "lng": -122.355881}}}, "icon": "https://maps.gstatic.com/mapfiles/place_api/icons/geocode-71.png", "id": "da4a4da21e013f9d3a24e8eee6d4f84de02148d3", "name": "Oakland", "photos": [{"height": 2848, "html_attributions": ["<a href=\"https://maps.google.com/maps/contrib/113300206259949994494/photos\">Cimino Alberto</a>"], "photo_reference": "CmRaAAAAlbW5bnONYzApMBmDQxCpi2VF4hbKrFgMnsWmLCII03npArnF9CGQPLjM2eTMktqM1akr005Al864hxUUU7tr1-zOPAn-voaP4i-nOqjOQdHVVYhhoS8JM7W1U_YhYJpDEhBPm9GRyrcm9ONtjIRX8criGhTdvnn2oMplTEZPoqq0rCmG3nV3Uw", "width": 4256}], "place_id": "ChIJA-2qKIt9hYARZ5N1NdUVtHE", "reference": "ChIJA-2qKIt9hYARZ5N1NdUVtHE", "scope": "GOOGLE", "types": ["locality", "political"], "vicinity": "Oakland"}}