{"ChIJl9klP9N9hYAR7VQuQHKw3ks": {"geometry": {"location": {"lat": 37.85875540000001, "lng": -122.2581295}, "viewport": {"northeast": {"lat": 37.8600791302915, "lng": -122.25576875}, "southwest": {"lat": 37.8573811697085, "lng": -122.26048175}}}, "icon": "https://maps.gstatic.com/mapfiles/place_api/icons/geocode-71.png", "id": "0f6035b06b5616fdc478f480c32e03bb8ca0568b", "name": "2499-2401 Oregon St", "place_id": "ChIJl9klP9N9hYAR7VQuQHKw3ks", "reference": "ChIJl9klP9N9hYAR7VQuQHKw3ks", "scope": "GOOGLE", "types": ["route"], "vicinity": "Berkeley"}, "ChIJNTnrJdN9hYARshrTmifm5X4": {"geometry": {"location": {"lat": 37.859313, "lng": -122.2572307}, "viewport": {"northeast": {"lat": 37.8606699802915, "lng": -122.2557659197085}, "southwest": {"lat": 37.8579720197085, "lng": -122.2584638802915}}}, "icon": "https://maps.gstatic.com/mapfiles/place_api/icons/generic_business-71.png", "id": "b35c6ee4b453ab2510fa0bc6b26146346b26403d", "name": "Sidells Architect", "place_id": "ChIJNTnrJdN9hYARshrTmifm5X4", "plus_code": {"compound_code": "VP5V+P4 Berkeley, California, United States", "global_code": "849VVP5V+P4"}, "reference": "ChIJNTnrJdN9hYARshrTmifm5X4", "scope": "GOOGLE", "types": ["point_of_interest", "establishment"], "vicinity": "2808 Regent Street, Berkeley"}, "ChIJ00mFOjZ5hYARk-l1ppUV6pQ": {"geometry": {"location": {"lat": 37.8715926, "lng": -122.272747}, "viewport": {"northeast": {"lat": 37.9058239, "lng": -122.234179}, "southwest": {"lat": 37.835727, "lng": -122.367781}}}, "icon": "https://maps.gstatic.com/mapfiles/place_api/icons/geocode-71.png", "id": "00741fe572fc4084428ab206e1a55830f6a1bf0a", "name": "Berkeley", "photos": [{"height": 1080, "html_attributions": ["<a href=\"https://maps.google.com/maps/contrib/110244590763501513798/photos\">miao hsin sun</a>"], "photo_reference": "CmRaAAAAom7UZe1V57NdyTEsHxL26ndTKTe62gfkepgTO3R1F2ip0t-k6fi4SXWqnBIfwkvH5Vk_I9dnreBBEW3IS_BlioEocdXpOPof5hyWgb8690lleEP2kHHMM44tfcDtG8ULEhD77ntxIo1EiSMVuozh6OtGGhRgbscOA5dpGH5fLMqh4Q4N2nf9cw", "width": 1616}], "place_id": "ChIJ00mFOjZ5hYARk-l1ppUV6pQ", "reference": "ChIJ00mFOjZ5hYARk-l1ppUV6pQ", "scope": "GOOGLE", "types": ["locality", "political"], "vicinity": "Berkeley"}}