{"ChIJzamKBZ5-hYARtUJMebmKg3Q": {"geometry": {"location": {"lat": 37.8719077, "lng": -122.2660975}, "viewport": {"northeast": {"lat": 37.8732566802915, "lng": -122.2647485197085}, "southwest": {"lat": 37.8705587197085, "lng": -122.2674464802915}}}, "icon": "https://maps.gstatic.com/mapfiles/place_api/icons/geocode-71.png", "id": "3fe7ebac3630c7e95ea0a60905ede679ef4a9b64", "name": "Oxford Street", "place_id": "ChIJzamKBZ5-hYARtUJMebmKg3Q", "reference": "ChIJzamKBZ5-hYARtUJMebmKg3Q", "scope": "GOOGLE", "types": ["route"], "vicinity": "Berkeley"}, "ChIJmyGyEZ5-hYARVvAW93pIS0M": {"geometry": {"location": {"lat": 37.8719032, "lng": -122.2664164}, "viewport": {"northeast": {"lat": 37.8730108302915, "lng": -122.2650192197085}, "southwest": {"lat": 37.8703128697085, "lng": -122.2677171802915}}}, "icon": "https://maps.gstatic.com/mapfiles/place_api/icons/school-71.png", "id": "ae17d8be6442b770f5f40ea6d9a97d066e798ad8", "name": "University Hall", "photos": [{"height": 3002, "html_attributions": ["<a href=\"https://maps.google.com/maps/contrib/115054452041428915714/photos\">Travis Carpenter</a>"], "photo_reference": "CmRaAAAA1Y2ElZldTw4SnHXHMyqjSbICgyyNQdhPX8qfOp9C4J0K8pcW0idVnCxj52jxXGIf_y3B1U1H2fCRmTMM60KMC3NDeIWsRWZy_Pv9utYTRv4PSnB2zmu2ieYRodR5Npa_EhBMHhcaohklrO8Mi05f80k8GhTmI3Mes6Qg3Nvpn66wRjySf0836Q", "width": 3993}], "place_id": "ChIJmyGyEZ5-hYARVvAW93pIS0M", "plus_code": {"compound_code": "VPCM+QC Berkeley, California, United States", "global_code": "849VVPCM+QC"}, "reference": "ChIJmyGyEZ5-hYARVvAW93pIS0M", "scope": "GOOGLE", "types": ["university", "point_of_interest", "establishment"], "vicinity": "2199 Addison Street, Berkeley"}, "ChIJrUVYwyd8hYARPQPnMtVCpz4": {"geometry": {"location": {"lat": 37.8719669, "lng": -122.2663055}, "viewport": {"northeast": {"lat": 37.87351323029151, "lng": -122.2649985197085}, "southwest": {"lat": 37.87081526970851, "lng": -122.2676964802915}}}, "icon": "https://maps.gstatic.com/mapfiles/place_api/icons/generic_business-71.png", "id": "af487fb5f44540db0d9b769227738f3657f4a594", "name": "Dr. Guy G. Micco, MD", "place_id": "ChIJrUVYwyd8hYARPQPnMtVCpz4", "plus_code": {"compound_code": "VPCM+QF Berkeley, California, United States", "global_code": "849VVPCM+QF"}, "reference": "ChIJrUVYwyd8hYARPQPnMtVCpz4", "scope": "GOOGLE", "types": ["doctor", "health", "point_of_interest", "establishment"], "vicinity": "570 University Avenue, Berkeley"}, "ChIJu5Gne51-hYARb5bp7B7y8OA": {"geometry": {"location": {"lat": 37.8718604, "lng": -122.2665423}, "viewport": {"northeast": {"lat": 37.8730832802915, "lng": -122.2651725197085}, "southwest": {"lat": 37.8703853197085, "lng": -122.2678704802915}}}, "icon": "https://maps.gstatic.com/mapfiles/place_api/icons/generic_business-71.png", "id": "2b06be782b44021d48a4d6eb8b6fb34f0f84a6a1", "name": "Labor Occupational Health Program", "opening_hours": {"open_now": true}, "photos": [{"height": 2000, "html_attributions": ["<a href=\"https://maps.google.com/maps/contrib/105408890166553330314/photos\">Labor Occupational Health Program</a>"], "photo_reference": "CmRaAAAAyVe_qPVwHwLMIObIUI2U0DOnoZdEJxQCUvvitk1Zw90geCAa1RZiadVgrYkS9Q6cyeiCsQJCJCZyRizKxlf5xD8SDNECs88XJ63TlmIZMY1QK9tMbIWn0SOzZLbazTBREhBTVLSAjqtHaHHXBvsKbZFJGhTq-n3LnL0U_QpoyMkiDc2YvyjMMw", "width": 3008}], "place_id": "ChIJu5Gne51-hYARb5bp7B7y8OA", "plus_code": {"compound_code": "VPCM+P9 Berkeley, California, United States", "global_code": "849VVPCM+P9"}, "reference": "ChIJu5Gne51-hYARb5bp7B7y8OA", "scope": "GOOGLE", "types": ["health", "point_of_interest", "establishment"], "vicinity": "2199 Addison Street #451, Berkeley"}, "ChIJAQBA7iB8hYARmypi-eXoC_c": {"geometry": {"location": {"lat": 37.8719234, "lng": -122.2663235}, "viewport": {"northeast": {"lat": 37.8730268302915, "lng": -122.2649254697085}, "southwest": {"lat": 37.8703288697085, "lng": -122.2676234302915}}}, "icon": "https://maps.gstatic.com/mapfiles/place_api/icons/school-71.png", "id": "8243f8cac605447a1a230e344b0c1078d2718621", "name": "Academic Talent Development Program", "opening_hours": {"open_now": true}, "photos": [{"height": 1362, "html_attributions": ["<a href=\"https://maps.google.com/maps/contrib/100592087197376731152/photos\">Academic Talent Development Program</a>"], "photo_reference": "CmRaAAAA-XF-VOMhckzDJPwIdbvz1Uwp49MsA5LmRB5TjIfgZiEo4tDiZHXryMKY4v_jJKW1Anucv64lcSVBS2qCEicjOzStzE6qDcgXUqUL4DsIwS11f9uG8-wZA8KbYtKTNq98EhD42_JyPhVNC-RxBPUADEuVGhSUGJ38S7vyyKYUJfczMRV4cIbkOQ", "width": 2048}], "place_id": "ChIJAQBA7iB8hYARmypi-eXoC_c", "plus_code": {"compound_code": "VPCM+QF Berkeley, California, United States", "global_code": "849VVPCM+QF"}, "reference": "ChIJAQBA7iB8hYARmypi-eXoC_c", "scope": "GOOGLE", "types": ["university", "point_of_interest", "establishment"], "vicinity": "2199 Addison Street, Berkeley"}, "ChIJ00vwT5l-hYARKl4DE1cQFaQ": {"geometry": {"location": {"lat": 37.87174259999999, "lng": -122.2666688}, "viewport": {"northeast": {"lat": 37.87309158029149, "lng": -122.2653198197085}, "southwest": {"lat": 37.87039361970849, "lng": -122.2680177802915}}}, "icon": "https://maps.gstatic.com/mapfiles/place_api/icons/civic_building-71.png", "id": "e4eae17c1ad7c4231c956acda53d0fdb795aa4b8", "name": "Health Initiative of the Americas", "place_id": "ChIJ00vwT5l-hYARKl4DE1cQFaQ", "plus_code": {"compound_code": "VPCM+M8 Berkeley, California, United States", "global_code": "849VVPCM+M8"}, "reference": "ChIJ00vwT5l-hYARKl4DE1cQFaQ", "scope": "GOOGLE", "types": ["local_government_office", "health", "point_of_interest", "establishment"], "vicinity": "2199 Addison Street #417, Berkeley"}, "ChIJMQ2oFp5-hYARgWbYPwRggGs": {"geometry": {"location": {"lat": 37.8723555, "lng": -122.2664467}, "viewport": {"northeast": {"lat": 37.8737341302915, "lng": -122.2651040197085}, "southwest": {"lat": 37.8710361697085, "lng": -122.2678019802915}}}, "icon": "https://maps.gstatic.com/mapfiles/place_api/icons/generic_business-71.png", "id": "d896a9c4e56d5ef5de7246086e5c0163d8d9811f", "name": "Ford GoBike Station", "place_id": "ChIJMQ2oFp5-hYARgWbYPwRggGs", "plus_code": {"compound_code": "VPCM+WC Berkeley, California, United States", "global_code": "849VVPCM+WC"}, "reference": "ChIJMQ2oFp5-hYARgWbYPwRggGs", "scope": "GOOGLE", "types": ["point_of_interest", "establishment"], "vicinity": "2188 University Avenue, Berkeley"}, "ChIJk4F5a55-hYARWxVxLDn8OvM": {"geometry": {"location": {"lat": 37.8720824, "lng": -122.2669668}, "viewport": {"northeast": {"lat": 37.8735295802915, "lng": -122.2656388197085}, "southwest": {"lat": 37.8708316197085, "lng": -122.2683367802915}}}, "icon": "https://maps.gstatic.com/mapfiles/place_api/icons/restaurant-71.png", "id": "c584655944c494a4f8d9170caf5be9f9c23125ed", "name": "The Tandoori Nite", "opening_hours": {"open_now": true}, "photos": [{"height": 4032, "html_attributions": ["<a href=\"https://maps.google.com/maps/contrib/115455724899065269648/photos\">Andrew Guenthner</a>"], "photo_reference": "CmRaAAAAdabpfEkzgQ2F-RLry6MOono6B8YblU0qcrot0rh_L9Qu353lFMF0T1cUjTPdL4OfvuyrUlvqvYYPYb3M7SEuGeZ6Ewp9_YPnK3cRGMzxY82oyDit1zvE3wSjfd6zN1JWEhAU4UormGQZeFH0bYCl24KVGhTl7AX_dpU_d4_puqymLhZvAK3Ojg", "width": 3024}], "place_id": "ChIJk4F5a55-hYARWxVxLDn8OvM", "plus_code": {"compound_code": "VPCM+R6 Berkeley, California, United States", "global_code": "849VVPCM+R6"}, "rating": 3.8, "reference": "ChIJk4F5a55-hYARWxVxLDn8OvM", "scope": "GOOGLE", "types": ["restaurant", "point_of_interest", "food", "establishment"], "vicinity": "2160 University Avenue, Berkeley"}, "ChIJWwBXD55-hYARXX13FzmNf4Y": {"geometry": {"location": {"lat": 37.87185639999999, "lng": -122.2661092}, "viewport": {"northeast": {"lat": 37.8732035802915, "lng": -122.2647815197085}, "southwest": {"lat": 37.8705056197085, "lng": -122.2674794802915}}}, "icon": "https://maps.gstatic.com/mapfiles/place_api/icons/generic_business-71.png", "id": "ac27e84f8c30eb507a0d91f964926dd468c617e3", "name": "BikeLink : University Hall", "opening_hours": {"open_now": true}, "place_id": "ChIJWwBXD55-hYARXX13FzmNf4Y", "plus_code": {"compound_code": "VPCM+PH Berkeley, California, United States", "global_code": "849VVPCM+PH"}, "reference": "ChIJWwBXD55-hYARXX13FzmNf4Y", "scope": "GOOGLE", "types": ["parking", "point_of_interest", "establishment"], "vicinity": "2056 Oxford Street, Berkeley"}, "ChIJXwr1EJ5-hYARhvj4bGXjdco": {"geometry": {"location": {"lat": 37.872173, "lng": -122.266204}, "viewport": {"northeast": {"lat": 37.87352198029149, "lng": -122.2648550197085}, "southwest": {"lat": 37.8708240197085, "lng": -122.2675529802915}}}, "icon": "https://maps.gstatic.com/mapfiles/place_api/icons/bus-71.png", "id": "5533d520403c38cecd3bd4f600e242953785f3d4", "name": "Oxford St:University Av", "place_id": "ChIJXwr1EJ5-hYARhvj4bGXjdco", "plus_code": {"compound_code": "VPCM+VG Berkeley, California, United States", "global_code": "849VVPCM+VG"}, "rating": 5, "reference": "ChIJXwr1EJ5-hYARhvj4bGXjdco", "scope": "GOOGLE", "types": ["bus_station", "transit_station", "point_of_interest", "establishment"], "vicinity": "United States"}, "ChIJLz5-lF5_hYAR2A0NYkv5Qk8": {"geometry": {"location": {"lat": 37.87135689999999, "lng": -122.2663592}, "viewport": {"northeast": {"lat": 37.8727320802915, "lng": -122.2650154197085}, "southwest": {"lat": 37.8700341197085, "lng": -122.2677133802915}}}, "icon": "https://maps.gstatic.com/mapfiles/place_api/icons/museum-71.png", "id": "7a41e8d2004de517252ed6a0f54cfb620a89d73b", "name": "UC Berkeley Art Museum and Pacific Film Archive Outdoor Screen", "place_id": "ChIJLz5-lF5_hYAR2A0NYkv5Qk8", "plus_code": {"compound_code": "VPCM+GF Berkeley, California, United States", "global_code": "849VVPCM+GF"}, "reference": "ChIJLz5-lF5_hYAR2A0NYkv5Qk8", "scope": "GOOGLE", "types": ["museum", "point_of_interest", "establishment"], "vicinity": "2155 Addison Street, Berkeley"}, "ChIJTULma55-hYARx3NSm3lcsrg": {"geometry": {"location": {"lat": 37.8720338, "lng": -122.2670443}, "viewport": {"northeast": {"lat": 37.87349958029149, "lng": -122.2657203197085}, "southwest": {"lat": 37.87080161970849, "lng": -122.2684182802915}}}, "icon": "https://maps.gstatic.com/mapfiles/place_api/icons/restaurant-71.png", "id": "4157d17e83281bf3fc63ec5dc816464aeb0493c1", "name": "Simply Bowl", "opening_hours": {"open_now": true}, "photos": [{"height": 3120, "html_attributions": ["<a href=\"https://maps.google.com/maps/contrib/101472686208485465930/photos\">Ethan Woodbury</a>"], "photo_reference": "CmRaAAAArhIWpZbyt-NYDrgdAKnfh4ognTVsiKziyLnEax-gMv893qooX-zhv3ENUzMqU5kfO2N5RfKcJsYVkIBJ0h9xzdSYmcKdr-4lf5XHhxhy8x_H_vF4s4Pi0lEptrf741sKEhBvXNGfYzsebyZVQePLLM4bGhSSPlEzm14bZNfdBigiR2n3hnEuvA", "width": 4160}], "place_id": "ChIJTULma55-hYARx3NSm3lcsrg", "plus_code": {"compound_code": "VPCM+R5 Berkeley, California, United States", "global_code": "849VVPCM+R5"}, "price_level": 1, "rating": 4.4, "reference": "ChIJTULma55-hYARx3NSm3lcsrg", "scope": "GOOGLE", "types": ["restaurant", "point_of_interest", "food", "establishment"], "vicinity": "2156 University Avenue, Berkeley"}, "ChIJF97sa55-hYARyoaDDISjqjM": {"geometry": {"location": {"lat": 37.87203399999999, "lng": -122.2670483}, "viewport": {"northeast": {"lat": 37.8734994302915, "lng": -122.2657242697085}, "southwest": {"lat": 37.8708014697085, "lng": -122.2684222302915}}}, "icon": "https://maps.gstatic.com/mapfiles/place_api/icons/generic_business-71.png", "id": "ae58b6afb8c9c910ab66b1aa8868188e953d67fd", "name": "Homefinders Bulletin", "place_id": "ChIJF97sa55-hYARyoaDDISjqjM", "plus_code": {"compound_code": "VPCM+R5 Berkeley, California, United States", "global_code": "849VVPCM+R5"}, "reference": "ChIJF97sa55-hYARyoaDDISjqjM", "scope": "GOOGLE", "types": ["real_estate_agency", "point_of_interest", "establishment"], "vicinity": "2158 University Avenue, Berkeley"}, "ChIJl73p4J1-hYAR10rTqK6QiV0": {"geometry": {"location": {"lat": 37.871141, "lng": -122.2666574}, "viewport": {"northeast": {"lat": 37.8724899802915, "lng": -122.2653084197085}, "southwest": {"lat": 37.8697920197085, "lng": -122.2680063802915}}}, "icon": "https://maps.gstatic.com/mapfiles/place_api/icons/generic_business-71.png", "id": "6533f981859a0a1c6be5be60d7015806ef122126", "name": "University Hall Structure", "place_id": "ChIJl73p4J1-hYAR10rTqK6QiV0", "reference": "ChIJl73p4J1-hYAR10rTqK6QiV0", "scope": "GOOGLE", "types": ["parking", "premise", "point_of_interest", "establishment"], "vicinity": "Berkeley"}, "ChIJ00mFOjZ5hYARk-l1ppUV6pQ": {"geometry": {"location": {"lat": 37.8715926, "lng": -122.272747}, "viewport": {"northeast": {"lat": 37.9058239, "lng": -122.234179}, "southwest": {"lat": 37.835727, "lng": -122.367781}}}, "icon": "https://maps.gstatic.com/mapfiles/place_api/icons/geocode-71.png", "id": "00741fe572fc4084428ab206e1a55830f6a1bf0a", "name": "Berkeley", "photos": [{"height": 1080, "html_attributions": ["<a href=\"https://maps.google.com/maps/contrib/110244590763501513798/photos\">miao hsin sun</a>"], "photo_reference": "CmRaAAAAHoEeV9Y4SsoMVGyXE-grll6mWtrQ8IvtIbnBQp0LX81rTTptlmEVN850oEH39To5r6qJdacM9mZWBHVICeSvtTfoUPTIMp1v1K8ZIh5jvD5aOsDVWlVB_dTJqIZzEgLQEhDu0sUXhs9cRvVGH_KwbeppGhQibJkmaAfvii0ULv8EhBN5K99-Sw", "width": 1616}], "place_id": "ChIJ00mFOjZ5hYARk-l1ppUV6pQ", "reference": "ChIJ00mFOjZ5hYARk-l1ppUV6pQ", "scope": "GOOGLE", "types": ["locality", "political"], "vicinity": "Berkeley"}}