{"ChIJVV5WdvJ-hYARvwQ8B_ulKCc": {"geometry": {"location": {"lat": 37.8587703, "lng": -122.2917996}, "viewport": {"northeast": {"lat": 37.8601192302915, "lng": -122.2904505697085}, "southwest": {"lat": 37.8574212697085, "lng": -122.2931485302915}}}, "icon": "https://maps.gstatic.com/mapfiles/place_api/icons/geocode-71.png", "id": "324ed25198e5b79cf27b7756c9064efe44dd678a", "name": "999-921 Parker St", "place_id": "ChIJVV5WdvJ-hYARvwQ8B_ulKCc", "reference": "ChIJVV5WdvJ-hYARvwQ8B_ulKCc", "scope": "GOOGLE", "types": ["route"], "vicinity": "Berkeley"}, "ChIJ5ZtoevJ-hYARpMMF11hBWg0": {"geometry": {"location": {"lat": 37.8587398, "lng": -122.291491}, "viewport": {"northeast": {"lat": 37.8601333302915, "lng": -122.2901570697085}, "southwest": {"lat": 37.8574353697085, "lng": -122.2928550302915}}}, "icon": "https://maps.gstatic.com/mapfiles/place_api/icons/generic_business-71.png", "id": "d26096038cc5c06f9ce19e868800009c6f5e83ad", "name": "Nolo", "place_id": "ChIJ5ZtoevJ-hYARpMMF11hBWg0", "plus_code": {"compound_code": "VP55+FC Berkeley, California, United States", "global_code": "849VVP55+FC"}, "rating": 4.8, "reference": "ChIJ5ZtoevJ-hYARpMMF11hBWg0", "scope": "GOOGLE", "types": ["point_of_interest", "establishment"], "vicinity": "950 Parker Street, Berkeley"}, "ChIJhxXzhu1-hYARJLOZHncOAtQ": {"geometry": {"location": {"lat": 37.8591556, "lng": -122.2917051}, "viewport": {"northeast": {"lat": 37.8605394302915, "lng": -122.2901818697085}, "southwest": {"lat": 37.8578414697085, "lng": -122.2928798302915}}}, "icon": "https://maps.gstatic.com/mapfiles/place_api/icons/generic_business-71.png", "id": "167f0b72255d4f2b0fb8d601f1afa28e42813c74", "name": "Deluxe Digital Media, Inc.", "photos": [{"height": 818, "html_attributions": ["<a href=\"https://maps.google.com/maps/contrib/107167351359338233539/photos\">Deluxe Digital Media, Inc.</a>"], "photo_reference": "CmRaAAAA7U269FYelvFQdZknfUCNnmZ73LhN9g8rw2XmufvU-RDow0-RHTrfT_gtHdHQPBWtRm8ANrLs7b7j6ODbeej7uu0m9y9eIA4kIevUD_Q58-zh5E5oZyeXbNI9CmxBaEvnEhDC_0K7HR1ne95Q7K5T0zbTGhRXR96BIGZCzXbXH-5cPUj9fE1U0g", "width": 1116}], "place_id": "ChIJhxXzhu1-hYARJLOZHncOAtQ", "plus_code": {"compound_code": "VP55+M8 Berkeley, California, United States", "global_code": "849VVP55+M8"}, "reference": "ChIJhxXzhu1-hYARJLOZHncOAtQ", "scope": "GOOGLE", "types": ["point_of_interest", "establishment"], "vicinity": "2560 Ninth Street, Berkeley"}, "ChIJiX8Miu1-hYARpVv_WRv-9s0": {"geometry": {"location": {"lat": 37.8588561, "lng": -122.2920259}, "viewport": {"northeast": {"lat": 37.8601427302915, "lng": -122.2906558697085}, "southwest": {"lat": 37.8574447697085, "lng": -122.2933538302915}}}, "icon": "https://maps.gstatic.com/mapfiles/place_api/icons/school-71.png", "id": "d0179631ebeaf8f420c53e3b969846d2ee929b3f", "name": "Ashtanga Yoga Berkeley", "opening_hours": {"open_now": false}, "place_id": "ChIJiX8Miu1-hYARpVv_WRv-9s0", "plus_code": {"compound_code": "VP55+G5 Berkeley, California, United States", "global_code": "849VVP55+G5"}, "rating": 5, "reference": "ChIJiX8Miu1-hYARpVv_WRv-9s0", "scope": "GOOGLE", "types": ["gym", "health", "point_of_interest", "establishment"], "vicinity": "933 Parker Street, Berkeley"}, "ChIJs8whljB-hYARtVJ_yRbm-rY": {"geometry": {"location": {"lat": 37.8584312, "lng": -122.2919686}, "viewport": {"northeast": {"lat": 37.8599217802915, "lng": -122.2906675197085}, "southwest": {"lat": 37.8572238197085, "lng": -122.2933654802915}}}, "icon": "https://maps.gstatic.com/mapfiles/place_api/icons/generic_business-71.png", "id": "9872d829da0d7982269d89ae79f970494c3d0e33", "name": "Ranahan Production Services, Inc.", "opening_hours": {"open_now": false}, "photos": [{"height": 1155, "html_attributions": ["<a href=\"https://maps.google.com/maps/contrib/116391522987532283981/photos\">Ranahan Production Services, Inc.</a>"], "photo_reference": "CmRaAAAAWMTX1-nExnKckoZlTswM_Ly98XCGFuenqmaR_NjCmd7Q18-ienY4Ag4Lidk3XViVLrPmfA8whDN3sRVoRdorHKQk3Ey6-i5fIsysHUrHb1Eb82JHcmVc7BW2zEu5QuRsEhDo7GPVYbhSbEZ4EEKDUuyzGhSvwF5vZBa65As4BJqZNrYbtVU8PA", "width": 1728}], "place_id": "ChIJs8whljB-hYARtVJ_yRbm-rY", "plus_code": {"compound_code": "VP55+96 Berkeley, California, United States", "global_code": "849VVP55+96"}, "rating": 5, "reference": "ChIJs8whljB-hYARtVJ_yRbm-rY", "scope": "GOOGLE", "types": ["point_of_interest", "establishment"], "vicinity": "932 Parker Street #4, Berkeley"}, "ChIJZw79Y_J-hYARHkLOCo71JS0": {"geometry": {"location": {"lat": 37.8581969, "lng": -122.291322}, "viewport": {"northeast": {"lat": 37.85957073029149, "lng": -122.2898400697085}, "southwest": {"lat": 37.8568727697085, "lng": -122.2925380302915}}}, "icon": "https://maps.gstatic.com/mapfiles/place_api/icons/generic_business-71.png", "id": "1b17ae69f4b75721b17dc3bc729ffc6a4f632586", "name": "Berkeley Agency", "place_id": "ChIJZw79Y_J-hYARHkLOCo71JS0", "plus_code": {"compound_code": "VP55+7F Berkeley, California, United States", "global_code": "849VVP55+7F"}, "reference": "ChIJZw79Y_J-hYARHkLOCo71JS0", "scope": "GOOGLE", "types": ["point_of_interest", "establishment"], "vicinity": "2608 Ninth Street #301, Berkeley"}, "ChIJAwQydPJ-hYARhttX61HYzbk": {"geometry": {"location": {"lat": 37.8586515, "lng": -122.2919665}, "viewport": {"northeast": {"lat": 37.8600394802915, "lng": -122.2906307197085}, "southwest": {"lat": 37.8573415197085, "lng": -122.2933286802915}}}, "icon": "https://maps.gstatic.com/mapfiles/place_api/icons/generic_business-71.png", "id": "fa67c30bbce77f5d0479234e1070b867ac1157a5", "name": "Magico LLC", "place_id": "ChIJAwQydPJ-hYARhttX61HYzbk", "plus_code": {"compound_code": "VP55+F6 Berkeley, California, United States", "global_code": "849VVP55+F6"}, "reference": "ChIJAwQydPJ-hYARhttX61HYzbk", "scope": "GOOGLE", "types": ["point_of_interest", "establishment"], "vicinity": "932 Parker Street # 2, Berkeley"}, "ChIJ3SJTe_J-hYARcx40WWQ2sBQ": {"geometry": {"location": {"lat": 37.858467, "lng": -122.291293}, "viewport": {"northeast": {"lat": 37.8598310802915, "lng": -122.2898631197085}, "southwest": {"lat": 37.8571331197085, "lng": -122.2925610802915}}}, "icon": "https://maps.gstatic.com/mapfiles/place_api/icons/generic_business-71.png", "id": "7300f6833500f6024e45d74b38f0e44d727c963d", "name": "The Clock Factory", "opening_hours": {"open_now": false}, "photos": [{"height": 3595, "html_attributions": ["<a href=\"https://maps.google.com/maps/contrib/109881972402012207056/photos\">The Clock Factory</a>"], "photo_reference": "CmRaAAAAb8ay02ADsfMxTw6_egjjPqcw08bZHM8cIzUftgSi60Stg-7ETrrTojvT0urmWjSemnSw7FF_nLL1SvU6zX9nA1YyIcF9oyF-OuIZ5AnD1u0Cxn0Fsw3wcA7UREJF4wxqEhDBwp0ZYUC3L9y_Hedde4IOGhSGnUeKeCnHN-BzJXlYrKUBMh0aeQ", "width": 5392}], "place_id": "ChIJ3SJTe_J-hYARcx40WWQ2sBQ", "plus_code": {"compound_code": "VP55+9F Berkeley, California, United States", "global_code": "849VVP55+9F"}, "rating": 5, "reference": "ChIJ3SJTe_J-hYARcx40WWQ2sBQ", "scope": "GOOGLE", "types": ["electronics_store", "home_goods_store", "store", "point_of_interest", "establishment"], "vicinity": "2602 Ninth Street, Berkeley"}, "ChIJrQeKfPJ-hYARDxnlAxrKMIM": {"geometry": {"location": {"lat": 37.8584266, "lng": -122.2913069}, "viewport": {"northeast": {"lat": 37.85979298029149, "lng": -122.2898647197085}, "southwest": {"lat": 37.8570950197085, "lng": -122.2925626802915}}}, "icon": "https://maps.gstatic.com/mapfiles/place_api/icons/generic_business-71.png", "id": "c4fce069159690821ad138f5d07068a7aee7ae85", "name": "Monohm Inc.", "opening_hours": {"open_now": false}, "photos": [{"height": 354, "html_attributions": ["<a href=\"https://maps.google.com/maps/contrib/110529016027389510095/photos\">Ana Arriola</a>"], "photo_reference": "CmRaAAAAiQMCitUfRjE2pxRTELuDHuGR7d4bQb2jiQP6EiunaFld8-8dUPkH7HWa2BeflkA9O0VNv17aRoDYfuNhjz6bXnQ8nZLrwYy0qjALMVVxsc74xz3X6ALb6tJC6mHdmK2OEhDI0tgU3z4-B7Ra8Jopcm_CGhS9w_sytLVsHP2NYgEGEbJfCl_1iQ", "width": 717}], "place_id": "ChIJrQeKfPJ-hYARDxnlAxrKMIM", "plus_code": {"compound_code": "VP55+9F Berkeley, California, United States", "global_code": "849VVP55+9F"}, "rating": 5, "reference": "ChIJrQeKfPJ-hYARDxnlAxrKMIM", "scope": "GOOGLE", "types": ["point_of_interest", "establishment"], "vicinity": "2602 Ninth Street, Berkeley"}, "ChIJ58uMZPJ-hYARMBQNNQm_AP8": {"geometry": {"location": {"lat": 37.8583211, "lng": -122.2913495}, "viewport": {"northeast": {"lat": 37.8596940802915, "lng": -122.2898721697085}, "southwest": {"lat": 37.8569961197085, "lng": -122.2925701302915}}}, "icon": "https://maps.gstatic.com/mapfiles/place_api/icons/generic_business-71.png", "id": "981f853997b698d7032a08214bfad8080cb82836", "name": "Shaffer Architects", "opening_hours": {"open_now": false}, "place_id": "ChIJ58uMZPJ-hYARMBQNNQm_AP8", "plus_code": {"compound_code": "VP55+8F Berkeley, California, United States", "global_code": "849VVP55+8F"}, "reference": "ChIJ58uMZPJ-hYARMBQNNQm_AP8", "scope": "GOOGLE", "types": ["point_of_interest", "establishment"], "vicinity": "2608 Ninth Street Suite 301, Berkeley"}, "ChIJg88Siu1-hYARZdWPrFnkG0A": {"geometry": {"location": {"lat": 37.8588683, "lng": -122.2920569}, "viewport": {"northeast": {"lat": 37.8601461802915, "lng": -122.2906838697085}, "southwest": {"lat": 37.8574482197085, "lng": -122.2933818302915}}}, "icon": "https://maps.gstatic.com/mapfiles/place_api/icons/generic_business-71.png", "id": "d9504b1950ea6e87bdba74696f7a565708e4b636", "name": "Seamus Berkeley", "place_id": "ChIJg88Siu1-hYARZdWPrFnkG0A", "plus_code": {"compound_code": "VP55+G5 Berkeley, California, United States", "global_code": "849VVP55+G5"}, "reference": "ChIJg88Siu1-hYARZdWPrFnkG0A", "scope": "GOOGLE", "types": ["point_of_interest", "establishment"], "vicinity": "933 Parker Street, Berkeley"}, "ChIJj88Siu1-hYAREqQEUHJZoOs": {"geometry": {"location": {"lat": 37.85886840000001, "lng": -122.2920569}, "viewport": {"northeast": {"lat": 37.8601462802915, "lng": -122.2906838697085}, "southwest": {"lat": 37.8574483197085, "lng": -122.2933818302915}}}, "icon": "https://maps.gstatic.com/mapfiles/place_api/icons/generic_business-71.png", "id": "55c248250c22114daed2bdec0ebc4bb22ea0ec2f", "name": "NORTH BERKELEY COUPLES THERAPY CENTER: East Bay Sex Therapy, Couples Counseling", "photos": [{"height": 3714, "html_attributions": ["<a href=\"https://maps.google.com/maps/contrib/103348286923797033359/photos\">The Couples Therapist</a>"], "photo_reference": "CmRaAAAAzVxMDzaDSd0EPXR1ZC0AMtmEsHzhypxtlOOJvfJPFkm160D-A6h0kp4wGmcGx9l0UThe_2SG4qQ68Xru9WF_2U4txIwc2U8f1SgY-PDHOANhym2A-2i0g1jfb2vEAtthEhBG_0_gLxNxwg_732QxsngWGhQr4w69AxQOwj1Fc4mU4e4e1ZBQAw", "width": 6000}], "place_id": "ChIJj88Siu1-hYAREqQEUHJZoOs", "plus_code": {"compound_code": "VP55+G5 Berkeley, California, United States", "global_code": "849VVP55+G5"}, "rating": 5, "reference": "ChIJj88Siu1-hYAREqQEUHJZoOs", "scope": "GOOGLE", "types": ["doctor", "health", "point_of_interest", "establishment"], "vicinity": "933 Parker Street Studio 38, Berkeley"}, "ChIJHY8GY_J-hYARlTuuPg391i8": {"geometry": {"location": {"lat": 37.85831719999999, "lng": -122.291252}, "viewport": {"northeast": {"lat": 37.8596816302915, "lng": -122.2898202697085}, "southwest": {"lat": 37.8569836697085, "lng": -122.2925182302915}}}, "icon": "https://maps.gstatic.com/mapfiles/place_api/icons/shopping-71.png", "id": "ad7f7bca500fa12637df9e344faaa2f46be4f0b9", "name": "Immedia", "place_id": "ChIJHY8GY_J-hYARlTuuPg391i8", "plus_code": {"compound_code": "VP55+8F Berkeley, California, United States", "global_code": "849VVP55+8F"}, "rating": 5, "reference": "ChIJHY8GY_J-hYARlTuuPg391i8", "scope": "GOOGLE", "types": ["store", "point_of_interest", "establishment"], "vicinity": "2606 Ninth Street, Berkeley"}, "ChIJZw79Y_J-hYARVT09CtOzGIs": {"geometry": {"location": {"lat": 37.858192, "lng": -122.291227}, "viewport": {"northeast": {"lat": 37.8595575302915, "lng": -122.2897893697085}, "southwest": {"lat": 37.8568595697085, "lng": -122.2924873302915}}}, "icon": "https://maps.gstatic.com/mapfiles/place_api/icons/shopping-71.png", "id": "f439de33446680a25a04fe4694b874b6cde58b12", "name": "Saddle Point Systems", "opening_hours": {"open_now": false}, "photos": [{"height": 1440, "html_attributions": ["<a href=\"https://maps.google.com/maps/contrib/106321715812582123012/photos\">Saddle Point Systems</a>"], "photo_reference": "CmRaAAAA0EOigwEA0CqDKWEy9Gv_PqfHhq9woo5oW0w8HsIrYSAwLq_CJNc3VIEcm-e-KzD3VcHoRsbChlaATEfdheGszCTYyD-ybRjUJAOnr6xm3yLLKtJ1P7ox0SjIzhg79V1iEhCTYa9I7Qyr05lmRHvij26TGhRmpoaj689O16jUsq55QXrCnmIk7g", "width": 2560}], "place_id": "ChIJZw79Y_J-hYARVT09CtOzGIs", "reference": "ChIJZw79Y_J-hYARVT09CtOzGIs", "scope": "GOOGLE", "types": ["store", "point_of_interest", "establishment"], "vicinity": "2608 Ninth Street, Berkeley"}, "ChIJA-M9ZPJ-hYAR45dr6VwjrEs": {"geometry": {"location": {"lat": 37.8582019, "lng": -122.2913541}, "viewport": {"northeast": {"lat": 37.8595784302915, "lng": -122.2898576697085}, "southwest": {"lat": 37.85688046970851, "lng": -122.2925556302915}}}, "icon": "https://maps.gstatic.com/mapfiles/place_api/icons/generic_business-71.png", "id": "a1f17c507b1a22bd1e2049aacbb8e5601e622102", "name": "The Action Group", "place_id": "ChIJA-M9ZPJ-hYAR45dr6VwjrEs", "plus_code": {"compound_code": "VP55+7F Berkeley, California, United States", "global_code": "849VVP55+7F"}, "reference": "ChIJA-M9ZPJ-hYAR45dr6VwjrEs", "scope": "GOOGLE", "types": ["point_of_interest", "establishment"], "vicinity": "2608 Ninth Street #201, Berkeley"}, "ChIJZw79Y_J-hYAR37tx8AXQvf8": {"geometry": {"location": {"lat": 37.8581969, "lng": -122.291322}, "viewport": {"northeast": {"lat": 37.85957073029149, "lng": -122.2898400697085}, "southwest": {"lat": 37.8568727697085, "lng": -122.2925380302915}}}, "icon": "https://maps.gstatic.com/mapfiles/place_api/icons/generic_business-71.png", "id": "51e9fe4623cd70045e71bd2d95fe8623798f9089", "name": "Financial Connections Group", "place_id": "ChIJZw79Y_J-hYAR37tx8AXQvf8", "plus_code": {"compound_code": "VP55+7F Berkeley, California, United States", "global_code": "849VVP55+7F"}, "reference": "ChIJZw79Y_J-hYAR37tx8AXQvf8", "scope": "GOOGLE", "types": ["finance", "point_of_interest", "establishment"], "vicinity": "2608 Ninth Street #302, Berkeley"}, "ChIJ25JJ6Ht-hYARgqIoDTjDj9A": {"geometry": {"location": {"lat": 37.858328, "lng": -122.291174}, "viewport": {"northeast": {"lat": 37.8596852302915, "lng": -122.2897807697085}, "southwest": {"lat": 37.8569872697085, "lng": -122.2924787302915}}}, "icon": "https://maps.gstatic.com/mapfiles/place_api/icons/generic_business-71.png", "id": "5c13a51fe3b83b490d1da7eb3c2609981177e5ce", "name": "Ann Maria Celona Custom Homes", "photos": [{"height": 1495, "html_attributions": ["<a href=\"https://maps.google.com/maps/contrib/115700659765575556096/photos\">Ann Maria Celona Custom Homes</a>"], "photo_reference": "CmRaAAAA2TkgfyjuBLkhcqb9QB0e0A6zr75eu7T9hetTl-wWhLrWJCJ8MYtVVZJ_m_3aXnxi26st7uTarYWK6W7HlZUeqLpZSGOtqOQVV2eFn7eH-JSUNjDpIiF8aHz50-isalbSEhDgvQuQd3CBtUCLY29Sa2oCGhTKBQJYzCX6liaX02dolEwKkZgOVg", "width": 1993}], "place_id": "ChIJ25JJ6Ht-hYARgqIoDTjDj9A", "plus_code": {"compound_code": "VP55+8G Berkeley, California, United States", "global_code": "849VVP55+8G"}, "reference": "ChIJ25JJ6Ht-hYARgqIoDTjDj9A", "scope": "GOOGLE", "types": ["point_of_interest", "establishment"], "vicinity": "2608 Ninth Street #301, Berkeley"}, "ChIJ2a_HfvJ-hYAR0IDaj40M2Jk": {"geometry": {"location": {"lat": 37.8588682, "lng": -122.2912095}, "viewport": {"northeast": {"lat": 37.86021108029149, "lng": -122.2898585697085}, "southwest": {"lat": 37.85751311970849, "lng": -122.2925565302915}}}, "icon": "https://maps.gstatic.com/mapfiles/place_api/icons/generic_business-71.png", "id": "f72d3248d36df880b6766bd9e73226363349060a", "name": "Ford GoBike Station", "place_id": "ChIJ2a_HfvJ-hYAR0IDaj40M2Jk", "plus_code": {"compound_code": "VP55+GG Berkeley, California, United States", "global_code": "849VVP55+GG"}, "rating": 4, "reference": "ChIJ2a_HfvJ-hYAR0IDaj40M2Jk", "scope": "GOOGLE", "types": ["point_of_interest", "establishment"], "vicinity": "1000-1038 Parker Street, Berkeley"}, "ChIJ_Uige_J-hYAR6Vyfag2bZTM": {"geometry": {"location": {"lat": 37.8585999, "lng": -122.2913571}, "viewport": {"northeast": {"lat": 37.8599661302915, "lng": -122.2899157197085}, "southwest": {"lat": 37.8572681697085, "lng": -122.2926136802915}}}, "icon": "https://maps.gstatic.com/mapfiles/place_api/icons/generic_business-71.png", "id": "f776fb01b4dca3fd0e8e1eb058cbed1ede1b1998", "name": "enuma", "place_id": "ChIJ_Uige_J-hYAR6Vyfag2bZTM", "plus_code": {"compound_code": "VP55+CF Berkeley, California, United States", "global_code": "849VVP55+CF"}, "reference": "ChIJ_Uige_J-hYAR6Vyfag2bZTM", "scope": "GOOGLE", "types": ["point_of_interest", "establishment"], "vicinity": "2600 Ninth Street, Berkeley"}, "ChIJ00mFOjZ5hYARk-l1ppUV6pQ": {"geometry": {"location": {"lat": 37.8715926, "lng": -122.272747}, "viewport": {"northeast": {"lat": 37.9058239, "lng": -122.234179}, "southwest": {"lat": 37.835727, "lng": -122.367781}}}, "icon": "https://maps.gstatic.com/mapfiles/place_api/icons/geocode-71.png", "id": "00741fe572fc4084428ab206e1a55830f6a1bf0a", "name": "Berkeley", "photos": [{"height": 1080, "html_attributions": ["<a href=\"https://maps.google.com/maps/contrib/110244590763501513798/photos\">miao hsin sun</a>"], "photo_reference": "CmRaAAAAUARV0FQ6HBM2jzN_iPXV7AcWEcuunPLUaRTqQgbYKh0Q59h7t5DbmIsGGdg60lB32uwNImRdkCi5rHMSTzKejDCEbwNT_FWb0idu7qYOImcGH2sblK-nLdpT_09J1DbdEhCLoWUiq3pJ2an2nhlEZ5OCGhRUt53J-YhSHxiIItMKs5GWB76GnQ", "width": 1616}], "place_id": "ChIJ00mFOjZ5hYARk-l1ppUV6pQ", "reference": "ChIJ00mFOjZ5hYARk-l1ppUV6pQ", "scope": "GOOGLE", "types": ["locality", "political"], "vicinity": "Berkeley"}, "ChIJVVUFiu1-hYARNAW3k_kshPI": {"geometry": {"location": {"lat": 37.8588746, "lng": -122.2920152}, "viewport": {"northeast": {"lat": 37.8601536802915, "lng": -122.2906425697085}, "southwest": {"lat": 37.8574557197085, "lng": -122.2933405302915}}}, "icon": "https://maps.gstatic.com/mapfiles/place_api/icons/generic_business-71.png", "id": "2c88ac426889e1313f67b23ab1fe5dd0d0ffeeaa", "name": "Rob Shapera, LMFT", "place_id": "ChIJVVUFiu1-hYARNAW3k_kshPI", "plus_code": {"compound_code": "VP55+G5 Berkeley, California, United States", "global_code": "849VVP55+G5"}, "reference": "ChIJVVUFiu1-hYARNAW3k_kshPI", "scope": "GOOGLE", "types": ["point_of_interest", "establishment"], "vicinity": "933 Parker Street, Berkeley"}, "ChIJE9FxePJ-hYARFpiDhIMuoDg": {"geometry": {"location": {"lat": 37.8589606, "lng": -122.2914965}, "viewport": {"northeast": {"lat": 37.86033068029149, "lng": -122.2900418697085}, "southwest": {"lat": 37.8576327197085, "lng": -122.2927398302915}}}, "icon": "https://maps.gstatic.com/mapfiles/place_api/icons/restaurant-71.png", "id": "0fafe28dc4136892494acda196f11bffb021cb5e", "name": "Westside Cafe", "opening_hours": {"open_now": false}, "place_id": "ChIJE9FxePJ-hYARFpiDhIMuoDg", "plus_code": {"compound_code": "VP55+HC Berkeley, California, United States", "global_code": "849VVP55+HC"}, "reference": "ChIJE9FxePJ-hYARFpiDhIMuoDg", "scope": "GOOGLE", "types": ["restaurant", "point_of_interest", "food", "establishment"], "vicinity": "2570 Ninth Street, Berkeley"}, "ChIJXXqCSMN-hYARuIoaATyU7ks": {"geometry": {"location": {"lat": 37.859132, "lng": -122.291516}, "viewport": {"northeast": {"lat": 37.86049878029149, "lng": -122.2900780197085}, "southwest": {"lat": 37.85780081970849, "lng": -122.2927759802915}}}, "icon": "https://maps.gstatic.com/mapfiles/place_api/icons/generic_business-71.png", "id": "1029706f9a541ba726338228268c06585c8789a1", "name": "Vivacare", "opening_hours": {"open_now": false}, "photos": [{"height": 459, "html_attributions": ["<a href=\"https://maps.google.com/maps/contrib/114883249042130412500/photos\">Vivacare</a>"], "photo_reference": "CmRaAAAA_YL-t4nsatcuKF9koeWts9vtiZnZw32EjGl2yBPYobx4sGIg3Fuiqu_0GSuquoMFR9EmyfqmbNv2yJQDD-buJDz8kbilMSrMW-ZyPbblnVff8y3igwjSYH47UhCTtS3_EhA4pmyGxqioCqCE0_8zMwLWGhTdrQxRSJglZCLVT00LAZHIsZb5Wg", "width": 1278}], "place_id": "ChIJXXqCSMN-hYARuIoaATyU7ks", "plus_code": {"compound_code": "VP55+M9 Berkeley, California, United States", "global_code": "849VVP55+M9"}, "reference": "ChIJXXqCSMN-hYARuIoaATyU7ks", "scope": "GOOGLE", "types": ["point_of_interest", "establishment"], "vicinity": "2560 Ninth Street #123b, Berkeley"}, "ChIJ42Y1ke1-hYARc0FGaMYV6Jc": {"geometry": {"location": {"lat": 37.8591556, "lng": -122.2917051}, "viewport": {"northeast": {"lat": 37.8605394302915, "lng": -122.2901818697085}, "southwest": {"lat": 37.8578414697085, "lng": -122.2928798302915}}}, "icon": "https://maps.gstatic.com/mapfiles/place_api/icons/generic_business-71.png", "id": "53b4b501b46d6b7f9e928607abdae5d509b3e366", "name": "ShareRoot Inc", "place_id": "ChIJ42Y1ke1-hYARc0FGaMYV6Jc", "plus_code": {"compound_code": "VP55+M8 Berkeley, California, United States", "global_code": "849VVP55+M8"}, "reference": "ChIJ42Y1ke1-hYARc0FGaMYV6Jc", "scope": "GOOGLE", "types": ["point_of_interest", "establishment"], "vicinity": "2560 Ninth Street #316, Berkeley"}, "ChIJpWgMPwiQhYAR88CXucjRKL0": {"geometry": {"location": {"lat": 37.8585908, "lng": -122.2914836}, "viewport": {"northeast": {"lat": 37.85996848029151, "lng": -122.2899810697085}, "southwest": {"lat": 37.85727051970851, "lng": -122.2926790302915}}}, "icon": "https://maps.gstatic.com/mapfiles/place_api/icons/generic_business-71.png", "id": "abdc158675de0bea931261eeaf4a07afc23fb8a5", "name": "A Hundred Monkeys", "opening_hours": {"open_now": false}, "place_id": "ChIJpWgMPwiQhYAR88CXucjRKL0", "plus_code": {"compound_code": "VP55+CC Berkeley, California, United States", "global_code": "849VVP55+CC"}, "rating": 5, "reference": "ChIJpWgMPwiQhYAR88CXucjRKL0", "scope": "GOOGLE", "types": ["point_of_interest", "establishment"], "vicinity": "2604 Ninth Street, Berkeley"}, "ChIJTUAsevJ-hYARxe39pyPjiXU": {"geometry": {"location": {"lat": 37.85868749999999, "lng": -122.2914553}, "viewport": {"northeast": {"lat": 37.8601089802915, "lng": -122.2901308197085}, "southwest": {"lat": 37.8574110197085, "lng": -122.2928287802915}}}, "icon": "https://maps.gstatic.com/mapfiles/place_api/icons/generic_business-71.png", "id": "15b23222afd8ba8d4ff1dd183237f90a6578fc1c", "name": "Get It Together", "place_id": "ChIJTUAsevJ-hYARxe39pyPjiXU", "plus_code": {"compound_code": "VP55+FC Berkeley, California, United States", "global_code": "849VVP55+FC"}, "reference": "ChIJTUAsevJ-hYARxe39pyPjiXU", "scope": "GOOGLE", "types": ["point_of_interest", "establishment"], "vicinity": "950 Parker Street, Berkeley"}, "ChIJl-uddvJ-hYARKwqGzi4PoGE": {"geometry": {"location": {"lat": 37.8586515, "lng": -122.2919665}, "viewport": {"northeast": {"lat": 37.8600394802915, "lng": -122.2906307197085}, "southwest": {"lat": 37.8573415197085, "lng": -122.2933286802915}}}, "icon": "https://maps.gstatic.com/mapfiles/place_api/icons/generic_business-71.png", "id": "a315641acff25d7380f4ad8f3c2962fe7636bf52", "name": "Stellar Scientific", "place_id": "ChIJl-uddvJ-hYARKwqGzi4PoGE", "plus_code": {"compound_code": "VP55+F6 Berkeley, California, United States", "global_code": "849VVP55+F6"}, "reference": "ChIJl-uddvJ-hYARKwqGzi4PoGE", "scope": "GOOGLE", "types": ["point_of_interest", "establishment"], "vicinity": "932 Parker Street suite 2, Berkeley"}, "ChIJS8FJWvJ-hYAR5mz_2hqYzuw": {"geometry": {"location": {"lat": 37.8585984, "lng": -122.2919881}, "viewport": {"northeast": {"lat": 37.86000903029149, "lng": -122.2906599697085}, "southwest": {"lat": 37.8573110697085, "lng": -122.2933579302915}}}, "icon": "https://maps.gstatic.com/mapfiles/place_api/icons/generic_business-71.png", "id": "7fd524c7407399f9d66f1baaa7220bf5e3e8bd23", "name": "EQ3 Distribution Center", "place_id": "ChIJS8FJWvJ-hYAR5mz_2hqYzuw", "plus_code": {"compound_code": "VP55+C6 Berkeley, California, United States", "global_code": "849VVP55+C6"}, "reference": "ChIJS8FJWvJ-hYAR5mz_2hqYzuw", "scope": "GOOGLE", "types": ["point_of_interest", "establishment"], "vicinity": "932 Parker Street, Berkeley"}, "ChIJZw79Y_J-hYARswqSJ2Ih3Q0": {"geometry": {"location": {"lat": 37.8581969, "lng": -122.291322}, "viewport": {"northeast": {"lat": 37.85957073029149, "lng": -122.2898400697085}, "southwest": {"lat": 37.8568727697085, "lng": -122.2925380302915}}}, "icon": "https://maps.gstatic.com/mapfiles/place_api/icons/generic_business-71.png", "id": "575c2ea99043aeb42cdf0d247fbfb23d8d674ac4", "name": "R Hurwich Co", "place_id": "ChIJZw79Y_J-hYARswqSJ2Ih3Q0", "plus_code": {"compound_code": "VP55+7F Berkeley, California, United States", "global_code": "849VVP55+7F"}, "reference": "ChIJZw79Y_J-hYARswqSJ2Ih3Q0", "scope": "GOOGLE", "types": ["point_of_interest", "establishment"], "vicinity": "2608 Ninth Street #302, Berkeley"}, "ChIJZw79Y_J-hYAR_cP9MVyr3MM": {"geometry": {"location": {"lat": 37.8581969, "lng": -122.291322}, "viewport": {"northeast": {"lat": 37.85957073029149, "lng": -122.2898400697085}, "southwest": {"lat": 37.8568727697085, "lng": -122.2925380302915}}}, "icon": "https://maps.gstatic.com/mapfiles/place_api/icons/generic_business-71.png", "id": "cdb5141bb1a13bcc75e509f9f0b0cef665a03fc7", "name": "Brian Pon Ea", "place_id": "ChIJZw79Y_J-hYAR_cP9MVyr3MM", "plus_code": {"compound_code": "VP55+7F Berkeley, California, United States", "global_code": "849VVP55+7F"}, "reference": "ChIJZw79Y_J-hYAR_cP9MVyr3MM", "scope": "GOOGLE", "types": ["finance", "point_of_interest", "establishment"], "vicinity": "2608 Ninth Street #302, Berkeley"}, "ChIJAwQydPJ-hYARDrlsnudxEcI": {"geometry": {"location": {"lat": 37.85818689999999, "lng": -122.2920465}, "viewport": {"northeast": {"lat": 37.85978388029149, "lng": -122.2907813697085}, "southwest": {"lat": 37.8570859197085, "lng": -122.2934793302915}}}, "icon": "https://maps.gstatic.com/mapfiles/place_api/icons/shopping-71.png", "id": "481aa51bb7debcdb5dd5fa8c240f3458699f8a69", "name": "Fox Dreams Quilts", "place_id": "ChIJAwQydPJ-hYARDrlsnudxEcI", "plus_code": {"compound_code": "VP55+75 Berkeley, California, United States", "global_code": "849VVP55+75"}, "reference": "ChIJAwQydPJ-hYARDrlsnudxEcI", "scope": "GOOGLE", "types": ["home_goods_store", "store", "point_of_interest", "establishment"], "vicinity": "932 Parker Street, Berkeley"}, "ChIJVVWViO1-hYAR7u8GMDXCoys": {"geometry": {"location": {"lat": 37.8591556, "lng": -122.2917051}, "viewport": {"northeast": {"lat": 37.8605394302915, "lng": -122.2901818697085}, "southwest": {"lat": 37.8578414697085, "lng": -122.2928798302915}}}, "icon": "https://maps.gstatic.com/mapfiles/place_api/icons/generic_business-71.png", "id": "a4e743557a7cc068d3be3c52d978c7969d9bc88c", "name": "outputproductions com", "place_id": "ChIJVVWViO1-hYAR7u8GMDXCoys", "reference": "ChIJVVWViO1-hYAR7u8GMDXCoys", "scope": "GOOGLE", "types": ["point_of_interest", "establishment"], "vicinity": "2560 Ninth Street, Berkeley"}, "ChIJVVWViO1-hYARd8zcpp6sWiY": {"geometry": {"location": {"lat": 37.8591556, "lng": -122.2917051}, "viewport": {"northeast": {"lat": 37.8605394302915, "lng": -122.2901818697085}, "southwest": {"lat": 37.8578414697085, "lng": -122.2928798302915}}}, "icon": "https://maps.gstatic.com/mapfiles/place_api/icons/generic_business-71.png", "id": "0b1ada74689ed854a06567c7ee28469a48957380", "name": "david mcglynn", "place_id": "ChIJVVWViO1-hYARd8zcpp6sWiY", "reference": "ChIJVVWViO1-hYARd8zcpp6sWiY", "scope": "GOOGLE", "types": ["point_of_interest", "establishment"], "vicinity": "2560 Ninth Street, Berkeley"}, "ChIJVVWViO1-hYARMg-e5-ScDr4": {"geometry": {"location": {"lat": 37.8591556, "lng": -122.2917051}, "viewport": {"northeast": {"lat": 37.8605394302915, "lng": -122.2901818697085}, "southwest": {"lat": 37.8578414697085, "lng": -122.2928798302915}}}, "icon": "https://maps.gstatic.com/mapfiles/place_api/icons/generic_business-71.png", "id": "3e22679fb8c347b3e3c2674b8f71b113223111c0", "name": "SwingLab", "place_id": "ChIJVVWViO1-hYARMg-e5-ScDr4", "reference": "ChIJVVWViO1-hYARMg-e5-ScDr4", "scope": "GOOGLE", "types": ["point_of_interest", "establishment"], "vicinity": "2560 Ninth Street, Berkeley"}, "ChIJVVWViO1-hYARkkpOQD6OaH0": {"geometry": {"location": {"lat": 37.8591556, "lng": -122.2917051}, "viewport": {"northeast": {"lat": 37.8605394302915, "lng": -122.2901818697085}, "southwest": {"lat": 37.8578414697085, "lng": -122.2928798302915}}}, "icon": "https://maps.gstatic.com/mapfiles/place_api/icons/generic_business-71.png", "id": "a74b8fd477c13bd04087611faa8cbb34881cdfcb", "name": "Chirp Microsystems", "place_id": "ChIJVVWViO1-hYARkkpOQD6OaH0", "reference": "ChIJVVWViO1-hYARkkpOQD6OaH0", "scope": "GOOGLE", "types": ["point_of_interest", "establishment"], "vicinity": "2560 Ninth Street, Berkeley"}, "ChIJDxAsxiR5hYARtXwckBNPTlc": {"geometry": {"location": {"lat": 37.8591556, "lng": -122.2917051}, "viewport": {"northeast": {"lat": 37.8605394302915, "lng": -122.2901818697085}, "southwest": {"lat": 37.8578414697085, "lng": -122.2928798302915}}}, "icon": "https://maps.gstatic.com/mapfiles/place_api/icons/generic_business-71.png", "id": "c12cd2e9c0b9f36c0fb2ddd3aa236e6c5bc4bd6a", "name": "1100 Group Restaurant Consulting", "place_id": "ChIJDxAsxiR5hYARtXwckBNPTlc", "reference": "ChIJDxAsxiR5hYARtXwckBNPTlc", "scope": "GOOGLE", "types": ["point_of_interest", "establishment"], "vicinity": "2560 Ninth Street suite 320, Berkeley"}, "ChIJR20L-_x_hYARjutni9JaHtk": {"geometry": {"location": {"lat": 37.8591556, "lng": -122.2917051}, "viewport": {"northeast": {"lat": 37.8605394302915, "lng": -122.2901818697085}, "southwest": {"lat": 37.8578414697085, "lng": -122.2928798302915}}}, "icon": "https://maps.gstatic.com/mapfiles/place_api/icons/generic_business-71.png", "id": "3a0c16817feff95ef8b8acda16c6f9b93d95e4a5", "name": "Focusing Resources", "place_id": "ChIJR20L-_x_hYARjutni9JaHtk", "plus_code": {"compound_code": "VP55+M8 Berkeley, California, United States", "global_code": "849VVP55+M8"}, "reference": "ChIJR20L-_x_hYARjutni9JaHtk", "scope": "GOOGLE", "types": ["health", "point_of_interest", "establishment"], "vicinity": "2560 Ninth Street suite 315 a, Berkeley"}, "ChIJVVWViO1-hYARSt-9VJuxzyA": {"geometry": {"location": {"lat": 37.8591556, "lng": -122.2917051}, "viewport": {"northeast": {"lat": 37.8605394302915, "lng": -122.2901818697085}, "southwest": {"lat": 37.8578414697085, "lng": -122.2928798302915}}}, "icon": "https://maps.gstatic.com/mapfiles/place_api/icons/generic_business-71.png", "id": "7539353f2490e3703c99debf1b9dcf7266904619", "name": "Berkeley Bachata Rodchata Social (2nd Saturdays)", "opening_hours": {"open_now": false}, "photos": [{"height": 400, "html_attributions": ["<a href=\"https://maps.google.com/maps/contrib/109620626748187934812/photos\">Berkeley Bachata Rodchata Social (2nd Saturdays)</a>"], "photo_reference": "CmRaAAAAzpZd_2W4Red4F6qvpnI9LSCz1MGbXdIufW0euSZKaFaYGJcCuaC1idex9hiM-FvWP98hUhLGY_wWC1iYhXj6VVGv2n0pAmvr7RdrBZ-qWTrh_nZasl1EcxKdLPVSIfudEhBfCb694w5Bqk0IgEVJ57tCGhQ8sqYYxSf63Li76YWKgcZkBS_2bg", "width": 750}], "place_id": "ChIJVVWViO1-hYARSt-9VJuxzyA", "plus_code": {"compound_code": "VP55+M8 Berkeley, California, United States", "global_code": "849VVP55+M8"}, "reference": "ChIJVVWViO1-hYARSt-9VJuxzyA", "scope": "GOOGLE", "types": ["point_of_interest", "establishment"], "vicinity": "2560 Ninth Street #119, Berkeley"}, "ChIJa0AiHWN_hYARLMD5LXgqpMM": {"geometry": {"location": {"lat": 37.8591556, "lng": -122.2917051}, "viewport": {"northeast": {"lat": 37.8605394302915, "lng": -122.2901818697085}, "southwest": {"lat": 37.8578414697085, "lng": -122.2928798302915}}}, "icon": "https://maps.gstatic.com/mapfiles/place_api/icons/generic_business-71.png", "id": "6b957dddd9ab007cc588467c46400aa2866ae755", "name": "Wheelhouse Construction", "place_id": "ChIJa0AiHWN_hYARLMD5LXgqpMM", "plus_code": {"compound_code": "VP55+M8 Berkeley, California, United States", "global_code": "849VVP55+M8"}, "reference": "ChIJa0AiHWN_hYARLMD5LXgqpMM", "scope": "GOOGLE", "types": ["general_contractor", "point_of_interest", "establishment"], "vicinity": "2560 Ninth Street Suite 320, Berkeley"}, "ChIJCY3TiO1-hYAR4EFtvcel6l8": {"geometry": {"location": {"lat": 37.859156, "lng": -122.291705}, "viewport": {"northeast": {"lat": 37.8605397802915, "lng": -122.2901818697085}, "southwest": {"lat": 37.8578418197085, "lng": -122.2928798302915}}}, "icon": "https://maps.gstatic.com/mapfiles/place_api/icons/civic_building-71.png", "id": "aa516187c218e2672ff360ca62c7123ac031f0bd", "name": "Berkeley Search Consultants", "opening_hours": {"open_now": false}, "photos": [{"height": 1000, "html_attributions": ["<a href=\"https://maps.google.com/maps/contrib/114890681961948870361/photos\">Berkeley Search Consultants</a>"], "photo_reference": "CmRaAAAAQB_RyjzxZP37HFv5yHOoOSXe9gIUgGvET72r6hM3_fAXSgHefT5Q2vCEAQPKKQNKJG0ChyQnpB5qfD8A02QuQOmOTCFW9mu2FMpFieaR9PDhY6xdqdjKoGvvsZdvxZYzEhCYsZEhuvzmWWELgF7gzgfCGhQx7Fj0uLXrwxVy2LbmL9qnLPO9aQ", "width": 1000}], "place_id": "ChIJCY3TiO1-hYAR4EFtvcel6l8", "reference": "ChIJCY3TiO1-hYAR4EFtvcel6l8", "scope": "GOOGLE", "types": ["point_of_interest", "establishment"], "vicinity": "2560 Ninth Street #219, Berkeley"}}