{"ChIJ1y61ErJ-hYAREeUsp7YyJ9w": {"geometry": {"location": {"lat": 37.88827809999999, "lng": -122.2775191}, "viewport": {"northeast": {"lat": 37.88972570000004, "lng": -122.2761701697085}, "southwest": {"lat": 37.88683049999995, "lng": -122.2788681302915}}}, "icon": "https://maps.gstatic.com/mapfiles/place_api/icons/geocode-71.png", "id": "287258c7dadfe0796d69bce285d27696af1cb252", "name": "1000-1098 Fresno Ave", "place_id": "ChIJ1y61ErJ-hYAREeUsp7YyJ9w", "reference": "ChIJ1y61ErJ-hYAREeUsp7YyJ9w", "scope": "GOOGLE", "types": ["route"], "vicinity": "Berkeley"}, "ChIJtWiUXLJ-hYARD1eBo8PSxCk": {"geometry": {"location": {"lat": 37.888686, "lng": -122.278429}, "viewport": {"northeast": {"lat": 37.8900167802915, "lng": -122.2772191197085}, "southwest": {"lat": 37.8873188197085, "lng": -122.2799170802915}}}, "icon": "https://maps.gstatic.com/mapfiles/place_api/icons/generic_business-71.png", "id": "25bfc8b40396cf02d7b21e36d421172212369949", "name": "Opto Mystic", "place_id": "ChIJtWiUXLJ-hYARD1eBo8PSxCk", "plus_code": {"compound_code": "VPQC+FJ Berkeley, California, United States", "global_code": "849VVPQC+FJ"}, "reference": "ChIJtWiUXLJ-hYARD1eBo8PSxCk", "scope": "GOOGLE", "types": ["point_of_interest", "establishment"], "vicinity": "1015 Colusa Avenue, Berkeley"}, "ChIJoSGiXrJ-hYARJypjOBTaAIc": {"geometry": {"location": {"lat": 37.888916, "lng": -122.278421}, "viewport": {"northeast": {"lat": 37.8904102802915, "lng": -122.2769569197085}, "southwest": {"lat": 37.88771231970851, "lng": -122.2796548802915}}}, "icon": "https://maps.gstatic.com/mapfiles/place_api/icons/generic_business-71.png", "id": "cd32c8af8d82110e63baefd0f7e7e11b7fe7cc47", "name": "oat consulting", "place_id": "ChIJoSGiXrJ-hYARJypjOBTaAIc", "plus_code": {"compound_code": "VPQC+HJ Berkeley, California, United States", "global_code": "849VVPQC+HJ"}, "reference": "ChIJoSGiXrJ-hYARJypjOBTaAIc", "scope": "GOOGLE", "types": ["point_of_interest", "establishment"], "vicinity": "1810 Marin Avenue, Berkeley"}, "ChIJ00mFOjZ5hYARk-l1ppUV6pQ": {"geometry": {"location": {"lat": 37.8715926, "lng": -122.272747}, "viewport": {"northeast": {"lat": 37.9058239, "lng": -122.234179}, "southwest": {"lat": 37.835727, "lng": -122.367781}}}, "icon": "https://maps.gstatic.com/mapfiles/place_api/icons/geocode-71.png", "id": "00741fe572fc4084428ab206e1a55830f6a1bf0a", "name": "Berkeley", "photos": [{"height": 1080, "html_attributions": ["<a href=\"https://maps.google.com/maps/contrib/110244590763501513798/photos\">miao hsin sun</a>"], "photo_reference": "CmRaAAAA02NKpQ7MuYsmz5icqpSkK75SkNaKKY-Oexw7uVyY1eAZwYMgNLk6cdKIIgvp0BzwFfT_zzTXHV3tBrQKKYi_FqVhSmVunfnS5fbU7vUNMw8wkhJK9aGaNStcRv76Z9hIEhDuZpgTMfdA10vsrX2_QL7MGhRtTx2irDtgtK4cCef8uc4f1Fun6w", "width": 1616}], "place_id": "ChIJ00mFOjZ5hYARk-l1ppUV6pQ", "reference": "ChIJ00mFOjZ5hYARk-l1ppUV6pQ", "scope": "GOOGLE", "types": ["locality", "political"], "vicinity": "Berkeley"}}