{"ChIJG7fKCV9-hYAR6flKjc8ttaQ": {"geometry": {"location": {"lat": 37.847995, "lng": -122.291004}, "viewport": {"northeast": {"lat": 37.8493439302915, "lng": -122.28934845}, "southwest": {"lat": 37.8466459697085, "lng": -122.29265945}}}, "icon": "https://maps.gstatic.com/mapfiles/place_api/icons/geocode-71.png", "id": "e44cb35d2a8a7ab8d0f6d82837eecb24fff74109", "name": "1294-1398 66th St", "place_id": "ChIJG7fKCV9-hYAR6flKjc8ttaQ", "reference": "ChIJG7fKCV9-hYAR6flKjc8ttaQ", "scope": "GOOGLE", "types": ["route"], "vicinity": "Emeryville"}, "ChIJ--R_E19-hYARet4kiKih-aQ": {"geometry": {"location": {"lat": 37.847975, "lng": -122.292051}, "viewport": {"northeast": {"lat": 37.84934013029149, "lng": -122.2906224697085}, "southwest": {"lat": 37.8466421697085, "lng": -122.2933204302915}}}, "icon": "https://maps.gstatic.com/mapfiles/place_api/icons/restaurant-71.png", "id": "fbaedfbefd4e7d9cfc7f2d25471ec873a09ce96e", "name": "Rotten City Pizza", "opening_hours": {"open_now": true}, "photos": [{"height": 1000, "html_attributions": ["<a href=\"https://maps.google.com/maps/contrib/107690690027443722832/photos\">Rotten City Pizza</a>"], "photo_reference": "CmRaAAAADnv4_dtTYeFJ7Acn-JysMCtJt2FCgJx8bx9nWa3yBA3iPjiKEqbI4Kg_cfgWjtnfZA77WF2Depjavm6_JZLT_IKMY4sR_B_iob-UG1oN-i8lkM8HB4xbZR_fhlq-4a0YEhDWddSwN0-kCV11GzF8_D6ZGhQcl8Vzrp10Kn1807zByVtxsJucgQ", "width": 1500}], "place_id": "ChIJ--R_E19-hYARet4kiKih-aQ", "price_level": 2, "rating": 4.5, "reference": "ChIJ--R_E19-hYARet4kiKih-aQ", "scope": "GOOGLE", "types": ["bar", "meal_takeaway", "restaurant", "point_of_interest", "food", "establishment"], "vicinity": "6613 Hollis Street, Emeryville"}, "ChIJ--R_E19-hYARXoeOpok721U": {"geometry": {"location": {"lat": 37.84797469999999, "lng": -122.2920505}, "viewport": {"northeast": {"lat": 37.84933983029149, "lng": -122.2906221697085}, "southwest": {"lat": 37.84664186970849, "lng": -122.2933201302915}}}, "icon": "https://maps.gstatic.com/mapfiles/place_api/icons/shopping-71.png", "id": "0906c84ecaa22c1e98d605f57225aadc09d3de15", "name": "Cooperative Kitchens", "place_id": "ChIJ--R_E19-hYARXoeOpok721U", "plus_code": {"compound_code": "RPX5+55 Emeryville, California, United States", "global_code": "849VRPX5+55"}, "reference": "ChIJ--R_E19-hYARXoeOpok721U", "scope": "GOOGLE", "types": ["furniture_store", "home_goods_store", "store", "point_of_interest", "establishment"], "vicinity": "6613 Hollis Street, Emeryville"}, "ChIJQ42mbF9-hYAR2czO64pRy8I": {"geometry": {"location": {"lat": 37.8482098, "lng": -122.2919774}, "viewport": {"northeast": {"lat": 37.84955463029151, "lng": -122.2906488197085}, "southwest": {"lat": 37.84685666970851, "lng": -122.2933467802915}}}, "icon": "https://maps.gstatic.com/mapfiles/place_api/icons/generic_business-71.png", "id": "d81a583326480e9504a68c4e68f57831e29f4aba", "name": "Act Catering & Production", "place_id": "ChIJQ42mbF9-hYAR2czO64pRy8I", "plus_code": {"compound_code": "RPX5+76 Emeryville, California, United States", "global_code": "849VRPX5+76"}, "rating": 5, "reference": "ChIJQ42mbF9-hYAR2czO64pRy8I", "scope": "GOOGLE", "types": ["point_of_interest", "food", "establishment"], "vicinity": "6635 Hollis Street, Emeryville"}, "ChIJP-LIGl9-hYAR3MWHZIK--wI": {"geometry": {"location": {"lat": 37.8475808, "lng": -122.2916524}, "viewport": {"northeast": {"lat": 37.8489202302915, "lng": -122.2903508197085}, "southwest": {"lat": 37.84622226970851, "lng": -122.2930487802915}}}, "icon": "https://maps.gstatic.com/mapfiles/place_api/icons/shopping-71.png", "id": "c16bbaeff0857a2cb7d7644d002bb9ff50f4d19f", "name": "Italics Tile & Stone", "opening_hours": {"open_now": false}, "photos": [{"height": 4000, "html_attributions": ["<a href=\"https://maps.google.com/maps/contrib/104616670780450565502/photos\">Timothy White</a>"], "photo_reference": "CmRaAAAAR46Vk2kfTohh8-vj0ISphnTLZ-eX73TZT2GkFK5vfHdLmRdnd4LKiR1Z3l-GFGumxT4jdH81ytCGyA3FXyfyVcdgkHusfjOyxnwldezLPp6SiKPjXw6U_H1Irv1wHpwFEhCJkeTUaUTzyUCVlk9hqYH5GhTDtVyh9H39aC1W36eRB6s7txM5yg", "width": 3000}], "place_id": "ChIJP-LIGl9-hYAR3MWHZIK--wI", "plus_code": {"compound_code": "RPX5+28 Emeryville, California, United States", "global_code": "849VRPX5+28"}, "rating": 5, "reference": "ChIJP-LIGl9-hYAR3MWHZIK--wI", "scope": "GOOGLE", "types": ["cemetery", "home_goods_store", "store", "point_of_interest", "establishment"], "vicinity": "6598 Hollis Street, Emeryville"}, "ChIJQ1t4p19-hYARWNFmosvv6WA": {"geometry": {"location": {"lat": 37.8481065, "lng": -122.2914216}, "viewport": {"northeast": {"lat": 37.8493626802915, "lng": -122.2900416197085}, "southwest": {"lat": 37.8466647197085, "lng": -122.2927395802915}}}, "icon": "https://maps.gstatic.com/mapfiles/place_api/icons/generic_business-71.png", "id": "94e6f657b794d460b958e910ac0a817b504abe2b", "name": "Asset Logic", "place_id": "ChIJQ1t4p19-hYARWNFmosvv6WA", "plus_code": {"compound_code": "RPX5+6C Emeryville, California, United States", "global_code": "849VRPX5+6C"}, "reference": "ChIJQ1t4p19-hYARWNFmosvv6WA", "scope": "GOOGLE", "types": ["point_of_interest", "establishment"], "vicinity": "1338 66th Street, Emeryville"}, "ChIJjziqp19-hYARvjuQ_zmeHfk": {"geometry": {"location": {"lat": 37.84815639999999, "lng": -122.2913286}, "viewport": {"northeast": {"lat": 37.8493982802915, "lng": -122.2899438697085}, "southwest": {"lat": 37.8467003197085, "lng": -122.2926418302915}}}, "icon": "https://maps.gstatic.com/mapfiles/place_api/icons/shopping-71.png", "id": "987aa40eeac197b2df94e5d908a6ca6a18276726", "name": "N Funk Ceramics", "place_id": "ChIJjziqp19-hYARvjuQ_zmeHfk", "plus_code": {"compound_code": "RPX5+7F Emeryville, California, United States", "global_code": "849VRPX5+7F"}, "rating": 5, "reference": "ChIJjziqp19-hYARvjuQ_zmeHfk", "scope": "GOOGLE", "types": ["store", "point_of_interest", "establishment"], "vicinity": "1330 66th Street, Emeryville"}, "ChIJibZ3KPN-hYARuDuDIcOqFbI": {"geometry": {"location": {"lat": 37.847975, "lng": -122.292051}, "viewport": {"northeast": {"lat": 37.84934013029149, "lng": -122.2906224697085}, "southwest": {"lat": 37.8466421697085, "lng": -122.2933204302915}}}, "icon": "https://maps.gstatic.com/mapfiles/place_api/icons/restaurant-71.png", "id": "b57aefe0a79d7f4c2768482fe5bd245aa5ec4f0a", "name": "Daniel\u2019s Caribbean Kitchen", "opening_hours": {"open_now": true}, "place_id": "ChIJibZ3KPN-hYARuDuDIcOqFbI", "plus_code": {"compound_code": "RPX5+55 Emeryville, California, United States", "global_code": "849VRPX5+55"}, "rating": 5, "reference": "ChIJibZ3KPN-hYARuDuDIcOqFbI", "scope": "GOOGLE", "types": ["restaurant", "point_of_interest", "food", "establishment"], "vicinity": "6613 Hollis Street, Emeryville"}, "ChIJ-XSobF9-hYAR35IHqLs9A_U": {"geometry": {"location": {"lat": 37.8481709, "lng": -122.2919647}, "viewport": {"northeast": {"lat": 37.8495157302915, "lng": -122.2906361197085}, "southwest": {"lat": 37.8468177697085, "lng": -122.2933340802915}}}, "icon": "https://maps.gstatic.com/mapfiles/place_api/icons/generic_business-71.png", "id": "24d2fbdd64adbe34e93bd6e8635a9004ef14d9d6", "name": "Calypso Landscape", "place_id": "ChIJ-XSobF9-hYAR35IHqLs9A_U", "plus_code": {"compound_code": "RPX5+76 Emeryville, California, United States", "global_code": "849VRPX5+76"}, "reference": "ChIJ-XSobF9-hYAR35IHqLs9A_U", "scope": "GOOGLE", "types": ["general_contractor", "point_of_interest", "establishment"], "vicinity": "6635 Hollis Street, Emeryville"}, "ChIJUaltB19-hYAR0ooE3I6sZbw": {"geometry": {"location": {"lat": 37.8475954, "lng": -122.2909939}, "viewport": {"northeast": {"lat": 37.8491321302915, "lng": -122.2897076197085}, "southwest": {"lat": 37.8464341697085, "lng": -122.2924055802915}}}, "icon": "https://maps.gstatic.com/mapfiles/place_api/icons/generic_business-71.png", "id": "b657e8b3a04419e6928f03f50a965bc9474a03be", "name": "Knopp Inc", "opening_hours": {"open_now": false}, "photos": [{"height": 772, "html_attributions": ["<a href=\"https://maps.google.com/maps/contrib/112458178438559508525/photos\">Knopp Inc</a>"], "photo_reference": "CmRaAAAAVy-IVqzY1R7tIURFDr9WeW1YJ3-sktV_ayN6nC-9yVTAAHQqaU2TwHSabbV0rilCgm5_hOsyUrgq-y9X7ZJhAdzkj0-VVGZwm-t8k9QF7yJgcIZBmPLvCptmr5CtqQcFEhAATpyNk-V5tk6l7ypVK9shGhTVMx65F0vSfOFAd3FZic0V7hPzgw", "width": 772}], "place_id": "ChIJUaltB19-hYAR0ooE3I6sZbw", "plus_code": {"compound_code": "RPX5+2J Emeryville, California, United States", "global_code": "849VRPX5+2J"}, "rating": 5, "reference": "ChIJUaltB19-hYAR0ooE3I6sZbw", "scope": "GOOGLE", "types": ["point_of_interest", "establishment"], "vicinity": "1307 66th Street, Emeryville"}, "ChIJo9ubbV9-hYARJ-AudEI24GE": {"geometry": {"location": {"lat": 37.8484, "lng": -122.2917012}, "viewport": {"northeast": {"lat": 37.8500055302915, "lng": -122.2904358697085}, "southwest": {"lat": 37.8473075697085, "lng": -122.2931338302915}}}, "icon": "https://maps.gstatic.com/mapfiles/place_api/icons/generic_business-71.png", "id": "126bffaf7ea173dd39c7c7e93d232c59adc605dd", "name": "Volo Labs Inc", "place_id": "ChIJo9ubbV9-hYARJ-AudEI24GE", "plus_code": {"compound_code": "RPX5+98 Emeryville, California, United States", "global_code": "849VRPX5+98"}, "reference": "ChIJo9ubbV9-hYARJ-AudEI24GE", "scope": "GOOGLE", "types": ["point_of_interest", "establishment"], "vicinity": "1321 67th Street, Emeryville"}, "ChIJC3GLFF9-hYARcNPCcn7Dk0g": {"geometry": {"location": {"lat": 37.84797469999999, "lng": -122.2920505}, "viewport": {"northeast": {"lat": 37.84933983029149, "lng": -122.2906221697085}, "southwest": {"lat": 37.84664186970849, "lng": -122.2933201302915}}}, "icon": "https://maps.gstatic.com/mapfiles/place_api/icons/restaurant-71.png", "id": "d396bb094ccfc8a1473580e50ec2e84cecc9e944", "name": "Cafe Zambala", "opening_hours": {"open_now": false}, "photos": [{"height": 3403, "html_attributions": ["<a href=\"https://maps.google.com/maps/contrib/107721404123505875377/photos\">Albert L.</a>"], "photo_reference": "CmRaAAAAHwp6SWpsBx1BRCEvZV-1y9QogtmkLbmsLEXBvVJq-XxlsVGUUlzZl14vRYf48AGKe6O2f4IkV7-jm3coGc6XR0bQrKUPvnd8ujOSMn-bigWuMG8lSmV3a9gg2OvQiETEEhCwk_yqtWe4Xkz2rb1jPW1VGhQPnDB3eEBpsb3tulF067Othed-zA", "width": 3024}], "place_id": "ChIJC3GLFF9-hYARcNPCcn7Dk0g", "plus_code": {"compound_code": "RPX5+55 Emeryville, California, United States", "global_code": "849VRPX5+55"}, "reference": "ChIJC3GLFF9-hYARcNPCcn7Dk0g", "scope": "GOOGLE", "types": ["restaurant", "point_of_interest", "food", "establishment"], "vicinity": "6613 Hollis Street, Emeryville"}, "ChIJUaltB19-hYARbbnmwGDdS48": {"geometry": {"location": {"lat": 37.847645, "lng": -122.290984}, "viewport": {"northeast": {"lat": 37.84915953029149, "lng": -122.2896903197085}, "southwest": {"lat": 37.8464615697085, "lng": -122.2923882802915}}}, "icon": "https://maps.gstatic.com/mapfiles/place_api/icons/generic_business-71.png", "id": "ca67ac0c07fb56acb45cfb2fb0ebf11ab7cf0d9e", "name": "Knopp Inc", "place_id": "ChIJUaltB19-hYARbbnmwGDdS48", "plus_code": {"compound_code": "RPX5+3J Emeryville, California, United States", "global_code": "849VRPX5+3J"}, "reference": "ChIJUaltB19-hYARbbnmwGDdS48", "scope": "GOOGLE", "types": ["point_of_interest", "establishment"], "vicinity": "1307 66th Street, Emeryville"}, "ChIJs44f6hR-hYARB3GwqDEYHUg": {"geometry": {"location": {"lat": 37.831316, "lng": -122.2852473}, "viewport": {"northeast": {"lat": 37.8499259, "lng": -122.276123}, "southwest": {"lat": 37.8268948, "lng": -122.3154701}}}, "icon": "https://maps.gstatic.com/mapfiles/place_api/icons/geocode-71.png", "id": "50264385d03c71c7c39b656a05a99231106dfb05", "name": "Emeryville", "photos": [{"height": 3024, "html_attributions": ["<a href=\"https://maps.google.com/maps/contrib/105925452919882592532/photos\">Rene&#39; Bennett</a>"], "photo_reference": "CmRaAAAAu9gUCwlh_wzFQ3QB_ZGA4CiGNRS5TkBOdENZceV2yBlD3QOjFP-vf-TI9S8bokNtAb0LY8RaApTNaRAkuTsa5pTlMwXgV9KeiWy-fdreHEbBMYIu51X7VLJeN4Mi5OshEhCBN15a4VehdcHT-AYJVIfaGhTbNYPVqvYY0WaWfwM8ZHNwPsjv9A", "width": 4032}], "place_id": "ChIJs44f6hR-hYARB3GwqDEYHUg", "reference": "ChIJs44f6hR-hYARB3GwqDEYHUg", "scope": "GOOGLE", "types": ["locality", "political"], "vicinity": "Emeryville"}}