{"ChIJC4Mao3F-hYAR502Us1T27dA": {"geometry": {"location": {"lat": 37.8419733, "lng": -122.274579}, "viewport": {"northeast": {"lat": 37.8433222802915, "lng": -122.2732300197085}, "southwest": {"lat": 37.8406243197085, "lng": -122.2759279802915}}}, "icon": "https://maps.gstatic.com/mapfiles/place_api/icons/geocode-71.png", "id": "6d99c277de55954ed89c7fe0e594a01bd318da7c", "name": "Market Street", "place_id": "ChIJC4Mao3F-hYAR502Us1T27dA", "reference": "ChIJC4Mao3F-hYAR502Us1T27dA", "scope": "GOOGLE", "types": ["route"], "vicinity": "Oakland"}, "ChIJyfBRo3F-hYAR39LaMgPZ4OU": {"geometry": {"location": {"lat": 37.8418807, "lng": -122.2748416}, "viewport": {"northeast": {"lat": 37.84322968029149, "lng": -122.2734926197085}, "southwest": {"lat": 37.84053171970849, "lng": -122.2761905802915}}}, "icon": "https://maps.gstatic.com/mapfiles/place_api/icons/generic_business-71.png", "id": "034a58f1a252fac51e4ebaab9d7c508029fb68d1", "name": "Omar C. Staples, PA", "place_id": "ChIJyfBRo3F-hYAR39LaMgPZ4OU", "plus_code": {"compound_code": "RPRG+Q3 Oakland, California, United States", "global_code": "849VRPRG+Q3"}, "rating": 2.3, "reference": "ChIJyfBRo3F-hYAR39LaMgPZ4OU", "scope": "GOOGLE", "types": ["doctor", "health", "point_of_interest", "establishment"], "vicinity": "5709 Market Street, Oakland, CA 94608, Oakland"}, "ChIJyfBRo3F-hYAR1-h3Ry7l6RA": {"geometry": {"location": {"lat": 37.8419526, "lng": -122.2748262}, "viewport": {"northeast": {"lat": 37.8433015802915, "lng": -122.2734772197085}, "southwest": {"lat": 37.8406036197085, "lng": -122.2761751802915}}}, "icon": "https://maps.gstatic.com/mapfiles/place_api/icons/generic_business-71.png", "id": "8df16686312021f94d415a1560c009d26c1f8705", "name": "Tanya Brown, RN", "place_id": "ChIJyfBRo3F-hYAR1-h3Ry7l6RA", "plus_code": {"compound_code": "RPRG+Q3 Oakland, California, United States", "global_code": "849VRPRG+Q3"}, "reference": "ChIJyfBRo3F-hYAR1-h3Ry7l6RA", "scope": "GOOGLE", "types": ["doctor", "health", "point_of_interest", "establishment"], "vicinity": "5709 Market Street, Oakland, CA 94608, Oakland"}, "ChIJp_Mh5aqMj4AR_JOffojlMyg": {"geometry": {"location": {"lat": 37.842239, "lng": -122.274317}, "viewport": {"northeast": {"lat": 37.8435740802915, "lng": -122.2730658197085}, "southwest": {"lat": 37.8408761197085, "lng": -122.2757637802915}}}, "icon": "https://maps.gstatic.com/mapfiles/place_api/icons/generic_business-71.png", "id": "c1f63050571ad0ad0fe01f2280ff64a185e2a00b", "name": "Nova Midwifery Services", "opening_hours": {"open_now": false}, "photos": [{"height": 2640, "html_attributions": ["<a href=\"https://maps.google.com/maps/contrib/113709587096821093595/photos\">Nova Midwifery Services</a>"], "photo_reference": "CmRaAAAA5UbJS0yzpW407jy3BLzFgeXaGIKp-aArec9r-5w3rRLW0IKqtiMTLHFodu3EA0LcwlePdIRVQqGbY9L4qKiDDLwalBGkz4qVhEzaI7txGAzPpiuHQq9K_B6ZzGhw0S-qEhAyXvym1PG-bsIMxHgDi-vuGhQr6DnLB6ZR6dqzgkIUz1YAgYsYhQ", "width": 3960}], "place_id": "ChIJp_Mh5aqMj4AR_JOffojlMyg", "rating": 5, "reference": "ChIJp_Mh5aqMj4AR_JOffojlMyg", "scope": "GOOGLE", "types": ["health", "point_of_interest", "establishment"], "vicinity": "5730 Market Street, Oakland"}, "ChIJyfBRo3F-hYARhwqbEAgp6Gw": {"geometry": {"location": {"lat": 37.8419287, "lng": -122.2748038}, "viewport": {"northeast": {"lat": 37.84329548029149, "lng": -122.2733412697085}, "southwest": {"lat": 37.8405975197085, "lng": -122.2760392302915}}}, "icon": "https://maps.gstatic.com/mapfiles/place_api/icons/generic_business-71.png", "id": "bbaa3b87dd4939a26c9a9c7e3c3dd6cedd3e2bca", "name": "James A Watson Wellness Center", "photos": [{"height": 3264, "html_attributions": ["<a href=\"https://maps.google.com/maps/contrib/115334152619777428946/photos\">Elvia Soto</a>"], "photo_reference": "CmRaAAAAugjMj45WeCB04CfACX3FvD2L28g248_kBUZmybaKT5cmUpMWMr7Qaq0PL37Hz1I8jjurKO1eXiXt_32gOzsZH5vo4dE5gOYwPmfDYVzcIu81xhl3F1K0i5r2kxxPPf69EhCzHHszFjnKRUm_Rt3I54JjGhTpvrk_qonQGJl9ROeIEJQRIuKdaA", "width": 1836}], "place_id": "ChIJyfBRo3F-hYARhwqbEAgp6Gw", "plus_code": {"compound_code": "RPRG+Q3 Oakland, California, United States", "global_code": "849VRPRG+Q3"}, "rating": 2.9, "reference": "ChIJyfBRo3F-hYARhwqbEAgp6Gw", "scope": "GOOGLE", "types": ["doctor", "health", "point_of_interest", "establishment"], "vicinity": "5709 Market Street, Oakland"}, "ChIJyfBRo3F-hYAR8zOJqngoac4": {"geometry": {"location": {"lat": 37.8419526, "lng": -122.2748262}, "viewport": {"northeast": {"lat": 37.8433205802915, "lng": -122.2733558197085}, "southwest": {"lat": 37.8406226197085, "lng": -122.2760537802915}}}, "icon": "https://maps.gstatic.com/mapfiles/place_api/icons/generic_business-71.png", "id": "bc9768cc4ea90c32a85ef0a9245f1ecba19fc47f", "name": "Gwendolyn Rowe, PHD", "place_id": "ChIJyfBRo3F-hYAR8zOJqngoac4", "plus_code": {"compound_code": "RPRG+Q3 Oakland, California, United States", "global_code": "849VRPRG+Q3"}, "reference": "ChIJyfBRo3F-hYAR8zOJqngoac4", "scope": "GOOGLE", "types": ["doctor", "health", "point_of_interest", "establishment"], "vicinity": "5709 Market Street, Oakland"}, "ChIJyfBRo3F-hYARSyRN9TIn3rg": {"geometry": {"location": {"lat": 37.8419526, "lng": -122.2748262}, "viewport": {"northeast": {"lat": 37.8433015802915, "lng": -122.2734772197085}, "southwest": {"lat": 37.8406036197085, "lng": -122.2761751802915}}}, "icon": "https://maps.gstatic.com/mapfiles/place_api/icons/generic_business-71.png", "id": "b4aceb341e79642946c9de199f630af6ea95d3c1", "name": "Hilary Ragan, MSW", "place_id": "ChIJyfBRo3F-hYARSyRN9TIn3rg", "plus_code": {"compound_code": "RPRG+Q3 Oakland, California, United States", "global_code": "849VRPRG+Q3"}, "reference": "ChIJyfBRo3F-hYARSyRN9TIn3rg", "scope": "GOOGLE", "types": ["doctor", "health", "point_of_interest", "establishment"], "vicinity": "5709 Market Street, Oakland, CA 94608, Oakland"}, "ChIJyfBRo3F-hYARnUbQwku9iwY": {"geometry": {"location": {"lat": 37.8419526, "lng": -122.2748262}, "viewport": {"northeast": {"lat": 37.8433015802915, "lng": -122.2734772197085}, "southwest": {"lat": 37.8406036197085, "lng": -122.2761751802915}}}, "icon": "https://maps.gstatic.com/mapfiles/place_api/icons/generic_business-71.png", "id": "2db5cc8fe4a7646d5f812f40c6a1c438fb993b7b", "name": "Ninita Best, ASW", "place_id": "ChIJyfBRo3F-hYARnUbQwku9iwY", "plus_code": {"compound_code": "RPRG+Q3 Oakland, California, United States", "global_code": "849VRPRG+Q3"}, "reference": "ChIJyfBRo3F-hYARnUbQwku9iwY", "scope": "GOOGLE", "types": ["doctor", "health", "point_of_interest", "establishment"], "vicinity": "5709 Market Street, Oakland, CA 94608, Oakland"}, "ChIJyfBRo3F-hYAR48_rijuxrMs": {"geometry": {"location": {"lat": 37.8418681, "lng": -122.2746634}, "viewport": {"northeast": {"lat": 37.8432254302915, "lng": -122.2732611197085}, "southwest": {"lat": 37.8405274697085, "lng": -122.2759590802915}}}, "icon": "https://maps.gstatic.com/mapfiles/place_api/icons/generic_business-71.png", "id": "89f9b3177abba7c5f66de750b6e77b3ab4c7dfe6", "name": "Dr. H G. Watson, MD", "place_id": "ChIJyfBRo3F-hYAR48_rijuxrMs", "plus_code": {"compound_code": "RPRG+P4 Oakland, California, United States", "global_code": "849VRPRG+P4"}, "reference": "ChIJyfBRo3F-hYAR48_rijuxrMs", "scope": "GOOGLE", "types": ["doctor", "health", "point_of_interest", "establishment"], "vicinity": "5709 Market Street, Emeryville"}, "ChIJyfBRo3F-hYAR-eabO8rGcc0": {"geometry": {"location": {"lat": 37.8418807, "lng": -122.2748416}, "viewport": {"northeast": {"lat": 37.84325123029149, "lng": -122.2733551197085}, "southwest": {"lat": 37.84055326970849, "lng": -122.2760530802915}}}, "icon": "https://maps.gstatic.com/mapfiles/place_api/icons/generic_business-71.png", "id": "6f5dda561c9107aae2266da7a3da946ddbfbb4f3", "name": "Boudreault David J", "place_id": "ChIJyfBRo3F-hYAR-eabO8rGcc0", "plus_code": {"compound_code": "RPRG+Q3 Oakland, California, United States", "global_code": "849VRPRG+Q3"}, "reference": "ChIJyfBRo3F-hYAR-eabO8rGcc0", "scope": "GOOGLE", "types": ["doctor", "health", "point_of_interest", "establishment"], "vicinity": "5709 Market Street, Oakland"}, "ChIJZfqvJy55hYARDPbn9O58-x8": {"geometry": {"location": {"lat": 37.842144, "lng": -122.2743395}, "viewport": {"northeast": {"lat": 37.8434821302915, "lng": -122.2730669197085}, "southwest": {"lat": 37.84078416970851, "lng": -122.2757648802915}}}, "icon": "https://maps.gstatic.com/mapfiles/place_api/icons/generic_business-71.png", "id": "e9be132008e964b945fd3610e82447bc1429959f", "name": "East Bay Lactation Associates", "opening_hours": {"open_now": false}, "place_id": "ChIJZfqvJy55hYARDPbn9O58-x8", "rating": 5, "reference": "ChIJZfqvJy55hYARDPbn9O58-x8", "scope": "GOOGLE", "types": ["health", "point_of_interest", "establishment"], "vicinity": "5730 Market Street, Oakland"}, "ChIJyfBRo3F-hYARhPnS3N_IYqE": {"geometry": {"location": {"lat": 37.8418807, "lng": -122.2748416}, "viewport": {"northeast": {"lat": 37.84325123029149, "lng": -122.2733551197085}, "southwest": {"lat": 37.84055326970849, "lng": -122.2760530802915}}}, "icon": "https://maps.gstatic.com/mapfiles/place_api/icons/generic_business-71.png", "id": "1cac491595da75e6b68073ad97246306c9088563", "name": "Morgan Joyce V", "place_id": "ChIJyfBRo3F-hYARhPnS3N_IYqE", "plus_code": {"compound_code": "RPRG+Q3 Oakland, California, United States", "global_code": "849VRPRG+Q3"}, "reference": "ChIJyfBRo3F-hYARhPnS3N_IYqE", "scope": "GOOGLE", "types": ["doctor", "health", "point_of_interest", "establishment"], "vicinity": "5709 Market Street, Oakland"}, "ChIJN1MNLqKAj4ARoM1StYUWGRE": {"geometry": {"location": {"lat": 37.8419526, "lng": -122.2748262}, "viewport": {"northeast": {"lat": 37.8433205802915, "lng": -122.2733558197085}, "southwest": {"lat": 37.8406226197085, "lng": -122.2760537802915}}}, "icon": "https://maps.gstatic.com/mapfiles/place_api/icons/generic_business-71.png", "id": "8cbd6d9fdf02dc32655df55a06a241e05ff05cf9", "name": "Bay Area Consortium-Quality", "place_id": "ChIJN1MNLqKAj4ARoM1StYUWGRE", "plus_code": {"compound_code": "RPRG+Q3 Oakland, California, United States", "global_code": "849VRPRG+Q3"}, "reference": "ChIJN1MNLqKAj4ARoM1StYUWGRE", "scope": "GOOGLE", "types": ["doctor", "health", "point_of_interest", "establishment"], "vicinity": "5709 Market Street, Oakland"}, "ChIJyfBRo3F-hYARP9CtGM57AcA": {"geometry": {"location": {"lat": 37.8418807, "lng": -122.2748416}, "viewport": {"northeast": {"lat": 37.84325123029149, "lng": -122.2733551197085}, "southwest": {"lat": 37.84055326970849, "lng": -122.2760530802915}}}, "icon": "https://maps.gstatic.com/mapfiles/place_api/icons/generic_business-71.png", "id": "b0d8e4f1680b8199935d68495648be6f4e99bcfd", "name": "Dozier Kristopher", "place_id": "ChIJyfBRo3F-hYARP9CtGM57AcA", "plus_code": {"compound_code": "RPRG+Q3 Oakland, California, United States", "global_code": "849VRPRG+Q3"}, "reference": "ChIJyfBRo3F-hYARP9CtGM57AcA", "scope": "GOOGLE", "types": ["point_of_interest", "establishment"], "vicinity": "5709 Market Street, Oakland"}, "ChIJYfBRo3F-hYARIQ4zOyU7Cqk": {"geometry": {"location": {"lat": 37.8418807, "lng": -122.2748416}, "viewport": {"northeast": {"lat": 37.84325123029149, "lng": -122.2733551197085}, "southwest": {"lat": 37.84055326970849, "lng": -122.2760530802915}}}, "icon": "https://maps.gstatic.com/mapfiles/place_api/icons/generic_business-71.png", "id": "6abcda2ebd0d263c0cf4291d2d71de5c221085ef", "name": "Towns Mark F MD", "place_id": "ChIJYfBRo3F-hYARIQ4zOyU7Cqk", "plus_code": {"compound_code": "RPRG+Q3 Oakland, California, United States", "global_code": "849VRPRG+Q3"}, "reference": "ChIJYfBRo3F-hYARIQ4zOyU7Cqk", "scope": "GOOGLE", "types": ["doctor", "health", "point_of_interest", "establishment"], "vicinity": "5709 Market Street, Emeryville"}, "ChIJYfBRo3F-hYARxwAx_JQ_VtQ": {"geometry": {"location": {"lat": 37.8418807, "lng": -122.2748416}, "viewport": {"northeast": {"lat": 37.84325123029149, "lng": -122.2733551197085}, "southwest": {"lat": 37.84055326970849, "lng": -122.2760530802915}}}, "icon": "https://maps.gstatic.com/mapfiles/place_api/icons/generic_business-71.png", "id": "93d3302f6cde1efc20582e7067768a74e709f4ee", "name": "Shawl Injury Rehab Center", "place_id": "ChIJYfBRo3F-hYARxwAx_JQ_VtQ", "plus_code": {"compound_code": "RPRG+Q3 Oakland, California, United States", "global_code": "849VRPRG+Q3"}, "reference": "ChIJYfBRo3F-hYARxwAx_JQ_VtQ", "scope": "GOOGLE", "types": ["health", "point_of_interest", "establishment"], "vicinity": "5709 Market Street, Emeryville"}, "ChIJfTwyunF-hYARJqtQALhjiQU": {"geometry": {"location": {"lat": 37.8419526, "lng": -122.2748262}, "viewport": {"northeast": {"lat": 37.8433205802915, "lng": -122.2733558197085}, "southwest": {"lat": 37.8406226197085, "lng": -122.2760537802915}}}, "icon": "https://maps.gstatic.com/mapfiles/place_api/icons/generic_business-71.png", "id": "710c5cc66ba7423c12660510ce70c36484ea3a4a", "name": "Dr. Gary E. Bean, MD", "place_id": "ChIJfTwyunF-hYARJqtQALhjiQU", "plus_code": {"compound_code": "RPRG+Q3 Oakland, California, United States", "global_code": "849VRPRG+Q3"}, "reference": "ChIJfTwyunF-hYARJqtQALhjiQU", "scope": "GOOGLE", "types": ["doctor", "health", "point_of_interest", "establishment"], "vicinity": "5715 Market Street, Emeryville"}, "ChIJfTwyunF-hYARR7bKGpFlFHs": {"geometry": {"location": {"lat": 37.8419526, "lng": -122.2748262}, "viewport": {"northeast": {"lat": 37.8433205802915, "lng": -122.2733558197085}, "southwest": {"lat": 37.8406226197085, "lng": -122.2760537802915}}}, "icon": "https://maps.gstatic.com/mapfiles/place_api/icons/generic_business-71.png", "id": "08b666d1cbd47ea4124fbdb72ac5ac7e8944144a", "name": "North Oakland Pediatric Group: Mines Jr Robert E MD", "place_id": "ChIJfTwyunF-hYARR7bKGpFlFHs", "plus_code": {"compound_code": "RPRG+Q3 Oakland, California, United States", "global_code": "849VRPRG+Q3"}, "reference": "ChIJfTwyunF-hYARR7bKGpFlFHs", "scope": "GOOGLE", "types": ["doctor", "health", "point_of_interest", "establishment"], "vicinity": "5715 Market Street, Emeryville"}, "ChIJebLZsXF-hYARdnIuuEySlAw": {"geometry": {"location": {"lat": 37.8423215, "lng": -122.2746165}, "viewport": {"northeast": {"lat": 37.8436704802915, "lng": -122.2732675197085}, "southwest": {"lat": 37.8409725197085, "lng": -122.2759654802915}}}, "icon": "https://maps.gstatic.com/mapfiles/place_api/icons/generic_business-71.png", "id": "8b66707fa364050c071627e84b6530be61b018d5", "name": "Market St:Arlington Av", "place_id": "ChIJebLZsXF-hYARdnIuuEySlAw", "plus_code": {"compound_code": "RPRG+W5 Oakland, California, United States", "global_code": "849VRPRG+W5"}, "reference": "ChIJebLZsXF-hYARdnIuuEySlAw", "scope": "GOOGLE", "types": ["transit_station", "point_of_interest", "establishment"], "vicinity": "United States"}, "ChIJA-2qKIt9hYARZ5N1NdUVtHE": {"geometry": {"location": {"lat": 37.8043637, "lng": -122.2711137}, "viewport": {"northeast": {"lat": 37.88472489999999, "lng": -122.114775}, "southwest": {"lat": 37.6322259, "lng": -122.355881}}}, "icon": "https://maps.gstatic.com/mapfiles/place_api/icons/geocode-71.png", "id": "da4a4da21e013f9d3a24e8eee6d4f84de02148d3", "name": "Oakland", "photos": [{"height": 2848, "html_attributions": ["<a href=\"https://maps.google.com/maps/contrib/113300206259949994494/photos\">Cimino Alberto</a>"], "photo_reference": "CmRaAAAAzSTxj4iCijFBA1Cch3ti5r87I1zfQIplDHzXhbScEGw8vLWx1W5o54Oa_Zhw7hoWmpb4UpCGrPkcPOvU1rexaJEcO3sHdY_j822AgJzWwuEL-ZqUY0OufyhOV9jyjDeGEhAzeZylO5zst4mrYwibJ0IsGhRvpc5H1m5DwDtev0OsGbq1aF5Ekw", "width": 4256}], "place_id": "ChIJA-2qKIt9hYARZ5N1NdUVtHE", "reference": "ChIJA-2qKIt9hYARZ5N1NdUVtHE", "scope": "GOOGLE", "types": ["locality", "political"], "vicinity": "Oakland"}, "ChIJacymunF-hYAR7nWKF4wTjQ0": {"geometry": {"location": {"lat": 37.8420994, "lng": -122.2746702}, "viewport": {"northeast": {"lat": 37.84345123029149, "lng": -122.2733030697085}, "southwest": {"lat": 37.84075326970849, "lng": -122.2760010302915}}}, "icon": "https://maps.gstatic.com/mapfiles/place_api/icons/generic_business-71.png", "id": "3639acf545e8a8ee23654925fea49c30ad5edc19", "name": "Bay Wellness", "place_id": "ChIJacymunF-hYAR7nWKF4wTjQ0", "plus_code": {"compound_code": "RPRG+R4 Oakland, California, United States", "global_code": "849VRPRG+R4"}, "reference": "ChIJacymunF-hYAR7nWKF4wTjQ0", "scope": "GOOGLE", "types": ["point_of_interest", "establishment"], "vicinity": "5725 Market Street, Oakland"}, "ChIJL-LOpHF-hYARjlApYaj0jYI": {"geometry": {"location": {"lat": 37.8419526, "lng": -122.2748262}, "viewport": {"northeast": {"lat": 37.8433205802915, "lng": -122.2733558197085}, "southwest": {"lat": 37.8406226197085, "lng": -122.2760537802915}}}, "icon": "https://maps.gstatic.com/mapfiles/place_api/icons/generic_business-71.png", "id": "904f0250e7e27ce22e21cbb0f41f435b5648afd5", "name": "Dr. Marcia Redwood, MD", "place_id": "ChIJL-LOpHF-hYARjlApYaj0jYI", "plus_code": {"compound_code": "RPRG+Q3 Oakland, California, United States", "global_code": "849VRPRG+Q3"}, "reference": "ChIJL-LOpHF-hYARjlApYaj0jYI", "scope": "GOOGLE", "types": ["doctor", "health", "point_of_interest", "establishment"], "vicinity": "5709 Market Street, Oakland"}, "ChIJyfBRo3F-hYARhpWQb8gyMdg": {"geometry": {"location": {"lat": 37.8419526, "lng": -122.2748262}, "viewport": {"northeast": {"lat": 37.8433205802915, "lng": -122.2733558197085}, "southwest": {"lat": 37.8406226197085, "lng": -122.2760537802915}}}, "icon": "https://maps.gstatic.com/mapfiles/place_api/icons/generic_business-71.png", "id": "1ed89c127af9d88abc635c387c0827d7fa193315", "name": "Theodros Shawl, DC", "place_id": "ChIJyfBRo3F-hYARhpWQb8gyMdg", "plus_code": {"compound_code": "RPRG+Q3 Oakland, California, United States", "global_code": "849VRPRG+Q3"}, "rating": 1, "reference": "ChIJyfBRo3F-hYARhpWQb8gyMdg", "scope": "GOOGLE", "types": ["health", "point_of_interest", "establishment"], "vicinity": "5709 Market Street, Oakland"}, "ChIJ6Q2Er3F-hYARxE4SQ6heTB4": {"geometry": {"location": {"lat": 37.842233, "lng": -122.274463}, "viewport": {"northeast": {"lat": 37.8435819802915, "lng": -122.2731140197085}, "southwest": {"lat": 37.8408840197085, "lng": -122.2758119802915}}}, "icon": "https://maps.gstatic.com/mapfiles/place_api/icons/bus-71.png", "id": "01d6fcb2273d0cd86817c8c848303c3c5c089998", "name": "Market St:Arlington Av", "place_id": "ChIJ6Q2Er3F-hYARxE4SQ6heTB4", "plus_code": {"compound_code": "RPRG+V6 Oakland, California, United States", "global_code": "849VRPRG+V6"}, "reference": "ChIJ6Q2Er3F-hYARxE4SQ6heTB4", "scope": "GOOGLE", "types": ["bus_station", "transit_station", "point_of_interest", "establishment"], "vicinity": "United States"}, "ChIJUaYtsnF-hYARChwb7adC3pI": {"geometry": {"location": {"lat": 37.84241, "lng": -122.27477}, "viewport": {"northeast": {"lat": 37.8437589802915, "lng": -122.2734210197085}, "southwest": {"lat": 37.8410610197085, "lng": -122.2761189802915}}}, "icon": "https://maps.gstatic.com/mapfiles/place_api/icons/bus-71.png", "id": "b6ac3fc1994350ba69820468f1958287b440f079", "name": "Market St:Arlington Av", "place_id": "ChIJUaYtsnF-hYARChwb7adC3pI", "plus_code": {"compound_code": "RPRG+X3 Oakland, California, United States", "global_code": "849VRPRG+X3"}, "reference": "ChIJUaYtsnF-hYARChwb7adC3pI", "scope": "GOOGLE", "types": ["bus_station", "transit_station", "point_of_interest", "establishment"], "vicinity": "United States"}, "ChIJ-0CBs3F-hYARtVgPFdwVeTc": {"geometry": {"location": {"lat": 37.84248739999999, "lng": -122.2748842}, "viewport": {"northeast": {"lat": 37.84384898029149, "lng": -122.2734487697085}, "southwest": {"lat": 37.84115101970849, "lng": -122.2761467302915}}}, "icon": "https://maps.gstatic.com/mapfiles/place_api/icons/restaurant-71.png", "id": "ba0cf8ebeb06851d6a4f0a09cb275f8734eeffad", "name": "Tamaleria Azteca", "opening_hours": {"open_now": false}, "photos": [{"height": 1805, "html_attributions": ["<a href=\"https://maps.google.com/maps/contrib/107721404123505875377/photos\">Albert L.</a>"], "photo_reference": "CmRaAAAAQb8334B3iEMlYSv0JYXvmEiUVI_3pOA4tAgLTpNI7xuhDwmHIInIozFJ8l4xyImTOjoXXxkjj-aZbWQotRmXOjObxXoEq79-3JH2cREoo8No6vl4TZfgyQw5kOTg_z2hEhDbXMmredYXjUJmnUVGwyp-GhSvNFHk-2_cQIhzWgqebxptNzRSFA", "width": 2048}], "place_id": "ChIJ-0CBs3F-hYARtVgPFdwVeTc", "plus_code": {"compound_code": "RPRG+X2 Oakland, California, United States", "global_code": "849VRPRG+X2"}, "rating": 4.5, "reference": "ChIJ-0CBs3F-hYARtVgPFdwVeTc", "scope": "GOOGLE", "types": ["restaurant", "point_of_interest", "food", "establishment"], "vicinity": "5751 Market Street, Oakland"}, "ChIJA-S5rnF-hYARSTh0E7TgYIU": {"geometry": {"location": {"lat": 37.842465, "lng": -122.274296}, "viewport": {"northeast": {"lat": 37.84378323029149, "lng": -122.2728014197085}, "southwest": {"lat": 37.84108526970849, "lng": -122.2754993802915}}}, "icon": "https://maps.gstatic.com/mapfiles/place_api/icons/generic_business-71.png", "id": "6124215b4163d4ea55037d1b7780748499b49988", "name": "Quest For Success", "opening_hours": {"open_now": false}, "photos": [{"height": 1440, "html_attributions": ["<a href=\"https://maps.google.com/maps/contrib/108339705671305542886/photos\">Justice Ray</a>"], "photo_reference": "CmRaAAAA_O7d6yJVj93_bLXRSzYY__4zkeXqh-i59E6Mvwcl6_9J_GBc7E9yqy3oO0cZOgoTSHEJjT8gUgzFE_Ko7QiGNnr9STihGOdaU5JhdP4wO3xpmsT1VNdp-kE7cPPW3A46EhA-UWgMwBOhDsqPewY7ZZjfGhRsmxcJQn530s8k3a-6wmemcVbIGg", "width": 2560}], "place_id": "ChIJA-S5rnF-hYARSTh0E7TgYIU", "plus_code": {"compound_code": "RPRG+X7 Oakland, California, United States", "global_code": "849VRPRG+X7"}, "reference": "ChIJA-S5rnF-hYARSTh0E7TgYIU", "scope": "GOOGLE", "types": ["point_of_interest", "establishment"], "vicinity": "5751 Adeline Street, Oakland"}, "ChIJ-bemCnF-hYARV3JBvF1YBXk": {"geometry": {"location": {"lat": 37.84171669999999, "lng": -122.2740881}, "viewport": {"northeast": {"lat": 37.8430889802915, "lng": -122.2728290697085}, "southwest": {"lat": 37.84039101970851, "lng": -122.2755270302915}}}, "icon": "https://maps.gstatic.com/mapfiles/place_api/icons/shopping-71.png", "id": "895e442a402b72054d47817daa4bdbe142c242a7", "name": "Adeline Liquors", "photos": [{"height": 4608, "html_attributions": ["<a href=\"https://maps.google.com/maps/contrib/111079985178990216771/photos\">shawn battle</a>"], "photo_reference": "CmRaAAAAljtihAkY5W7aFBeQuN7GTJku-peEtHrvqcPD9MBQ8RIzo3mZW5WeeQ2YvOtMO3zh0BRtncY83nr5wlsH4TPDUGCOm-2K2TBnpPkuWWPynEjxhhR_0g2DZdZ_JAZsVQuQEhBdHUvNEKh4mSayJ0FMO7UQGhQi2JTma8V1u5FGKIyCK0SwcYGB7Q", "width": 3456}], "place_id": "ChIJ-bemCnF-hYARV3JBvF1YBXk", "plus_code": {"compound_code": "RPRG+M9 Oakland, California, United States", "global_code": "849VRPRG+M9"}, "rating": 5, "reference": "ChIJ-bemCnF-hYARV3JBvF1YBXk", "scope": "GOOGLE", "types": ["liquor_store", "store", "point_of_interest", "establishment"], "vicinity": "5702 Adeline Street, Emeryville"}, "ChIJacmirXF-hYARQJXLKsuUrMA": {"geometry": {"location": {"lat": 37.8425733, "lng": -122.2744757}, "viewport": {"northeast": {"lat": 37.8439132802915, "lng": -122.2731861197085}, "southwest": {"lat": 37.8412153197085, "lng": -122.2758840802915}}}, "icon": "https://maps.gstatic.com/mapfiles/place_api/icons/generic_business-71.png", "id": "eb262446e7b3a075db7aa21786292b785e004354", "name": "NEW Horizons Property Management", "opening_hours": {"open_now": false}, "place_id": "ChIJacmirXF-hYARQJXLKsuUrMA", "plus_code": {"compound_code": "RPVG+26 Oakland, California, United States", "global_code": "849VRPVG+26"}, "reference": "ChIJacmirXF-hYARQJXLKsuUrMA", "scope": "GOOGLE", "types": ["point_of_interest", "establishment"], "vicinity": "5760 Market Street, Oakland"}}