{"ChIJ4_l1a819hYARF_KWjmjpHjQ": {"geometry": {"location": {"lat": 37.8598761, "lng": -122.2528137}, "viewport": {"northeast": {"lat": 37.8612250802915, "lng": -122.2514647197085}, "southwest": {"lat": 37.8585271197085, "lng": -122.2541626802915}}}, "icon": "https://maps.gstatic.com/mapfiles/place_api/icons/geocode-71.png", "id": "a5b4152275a7b8afa982b923896436768d0bd53e", "name": "2719-2701 Stuart St", "place_id": "ChIJ4_l1a819hYARF_KWjmjpHjQ", "reference": "ChIJ4_l1a819hYARF_KWjmjpHjQ", "scope": "GOOGLE", "types": ["route"], "vicinity": "Berkeley"}, "ChIJi2vv-sJ9hYARSPWWGlJI8Ss": {"geometry": {"location": {"lat": 37.8594291, "lng": -122.2530023}, "viewport": {"northeast": {"lat": 37.8607672802915, "lng": -122.2517947697085}, "southwest": {"lat": 37.8580693197085, "lng": -122.2544927302915}}}, "icon": "https://maps.gstatic.com/mapfiles/place_api/icons/generic_business-71.png", "id": "79a91250841f968e6ebd3d34d3c067e6eafa8642", "name": "Fiona Brandon - Psychotherapist", "opening_hours": {"open_now": true}, "photos": [{"height": 1363, "html_attributions": ["<a href=\"https://maps.google.com/maps/contrib/110050321000647920042/photos\">Fiona Brandon - Psychotherapist</a>"], "photo_reference": "CmRaAAAAybMmQkXfbVpImt7Olc89qq6KQh6EU0Km7rNjCyoJkxS_7m43goj0U0bN2Zj_snFtOR1ZR2kRe-32oMK7QyOFUInVNaheRJIginxDKMESi0K0XSj9me3opU-Mh8ByGxU_EhCAEctxR6rCk9pexRteeSneGhSpjvs29pvflmnx5d8zwbQXgVlT0w", "width": 2048}], "place_id": "ChIJi2vv-sJ9hYARSPWWGlJI8Ss", "plus_code": {"compound_code": "VP5W+QQ Berkeley, California, United States", "global_code": "849VVP5W+QQ"}, "reference": "ChIJi2vv-sJ9hYARSPWWGlJI8Ss", "scope": "GOOGLE", "types": ["health", "point_of_interest", "establishment"], "vicinity": "2811 College Avenue, Berkeley"}, "ChIJRyTR4ft9hYARaH8-XvUMhDw": {"geometry": {"location": {"lat": 37.859429, "lng": -122.253002}, "viewport": {"northeast": {"lat": 37.8607671302915, "lng": -122.2517945697085}, "southwest": {"lat": 37.85806916970851, "lng": -122.2544925302915}}}, "icon": "https://maps.gstatic.com/mapfiles/place_api/icons/generic_business-71.png", "id": "3aea2defe80abe76bc8a100cb082245066f7f65f", "name": "Rose Snyder, Ed.M., Psy.D. Psychotherapy", "photos": [{"height": 2042, "html_attributions": ["<a href=\"https://maps.google.com/maps/contrib/104210846827831171094/photos\">Rose Snyder, Ed.M., Psy.D. Psychotherapy</a>"], "photo_reference": "CmRaAAAA0OMOBuubwNGZI5nPeevcTzNGUCtGmgL9CLBBCHRoG4X1jie52ecYiuLflS-G1NDrgqcGy9uvDv3qZb0OkYvQuNu1BuOaLSwMkbQaJYeYy4iC3GnceUfLGm2twmBJezMBEhAgWF5FmB9witSR78F3RxJyGhQicEGgvHwVkXpWs6X6R4odtQQ61g", "width": 1915}], "place_id": "ChIJRyTR4ft9hYARaH8-XvUMhDw", "plus_code": {"compound_code": "VP5W+QQ Berkeley, California, United States", "global_code": "849VVP5W+QQ"}, "reference": "ChIJRyTR4ft9hYARaH8-XvUMhDw", "scope": "GOOGLE", "types": ["health", "point_of_interest", "establishment"], "vicinity": "2811 College Avenue, Berkeley"}, "ChIJq1cDcs19hYARacRmyrZJ5G0": {"geometry": {"location": {"lat": 37.8594417, "lng": -122.2530159}, "viewport": {"northeast": {"lat": 37.8607803302915, "lng": -122.2518023697085}, "southwest": {"lat": 37.8580823697085, "lng": -122.2545003302915}}}, "icon": "https://maps.gstatic.com/mapfiles/place_api/icons/generic_business-71.png", "id": "e443a04743932bca53d6f944864ffba1fb12b0df", "name": "Oakland Healing Arts Psychotherapy", "opening_hours": {"open_now": true}, "photos": [{"height": 319, "html_attributions": ["<a href=\"https://maps.google.com/maps/contrib/110335166785908337463/photos\">Oakland Healing Arts Psychotherapy</a>"], "photo_reference": "CmRaAAAA7ilsX807c9WUAuDLmW7qdkbflbp8_m9UZco1wsqqV7b3wdLLQqwSmgEa35oHHjjBTNbefe31hUNxU2H9IZF6y5uU4dykFCV-nHoGaEYPCNFuPrUta_l8ulTnq_RVb3BLEhAH0QT_gA-bFnxvelpNdujiGhQAkQnMSnw7sPNiu44kPns5jr6ewg", "width": 319}], "place_id": "ChIJq1cDcs19hYARacRmyrZJ5G0", "plus_code": {"compound_code": "VP5W+QQ Berkeley, California, United States", "global_code": "849VVP5W+QQ"}, "reference": "ChIJq1cDcs19hYARacRmyrZJ5G0", "scope": "GOOGLE", "types": ["health", "point_of_interest", "establishment"], "vicinity": "2811 College Avenue, Berkeley"}, "ChIJq1cDcs19hYARr5TE2itFkvs": {"geometry": {"location": {"lat": 37.8594345, "lng": -122.2530455}, "viewport": {"northeast": {"lat": 37.8607742802915, "lng": -122.2518168697085}, "southwest": {"lat": 37.8580763197085, "lng": -122.2545148302915}}}, "icon": "https://maps.gstatic.com/mapfiles/place_api/icons/generic_business-71.png", "id": "54c35641d456e8d6ecad46e6a42e22368c49e9b8", "name": "Berkeley Healing Arts Psychotherapy", "opening_hours": {"open_now": true}, "photos": [{"height": 339, "html_attributions": ["<a href=\"https://maps.google.com/maps/contrib/114390990038211166681/photos\">Berkeley Healing Arts Psychotherapy</a>"], "photo_reference": "CmRaAAAAOT4UOvmEfgeizRd5KQhJUHoHb7Kf-idly3ttPFWRGNLp6KK29uY1NPVg1THJqAkTLgILmRL5QbEeyEEn_LoUO4jjma8veJWchYuqK1Vo7sELGiLdqCH3pODnrMyzQGJ5EhDuWHQ7EI8ygCsAS7xf1pqOGhTeqXvGOUfQr5248IaNQq8HD_DrDg", "width": 338}], "place_id": "ChIJq1cDcs19hYARr5TE2itFkvs", "plus_code": {"compound_code": "VP5W+QQ Berkeley, California, United States", "global_code": "849VVP5W+QQ"}, "reference": "ChIJq1cDcs19hYARr5TE2itFkvs", "scope": "GOOGLE", "types": ["health", "point_of_interest", "establishment"], "vicinity": "2811 College Avenue, Berkeley"}, "ChIJ52ZLNZ-AhYARRRnrWPjIFVQ": {"geometry": {"location": {"lat": 37.8594291, "lng": -122.2530023}, "viewport": {"northeast": {"lat": 37.8607672802915, "lng": -122.2517947697085}, "southwest": {"lat": 37.8580693197085, "lng": -122.2544927302915}}}, "icon": "https://maps.gstatic.com/mapfiles/place_api/icons/generic_business-71.png", "id": "8bd7aa03518611caf68cc315ba2bc7ec5a060ff5", "name": "Shawn Goozh, PsyD -- Psychotherapy and Couples Therapy", "photos": [{"height": 390, "html_attributions": ["<a href=\"https://maps.google.com/maps/contrib/100510181671418764100/photos\">Shawn Goozh, PsyD -- Psychotherapy and Couples Therapy</a>"], "photo_reference": "CmRaAAAAOKHV0MCws8tj446f5pzBzNtj6oPV18feX6RBbgbmjKz1509Ap1Zr2uWERpG7nEAmuDM3aaJgKHAMFW-4lOUrsIhjsnZYLOsLZOT_-OvHVvX-xU1BFxY2qRx5AcRA-CTqEhC0K69PrV5JkGrpijmRBorsGhQbUaNrmCMoijdcCwlCe80_St10OA", "width": 338}], "place_id": "ChIJ52ZLNZ-AhYARRRnrWPjIFVQ", "plus_code": {"compound_code": "VP5W+QQ Berkeley, California, United States", "global_code": "849VVP5W+QQ"}, "rating": 5, "reference": "ChIJ52ZLNZ-AhYARRRnrWPjIFVQ", "scope": "GOOGLE", "types": ["health", "point_of_interest", "establishment"], "vicinity": "2811 College Avenue, Berkeley"}, "ChIJwyoZcs19hYARerf8cDcqmVQ": {"geometry": {"location": {"lat": 37.8594207, "lng": -122.2530367}, "viewport": {"northeast": {"lat": 37.8607602302915, "lng": -122.2518115697085}, "southwest": {"lat": 37.8580622697085, "lng": -122.2545095302915}}}, "icon": "https://maps.gstatic.com/mapfiles/place_api/icons/generic_business-71.png", "id": "74ad667129e2255de9079ff0b6549742fee08a16", "name": "Annahita Waxing & Facials", "opening_hours": {"open_now": true}, "place_id": "ChIJwyoZcs19hYARerf8cDcqmVQ", "plus_code": {"compound_code": "VP5W+QQ Berkeley, California, United States", "global_code": "849VVP5W+QQ"}, "rating": 5, "reference": "ChIJwyoZcs19hYARerf8cDcqmVQ", "scope": "GOOGLE", "types": ["beauty_salon", "point_of_interest", "establishment"], "vicinity": "2811 College Avenue, Berkeley"}, "ChIJwyoZcs19hYAR-BtpdsOs0A4": {"geometry": {"location": {"lat": 37.8594291, "lng": -122.2530023}, "viewport": {"northeast": {"lat": 37.8607672802915, "lng": -122.2517947697085}, "southwest": {"lat": 37.8580693197085, "lng": -122.2544927302915}}}, "icon": "https://maps.gstatic.com/mapfiles/place_api/icons/generic_business-71.png", "id": "67639e964b4798224faec82696fd44f8ab1c58d4", "name": "Markel Bennett F MD", "place_id": "ChIJwyoZcs19hYAR-BtpdsOs0A4", "plus_code": {"compound_code": "VP5W+QQ Berkeley, California, United States", "global_code": "849VVP5W+QQ"}, "rating": 5, "reference": "ChIJwyoZcs19hYAR-BtpdsOs0A4", "scope": "GOOGLE", "types": ["doctor", "health", "point_of_interest", "establishment"], "vicinity": "2811 College Avenue, Berkeley"}, "ChIJEYz5cc19hYAR_9DYoVHTWco": {"geometry": {"location": {"lat": 37.859429, "lng": -122.253002}, "viewport": {"northeast": {"lat": 37.8607671302915, "lng": -122.2517945697085}, "southwest": {"lat": 37.85806916970851, "lng": -122.2544925302915}}}, "icon": "https://maps.gstatic.com/mapfiles/place_api/icons/generic_business-71.png", "id": "13b7bd90210b1a63821229c029c5630f8ad197cc", "name": "Deeply Happy", "place_id": "ChIJEYz5cc19hYAR_9DYoVHTWco", "plus_code": {"compound_code": "VP5W+QQ Berkeley, California, United States", "global_code": "849VVP5W+QQ"}, "reference": "ChIJEYz5cc19hYAR_9DYoVHTWco", "scope": "GOOGLE", "types": ["health", "point_of_interest", "establishment"], "vicinity": "2811A College Avenue, Berkeley"}, "ChIJEYz5cc19hYAR2W8brIXWgoo": {"geometry": {"location": {"lat": 37.859429, "lng": -122.253002}, "viewport": {"northeast": {"lat": 37.8607671302915, "lng": -122.2517945697085}, "southwest": {"lat": 37.85806916970851, "lng": -122.2544925302915}}}, "icon": "https://maps.gstatic.com/mapfiles/place_api/icons/generic_business-71.png", "id": "a5956244a26a084362914c7a9b2c0f3b6bca95ab", "name": "karen r levin", "place_id": "ChIJEYz5cc19hYAR2W8brIXWgoo", "plus_code": {"compound_code": "VP5W+QQ Berkeley, California, United States", "global_code": "849VVP5W+QQ"}, "reference": "ChIJEYz5cc19hYAR2W8brIXWgoo", "scope": "GOOGLE", "types": ["health", "point_of_interest", "establishment"], "vicinity": "2811A College Avenue, Berkeley"}, "ChIJwyoZcs19hYARwdcxIfpEVnM": {"geometry": {"location": {"lat": 37.8594287, "lng": -122.2530522}, "viewport": {"northeast": {"lat": 37.86076878029149, "lng": -122.2518199197085}, "southwest": {"lat": 37.85807081970849, "lng": -122.2545178802915}}}, "icon": "https://maps.gstatic.com/mapfiles/place_api/icons/generic_business-71.png", "id": "6c56f37f4c64dbc1e4ff7b513e6c00555554327b", "name": "Ozores Julio N MD", "place_id": "ChIJwyoZcs19hYARwdcxIfpEVnM", "plus_code": {"compound_code": "VP5W+QQ Berkeley, California, United States", "global_code": "849VVP5W+QQ"}, "reference": "ChIJwyoZcs19hYARwdcxIfpEVnM", "scope": "GOOGLE", "types": ["doctor", "health", "point_of_interest", "establishment"], "vicinity": "2811 College Avenue, Berkeley"}, "ChIJV4n5cc19hYARQzeu4lgGw4g": {"geometry": {"location": {"lat": 37.8594291, "lng": -122.2530023}, "viewport": {"northeast": {"lat": 37.8607672802915, "lng": -122.2517947697085}, "southwest": {"lat": 37.8580693197085, "lng": -122.2544927302915}}}, "icon": "https://maps.gstatic.com/mapfiles/place_api/icons/generic_business-71.png", "id": "e2b59dff2c1bd14b583276ad9ae5b185488e250c", "name": "Laurie Jacobs MFT", "opening_hours": {"open_now": false}, "place_id": "ChIJV4n5cc19hYARQzeu4lgGw4g", "plus_code": {"compound_code": "VP5W+QQ Berkeley, California, United States", "global_code": "849VVP5W+QQ"}, "reference": "ChIJV4n5cc19hYARQzeu4lgGw4g", "scope": "GOOGLE", "types": ["health", "point_of_interest", "establishment"], "vicinity": "2811 College Avenue, Berkeley"}, "ChIJwyoZcs19hYARHMK5sxlLqvY": {"geometry": {"location": {"lat": 37.8594291, "lng": -122.2530023}, "viewport": {"northeast": {"lat": 37.8607672802915, "lng": -122.2517947697085}, "southwest": {"lat": 37.8580693197085, "lng": -122.2544927302915}}}, "icon": "https://maps.gstatic.com/mapfiles/place_api/icons/generic_business-71.png", "id": "7972c80cd63b3d8650dba3739a79e95423f8e291", "name": "L. Elena Hernandez, PsyD, Berkeley Psychologist: Therapy for Individuals and Couples", "opening_hours": {"open_now": true}, "photos": [{"height": 3001, "html_attributions": ["<a href=\"https://maps.google.com/maps/contrib/113312158973574135619/photos\">L. Elena Hernandez, PsyD, Therapy for Individuals and Couples</a>"], "photo_reference": "CmRaAAAAvDiKP-pWoQZWJKwftWdpTm_L1wwf-d8_bWQXObnr2FkZx7XpqoccsrVbhDxQ0srkY-Ny9XNgp4gaRODuf2ok4u8Mf6fALlnb1o1EwwhBqciob_yxdO-21VwDEmA-QUr1EhBglzcb4v84DovwDlPtu9jYGhRNXfhs5Ounv6yQMPfyJCloHLbWbQ", "width": 3002}], "place_id": "ChIJwyoZcs19hYARHMK5sxlLqvY", "plus_code": {"compound_code": "VP5W+QQ Berkeley, California, United States", "global_code": "849VVP5W+QQ"}, "reference": "ChIJwyoZcs19hYARHMK5sxlLqvY", "scope": "GOOGLE", "types": ["health", "point_of_interest", "establishment"], "vicinity": "2811 College Avenue, Berkeley"}, "ChIJV4n5cc19hYARSUzNAxtdIiA": {"geometry": {"location": {"lat": 37.8594291, "lng": -122.2530023}, "viewport": {"northeast": {"lat": 37.8607672802915, "lng": -122.2517947697085}, "southwest": {"lat": 37.8580693197085, "lng": -122.2544927302915}}}, "icon": "https://maps.gstatic.com/mapfiles/place_api/icons/generic_business-71.png", "id": "3bc1fe6f72b4eda4aa25e85e7368b0243deb8cdb", "name": "Anki Alford LMFT", "photos": [{"height": 480, "html_attributions": ["<a href=\"https://maps.google.com/maps/contrib/111874665201915128131/photos\">Anki Alford LMFT</a>"], "photo_reference": "CmRZAAAAOdNOC6ui8O-bu9xH-cVtlrRIKsijfoT4mkKbu-oV_b2UqRS3GxkBrdfNFXJhyPda50GcD_qMh6IpH1Hyvb8HvLhwhuSbmzmGlV1Pe3dwW2BahMqRkUQrVC69W7_T9I5wEhAruAyzpNkoHhTrD48Td0qDGhSx9lf_bQX--2qOfYjqNAXVb3EF7A", "width": 640}], "place_id": "ChIJV4n5cc19hYARSUzNAxtdIiA", "plus_code": {"compound_code": "VP5W+QQ Berkeley, California, United States", "global_code": "849VVP5W+QQ"}, "reference": "ChIJV4n5cc19hYARSUzNAxtdIiA", "scope": "GOOGLE", "types": ["health", "point_of_interest", "establishment"], "vicinity": "2811 College Avenue, Berkeley"}, "ChIJ52WjeXR9hYARSd6BbwDc3j8": {"geometry": {"location": {"lat": 37.859429, "lng": -122.253002}, "viewport": {"northeast": {"lat": 37.8607671302915, "lng": -122.2517945697085}, "southwest": {"lat": 37.85806916970851, "lng": -122.2544925302915}}}, "icon": "https://maps.gstatic.com/mapfiles/place_api/icons/generic_business-71.png", "id": "dd7b0efbea95718cc49f8985584ba3acdbcef3c8", "name": "Jamie Epstein, Psy.D.", "place_id": "ChIJ52WjeXR9hYARSd6BbwDc3j8", "plus_code": {"compound_code": "VP5W+QQ Berkeley, California, United States", "global_code": "849VVP5W+QQ"}, "reference": "ChIJ52WjeXR9hYARSd6BbwDc3j8", "scope": "GOOGLE", "types": ["health", "point_of_interest", "establishment"], "vicinity": "2811 A College Avenue, Berkeley"}, "ChIJAQD8cc19hYARkhpeHSPDiOs": {"geometry": {"location": {"lat": 37.859429, "lng": -122.253002}, "viewport": {"northeast": {"lat": 37.8607671302915, "lng": -122.2517945697085}, "southwest": {"lat": 37.85806916970851, "lng": -122.2544925302915}}}, "icon": "https://maps.gstatic.com/mapfiles/place_api/icons/generic_business-71.png", "id": "d6870573b68756bf6a46d29521734644d6348164", "name": "Triumph over Trauma", "place_id": "ChIJAQD8cc19hYARkhpeHSPDiOs", "plus_code": {"compound_code": "VP5W+QQ Berkeley, California, United States", "global_code": "849VVP5W+QQ"}, "reference": "ChIJAQD8cc19hYARkhpeHSPDiOs", "scope": "GOOGLE", "types": ["health", "point_of_interest", "establishment"], "vicinity": "2811A College Avenue, Berkeley"}, "ChIJV4n5cc19hYARhMGx7fkexaU": {"geometry": {"location": {"lat": 37.859425, "lng": -122.2530624}, "viewport": {"northeast": {"lat": 37.8607654802915, "lng": -122.2518248197085}, "southwest": {"lat": 37.8580675197085, "lng": -122.2545227802915}}}, "icon": "https://maps.gstatic.com/mapfiles/place_api/icons/generic_business-71.png", "id": "874c6b58d6e6b5b0afda47cea897fa7e447bbc13", "name": "Heather Bradley - Licensed Psychologist", "photos": [{"height": 2048, "html_attributions": ["<a href=\"https://maps.google.com/maps/contrib/114407529023752123173/photos\">Heather Bradley - Licensed Psychologist</a>"], "photo_reference": "CmRaAAAA6PDkZPTPmvMeI8-x0zL3mp4dt3MPCptdhUp28XUvXTRfl42t-3JOb31212zdoHpekTT6PshhqxXFdxpYj66at0s3UeBG-LBYfaqqq2WheESQLK4zZuy9wGFTygJN3tqbEhDUL4N07WJDXEqTJz1vfTWoGhTNrJ6x3oVccaF4ne7Z-Wo9cgZelw", "width": 2048}], "place_id": "ChIJV4n5cc19hYARhMGx7fkexaU", "plus_code": {"compound_code": "VP5W+QQ Berkeley, California, United States", "global_code": "849VVP5W+QQ"}, "reference": "ChIJV4n5cc19hYARhMGx7fkexaU", "scope": "GOOGLE", "types": ["health", "point_of_interest", "establishment"], "vicinity": "2811 College Avenue, Berkeley"}, "ChIJe8v9ylR9hYARZHTTIIV1-Eg": {"geometry": {"location": {"lat": 37.8594208, "lng": -122.253107}, "viewport": {"northeast": {"lat": 37.8607629802915, "lng": -122.2518470697085}, "southwest": {"lat": 37.8580650197085, "lng": -122.2545450302915}}}, "icon": "https://maps.gstatic.com/mapfiles/place_api/icons/generic_business-71.png", "id": "22a5cb8e8955756071a40646a4e19d8a0e20446b", "name": "Berkeley Life Coaching- Sarra L. Ziari, JD and L. Elena Hernandez, PsyD", "place_id": "ChIJe8v9ylR9hYARZHTTIIV1-Eg", "plus_code": {"compound_code": "VP5W+QQ Berkeley, California, United States", "global_code": "849VVP5W+QQ"}, "reference": "ChIJe8v9ylR9hYARZHTTIIV1-Eg", "scope": "GOOGLE", "types": ["health", "point_of_interest", "establishment"], "vicinity": "2811 College Avenue A, Berkeley"}, "ChIJ00mFOjZ5hYARk-l1ppUV6pQ": {"geometry": {"location": {"lat": 37.8715926, "lng": -122.272747}, "viewport": {"northeast": {"lat": 37.9058239, "lng": -122.234179}, "southwest": {"lat": 37.835727, "lng": -122.367781}}}, "icon": "https://maps.gstatic.com/mapfiles/place_api/icons/geocode-71.png", "id": "00741fe572fc4084428ab206e1a55830f6a1bf0a", "name": "Berkeley", "photos": [{"height": 1080, "html_attributions": ["<a href=\"https://maps.google.com/maps/contrib/110244590763501513798/photos\">miao hsin sun</a>"], "photo_reference": "CmRaAAAA-mkK7xwgpk-BWQ4OF71x4UqUZEvHuCESwKUf7T-1IQ-5Kwc_i5Lmfngt2ldOXWaxIp9ZzmNVlQbKWlcpLB_a378tay4UO7WPOJpKkQZohwJ-eYGz0h-wdJVYD48uq39JEhDExy1Yi7cyaCEi1ZR-P6pZGhTa6LMQv7Tlw-90lWpgM139ARrc6g", "width": 1616}], "place_id": "ChIJ00mFOjZ5hYARk-l1ppUV6pQ", "reference": "ChIJ00mFOjZ5hYARk-l1ppUV6pQ", "scope": "GOOGLE", "types": ["locality", "political"], "vicinity": "Berkeley"}}