{"ChIJTUOQE6J-hYAR66Cx6zUsQUc": {"geometry": {"location": {"lat": 37.8752576, "lng": -122.2722674}, "viewport": {"northeast": {"lat": 37.8766065802915, "lng": -122.26996}, "southwest": {"lat": 37.8739086197085, "lng": -122.2745748}}}, "icon": "https://maps.gstatic.com/mapfiles/place_api/icons/geocode-71.png", "id": "6dbb0b78e40fd650b35bcdc327f60ebe4f59cf86", "name": "1900-1998 Francisco St", "place_id": "ChIJTUOQE6J-hYAR66Cx6zUsQUc", "reference": "ChIJTUOQE6J-hYAR66Cx6zUsQUc", "scope": "GOOGLE", "types": ["route"], "vicinity": "Berkeley"}, "ChIJ35TRC6J-hYAR5PmlKjuyb8Y": {"geometry": {"location": {"lat": 37.87446, "lng": -122.272131}, "viewport": {"northeast": {"lat": 37.8757597802915, "lng": -122.2707718697085}, "southwest": {"lat": 37.8730618197085, "lng": -122.2734698302915}}}, "icon": "https://maps.gstatic.com/mapfiles/place_api/icons/school-71.png", "id": "cf55bbe986d6a4e97a1f11d265da6ba637ba03e2", "name": "Harry Likas Piano Player", "opening_hours": {"open_now": true}, "photos": [{"height": 400, "html_attributions": ["<a href=\"https://maps.google.com/maps/contrib/115192698192082728134/photos\">Harry Likas Piano Player</a>"], "photo_reference": "CmRaAAAA6iNG9MlLwo8g-KfIxnO2BUhmHmOCj2IQJdAPZt8dG_OuLnTl2TwB9DO8c5LCGwvf0Chv3A82QyZCE42D-W6LAT2rfshipesHIY6rFL6rooYVx_6zeDaUtJvQMv2j8kp8EhBcHEi_sjBaGb8QrfjJfm2yGhT0Uo2w6bXNUDdKwePY7eB-WTZqdA", "width": 300}], "place_id": "ChIJ35TRC6J-hYAR5PmlKjuyb8Y", "plus_code": {"compound_code": "VPFH+Q4 Berkeley, California, United States", "global_code": "849VVPFH+Q4"}, "rating": 5, "reference": "ChIJ35TRC6J-hYAR5PmlKjuyb8Y", "scope": "GOOGLE", "types": ["electronics_store", "home_goods_store", "store", "point_of_interest", "school", "establishment"], "vicinity": "1925 Delaware Street, Berkeley"}, "ChIJ00mFOjZ5hYARk-l1ppUV6pQ": {"geometry": {"location": {"lat": 37.8715926, "lng": -122.272747}, "viewport": {"northeast": {"lat": 37.9058239, "lng": -122.234179}, "southwest": {"lat": 37.835727, "lng": -122.367781}}}, "icon": "https://maps.gstatic.com/mapfiles/place_api/icons/geocode-71.png", "id": "00741fe572fc4084428ab206e1a55830f6a1bf0a", "name": "Berkeley", "photos": [{"height": 1080, "html_attributions": ["<a href=\"https://maps.google.com/maps/contrib/110244590763501513798/photos\">miao hsin sun</a>"], "photo_reference": "CmRaAAAA0oTCCt7S-5q-3EttRHD-qjW1JjtjcCjm78PDQTy3z_jRvVHrY8HlB5wPfYWCT08FzuCff4BxtZouoCSD7yFZXHCacprch9ZLsdFEWYoRLXrsiWqRLCmMNDG26_-nEalHEhDoV1mQmsCB6PnpQkx1yOwfGhSVQTwBBYCOQ6F4hHREI91c_xqvEQ", "width": 1616}], "place_id": "ChIJ00mFOjZ5hYARk-l1ppUV6pQ", "reference": "ChIJ00mFOjZ5hYARk-l1ppUV6pQ", "scope": "GOOGLE", "types": ["locality", "political"], "vicinity": "Berkeley"}}