{"ChIJpyHp0F9-hYARTVrh8aGfFxM": {"geometry": {"location": {"lat": 37.848488, "lng": -122.2885329}, "viewport": {"northeast": {"lat": 37.84983698029149, "lng": -122.2871838697085}, "southwest": {"lat": 37.84713901970849, "lng": -122.2898818302915}}}, "icon": "https://maps.gstatic.com/mapfiles/place_api/icons/geocode-71.png", "id": "1cd9bf178ba22e4c25b7ae99fd2da173905cf34f", "name": "66th Street", "place_id": "ChIJpyHp0F9-hYARTVrh8aGfFxM", "reference": "ChIJpyHp0F9-hYARTVrh8aGfFxM", "scope": "GOOGLE", "types": ["route"], "vicinity": "Oakland"}, "ChIJme561F9-hYARQ8x-KzX0sjY": {"geometry": {"location": {"lat": 37.8480969, "lng": -122.2883651}, "viewport": {"northeast": {"lat": 37.8494245302915, "lng": -122.2871182697085}, "southwest": {"lat": 37.8467265697085, "lng": -122.2898162302915}}}, "icon": "https://maps.gstatic.com/mapfiles/place_api/icons/generic_business-71.png", "id": "b6f49debf71b2f76bcf7253b7682841467d763db", "name": "Legendary Carpentry", "place_id": "ChIJme561F9-hYARQ8x-KzX0sjY", "plus_code": {"compound_code": "RPX6+6M Oakland, California, United States", "global_code": "849VRPX6+6M"}, "reference": "ChIJme561F9-hYARQ8x-KzX0sjY", "scope": "GOOGLE", "types": ["general_contractor", "point_of_interest", "establishment"], "vicinity": "6552 Vallejo Street, Emeryville"}, "ChIJAQAsPF5-hYARiLNRnJ8q0ho": {"geometry": {"location": {"lat": 37.848549, "lng": -122.288889}, "viewport": {"northeast": {"lat": 37.8498979802915, "lng": -122.2875400197085}, "southwest": {"lat": 37.8472000197085, "lng": -122.2902379802915}}}, "icon": "https://maps.gstatic.com/mapfiles/place_api/icons/generic_business-71.png", "id": "523b27132d9ba37a85f8cec8eaac7dcc9e5f884b", "name": "Nadia Ashjaee", "place_id": "ChIJAQAsPF5-hYARiLNRnJ8q0ho", "plus_code": {"compound_code": "RPX6+CC Emeryville, California, United States", "global_code": "849VRPX6+CC"}, "reference": "ChIJAQAsPF5-hYARiLNRnJ8q0ho", "scope": "GOOGLE", "types": ["health", "point_of_interest", "establishment"], "vicinity": "1265 65th Street, Emeryville"}, "ChIJiydFz19-hYARG55A2_vfA34": {"geometry": {"location": {"lat": 37.8483821, "lng": -122.2890805}, "viewport": {"northeast": {"lat": 37.8497281302915, "lng": -122.2877007197085}, "southwest": {"lat": 37.8470301697085, "lng": -122.2903986802915}}}, "icon": "https://maps.gstatic.com/mapfiles/place_api/icons/shopping-71.png", "id": "c952f24ab03c85db8bcc49770093e633f735b5ec", "name": "Sporting Goods", "place_id": "ChIJiydFz19-hYARG55A2_vfA34", "plus_code": {"compound_code": "RPX6+99 Emeryville, California, United States", "global_code": "849VRPX6+99"}, "rating": 4, "reference": "ChIJiydFz19-hYARG55A2_vfA34", "scope": "GOOGLE", "types": ["clothing_store", "store", "point_of_interest", "establishment"], "vicinity": "Emeryville Greenway, Emeryville"}, "ChIJq2RsrKt_hYARTZ1fw4Hmefk": {"geometry": {"location": {"lat": 37.8489918, "lng": -122.288996}, "viewport": {"northeast": {"lat": 37.8503407802915, "lng": -122.2876470197085}, "southwest": {"lat": 37.8476428197085, "lng": -122.2903449802915}}}, "icon": "https://maps.gstatic.com/mapfiles/place_api/icons/restaurant-71.png", "id": "17f05fcc7cc67200b6c0a8eb6ca138cac615a909", "name": "Parker pig Global Headquarters", "place_id": "ChIJq2RsrKt_hYARTZ1fw4Hmefk", "plus_code": {"compound_code": "RPX6+HC Emeryville, California, United States", "global_code": "849VRPX6+HC"}, "reference": "ChIJq2RsrKt_hYARTZ1fw4Hmefk", "scope": "GOOGLE", "types": ["restaurant", "point_of_interest", "food", "establishment"], "vicinity": "Emeryville Greenway, Emeryville"}, "ChIJA-2qKIt9hYARZ5N1NdUVtHE": {"geometry": {"location": {"lat": 37.8043637, "lng": -122.2711137}, "viewport": {"northeast": {"lat": 37.88472489999999, "lng": -122.114775}, "southwest": {"lat": 37.6322259, "lng": -122.355881}}}, "icon": "https://maps.gstatic.com/mapfiles/place_api/icons/geocode-71.png", "id": "da4a4da21e013f9d3a24e8eee6d4f84de02148d3", "name": "Oakland", "photos": [{"height": 2848, "html_attributions": ["<a href=\"https://maps.google.com/maps/contrib/113300206259949994494/photos\">Cimino Alberto</a>"], "photo_reference": "CmRaAAAAd84PyMRKNS_EBgH8R9SnAw5RWJAb1XR895QOuO9bEJ26v83Dfrwo7hTD6qx1K6DNvOY9h8uFQtXyMGQl6M-L6Qe3mNUBCdEg_tmS0U8DxBbVRaNLnPSuHF-376l1Xah8EhDiTbav3Dg3PeDu9agjqGwbGhRcHsQRyB8OgqvDBMrY9IftlmovrA", "width": 4256}], "place_id": "ChIJA-2qKIt9hYARZ5N1NdUVtHE", "reference": "ChIJA-2qKIt9hYARZ5N1NdUVtHE", "scope": "GOOGLE", "types": ["locality", "political"], "vicinity": "Oakland"}}