{"ChIJM77sEH5-hYARNRR8-AcVZR0": {"geometry": {"location": {"lat": 37.8553488, "lng": -122.2701093}, "viewport": {"northeast": {"lat": 37.85720120000005, "lng": -122.2687603197085}, "southwest": {"lat": 37.85349639999995, "lng": -122.2714582802915}}}, "icon": "https://maps.gstatic.com/mapfiles/place_api/icons/geocode-71.png", "id": "4fea4eac066186e0d5ac893c82ec21b42fdc056f", "name": "2999-2901 Otis St", "place_id": "ChIJM77sEH5-hYARNRR8-AcVZR0", "reference": "ChIJM77sEH5-hYARNRR8-AcVZR0", "scope": "GOOGLE", "types": ["route"], "vicinity": "Berkeley"}, "ChIJi_jJRn5-hYARJLmnH4TDgb0": {"geometry": {"location": {"lat": 37.8548484, "lng": -122.2694356}, "viewport": {"northeast": {"lat": 37.8561630302915, "lng": -122.2679267197085}, "southwest": {"lat": 37.85346506970851, "lng": -122.2706246802915}}}, "icon": "https://maps.gstatic.com/mapfiles/place_api/icons/shopping-71.png", "id": "703c6de8673122bc9ed722e088763dc528ba050e", "name": "Lacis Museum of Lace and Textiles", "opening_hours": {"open_now": false}, "photos": [{"height": 2988, "html_attributions": ["<a href=\"https://maps.google.com/maps/contrib/113543348873727366970/photos\">Steve Fujisaka Sr.</a>"], "photo_reference": "CmRaAAAAsamp5eM25EK1o5rFPhxoZHy85KQ2CNiSdXs2-PpqnKbYoF_sSpQD-0R1zyuybP2q6vqWC8Izs9Io8K9X32OitAEbTveJwzmPBHh6kAHj99eAbtL_XnMz3MOnwwSTuryREhBL8NF1X8yqLMF9cdR2GdvTGhT4JNitrL0Sc4kvSMAS5UWWP4Qv1A", "width": 5312}], "place_id": "ChIJi_jJRn5-hYARJLmnH4TDgb0", "plus_code": {"compound_code": "VP3J+W6 Berkeley, California, United States", "global_code": "849VVP3J+W6"}, "rating": 4.9, "reference": "ChIJi_jJRn5-hYARJLmnH4TDgb0", "scope": "GOOGLE", "types": ["museum", "store", "point_of_interest", "establishment"], "vicinity": "2982 Adeline Street, Berkeley"}, "ChIJ442UR35-hYARzDgQGeRFtJ8": {"geometry": {"location": {"lat": 37.85515300000001, "lng": -122.269285}, "viewport": {"northeast": {"lat": 37.8564678302915, "lng": -122.2677943697085}, "southwest": {"lat": 37.8537698697085, "lng": -122.2704923302915}}}, "icon": "https://maps.gstatic.com/mapfiles/place_api/icons/shopping-71.png", "id": "d02df2ff6d483e07d4f3b1f927df886dfbb841a4", "name": "European Sleep Works", "opening_hours": {"open_now": false}, "photos": [{"height": 2448, "html_attributions": ["<a href=\"https://maps.google.com/maps/contrib/102289330188684866686/photos\">European Sleep Works</a>"], "photo_reference": "CmRaAAAAGrdFpOHOZa-oY4dwbdpEPusJywScJ089ifZk1-5MU-45hv1wJi6zs3-TAUibCP94PVaMOn6DeqdaprOv5wEmVhVgw3YZMGWoYoAMCNLWw3czoNGDwPVLgNeLhyyv2DhUEhAk-D_ZXNMQ-7C-F_DJrncgGhQUb_qNusth7AMpG_0wHroQj4nIog", "width": 3264}], "place_id": "ChIJ442UR35-hYARzDgQGeRFtJ8", "rating": 4.8, "reference": "ChIJ442UR35-hYARzDgQGeRFtJ8", "scope": "GOOGLE", "types": ["furniture_store", "home_goods_store", "store", "point_of_interest", "establishment"], "vicinity": "2966 Adeline Street, Berkeley"}, "ChIJE4haRn5-hYARXE6faAkBFss": {"geometry": {"location": {"lat": 37.855097, "lng": -122.2693986}, "viewport": {"northeast": {"lat": 37.8564016802915, "lng": -122.2678659197085}, "southwest": {"lat": 37.8537037197085, "lng": -122.2705638802915}}}, "icon": "https://maps.gstatic.com/mapfiles/place_api/icons/generic_business-71.png", "id": "4e03ad388afaf1384a62c2da98ffd33c34a49b46", "name": "Clearwater Hydrology", "place_id": "ChIJE4haRn5-hYARXE6faAkBFss", "plus_code": {"compound_code": "VP4J+26 Berkeley, California, United States", "global_code": "849VVP4J+26"}, "reference": "ChIJE4haRn5-hYARXE6faAkBFss", "scope": "GOOGLE", "types": ["point_of_interest", "establishment"], "vicinity": "2974 Adeline Street, Berkeley"}, "ChIJzwtQRn5-hYARlMPG4mIsMQY": {"geometry": {"location": {"lat": 37.8550861, "lng": -122.2693982}, "viewport": {"northeast": {"lat": 37.8563912802915, "lng": -122.2678676197085}, "southwest": {"lat": 37.8536933197085, "lng": -122.2705655802915}}}, "icon": "https://maps.gstatic.com/mapfiles/place_api/icons/generic_business-71.png", "id": "2d8bc3c2f3cab15af4d27475e3750658585da041", "name": "Oxtail Studio & Gallery", "opening_hours": {"open_now": false}, "photos": [{"height": 4000, "html_attributions": ["<a href=\"https://maps.google.com/maps/contrib/104616670780450565502/photos\">Timothy White</a>"], "photo_reference": "CmRaAAAAc-PninMaCEPDvOMoAJnY-W6Hk3gNkLHTm99TLzh7xu7utGmIicD8R2C_206592-r6OTvyNXvnVrbDNbC48EqerNM03cB3Rjwfm4u7taLEMl5FZlg6hclzWsGudzQnws-EhARByr3JiD8wnRO-d9ke8bDGhQYyV28R-5QWPswpowMXpbAzVIhUg", "width": 3000}], "place_id": "ChIJzwtQRn5-hYARlMPG4mIsMQY", "plus_code": {"compound_code": "VP4J+26 Berkeley, California, United States", "global_code": "849VVP4J+26"}, "rating": 3.5, "reference": "ChIJzwtQRn5-hYARlMPG4mIsMQY", "scope": "GOOGLE", "types": ["art_gallery", "point_of_interest", "establishment"], "vicinity": "2976 Adeline Street, Berkeley"}, "ChIJvRFQRn5-hYARWNLu-OBq2vs": {"geometry": {"location": {"lat": 37.855097, "lng": -122.2693986}, "viewport": {"northeast": {"lat": 37.8564016802915, "lng": -122.2678659197085}, "southwest": {"lat": 37.8537037197085, "lng": -122.2705638802915}}}, "icon": "https://maps.gstatic.com/mapfiles/place_api/icons/generic_business-71.png", "id": "5b0ddad40b373c9d84733ee9d97b3d80a5c37a79", "name": "LIMB KING", "place_id": "ChIJvRFQRn5-hYARWNLu-OBq2vs", "plus_code": {"compound_code": "VP4J+26 Berkeley, California, United States", "global_code": "849VVP4J+26"}, "reference": "ChIJvRFQRn5-hYARWNLu-OBq2vs", "scope": "GOOGLE", "types": ["point_of_interest", "establishment"], "vicinity": "2974 Adeline Street, Berkeley"}, "ChIJMcg1aH5-hYARN_qbmj7yEos": {"geometry": {"location": {"lat": 37.8544604, "lng": -122.2697969}, "viewport": {"northeast": {"lat": 37.8558261302915, "lng": -122.2684509197085}, "southwest": {"lat": 37.8531281697085, "lng": -122.2711488802915}}}, "icon": "https://maps.gstatic.com/mapfiles/place_api/icons/shopping-71.png", "id": "d29481a944a515b0101cc6c0d033c54192ecfb84", "name": "A L'Ancienne", "place_id": "ChIJMcg1aH5-hYARN_qbmj7yEos", "plus_code": {"compound_code": "VP3J+Q3 Berkeley, California, United States", "global_code": "849VVP3J+Q3"}, "reference": "ChIJMcg1aH5-hYARN_qbmj7yEos", "scope": "GOOGLE", "types": ["home_goods_store", "store", "point_of_interest", "establishment"], "vicinity": "1979 Ashby Avenue, Berkeley"}, "ChIJdZ5ebn5-hYARUE_w3Vct7es": {"geometry": {"location": {"lat": 37.8545818, "lng": -122.2703771}, "viewport": {"northeast": {"lat": 37.8558299802915, "lng": -122.2690072697085}, "southwest": {"lat": 37.8531320197085, "lng": -122.2717052302915}}}, "icon": "https://maps.gstatic.com/mapfiles/place_api/icons/shopping-71.png", "id": "2805daf141ec40164f4187874091a7b506430dcd", "name": "Metro by T-Mobile", "opening_hours": {"open_now": true}, "photos": [{"height": 3024, "html_attributions": ["<a href=\"https://maps.google.com/maps/contrib/113505162852522485796/photos\">Berkeley Ashby</a>"], "photo_reference": "CmRaAAAAXGS5zLrRfHA5wDl3PllYwTKuBhLnY-DI4Te3TmYK9oJlFPzxKP_v5bIayU7OYVNTcZTAeeNtgZ6o_mErKyLeqN3Rzw7a0bmbg9iVvSeM0APfco7SVkJre7vhJrzlgZDOEhAcf05j2pNAzCddBbPUfVisGhSL2MCaEv9gYt3LbtY3juq6GUOQyg", "width": 4032}], "place_id": "ChIJdZ5ebn5-hYARUE_w3Vct7es", "plus_code": {"compound_code": "VP3H+RR Berkeley, California, United States", "global_code": "849VVP3H+RR"}, "rating": 4.3, "reference": "ChIJdZ5ebn5-hYARUE_w3Vct7es", "scope": "GOOGLE", "types": ["electronics_store", "store", "point_of_interest", "establishment"], "vicinity": "1943 Ashby Avenue, Berkeley"}, "ChIJqwzVan5-hYARYn8B2IGpcDI": {"geometry": {"location": {"lat": 37.85490600000001, "lng": -122.269814}, "viewport": {"northeast": {"lat": 37.85624653029151, "lng": -122.2685872197085}, "southwest": {"lat": 37.85354856970851, "lng": -122.2712851802915}}}, "icon": "https://maps.gstatic.com/mapfiles/place_api/icons/generic_business-71.png", "id": "adfc02c750f8cabdaea5e0bf1a62d2367c35dc9b", "name": "Hearts in Motion LLC", "place_id": "ChIJqwzVan5-hYARYn8B2IGpcDI", "plus_code": {"compound_code": "VP3J+X3 Berkeley, California, United States", "global_code": "849VVP3J+X3"}, "reference": "ChIJqwzVan5-hYARYn8B2IGpcDI", "scope": "GOOGLE", "types": ["point_of_interest", "establishment"], "vicinity": "2939 Otis Street, Berkeley"}, "ChIJlWMZEX5-hYARlbtxybSwqNM": {"geometry": {"location": {"lat": 37.8552465, "lng": -122.2701065}, "viewport": {"northeast": {"lat": 37.8565933302915, "lng": -122.2687887697085}, "southwest": {"lat": 37.8538953697085, "lng": -122.2714867302915}}}, "icon": "https://maps.gstatic.com/mapfiles/place_api/icons/school-71.png", "id": "e04e23c8bce4c22e1cfd2f3573d94286fa1546be", "name": "The Grimalkin Institute", "photos": [{"height": 264, "html_attributions": ["<a href=\"https://maps.google.com/maps/contrib/103872182099791473389/photos\">The Grimalkin Institute</a>"], "photo_reference": "CmRaAAAAZ3Rj2oZwFKsjzoXREij0c0vk2piQu7pujY0dzkdkNLlf47SDiaplhwl9vYKbwLwvWOV5InueMQ-peQgZPJ3FrHIMxfU00MAZG0B37Ger12y33yM2-JtF5QadMvKfK0QoEhCQXx_xlrkhQXcMNYMFAl-dGhShEb5Y90dsMzc5rM2OOG1IOdXTxg", "width": 714}], "place_id": "ChIJlWMZEX5-hYARlbtxybSwqNM", "plus_code": {"compound_code": "VP4H+3X Berkeley, California, United States", "global_code": "849VVP4H+3X"}, "rating": 5, "reference": "ChIJlWMZEX5-hYARlbtxybSwqNM", "scope": "GOOGLE", "types": ["point_of_interest", "establishment"], "vicinity": "2926 Otis Street, Berkeley"}, "ChIJlwb9Qn5-hYAR7HsFlCBr120": {"geometry": {"location": {"lat": 37.8545708, "lng": -122.2698954}, "viewport": {"northeast": {"lat": 37.8558530802915, "lng": -122.2685346697085}, "southwest": {"lat": 37.8531551197085, "lng": -122.2712326302915}}}, "icon": "https://maps.gstatic.com/mapfiles/place_api/icons/shopping-71.png", "id": "b41062775c327caeb9a240f0bd46a76f7418e049", "name": "Von Hemert Antiques", "place_id": "ChIJlwb9Qn5-hYAR7HsFlCBr120", "plus_code": {"compound_code": "VP3J+R2 Berkeley, California, United States", "global_code": "849VVP3J+R2"}, "rating": 5, "reference": "ChIJlwb9Qn5-hYAR7HsFlCBr120", "scope": "GOOGLE", "types": ["home_goods_store", "store", "point_of_interest", "establishment"], "vicinity": "1989 Ashby Avenue, Berkeley"}, "ChIJU1FtQn5-hYARxtnyOr-1OxQ": {"geometry": {"location": {"lat": 37.8546071, "lng": -122.2695966}, "viewport": {"northeast": {"lat": 37.85595608029149, "lng": -122.2682476197085}, "southwest": {"lat": 37.8532581197085, "lng": -122.2709455802915}}}, "icon": "https://maps.gstatic.com/mapfiles/place_api/icons/shopping-71.png", "id": "27442b8b86342d4ebaa356322bb9c74ab43bfcb0", "name": "Antiques", "place_id": "ChIJU1FtQn5-hYARxtnyOr-1OxQ", "plus_code": {"compound_code": "VP3J+R5 Berkeley, California, United States", "global_code": "849VVP3J+R5"}, "reference": "ChIJU1FtQn5-hYARxtnyOr-1OxQ", "scope": "GOOGLE", "types": ["home_goods_store", "store", "point_of_interest", "establishment"], "vicinity": "Berkeley"}, "ChIJKR0tbH5-hYARiEUNBX0PgFI": {"geometry": {"location": {"lat": 37.8545455, "lng": -122.2701611}, "viewport": {"northeast": {"lat": 37.8558249302915, "lng": -122.2687977697085}, "southwest": {"lat": 37.8531269697085, "lng": -122.2714957302915}}}, "icon": "https://maps.gstatic.com/mapfiles/place_api/icons/generic_business-71.png", "id": "fdf93046b3a7ff1c79d72921afe99600dc138a04", "name": "Ashby Nails", "opening_hours": {"open_now": false}, "photos": [{"height": 4048, "html_attributions": ["<a href=\"https://maps.google.com/maps/contrib/102624699830939261372/photos\">J Lee</a>"], "photo_reference": "CmRaAAAA2vKEtLt78HzZ_cg0YN6MDRqXXu5FpKK6145EHipNbcdbAe49p0vJRtv4f5kJ7XwaGQEkogrNecmfvgYzCNHli79E1SqGpDipJzr8_Dn5fEe1J4s2JoNTJ-ZRyhDrgMTNEhCPdxvnPdTSXp8BvINgfjgeGhSUvIgzVU7u9nPolVDsl6ksBLYExg", "width": 3036}], "place_id": "ChIJKR0tbH5-hYARiEUNBX0PgFI", "plus_code": {"compound_code": "VP3H+RW Berkeley, California, United States", "global_code": "849VVP3H+RW"}, "rating": 3.7, "reference": "ChIJKR0tbH5-hYARiEUNBX0PgFI", "scope": "GOOGLE", "types": ["beauty_salon", "point_of_interest", "establishment"], "vicinity": "1959 Ashby Avenue, Berkeley"}, "ChIJvdqNQ35-hYARo2xcIEMl9ik": {"geometry": {"location": {"lat": 37.8546752, "lng": -122.2693241}, "viewport": {"northeast": {"lat": 37.85597698029149, "lng": -122.2679323197085}, "southwest": {"lat": 37.85327901970849, "lng": -122.2706302802915}}}, "icon": "https://maps.gstatic.com/mapfiles/place_api/icons/generic_recreational-71.png", "id": "e1012447fbb291fe80e44cc51926ba5ff000f67f", "name": "Radical Love Warrior Spirit Now", "opening_hours": {"open_now": true}, "photos": [{"height": 1600, "html_attributions": ["<a href=\"https://maps.google.com/maps/contrib/100448664835242944450/photos\">Carina Louise Rose Renner</a>"], "photo_reference": "CmRaAAAAIkvNmtbXBQvmfCp5asZz32sGHdb4pNnwnuik_8MPWDsISVyLnkQ8uA_7hGc82CVlgwHl-RWZG1XIh9BxCT81geryF_p_JiaGMZds563mEnG9Gca0qqKfh8-2pilyQB1iEhC8f5M7kChrfncttQyvW1VEGhTxKGq7c7nKhfFBa6bqK_EtZPtkYA", "width": 1600}], "place_id": "ChIJvdqNQ35-hYARo2xcIEMl9ik", "plus_code": {"compound_code": "VP3J+V7 Berkeley, California, United States", "global_code": "849VVP3J+V7"}, "reference": "ChIJvdqNQ35-hYARo2xcIEMl9ik", "scope": "GOOGLE", "types": ["park", "point_of_interest", "establishment"], "vicinity": "1999 Ashby Avenue, Berkeley"}, "ChIJ00mFOjZ5hYARk-l1ppUV6pQ": {"geometry": {"location": {"lat": 37.8715926, "lng": -122.272747}, "viewport": {"northeast": {"lat": 37.9058239, "lng": -122.234179}, "southwest": {"lat": 37.835727, "lng": -122.367781}}}, "icon": "https://maps.gstatic.com/mapfiles/place_api/icons/geocode-71.png", "id": "00741fe572fc4084428ab206e1a55830f6a1bf0a", "name": "Berkeley", "photos": [{"height": 1080, "html_attributions": ["<a href=\"https://maps.google.com/maps/contrib/110244590763501513798/photos\">miao hsin sun</a>"], "photo_reference": "CmRaAAAA0rxsiU0Ly6nWAOOZAHp8H5H81dq3GeJe6NfOKScT4M6R0mUNl-sohU1S9fI7AHYR4Fapnfl_wFzXRX8rqNwpC8nDGMwRuYD-V3Eo1GNG7VSl0wGcyNJO7gMvbLM7JknzEhDBjx0EfEWDyTa3BoFareAmGhTr-8wwTpxfjW6kSVBJ2EZtDK0ZQA", "width": 1616}], "place_id": "ChIJ00mFOjZ5hYARk-l1ppUV6pQ", "reference": "ChIJ00mFOjZ5hYARk-l1ppUV6pQ", "scope": "GOOGLE", "types": ["locality", "political"], "vicinity": "Berkeley"}}