{"ChIJP0ByFbp-hYARtVBR-QBu4ao": {"geometry": {"location": {"lat": 37.8800941, "lng": -122.2811231}, "viewport": {"northeast": {"lat": 37.8814430302915, "lng": -122.2797741697085}, "southwest": {"lat": 37.8787450697085, "lng": -122.2824721302915}}}, "icon": "https://maps.gstatic.com/mapfiles/place_api/icons/geocode-71.png", "id": "e9840fdca18e24ad0ad1d2310abf70f2f9e3609f", "name": "1330-1398 California St", "place_id": "ChIJP0ByFbp-hYARtVBR-QBu4ao", "reference": "ChIJP0ByFbp-hYARtVBR-QBu4ao", "scope": "GOOGLE", "types": ["route"], "vicinity": "Berkeley"}, "ChIJBXU3F7p-hYARAfnAfqMMOB0": {"geometry": {"location": {"lat": 37.8802623, "lng": -122.2815344}, "viewport": {"northeast": {"lat": 37.8816606302915, "lng": -122.2800840197085}, "southwest": {"lat": 37.8789626697085, "lng": -122.2827819802915}}}, "icon": "https://maps.gstatic.com/mapfiles/place_api/icons/generic_business-71.png", "id": "3948ba47ba420037e2ebb94d4c42ca6e243a2652", "name": "Christ Landscaping & Maintenance", "place_id": "ChIJBXU3F7p-hYARAfnAfqMMOB0", "plus_code": {"compound_code": "VPJ9+49 Berkeley, California, United States", "global_code": "849VVPJ9+49"}, "reference": "ChIJBXU3F7p-hYARAfnAfqMMOB0", "scope": "GOOGLE", "types": ["general_contractor", "point_of_interest", "establishment"], "vicinity": "1330 California Street, Berkeley"}, "ChIJ00mFOjZ5hYARk-l1ppUV6pQ": {"geometry": {"location": {"lat": 37.8715926, "lng": -122.272747}, "viewport": {"northeast": {"lat": 37.9058239, "lng": -122.234179}, "southwest": {"lat": 37.835727, "lng": -122.367781}}}, "icon": "https://maps.gstatic.com/mapfiles/place_api/icons/geocode-71.png", "id": "00741fe572fc4084428ab206e1a55830f6a1bf0a", "name": "Berkeley", "photos": [{"height": 1080, "html_attributions": ["<a href=\"https://maps.google.com/maps/contrib/110244590763501513798/photos\">miao hsin sun</a>"], "photo_reference": "CmRaAAAAnaH46dvtzs-5t2Iv731BtXsbSJQy07RK1RN-JA8_OHzM_hT0Tl9y_zbEbdp7YWX_bam9uUaiRfwMAFFTn8smRWFgbjkS-BPThyqsLOenA82HlaiYHwwZ522hjNsl6_UsEhDNyTh_xRvaXwc8oZCf1IrZGhQmFdnCOvtSbm4THkFrste4rGaWVg", "width": 1616}], "place_id": "ChIJ00mFOjZ5hYARk-l1ppUV6pQ", "reference": "ChIJ00mFOjZ5hYARk-l1ppUV6pQ", "scope": "GOOGLE", "types": ["locality", "political"], "vicinity": "Berkeley"}}