{"ChIJRVhuGc1-hYARj0ex3UAHPAI": {"geometry": {"location": {"lat": 37.88442579999999, "lng": -122.2970636}, "viewport": {"northeast": {"lat": 37.88577473029149, "lng": -122.2957146697085}, "southwest": {"lat": 37.8830767697085, "lng": -122.2984126302915}}}, "icon": "https://maps.gstatic.com/mapfiles/place_api/icons/geocode-71.png", "id": "e9beed2c670927a5a9b452c524f499cfdc3bd226", "name": "San Pablo Avenue", "place_id": "ChIJRVhuGc1-hYARj0ex3UAHPAI", "reference": "ChIJRVhuGc1-hYARj0ex3UAHPAI", "scope": "GOOGLE", "types": ["route"], "vicinity": "Albany"}, "ChIJ-6cBH81-hYAR6AB8LPsa2YY": {"geometry": {"location": {"lat": 37.884657, "lng": -122.29672}, "viewport": {"northeast": {"lat": 37.8859659802915, "lng": -122.2955675697085}, "southwest": {"lat": 37.8832680197085, "lng": -122.2982655302915}}}, "icon": "https://maps.gstatic.com/mapfiles/place_api/icons/generic_business-71.png", "id": "7908e7dca33edd4454a1b30df3514e4b89db7a15", "name": "Hertz", "opening_hours": {"open_now": false}, "photos": [{"height": 4032, "html_attributions": ["<a href=\"https://maps.google.com/maps/contrib/103607806130475111249/photos\">Belle Smith</a>"], "photo_reference": "CmRaAAAAwJqwvaWuD8nomU06EgB89QUXfeaFyw9fKUYmIBIWXNasACHy2TbzAzLBifpeFrNBuzav5wF_zw8wJI2exUJABx1kufRVQ5GtoCGBwI5V9eoGm3zrqio8nnQ2OgG0dGkuEhDv1y1euGCm2QT4Sjn9Op4YGhSEZQx01rMG8aDkAc1Pu3EHoMbBTg", "width": 3024}], "place_id": "ChIJ-6cBH81-hYAR6AB8LPsa2YY", "plus_code": {"compound_code": "VPM3+V8 Albany, California, United States", "global_code": "849VVPM3+V8"}, "rating": 2.9, "reference": "ChIJ-6cBH81-hYAR6AB8LPsa2YY", "scope": "GOOGLE", "types": ["car_rental", "point_of_interest", "establishment"], "vicinity": "1061 San Pablo Avenue, Berkeley"}, "ChIJFcpUxeh-hYARVOURsuq03iI": {"geometry": {"location": {"lat": 37.884288, "lng": -122.2966886}, "viewport": {"northeast": {"lat": 37.8856054802915, "lng": -122.2954943697085}, "southwest": {"lat": 37.8829075197085, "lng": -122.2981923302915}}}, "icon": "https://maps.gstatic.com/mapfiles/place_api/icons/generic_business-71.png", "id": "9401f6751bc1c4b41bcb986b89ef9de472369b12", "name": "Dr. Shen's Chinese Herbs", "opening_hours": {"open_now": false}, "photos": [{"height": 876, "html_attributions": ["<a href=\"https://maps.google.com/maps/contrib/108597850969670326289/photos\">Joel Schreck</a>"], "photo_reference": "CmRaAAAArfSNXgMck-cyuYe0oVhTPrSA7murnWSUZNhBRO1lYLrVqCGK7l0EkrzEeoKnss83zW5-ntJQLV4MroVJg3EmlJ6eLm3ylUlmtjtWmbewkMUXREzi6Hhop4Oc6A9-yR3SEhDwmYwTwTz0g8oRvPJFmsjDGhS-K8f8uUlojb48PYloyeWEtOnrAg", "width": 1200}], "place_id": "ChIJFcpUxeh-hYARVOURsuq03iI", "plus_code": {"compound_code": "VPM3+P8 Albany, California, United States", "global_code": "849VVPM3+P8"}, "reference": "ChIJFcpUxeh-hYARVOURsuq03iI", "scope": "GOOGLE", "types": ["point_of_interest", "establishment"], "vicinity": "1071 San Pablo Avenue, Albany"}, "ChIJufAF9KZ-hYARIl-pnDAKRpc": {"geometry": {"location": {"lat": 37.8842369, "lng": -122.2967645}, "viewport": {"northeast": {"lat": 37.8855641302915, "lng": -122.2955272697085}, "southwest": {"lat": 37.8828661697085, "lng": -122.2982252302915}}}, "icon": "https://maps.gstatic.com/mapfiles/place_api/icons/generic_business-71.png", "id": "d514ce29e817ab99ae21cdd78cb49b88e58801dd", "name": "Shen Clinic", "opening_hours": {"open_now": false}, "photos": [{"height": 1837, "html_attributions": ["<a href=\"https://maps.google.com/maps/contrib/113074371526229225101/photos\">Shen Clinic</a>"], "photo_reference": "CmRaAAAA0FTWG__xap2V9oMoDVuWtDfoWMl1LU7QPBVIqw4ySRM-yjG5wEHkNS9FZ4VfMWzXneV7zaDPlSfIBQvazOAr4ylPoB5Sf2BHp81v4fY3SZnevHpLukY5mLumfnvu77L-EhCZPpF9WaqzRmaV7hBUW_LPGhSHggmW5zd5lGx_7_UGSlaHTkfBwg", "width": 2459}], "place_id": "ChIJufAF9KZ-hYARIl-pnDAKRpc", "plus_code": {"compound_code": "VPM3+M7 Albany, California, United States", "global_code": "849VVPM3+M7"}, "rating": 3.3, "reference": "ChIJufAF9KZ-hYARIl-pnDAKRpc", "scope": "GOOGLE", "types": ["store", "health", "point_of_interest", "establishment"], "vicinity": "1071 San Pablo Avenue, Albany"}, "ChIJEYgVLjh5hYARHBBv2eaOMLk": {"geometry": {"location": {"lat": 37.8840482, "lng": -122.296661}, "viewport": {"northeast": {"lat": 37.8853198802915, "lng": -122.2952863697085}, "southwest": {"lat": 37.88262191970851, "lng": -122.2979843302915}}}, "icon": "https://maps.gstatic.com/mapfiles/place_api/icons/school-71.png", "id": "58f114814b098c8c7cf6da89022369b981df2b54", "name": "Rising Sun Montessori School", "opening_hours": {"open_now": false}, "photos": [{"height": 363, "html_attributions": ["<a href=\"https://maps.google.com/maps/contrib/110147832214858719237/photos\">Rising Sun Montessori School</a>"], "photo_reference": "CmRaAAAAH7epEnBmNpMIhw_lLb_p41tR5r2ad3_3VGB-uXKWa_ZuCTTY4S0HO55P5uhuFzLfKm_DMe56g128w73UNigrraiRjcJwBjKe_lJ3vn2e-6Yhz02kxeUqEWNqj8xwCRjWEhA2FBb9X3qo8PgL-pfdfEbeGhR1FI3-dSBRoGlqiKrtVklAcFj3Og", "width": 992}], "place_id": "ChIJEYgVLjh5hYARHBBv2eaOMLk", "plus_code": {"compound_code": "VPM3+J8 Albany, California, United States", "global_code": "849VVPM3+J8"}, "rating": 5, "reference": "ChIJEYgVLjh5hYARHBBv2eaOMLk", "scope": "GOOGLE", "types": ["point_of_interest", "school", "establishment"], "vicinity": "1107 Dartmouth Street, Albany"}, "ChIJ7SyiFc1-hYARUcABUUtfwWo": {"geometry": {"location": {"lat": 37.8842989, "lng": -122.2976852}, "viewport": {"northeast": {"lat": 37.8857505302915, "lng": -122.2963716197085}, "southwest": {"lat": 37.8830525697085, "lng": -122.2990695802915}}}, "icon": "https://maps.gstatic.com/mapfiles/place_api/icons/generic_business-71.png", "id": "4511ccf3d8aa7fc3f5df40930f099db4165312a3", "name": "Banfield Pet Hospital", "opening_hours": {"open_now": false}, "photos": [{"height": 2992, "html_attributions": ["<a href=\"https://maps.google.com/maps/contrib/102688446897362622126/photos\">Bridget Canfield</a>"], "photo_reference": "CmRaAAAAVP7pzxGeYnrcJZQrlVeuYKrFqv6wu70pUNkwJ1rzw_JINiVWb3zRiaFYAU-PcxTouVFisSdJ8FUnSaABmTeIM_C6ihAE4xCRKPqq7gSnhHo1tXM-p1HTA-v85Q6c21trEhCaHkCfl1vV2Vu4g5ko4CVjGhSF445-HBPtlkYfKRxCeR9wPHorSw", "width": 2992}], "place_id": "ChIJ7SyiFc1-hYARUcABUUtfwWo", "plus_code": {"compound_code": "VPM2+PW Albany, California, United States", "global_code": "849VVPM2+PW"}, "rating": 4.6, "reference": "ChIJ7SyiFc1-hYARUcABUUtfwWo", "scope": "GOOGLE", "types": ["veterinary_care", "point_of_interest", "establishment"], "vicinity": "1080 Monroe street Ste 140, Albany"}, "ChIJP_cyFM1-hYARz6wxUrg7hS4": {"geometry": {"location": {"lat": 37.8843253, "lng": -122.2976931}, "viewport": {"northeast": {"lat": 37.88576383029149, "lng": -122.2963750197085}, "southwest": {"lat": 37.8830658697085, "lng": -122.2990729802915}}}, "icon": "https://maps.gstatic.com/mapfiles/place_api/icons/generic_business-71.png", "id": "9200c68f09d33788513c8b4ed54205d15f7fa584", "name": "Great Clips", "opening_hours": {"open_now": true}, "photos": [{"height": 382, "html_attributions": ["<a href=\"https://maps.google.com/maps/contrib/117625766684284270701/photos\">Great Clips</a>"], "photo_reference": "CmRaAAAAvZQaHySenyMtruPQPhfgJhX5cDnebplkPv0km7d5HSw6-x2fwPyLZkwM3F2f2VW_viXaGlKkWenCeDwI7zNRoa0bqeqEDaD-RG8Q5qpLIUUuyiceaiWgWMtz_FnmlncHEhAsnSaN4cE6NBOGfixl4xd4GhRdCyqpen94D8wwFeHadoHhSvf-yw", "width": 679}], "place_id": "ChIJP_cyFM1-hYARz6wxUrg7hS4", "plus_code": {"compound_code": "VPM2+PW Albany, California, United States", "global_code": "849VVPM2+PW"}, "rating": 3.6, "reference": "ChIJP_cyFM1-hYARz6wxUrg7hS4", "scope": "GOOGLE", "types": ["beauty_salon", "hair_care", "point_of_interest", "establishment"], "vicinity": "1080 Monroe street #110, Albany"}, "ChIJw9XaP81-hYARmrwmjwjvcXY": {"geometry": {"location": {"lat": 37.8843092, "lng": -122.2977068}, "viewport": {"northeast": {"lat": 37.8857538302915, "lng": -122.2963908197085}, "southwest": {"lat": 37.8830558697085, "lng": -122.2990887802915}}}, "icon": "https://maps.gstatic.com/mapfiles/place_api/icons/cafe-71.png", "id": "517ac77e5dcd54de86130343bc489b1ec258d6d2", "name": "Starbucks", "opening_hours": {"open_now": true}, "photos": [{"height": 1536, "html_attributions": ["<a href=\"https://maps.google.com/maps/contrib/116911487751368273401/photos\">Starbucks</a>"], "photo_reference": "CmRaAAAACqrKgM6e8mS-_Q__kjPm60PhtbDJa-iyIYyKVp-Ie2EFzdYLlASyDAoZHIbCdN1ITLDr6tDTOOC3RuPpOAq10e5QTJQeRiixvEoPM8WUjj4qmyRkesIqcIDcWKQ-FVMfEhBGrs5rXGw0Ph0_ElKUTZI9GhTkBp1QjXKulnh9SUZu156ejtnlwg", "width": 2048}], "place_id": "ChIJw9XaP81-hYARmrwmjwjvcXY", "plus_code": {"compound_code": "VPM2+PW Albany, California, United States", "global_code": "849VVPM2+PW"}, "price_level": 2, "rating": 4.3, "reference": "ChIJw9XaP81-hYARmrwmjwjvcXY", "scope": "GOOGLE", "types": ["cafe", "store", "point_of_interest", "food", "establishment"], "vicinity": "1080 Monroe street, Albany"}, "ChIJu0hKIH3kMhURybVz_oKtT_Y": {"geometry": {"location": {"lat": 37.884295, "lng": -122.2966609}, "viewport": {"northeast": {"lat": 37.8856096302915, "lng": -122.2954807197085}, "southwest": {"lat": 37.88291166970851, "lng": -122.2981786802915}}}, "icon": "https://maps.gstatic.com/mapfiles/place_api/icons/generic_business-71.png", "id": "f3b0988f37fc1e59baf7a9423699e7b5053f3e31", "name": "Jennifer Little, MSTCM, L.Ac.", "place_id": "ChIJu0hKIH3kMhURybVz_oKtT_Y", "plus_code": {"compound_code": "VPM3+P8 Albany, California, United States", "global_code": "849VVPM3+P8"}, "reference": "ChIJu0hKIH3kMhURybVz_oKtT_Y", "scope": "GOOGLE", "types": ["health", "point_of_interest", "establishment"], "vicinity": "1071 San Pablo Avenue, Albany"}, "ChIJf6YxA81-hYARLmx3CbA_rww": {"geometry": {"location": {"lat": 37.88411, "lng": -122.296787}, "viewport": {"northeast": {"lat": 37.8854429302915, "lng": -122.2955204697085}, "southwest": {"lat": 37.8827449697085, "lng": -122.2982184302915}}}, "icon": "https://maps.gstatic.com/mapfiles/place_api/icons/shopping-71.png", "id": "bc54e3644d4a0172154a57510b7988134a7a38d5", "name": "Cigarette Discounter$", "opening_hours": {"open_now": false}, "photos": [{"height": 2061, "html_attributions": ["<a href=\"https://maps.google.com/maps/contrib/102688446897362622126/photos\">Bridget Canfield</a>"], "photo_reference": "CmRaAAAApcT9xCG7QduvN09YIOXhBS6J-avcoWppL-nK_OUuUQQ6OsHHpD9xdl1CDb9iru0ZCCC5ZHyeRlL0MqjSM-Bw3-oZ0snccxL66TtgiLSazFGGyK9ZtryykPn8D8IZQH-MEhDM9X_Vsu7eiHqsRCrFR1riGhS_994cA-1NCQGY5DFeBdXTOt8rbA", "width": 3176}], "place_id": "ChIJf6YxA81-hYARLmx3CbA_rww", "plus_code": {"compound_code": "VPM3+J7 Albany, California, United States", "global_code": "849VVPM3+J7"}, "rating": 4.2, "reference": "ChIJf6YxA81-hYARLmx3CbA_rww", "scope": "GOOGLE", "types": ["store", "point_of_interest", "establishment"], "vicinity": "1079 San Pablo Avenue #96, Albany"}, "ChIJF4K7Gc1-hYAR2fXGad4uDpY": {"geometry": {"location": {"lat": 37.88441, "lng": -122.297213}, "viewport": {"northeast": {"lat": 37.88575898029151, "lng": -122.2958640197085}, "southwest": {"lat": 37.88306101970851, "lng": -122.2985619802915}}}, "icon": "https://maps.gstatic.com/mapfiles/place_api/icons/bus-71.png", "id": "af28349caaa71d481425d6258e8573d4fd12498b", "name": "San Pablo Av:Monroe St", "place_id": "ChIJF4K7Gc1-hYAR2fXGad4uDpY", "plus_code": {"compound_code": "VPM3+Q4 Albany, California, United States", "global_code": "849VVPM3+Q4"}, "reference": "ChIJF4K7Gc1-hYAR2fXGad4uDpY", "scope": "GOOGLE", "types": ["bus_station", "transit_station", "point_of_interest", "establishment"], "vicinity": "United States"}, "ChIJCSN7GM1-hYAR2IZRQHqefg8": {"geometry": {"location": {"lat": 37.88461849999999, "lng": -122.2971405}, "viewport": {"northeast": {"lat": 37.8859674802915, "lng": -122.2957915197085}, "southwest": {"lat": 37.8832695197085, "lng": -122.2984894802915}}}, "icon": "https://maps.gstatic.com/mapfiles/place_api/icons/generic_business-71.png", "id": "211a18825793567c78a9c6f6902f98c6c1bdb384", "name": "San Pablo Av:Monroe St", "place_id": "ChIJCSN7GM1-hYAR2IZRQHqefg8", "plus_code": {"compound_code": "VPM3+R4 Albany, California, United States", "global_code": "849VVPM3+R4"}, "reference": "ChIJCSN7GM1-hYAR2IZRQHqefg8", "scope": "GOOGLE", "types": ["transit_station", "point_of_interest", "establishment"], "vicinity": "United States"}, "ChIJg7H46TJ5hYARplMXZwO-1Xw": {"geometry": {"location": {"lat": 37.8841482, "lng": -122.2967575}, "viewport": {"northeast": {"lat": 37.88547733029149, "lng": -122.2955105197085}, "southwest": {"lat": 37.88277936970849, "lng": -122.2982084802915}}}, "icon": "https://maps.gstatic.com/mapfiles/place_api/icons/atm-71.png", "id": "bc49adb5b4b3e92e0cb4bcd3407f90c0b3382345", "name": "ATM", "opening_hours": {"open_now": false}, "place_id": "ChIJg7H46TJ5hYARplMXZwO-1Xw", "plus_code": {"compound_code": "VPM3+M7 Albany, California, United States", "global_code": "849VVPM3+M7"}, "reference": "ChIJg7H46TJ5hYARplMXZwO-1Xw", "scope": "GOOGLE", "types": ["atm", "finance", "point_of_interest", "establishment"], "vicinity": "1079 San Pablo Avenue, Albany"}, "ChIJsWP9A81-hYAROQ6lyWrzkCI": {"geometry": {"location": {"lat": 37.8837965, "lng": -122.2973798}, "viewport": {"northeast": {"lat": 37.8851927802915, "lng": -122.2957877197085}, "southwest": {"lat": 37.8824948197085, "lng": -122.2984856802915}}}, "icon": "https://maps.gstatic.com/mapfiles/place_api/icons/generic_business-71.png", "id": "bdb12ff6fb126a97ddd371f251b133cb21bd604f", "name": "Belmont Village Senior Living Albany", "opening_hours": {"open_now": false}, "photos": [{"height": 606, "html_attributions": ["<a href=\"https://maps.google.com/maps/contrib/100660235414830190684/photos\">Belmont Village Senior Living Albany</a>"], "photo_reference": "CmRaAAAAr9yeGrm2Bg5U4KRIQgk_aa7UygHK2qWcjExwsw0H-xjbMauesulBU8yBKnc9zmhPWHynFo1Uhn2QTrc7Hlq03LGPg1Rhkbnb7b34XAcsgpXJF70VLC_OFais9EBDT6o9EhDg4E9wvO6ItJmHH_MuZHEGGhSmTj8Gg226J1xf45NnpOV7Fj4iIg", "width": 1080}], "place_id": "ChIJsWP9A81-hYAROQ6lyWrzkCI", "plus_code": {"compound_code": "VPM3+G2 Albany, California, United States", "global_code": "849VVPM3+G2"}, "rating": 4.4, "reference": "ChIJsWP9A81-hYAROQ6lyWrzkCI", "scope": "GOOGLE", "types": ["point_of_interest", "establishment"], "vicinity": "1100 San Pablo Avenue, Albany"}, "ChIJPQVb0tJ4hYARLxEHP9E4sNU": {"geometry": {"location": {"lat": 37.88687, "lng": -122.2977475}, "viewport": {"northeast": {"lat": 37.898925, "lng": -122.2819799}, "southwest": {"lat": 37.8667259, "lng": -122.3737821}}}, "icon": "https://maps.gstatic.com/mapfiles/place_api/icons/geocode-71.png", "id": "679b5d1c47299801cd8a7f14442898e347883404", "name": "Albany", "photos": [{"height": 2448, "html_attributions": ["<a href=\"https://maps.google.com/maps/contrib/112884977236556923885/photos\">Julio Perez</a>"], "photo_reference": "CmRaAAAAhBILz2aKrMd01I7kaHjRKNEILk51LXyoHTZ-Tp7i9AKujBDuqYADQf75qc-knKRbV4Rg1uGHaI46_yUAKEjFtrSI4rUmpCxsU3kiBsnmW_8jPP6vDA58MQ9sNqBxk7tzEhCzn0vcISdQl6S2tCzVQRH-GhQ2ywGorGstkMAduyb6lJiigDg2tQ", "width": 3264}], "place_id": "ChIJPQVb0tJ4hYARLxEHP9E4sNU", "reference": "ChIJPQVb0tJ4hYARLxEHP9E4sNU", "scope": "GOOGLE", "types": ["locality", "political"], "vicinity": "Albany"}}