{"ChIJrRJDm1x-hYARhSOeOmXkgCc": {"geometry": {"location": {"lat": 37.8411035, "lng": -122.2933304}, "viewport": {"northeast": {"lat": 37.84245198029149, "lng": -122.2919870197085}, "southwest": {"lat": 37.83975401970849, "lng": -122.2946849802915}}}, "icon": "https://maps.gstatic.com/mapfiles/place_api/icons/geocode-71.png", "id": "553fad139fe81e3679570a97101c61b03dc473a9", "name": "6128-6238 Shellmound St", "place_id": "ChIJrRJDm1x-hYARhSOeOmXkgCc", "reference": "ChIJrRJDm1x-hYARhSOeOmXkgCc", "scope": "GOOGLE", "types": ["route"], "vicinity": "Emeryville"}, "ChIJx4VHhVx-hYAR9-IdVYyo9-s": {"geometry": {"location": {"lat": 37.8412745, "lng": -122.2931214}, "viewport": {"northeast": {"lat": 37.8426120802915, "lng": -122.2917442697085}, "southwest": {"lat": 37.8399141197085, "lng": -122.2944422302915}}}, "icon": "https://maps.gstatic.com/mapfiles/place_api/icons/bus-71.png", "id": "2e84a8b2b6bc2b453993f8aed47b77e450b00653", "name": "Shellmound St & Amtrak", "place_id": "ChIJx4VHhVx-hYAR9-IdVYyo9-s", "plus_code": {"compound_code": "RPR4+GQ Emeryville, California, United States", "global_code": "849VRPR4+GQ"}, "reference": "ChIJx4VHhVx-hYAR9-IdVYyo9-s", "scope": "GOOGLE", "types": ["bus_station", "transit_station", "point_of_interest", "establishment"], "vicinity": "Emeryville"}, "ChIJhZuAmVx-hYARueDTamkXcFg": {"geometry": {"location": {"lat": 37.8409071, "lng": -122.2931966}, "viewport": {"northeast": {"lat": 37.84225008029151, "lng": -122.2918194197085}, "southwest": {"lat": 37.83955211970851, "lng": -122.2945173802915}}}, "icon": "https://maps.gstatic.com/mapfiles/place_api/icons/bus-71.png", "id": "af21a4c833b4d7efad7432fd538841094a79098f", "name": "Shellmound at Public Market", "place_id": "ChIJhZuAmVx-hYARueDTamkXcFg", "plus_code": {"compound_code": "RPR4+9P Emeryville, California, United States", "global_code": "849VRPR4+9P"}, "rating": 5, "reference": "ChIJhZuAmVx-hYARueDTamkXcFg", "scope": "GOOGLE", "types": ["bus_station", "transit_station", "point_of_interest", "establishment"], "vicinity": "United States"}, "ChIJs44f6hR-hYARB3GwqDEYHUg": {"geometry": {"location": {"lat": 37.831316, "lng": -122.2852473}, "viewport": {"northeast": {"lat": 37.8499259, "lng": -122.276123}, "southwest": {"lat": 37.8268948, "lng": -122.3154701}}}, "icon": "https://maps.gstatic.com/mapfiles/place_api/icons/geocode-71.png", "id": "50264385d03c71c7c39b656a05a99231106dfb05", "name": "Emeryville", "photos": [{"height": 3024, "html_attributions": ["<a href=\"https://maps.google.com/maps/contrib/105925452919882592532/photos\">Rene&#39; Bennett</a>"], "photo_reference": "CmRaAAAAUh7A2R9dUT5fRIROl0hTomd014nxpXtEAGlQDwVq7CkPPUGWd4w4K7HRah35H57V3G2fQiqp-Tc6ceav6piZXlOdiuwqm-RXiBLchiJ0YIQ4UHqkR8jyhdbwtxBEe6uEEhDZLrZsu8kPMn40gxf1AQ3uGhRtZIw-u_QFMd0AbiQazVxlLYZPeg", "width": 4032}], "place_id": "ChIJs44f6hR-hYARB3GwqDEYHUg", "reference": "ChIJs44f6hR-hYARB3GwqDEYHUg", "scope": "GOOGLE", "types": ["locality", "political"], "vicinity": "Emeryville"}}