{"ChIJWdF1h-p-hYARjal8fhmA8mk": {"geometry": {"location": {"lat": 37.8682852, "lng": -122.2908397}, "viewport": {"northeast": {"lat": 37.8696341302915, "lng": -122.2894907197085}, "southwest": {"lat": 37.8669361697085, "lng": -122.2921886802915}}}, "icon": "https://maps.gstatic.com/mapfiles/place_api/icons/geocode-71.png", "id": "1729e092fd0133e2c9dd9513912c5eb1a0fbd371", "name": "1110-1128 Addison St", "place_id": "ChIJWdF1h-p-hYARjal8fhmA8mk", "reference": "ChIJWdF1h-p-hYARjal8fhmA8mk", "scope": "GOOGLE", "types": ["route"], "vicinity": "Berkeley"}, "ChIJqyw0K8B-hYARhlhavQvpkDI": {"geometry": {"location": {"lat": 37.8689822, "lng": -122.2910819}, "viewport": {"northeast": {"lat": 37.8704331302915, "lng": -122.2897532697085}, "southwest": {"lat": 37.8677351697085, "lng": -122.2924512302915}}}, "icon": "https://maps.gstatic.com/mapfiles/place_api/icons/generic_business-71.png", "id": "81b80bce75e202f8b33a402aee8b3c26f5a14c2d", "name": "1122U Apartments", "opening_hours": {"open_now": true}, "photos": [{"height": 424, "html_attributions": ["<a href=\"https://maps.google.com/maps/contrib/103402785297632690907/photos\">1122U Apartments</a>"], "photo_reference": "CmRaAAAASNeY9FB1SbiOP35fS1f9joLM-D5wHhP04ywIJM0jUAKShMaxAG0Il4Ex6Jwurp743vPm5oBjKv4itXfTjvhgGpBbpAPP2P1R2mKS-P_8amO47KJ5dF_bacyJzjQnAoV4EhAL4YcZ2_GyLEVoHmoL37sQGhS7lwnpWPqZUGloBYqO8kqSTPcuGQ", "width": 600}], "place_id": "ChIJqyw0K8B-hYARhlhavQvpkDI", "plus_code": {"compound_code": "VP95+HH Berkeley, California, United States", "global_code": "849VVP95+HH"}, "rating": 4.6, "reference": "ChIJqyw0K8B-hYARhlhavQvpkDI", "scope": "GOOGLE", "types": ["real_estate_agency", "point_of_interest", "establishment"], "vicinity": "1122 University Avenue, Berkeley"}, "ChIJ4Rcif-p-hYAR79NaEg96qP0": {"geometry": {"location": {"lat": 37.86831099999999, "lng": -122.2912988}, "viewport": {"northeast": {"lat": 37.8696206302915, "lng": -122.2899423197085}, "southwest": {"lat": 37.8669226697085, "lng": -122.2926402802915}}}, "icon": "https://maps.gstatic.com/mapfiles/place_api/icons/school-71.png", "id": "232b2ce966a3fae79dafa5e3c70d69f1b37891f4", "name": "West Berkeley Fencing Club", "opening_hours": {"open_now": false}, "photos": [{"height": 3995, "html_attributions": ["<a href=\"https://maps.google.com/maps/contrib/104606947958890638459/photos\">West Berkeley Fencing Club</a>"], "photo_reference": "CmRaAAAAVXh2ad-eOsvNwJj_uQtyHy7xng4ghauWaZx4LLak9jshZqjMQ8bbUvGdE6tiZ3K1wkcZvtNFpfLXc6-nfPaJdc_G-BRs3YF-XZ3tYRdVNuWNbKJIZw_o0oMN_TmBfyoPEhAk8Ma-bKPk4ys_WVG__73DGhRr3aXBnbtuYvp_-pLaldpNiwMGqA", "width": 3682}], "place_id": "ChIJ4Rcif-p-hYAR79NaEg96qP0", "plus_code": {"compound_code": "VP95+8F Berkeley, California, United States", "global_code": "849VVP95+8F"}, "rating": 4.6, "reference": "ChIJ4Rcif-p-hYAR79NaEg96qP0", "scope": "GOOGLE", "types": ["health", "point_of_interest", "establishment"], "vicinity": "1111 Addison Street, Berkeley"}, "ChIJvxp408F-hYAReY3LjPTySLI": {"geometry": {"location": {"lat": 37.8689822, "lng": -122.2910819}, "viewport": {"northeast": {"lat": 37.8704592802915, "lng": -122.2895372197085}, "southwest": {"lat": 37.86776131970851, "lng": -122.2922351802915}}}, "icon": "https://maps.gstatic.com/mapfiles/place_api/icons/cafe-71.png", "id": "77993363a2b7e903ab176a9f0e9a7a2f6e48b2a1", "name": "Algorithm Coffee Co.", "opening_hours": {"open_now": false}, "photos": [{"height": 1365, "html_attributions": ["<a href=\"https://maps.google.com/maps/contrib/106326993466625868569/photos\">Algorithm Coffee Co.</a>"], "photo_reference": "CmRaAAAAG7TvEBmjeJhGULO7t4soR8zlKScX2sSGNpgt66IBljc4G8sd6ztM_3N8srVDu5qw95Up8HpdfiyA1S3m7i7FZlttnZZ8hDWJGjaMgckT89OAKupRrK55BWIMFY_uyhEeEhDt9s8IA1BlavCRDgOgp0o9GhRxcz6w2s57aaL-DEdAQqOV1oWmug", "width": 2048}], "place_id": "ChIJvxp408F-hYAReY3LjPTySLI", "plus_code": {"compound_code": "VP95+HH Berkeley, California, United States", "global_code": "849VVP95+HH"}, "price_level": 1, "rating": 4.6, "reference": "ChIJvxp408F-hYAReY3LjPTySLI", "scope": "GOOGLE", "types": ["cafe", "store", "point_of_interest", "food", "establishment"], "vicinity": "1122 University Avenue, Berkeley"}, "ChIJvxp408F-hYARgj6Lm4VtRAc": {"geometry": {"location": {"lat": 37.8689822, "lng": -122.2910819}, "viewport": {"northeast": {"lat": 37.8704331302915, "lng": -122.2897532697085}, "southwest": {"lat": 37.8677351697085, "lng": -122.2924512302915}}}, "icon": "https://maps.gstatic.com/mapfiles/place_api/icons/generic_business-71.png", "id": "b26437b5860c0b16c0484b711d21c4baf85b37a9", "name": "Center for Genetics and Society", "opening_hours": {"open_now": true}, "photos": [{"height": 573, "html_attributions": ["<a href=\"https://maps.google.com/maps/contrib/105859696417413505528/photos\">Center for Genetics and Society</a>"], "photo_reference": "CmRaAAAAtyce_0Fpfpe0NACWYXhahlLNM3ZZg8C1IyAjI9GPEKJdHuRow8uiNmqTjculmn3coHOLIjPGoBYsvwg4Ge2DPwDduU3a8r09B7CawUS87gZpOiD-vQMCnOpYqWfKfurHEhDCB8MuCG14DVyufA1oHHwNGhRbPPyT1SVVtvLUOyW5bVlQOGBRXA", "width": 572}], "place_id": "ChIJvxp408F-hYARgj6Lm4VtRAc", "plus_code": {"compound_code": "VP95+HH Berkeley, California, United States", "global_code": "849VVP95+HH"}, "reference": "ChIJvxp408F-hYARgj6Lm4VtRAc", "scope": "GOOGLE", "types": ["point_of_interest", "establishment"], "vicinity": "1122 University Avenue #100, Berkeley"}, "ChIJvxp408F-hYARrUF2iOz4eEA": {"geometry": {"location": {"lat": 37.8689822, "lng": -122.2910819}, "viewport": {"northeast": {"lat": 37.8704331302915, "lng": -122.2897532697085}, "southwest": {"lat": 37.8677351697085, "lng": -122.2924512302915}}}, "icon": "https://maps.gstatic.com/mapfiles/place_api/icons/generic_business-71.png", "id": "ec5fbfe7c0daa85bd4c88b35feb539737afec4c9", "name": "World Peace Records", "opening_hours": {"open_now": true}, "place_id": "ChIJvxp408F-hYARrUF2iOz4eEA", "plus_code": {"compound_code": "VP95+HH Berkeley, California, United States", "global_code": "849VVP95+HH"}, "reference": "ChIJvxp408F-hYARrUF2iOz4eEA", "scope": "GOOGLE", "types": ["point_of_interest", "establishment"], "vicinity": "1122 University Avenue #512, Berkeley"}, "ChIJ00mFOjZ5hYARk-l1ppUV6pQ": {"geometry": {"location": {"lat": 37.8715926, "lng": -122.272747}, "viewport": {"northeast": {"lat": 37.9058239, "lng": -122.234179}, "southwest": {"lat": 37.835727, "lng": -122.367781}}}, "icon": "https://maps.gstatic.com/mapfiles/place_api/icons/geocode-71.png", "id": "00741fe572fc4084428ab206e1a55830f6a1bf0a", "name": "Berkeley", "photos": [{"height": 1080, "html_attributions": ["<a href=\"https://maps.google.com/maps/contrib/110244590763501513798/photos\">miao hsin sun</a>"], "photo_reference": "CmRaAAAARTFJzyCru7npqZ3aKmDFKJKK8VtEEKNP_9bQQc2IQbYTXAfi2K8ff7lUAhi48NcaZF7Hv-oss3ND-jVPIkbCFXBY6N7mArPDwjnYK30vFX7P7-y-9MWcKYkQHp9M5iyyEhD38q2d4eJsCj6kBmcdOQ65GhQuUSHL007Iu03Qx1KPaAJLFlzCCg", "width": 1616}], "place_id": "ChIJ00mFOjZ5hYARk-l1ppUV6pQ", "reference": "ChIJ00mFOjZ5hYARk-l1ppUV6pQ", "scope": "GOOGLE", "types": ["locality", "political"], "vicinity": "Berkeley"}}