{"ChIJz9jsYJx-hYARqR_drrLwX9k": {"geometry": {"location": {"lat": 37.8682421, "lng": -122.2697345}, "viewport": {"northeast": {"lat": 37.8695910802915, "lng": -122.2683854697085}, "southwest": {"lat": 37.8668931197085, "lng": -122.2710834302915}}}, "icon": "https://maps.gstatic.com/mapfiles/place_api/icons/geocode-71.png", "id": "448fabfee39492180d64185e33c578b40a897f02", "name": "2000-2048 Kittredge St", "place_id": "ChIJz9jsYJx-hYARqR_drrLwX9k", "reference": "ChIJz9jsYJx-hYARqR_drrLwX9k", "scope": "GOOGLE", "types": ["route"], "vicinity": "Berkeley"}, "ChIJ5wOe9Zx-hYARfpcKFneRKZc": {"geometry": {"location": {"lat": 37.867991, "lng": -122.2695236}, "viewport": {"northeast": {"lat": 37.8694756302915, "lng": -122.2682032697085}, "southwest": {"lat": 37.8667776697085, "lng": -122.2709012302915}}}, "icon": "https://maps.gstatic.com/mapfiles/place_api/icons/generic_business-71.png", "id": "fe56557193ae9e009161f26877acf703285865d2", "name": "K Street Flats", "opening_hours": {"open_now": true}, "photos": [{"height": 647, "html_attributions": ["<a href=\"https://maps.google.com/maps/contrib/100616139399337617457/photos\">JDC</a>"], "photo_reference": "CmRaAAAAnpttNv5DAX580oD8BITeKJySGxM7hZrmLvtA8shxNIZjRbZWD42GdFc_sR8Yl2qvAn_3idhXi9Xt1QEWGGUXylZ2XKCvSBWv78hDdO9Jd5A4Zg2HV9NMegbRCebbEgwGEhAcEihDbMaxupPU33o-melKGhT9VyP3MK23Euf6yJPCbWBXRJebGA", "width": 1150}], "place_id": "ChIJ5wOe9Zx-hYARfpcKFneRKZc", "plus_code": {"compound_code": "VP9J+55 Berkeley, California, United States", "global_code": "849VVP9J+55"}, "rating": 3.2, "reference": "ChIJ5wOe9Zx-hYARfpcKFneRKZc", "scope": "GOOGLE", "types": ["real_estate_agency", "point_of_interest", "establishment"], "vicinity": "2020 Kittredge Street ste d, Berkeley"}, "ChIJx9e2_px-hYARsVoF7Q_SXrY": {"geometry": {"location": {"lat": 37.8681512, "lng": -122.268463}, "viewport": {"northeast": {"lat": 37.8696053802915, "lng": -122.2672810197085}, "southwest": {"lat": 37.8669074197085, "lng": -122.2699789802915}}}, "icon": "https://maps.gstatic.com/mapfiles/place_api/icons/school-71.png", "id": "aea07204fcf147ea3fbbef83fe4c3509ab86fc0e", "name": "Berkeley Public Library", "opening_hours": {"open_now": true}, "photos": [{"height": 567, "html_attributions": ["<a href=\"https://maps.google.com/maps/contrib/114437705200393004751/photos\">Jason Shurb</a>"], "photo_reference": "CmRaAAAAQOVhTiPH7TLeUSb06UWaggKxE_5R_XaaSgT0E63Fu_Jk-5Br-7GZxs2VdwubhM1WHFV0xn2po3sFJg5IvwmnGtket7uBQPrCIopWSyp3xQUK__s4cJvO8E3kP9h38RXaEhCqe8AO69-gy3ZTovoTM1ziGhTwkY3wTGIoX4d0SlOggVM1H3bpyQ", "width": 850}], "place_id": "ChIJx9e2_px-hYARsVoF7Q_SXrY", "plus_code": {"compound_code": "VP9J+7J Berkeley, California, United States", "global_code": "849VVP9J+7J"}, "rating": 4.4, "reference": "ChIJx9e2_px-hYARsVoF7Q_SXrY", "scope": "GOOGLE", "types": ["library", "point_of_interest", "establishment"], "vicinity": "2090 Kittredge Street, Berkeley"}, "ChIJwSbKWZx-hYAR7chSSAAruUY": {"geometry": {"location": {"lat": 37.8685827, "lng": -122.2689697}, "viewport": {"northeast": {"lat": 37.8698106302915, "lng": -122.2676282697085}, "southwest": {"lat": 37.8671126697085, "lng": -122.2703262302915}}}, "icon": "https://maps.gstatic.com/mapfiles/place_api/icons/museum-71.png", "id": "ebb5ba9f5b315f3e7b4e3dd54e998e06840724aa", "name": "Habitot Children's Museum", "opening_hours": {"open_now": false}, "photos": [{"height": 3036, "html_attributions": ["<a href=\"https://maps.google.com/maps/contrib/103409874541299662739/photos\">Bernard Didier Casse</a>"], "photo_reference": "CmRaAAAAFvbXdM8YNA4JlSmRwhMRd2_YU-AmMxUe_DXauGDKFv_qNc851P0Axv95g0xD18EsnxJhSDDB9mjQ4DTW41yOYwSSfIrold8WvxVQ7sGX86Eovagi4lNFHel8UE7mtLkXEhCBSWQ5yG3wDeTvHRN9FgdGGhQIrM520okirQvjv0zdqffWI8N15g", "width": 4048}], "place_id": "ChIJwSbKWZx-hYAR7chSSAAruUY", "plus_code": {"compound_code": "VP9J+CC Berkeley, California, United States", "global_code": "849VVP9J+CC"}, "rating": 4.3, "reference": "ChIJwSbKWZx-hYAR7chSSAAruUY", "scope": "GOOGLE", "types": ["museum", "point_of_interest", "establishment"], "vicinity": "2065 Kittredge Street, Berkeley"}, "ChIJ5wOe9Zx-hYARXASW37oBVlI": {"geometry": {"location": {"lat": 37.8680862, "lng": -122.2693821}, "viewport": {"northeast": {"lat": 37.8695335802915, "lng": -122.2680538697085}, "southwest": {"lat": 37.8668356197085, "lng": -122.2707518302915}}}, "icon": "https://maps.gstatic.com/mapfiles/place_api/icons/generic_business-71.png", "id": "a2ef6c49b98f792c6d4b2565362c4722169b489f", "name": "Cal Taxi & Airport Transportation Services", "photos": [{"height": 360, "html_attributions": ["<a href=\"https://maps.google.com/maps/contrib/103446562905301325935/photos\">Cal Taxi &amp; Airport Transportation Services</a>"], "photo_reference": "CmRaAAAAKjjr1wBKGcn1RardJSJ-a-_teadMI1PUT6XOtelM29RR48rn-mxFPMdm1RVyDiHFaOLRi_0Cl4Lmjqdn6GlY8DVuZoRkUQ833T2lP6GwQAzLplPoOIqZZhX2Siguo3bBEhDtzfco7ZdxhGJULMHER0u-GhTPgH5xW2VsR5DcKogm_4C1YWVVtg", "width": 480}], "place_id": "ChIJ5wOe9Zx-hYARXASW37oBVlI", "reference": "ChIJ5wOe9Zx-hYARXASW37oBVlI", "scope": "GOOGLE", "types": ["travel_agency", "point_of_interest", "establishment"], "vicinity": "2020 Kittredge Street, Berkeley"}, "ChIJp3slXJx-hYAR6vf_LF4HgFU": {"geometry": {"location": {"lat": 37.868502, "lng": -122.269471}, "viewport": {"northeast": {"lat": 37.86987068029149, "lng": -122.2679660197085}, "southwest": {"lat": 37.86717271970849, "lng": -122.2706639802915}}}, "icon": "https://maps.gstatic.com/mapfiles/place_api/icons/school-71.png", "id": "5e75ad83a8f175d96e837dfdd92c5cf013fc8f34", "name": "Dharma College", "place_id": "ChIJp3slXJx-hYAR6vf_LF4HgFU", "plus_code": {"compound_code": "VP9J+C6 Berkeley, California, United States", "global_code": "849VVP9J+C6"}, "reference": "ChIJp3slXJx-hYAR6vf_LF4HgFU", "scope": "GOOGLE", "types": ["university", "point_of_interest", "establishment"], "vicinity": "2222 Harold Way, Berkeley"}, "ChIJy3Aa9Zx-hYAR5WXdTU79gQw": {"geometry": {"location": {"lat": 37.867991, "lng": -122.2695236}, "viewport": {"northeast": {"lat": 37.8694756302915, "lng": -122.2682032697085}, "southwest": {"lat": 37.8667776697085, "lng": -122.2709012302915}}}, "icon": "https://maps.gstatic.com/mapfiles/place_api/icons/cafe-71.png", "id": "c1c15f77c43f8884a042c1ee4e982ea53b90de41", "name": "Maison Bleue \u2022 caf\u00e9 | cr\u00eaperie | catering", "opening_hours": {"open_now": true}, "photos": [{"height": 3024, "html_attributions": ["<a href=\"https://maps.google.com/maps/contrib/114635268273370539357/photos\">D Daedalus</a>"], "photo_reference": "CmRaAAAAjPe7FSKoE7pEVf7vfXu1iCL9DivaM6ni8C3p0FEm4PodgqmvBSZs0NDs_w-syKPsQ9YtwuadangvTTcwcnLDU-vc23JsR19wgN2U6X1LZ_JSquLi5vjAyJWdckvlSUClEhBTXM3gdOxnPeYyZJXPhvrfGhQ79UvqI0jcklGu7v9WePeUnDYb8Q", "width": 4032}], "place_id": "ChIJy3Aa9Zx-hYAR5WXdTU79gQw", "plus_code": {"compound_code": "VP9J+55 Berkeley, California, United States", "global_code": "849VVP9J+55"}, "price_level": 1, "rating": 4.5, "reference": "ChIJy3Aa9Zx-hYAR5WXdTU79gQw", "scope": "GOOGLE", "types": ["cafe", "restaurant", "point_of_interest", "food", "establishment"], "vicinity": "2020 Kittredge Street c, Berkeley"}, "ChIJoYBhiJx-hYAR3H43Q4DO-aA": {"geometry": {"location": {"lat": 37.867886, "lng": -122.269718}, "viewport": {"northeast": {"lat": 37.86921363029149, "lng": -122.2686687697085}, "southwest": {"lat": 37.86651566970849, "lng": -122.2713667302915}}}, "icon": "https://maps.gstatic.com/mapfiles/place_api/icons/shopping-71.png", "id": "0020d2cb994437bdf091f212ab0eb05584ba695d", "name": "Artspoke Recording Studios and Skeptical Records", "opening_hours": {"open_now": true}, "photos": [{"height": 1836, "html_attributions": ["<a href=\"https://maps.google.com/maps/contrib/108258630197023426491/photos\">Artspoke Recording Studios and Skeptical Records</a>"], "photo_reference": "CmRaAAAAMPvcib05kSypFSyE7sPpjRJ7yVpA98dRJxNR4Kc892hk4CrMvkqB6L4z9ox4qphGKZqrIuVKw9fwMo6yoRlVTyJyS3kB_FDDw77Fuvqdnj2dmXwoNjvYsudqu7VqrFjkEhB8m8kP8FdAZUBxJSdoMHsVGhQC-bTIpTDZ044l84ImfYQxGpQEow", "width": 3264}], "place_id": "ChIJoYBhiJx-hYAR3H43Q4DO-aA", "plus_code": {"compound_code": "VP9J+54 Berkeley, California, United States", "global_code": "849VVP9J+54"}, "rating": 5, "reference": "ChIJoYBhiJx-hYAR3H43Q4DO-aA", "scope": "GOOGLE", "types": ["electronics_store", "home_goods_store", "store", "point_of_interest", "establishment"], "vicinity": "2237 Milvia Street, Berkeley"}, "ChIJlWK9-5x-hYARmoDs26umirY": {"geometry": {"location": {"lat": 37.8681967, "lng": -122.2684903}, "viewport": {"northeast": {"lat": 37.8696460802915, "lng": -122.2671633697085}, "southwest": {"lat": 37.8669481197085, "lng": -122.2698613302915}}}, "icon": "https://maps.gstatic.com/mapfiles/place_api/icons/generic_business-71.png", "id": "01ea31c718ac230ef86c2ffa44a670b7f4bd7e37", "name": "Berkeley Public Library Foundation", "photos": [{"height": 1622, "html_attributions": ["<a href=\"https://maps.google.com/maps/contrib/109604293971000429444/photos\">Berkeley Public Library Foundation</a>"], "photo_reference": "CmRaAAAAxVDB3fqSbqMzOM1MxMETMEj6Is3jsO8ReUhvZW9-boWViJ2L8g2pgzD4c48wiXKUEln6mHuY0GwJdDiRgR5XMXJdjgruCSrBSvw1-5Z8AkK0aA5PgRP4H3Scr3tsa18uEhDIjyh5yQ9EhVtWO5MWdsGuGhR9LVKZjjSLISo-6ve55zQ0MwzPdg", "width": 2048}], "place_id": "ChIJlWK9-5x-hYARmoDs26umirY", "plus_code": {"compound_code": "VP9J+7J Berkeley, California, United States", "global_code": "849VVP9J+7J"}, "reference": "ChIJlWK9-5x-hYARmoDs26umirY", "scope": "GOOGLE", "types": ["point_of_interest", "establishment"], "vicinity": "2090 Kittredge Street, Berkeley"}, "ChIJH9cbWpx-hYARglDxlux6Tf0": {"geometry": {"location": {"lat": 37.86858829999999, "lng": -122.2689989}, "viewport": {"northeast": {"lat": 37.8698146302915, "lng": -122.2676264697085}, "southwest": {"lat": 37.8671166697085, "lng": -122.2703244302915}}}, "icon": "https://maps.gstatic.com/mapfiles/place_api/icons/generic_business-71.png", "id": "2f3f81e73e6899fd4e1e44fb594c9089ed6437bb", "name": "Zip Inc.", "opening_hours": {"open_now": true}, "place_id": "ChIJH9cbWpx-hYARglDxlux6Tf0", "plus_code": {"compound_code": "VP9J+CC Berkeley, California, United States", "global_code": "849VVP9J+CC"}, "rating": 2.5, "reference": "ChIJH9cbWpx-hYARglDxlux6Tf0", "scope": "GOOGLE", "types": ["point_of_interest", "establishment"], "vicinity": "2065 Kittredge Street #5, Berkeley"}, "ChIJw7qulBd8hYARsTT_ej4OGfY": {"geometry": {"location": {"lat": 37.8682039, "lng": -122.2685479}, "viewport": {"northeast": {"lat": 37.8696459802915, "lng": -122.2672193697085}, "southwest": {"lat": 37.8669480197085, "lng": -122.2699173302915}}}, "icon": "https://maps.gstatic.com/mapfiles/place_api/icons/school-71.png", "id": "13998649f79cccae9385abe3b5c90062498363db", "name": "Education Therapy", "opening_hours": {"open_now": true}, "photos": [{"height": 2448, "html_attributions": ["<a href=\"https://maps.google.com/maps/contrib/106183144420348148827/photos\">Education Therapy</a>"], "photo_reference": "CmRaAAAASR50joWc-vQjr5xAYJ4cXQqEOdwSOWkkHMWCml9CuHLSELyoICwBmlQQ46ss330UJwAtbMdUUa2b5huls3nSx-EqWv5JcStqtcyLNIPOMwGS0_Tu9mT-fS7HimlrvNAVEhAhoElI578AQqGRpj9Qh1ogGhRzG4683jfRV4sVFqIAjDLVy7k8vA", "width": 3264}], "place_id": "ChIJw7qulBd8hYARsTT_ej4OGfY", "reference": "ChIJw7qulBd8hYARsTT_ej4OGfY", "scope": "GOOGLE", "types": ["point_of_interest", "school", "establishment"], "vicinity": "2090 Kittredge Street, Berkeley"}, "ChIJ4wvMWZx-hYARM-gRwJlzquc": {"geometry": {"location": {"lat": 37.86858829999999, "lng": -122.2689989}, "viewport": {"northeast": {"lat": 37.8698146302915, "lng": -122.2676264697085}, "southwest": {"lat": 37.8671166697085, "lng": -122.2703244302915}}}, "icon": "https://maps.gstatic.com/mapfiles/place_api/icons/atm-71.png", "id": "d3a0dbec04c60ba6f58f222bad244ecf6e4bce2b", "name": "International Merchant Services (P", "opening_hours": {"open_now": true}, "place_id": "ChIJ4wvMWZx-hYARM-gRwJlzquc", "plus_code": {"compound_code": "VP9J+CC Berkeley, California, United States", "global_code": "849VVP9J+CC"}, "reference": "ChIJ4wvMWZx-hYARM-gRwJlzquc", "scope": "GOOGLE", "types": ["atm", "finance", "point_of_interest", "establishment"], "vicinity": "2065 Kittredge Street, Berkeley"}, "ChIJ4wvMWZx-hYARGIjY_IlA0g4": {"geometry": {"location": {"lat": 37.86858829999999, "lng": -122.2689989}, "viewport": {"northeast": {"lat": 37.8698146302915, "lng": -122.2676264697085}, "southwest": {"lat": 37.8671166697085, "lng": -122.2703244302915}}}, "icon": "https://maps.gstatic.com/mapfiles/place_api/icons/generic_business-71.png", "id": "011f6f45e1585d48587048a1b9bd197b93530f80", "name": "Arcon Inc", "place_id": "ChIJ4wvMWZx-hYARGIjY_IlA0g4", "plus_code": {"compound_code": "VP9J+CC Berkeley, California, United States", "global_code": "849VVP9J+CC"}, "rating": 1, "reference": "ChIJ4wvMWZx-hYARGIjY_IlA0g4", "scope": "GOOGLE", "types": ["real_estate_agency", "point_of_interest", "establishment"], "vicinity": "2065 Kittredge Street # A, Berkeley"}, "ChIJwSbKWZx-hYARHZLODftK-Y8": {"geometry": {"location": {"lat": 37.86858829999999, "lng": -122.2689989}, "viewport": {"northeast": {"lat": 37.8698146302915, "lng": -122.2676264697085}, "southwest": {"lat": 37.8671166697085, "lng": -122.2703244302915}}}, "icon": "https://maps.gstatic.com/mapfiles/place_api/icons/generic_business-71.png", "id": "a9bbbb852fa16d1a95c81ba44f6ead9ef28348bc", "name": "Bisno Margaretta PHD", "place_id": "ChIJwSbKWZx-hYARHZLODftK-Y8", "plus_code": {"compound_code": "VP9J+CC Berkeley, California, United States", "global_code": "849VVP9J+CC"}, "reference": "ChIJwSbKWZx-hYARHZLODftK-Y8", "scope": "GOOGLE", "types": ["health", "point_of_interest", "establishment"], "vicinity": "2065 Kittredge Street, Berkeley"}, "ChIJ29eTYiR_hYAR0kwpE5hxj2E": {"geometry": {"location": {"lat": 37.8685447, "lng": -122.2694208}, "viewport": {"northeast": {"lat": 37.8699097302915, "lng": -122.2679445197085}, "southwest": {"lat": 37.8672117697085, "lng": -122.2706424802915}}}, "icon": "https://maps.gstatic.com/mapfiles/place_api/icons/generic_business-71.png", "id": "04055564435e7c29f244d4cbd48c5aeb57ccfe56", "name": "CoWorking With Wisdom", "opening_hours": {"open_now": true}, "photos": [{"height": 2448, "html_attributions": ["<a href=\"https://maps.google.com/maps/contrib/110221988934042746581/photos\">CoWorking With Wisdom</a>"], "photo_reference": "CmRaAAAAq3tfJCQyWtW_FgUHtdgB2xilwlL7UvoiuKHjAs7KYbBFcqFetWAwEHsDpa9ahvw_PYGsk4lBl407L1zem55ML_jDFtK52qozaobRr3-pbowUD_kPsExmPMwW67MiLtRTEhBJtnHHY80oi1nLFN5nBwv2GhSaUDqUfhv80TUAdrXx-JG8CrsMDw", "width": 3264}], "place_id": "ChIJ29eTYiR_hYAR0kwpE5hxj2E", "plus_code": {"compound_code": "VP9J+C6 Berkeley, California, United States", "global_code": "849VVP9J+C6"}, "rating": 5, "reference": "ChIJ29eTYiR_hYAR0kwpE5hxj2E", "scope": "GOOGLE", "types": ["point_of_interest", "establishment"], "vicinity": "2222 Harold Way, Berkeley"}, "ChIJuyg65e9_hYARVuN5zsV_mAc": {"geometry": {"location": {"lat": 37.8685447, "lng": -122.2694208}, "viewport": {"northeast": {"lat": 37.8699097302915, "lng": -122.2679445197085}, "southwest": {"lat": 37.8672117697085, "lng": -122.2706424802915}}}, "icon": "https://maps.gstatic.com/mapfiles/place_api/icons/generic_business-71.png", "id": "058764806bdea6e1b5ab437fb272c1ec3a19cea0", "name": "Supportiv", "opening_hours": {"open_now": true}, "photos": [{"height": 784, "html_attributions": ["<a href=\"https://maps.google.com/maps/contrib/117244508917088885943/photos\">Supportiv</a>"], "photo_reference": "CmRaAAAAHidaTovmait_9oZpDPLwM47JWuAELOdUtk_EsoCimKDcc8jLz7R7hGDenffQREyR3V3ZEOc6TU4V9qx5pWHUNFvFtO8eEV2xEeUjcZGWeddEbyQWYL_bI0F3BZGrreLVEhAdnnY5W5hDwIYHuu06QRheGhS_l6iQRKSMXF1FI92SG2AkW9l-zA", "width": 784}], "place_id": "ChIJuyg65e9_hYARVuN5zsV_mAc", "plus_code": {"compound_code": "VP9J+C6 Berkeley, California, United States", "global_code": "849VVP9J+C6"}, "reference": "ChIJuyg65e9_hYARVuN5zsV_mAc", "scope": "GOOGLE", "types": ["health", "point_of_interest", "establishment"], "vicinity": "2222 Harold Way, Berkeley"}, "ChIJ00mFOjZ5hYARk-l1ppUV6pQ": {"geometry": {"location": {"lat": 37.8715926, "lng": -122.272747}, "viewport": {"northeast": {"lat": 37.9058239, "lng": -122.234179}, "southwest": {"lat": 37.835727, "lng": -122.367781}}}, "icon": "https://maps.gstatic.com/mapfiles/place_api/icons/geocode-71.png", "id": "00741fe572fc4084428ab206e1a55830f6a1bf0a", "name": "Berkeley", "photos": [{"height": 1080, "html_attributions": ["<a href=\"https://maps.google.com/maps/contrib/110244590763501513798/photos\">miao hsin sun</a>"], "photo_reference": "CmRaAAAAl5oBdYLZnhjw0m8eza2s09scrvC4XoSsL8WbwoyNBWrXm3fsohAbRfvujFWfeFjOzivdvZ4JSkf7hPNUVltViTlfcb-sclNE-icRpd9KWBaZUiSEN0bMXJGSmUeTTarWEhBvtFBVm94lZ6ViMJK_dfTaGhRzlWkNg8RZsErkrkPsgjYI29Mggw", "width": 1616}], "place_id": "ChIJ00mFOjZ5hYARk-l1ppUV6pQ", "reference": "ChIJ00mFOjZ5hYARk-l1ppUV6pQ", "scope": "GOOGLE", "types": ["locality", "political"], "vicinity": "Berkeley"}}