{"ChIJgdevtfN-hYARoePcpg7frK8": {"geometry": {"location": {"lat": 37.8562246, "lng": -122.2921767}, "viewport": {"northeast": {"lat": 37.85757358029149, "lng": -122.2908277197085}, "southwest": {"lat": 37.8548756197085, "lng": -122.2935256802915}}}, "icon": "https://maps.gstatic.com/mapfiles/place_api/icons/geocode-71.png", "id": "b9530de8588a27df033b2120cb1bc5df5a8012af", "name": "925-901 Pardee St", "place_id": "ChIJgdevtfN-hYARoePcpg7frK8", "reference": "ChIJgdevtfN-hYARoePcpg7frK8", "scope": "GOOGLE", "types": ["route"], "vicinity": "Berkeley"}, "ChIJl2HZsO5-hYAREzgipkW9N9E": {"geometry": {"location": {"lat": 37.8562251, "lng": -122.2926938}, "viewport": {"northeast": {"lat": 37.8575664802915, "lng": -122.2913823697085}, "southwest": {"lat": 37.8548685197085, "lng": -122.2940803302915}}}, "icon": "https://maps.gstatic.com/mapfiles/place_api/icons/shopping-71.png", "id": "a794a07a112eff804d7495e36d0313b3fa2c6b1c", "name": "Lola's African Apparel", "opening_hours": {"open_now": false}, "photos": [{"height": 608, "html_attributions": ["<a href=\"https://maps.google.com/maps/contrib/111104388731606709475/photos\">Lola&#39;s African Apparel</a>"], "photo_reference": "CmRaAAAA6O69P6jTQ_nqRtbNZopMO5jG58W01IsGihcEFvx1VJBYVbNf63MyAjiJCSmYvJT2ogxcmie0gu8-rimbVf2obMIOVZUN74UAL-Oe3qP9KOlG0QaAP1IB0TJ7sDcsyBKKEhAUpn6vskV8mHR3vWoC0izbGhTAtKucIP7sRHo3NYZ0cXUUJyMvdA", "width": 1080}], "place_id": "ChIJl2HZsO5-hYAREzgipkW9N9E", "plus_code": {"compound_code": "VP44+FW Berkeley, California, United States", "global_code": "849VVP44+FW"}, "rating": 4.9, "reference": "ChIJl2HZsO5-hYAREzgipkW9N9E", "scope": "GOOGLE", "types": ["point_of_interest", "establishment"], "vicinity": "2703 Seventh Street #112, Berkeley"}, "ChIJlcawNPJ-hYAR2E2vwS6xztU": {"geometry": {"location": {"lat": 37.85630299999999, "lng": -122.292617}, "viewport": {"northeast": {"lat": 37.8576345302915, "lng": -122.2913540197085}, "southwest": {"lat": 37.8549365697085, "lng": -122.2940519802915}}}, "icon": "https://maps.gstatic.com/mapfiles/place_api/icons/generic_business-71.png", "id": "761d955039a4b8f1c44f26edd95ee88871a78aea", "name": "\u30c8\u30f3\u30b3\u30cf\u30a6\u30b9", "place_id": "ChIJlcawNPJ-hYAR2E2vwS6xztU", "plus_code": {"compound_code": "VP44+GX Berkeley, California, United States", "global_code": "849VVP44+GX"}, "reference": "ChIJlcawNPJ-hYAR2E2vwS6xztU", "scope": "GOOGLE", "types": ["point_of_interest", "establishment"], "vicinity": "110 Seventh Street, Berkeley"}, "ChIJtwOVy_N-hYARyg2hanvjrMM": {"geometry": {"location": {"lat": 37.85601599999999, "lng": -122.2925352}, "viewport": {"northeast": {"lat": 37.85741863029149, "lng": -122.2912079197085}, "southwest": {"lat": 37.8547206697085, "lng": -122.2939058802915}}}, "icon": "https://maps.gstatic.com/mapfiles/place_api/icons/generic_business-71.png", "id": "2cf1223e6b65cceb29ff7f89043b5978b2f50688", "name": "AVI-SPL", "photos": [{"height": 1836, "html_attributions": ["<a href=\"https://maps.google.com/maps/contrib/112839530138854698722/photos\">Jim Schinkel</a>"], "photo_reference": "CmRaAAAADHFMy0Gu0Mcqf1B3YpZdEsZKL1dNpWuyzH6jl6s_S3HH90o1d-Ca-SJeTG_2voGTS7nFd8hTnAf3w7kEHJ0WoLns4wtQNdT_YGFn1pFotFnDCg1uZVWjiqpjIEGtHsJHEhCrZWjp0EI0hVefZ0RuVKpHGhTNQ97KpVw27nxX_RM1t1TkmiB2Pg", "width": 3264}], "place_id": "ChIJtwOVy_N-hYARyg2hanvjrMM", "plus_code": {"compound_code": "VP44+CX Berkeley, California, United States", "global_code": "849VVP44+CX"}, "reference": "ChIJtwOVy_N-hYARyg2hanvjrMM", "scope": "GOOGLE", "types": ["point_of_interest", "establishment"], "vicinity": "904 Pardee Street, Berkeley"}, "ChIJ00mFOjZ5hYARk-l1ppUV6pQ": {"geometry": {"location": {"lat": 37.8715926, "lng": -122.272747}, "viewport": {"northeast": {"lat": 37.9058239, "lng": -122.234179}, "southwest": {"lat": 37.835727, "lng": -122.367781}}}, "icon": "https://maps.gstatic.com/mapfiles/place_api/icons/geocode-71.png", "id": "00741fe572fc4084428ab206e1a55830f6a1bf0a", "name": "Berkeley", "photos": [{"height": 1080, "html_attributions": ["<a href=\"https://maps.google.com/maps/contrib/110244590763501513798/photos\">miao hsin sun</a>"], "photo_reference": "CmRaAAAAnApybU86T1u_Q5VlXZhqpDnTL8zcdxU8AvzN77eaxWjCWADKjWitzuRYZ3x-G0yVfZ0CPMBr8DwJFl9mM7BEpS2GGA_2kin2GPPXUuXZYb10QKK-Y-SodWUGvHSE1bo8EhBIG09fd4hSGJBlNgtheddfGhQSmSV7wej1xlLzenS-1hAX5ijSzA", "width": 1616}], "place_id": "ChIJ00mFOjZ5hYARk-l1ppUV6pQ", "reference": "ChIJ00mFOjZ5hYARk-l1ppUV6pQ", "scope": "GOOGLE", "types": ["locality", "political"], "vicinity": "Berkeley"}}