{"ChIJDxom2kx5hYARsaSohOujpV4": {"geometry": {"location": {"lat": 37.8918148, "lng": -122.2799394}, "viewport": {"northeast": {"lat": 37.8931637802915, "lng": -122.2785904197085}, "southwest": {"lat": 37.8904658197085, "lng": -122.2812883802915}}}, "icon": "https://maps.gstatic.com/mapfiles/place_api/icons/geocode-71.png", "id": "db030b9e2614d78893f7de4e6fdbb4a08484fc88", "name": "895-865 Colusa Ave", "place_id": "ChIJDxom2kx5hYARsaSohOujpV4", "reference": "ChIJDxom2kx5hYARsaSohOujpV4", "scope": "GOOGLE", "types": ["route"], "vicinity": "Berkeley"}, "ChIJBUzN0Ex5hYARF2_h5SiNzhc": {"geometry": {"location": {"lat": 37.89163699999999, "lng": -122.2800907}, "viewport": {"northeast": {"lat": 37.8929981302915, "lng": -122.2786497697085}, "southwest": {"lat": 37.8903001697085, "lng": -122.2813477302915}}}, "icon": "https://maps.gstatic.com/mapfiles/place_api/icons/generic_business-71.png", "id": "0caecdb39406bda1a5379953b13bb1889169ec4e", "name": "Hair Solano", "opening_hours": {"open_now": false}, "photos": [{"height": 480, "html_attributions": ["<a href=\"https://maps.google.com/maps/contrib/117719358919235975982/photos\">Jessica James</a>"], "photo_reference": "CmRaAAAAJ5-K7NT35jJpCSrtHmbHhl6zn5IJwZWZwrMn6MoMLdEpFIrcMKV2S3fdQIQ7pa87cXTj749r5t5HejoBbN6KFUuzqLFhyNqyK52hrmDCn8s4WGVU10aAJRamvoBIPe5kEhA0Sqt4FrnBrQZxp08bJ5EwGhQZAcsbBdHfoLlSHdMsc0bQC28HSA", "width": 640}], "place_id": "ChIJBUzN0Ex5hYARF2_h5SiNzhc", "plus_code": {"compound_code": "VPR9+MX Berkeley, California, United States", "global_code": "849VVPR9+MX"}, "rating": 3.7, "reference": "ChIJBUzN0Ex5hYARF2_h5SiNzhc", "scope": "GOOGLE", "types": ["beauty_salon", "hair_care", "point_of_interest", "establishment"], "vicinity": "888 Colusa Avenue, Berkeley"}, "ChIJS-JI0Ux5hYARUcSYcJQbfxI": {"geometry": {"location": {"lat": 37.8915081, "lng": -122.2800433}, "viewport": {"northeast": {"lat": 37.8928113302915, "lng": -122.2785960697085}, "southwest": {"lat": 37.8901133697085, "lng": -122.2812940302915}}}, "icon": "https://maps.gstatic.com/mapfiles/place_api/icons/cafe-71.png", "id": "a8abf814d149e8f541e2c94771edd8fefb92b9b3", "name": "Starbucks", "opening_hours": {"open_now": false}, "photos": [{"height": 664, "html_attributions": ["<a href=\"https://maps.google.com/maps/contrib/105637609772945755672/photos\">Starbucks</a>"], "photo_reference": "CmRaAAAA1pET9MRqDOmAEqkZPBrAVhEbAGPu0VqdG6cmIWmV9xO2Cj1GXDZ9skpzhpo5kCIYeOfuFbX3u0RUCB0TP3ZDCgwBnxJZwdLOXBBZDEUWwh4K50oRl8wmE9q7jPiR5U5QEhCO28gxGVK6u8upT6boKKFcGhQt2dDIhl9Uhv0vpkkzGDHWYlIL8g", "width": 732}], "place_id": "ChIJS-JI0Ux5hYARUcSYcJQbfxI", "plus_code": {"compound_code": "VPR9+JX Berkeley, California, United States", "global_code": "849VVPR9+JX"}, "price_level": 2, "rating": 4, "reference": "ChIJS-JI0Ux5hYARUcSYcJQbfxI", "scope": "GOOGLE", "types": ["cafe", "store", "point_of_interest", "food", "establishment"], "vicinity": "1799 Solano Avenue, Berkeley"}, "ChIJjUzN0Ex5hYARDoH4-VRBOcc": {"geometry": {"location": {"lat": 37.89163699999999, "lng": -122.2800907}, "viewport": {"northeast": {"lat": 37.8929981302915, "lng": -122.2786497697085}, "southwest": {"lat": 37.8903001697085, "lng": -122.2813477302915}}}, "icon": "https://maps.gstatic.com/mapfiles/place_api/icons/generic_business-71.png", "id": "144ba908758ecd133d75c3a61f993cf8047976cc", "name": "Lupe Muller Stylist", "opening_hours": {"open_now": false}, "photos": [{"height": 384, "html_attributions": ["<a href=\"https://maps.google.com/maps/contrib/118298407609285235662/photos\">Lupe Muller Stylist</a>"], "photo_reference": "CmRaAAAAT9dQRt3jf6dZDPk5KQdVSaZwNNpSYAldTtxmUKo3gAHbwPcwaPsCiFdbgoHfQBHnbLo79R8Dm4v5xY19cgqRgyym1Njhg-HY5b57wFOsVvAhL0CWMVkZd5ytsPSp6kQ3EhBl8YIOdtcYORhN9OoMfe8DGhQ49rpWHHa3WDT-z9E_DFE7vSaarg", "width": 512}], "place_id": "ChIJjUzN0Ex5hYARDoH4-VRBOcc", "plus_code": {"compound_code": "VPR9+MX Berkeley, California, United States", "global_code": "849VVPR9+MX"}, "reference": "ChIJjUzN0Ex5hYARDoH4-VRBOcc", "scope": "GOOGLE", "types": ["hair_care", "point_of_interest", "establishment"], "vicinity": "888 Colusa Avenue, Berkeley"}, "ChIJ8QzK1kx5hYARccG8T103NR4": {"geometry": {"location": {"lat": 37.8915899, "lng": -122.2800599}, "viewport": {"northeast": {"lat": 37.89294968029149, "lng": -122.2786291197085}, "southwest": {"lat": 37.8902517197085, "lng": -122.2813270802915}}}, "icon": "https://maps.gstatic.com/mapfiles/place_api/icons/shopping-71.png", "id": "c24bb4832e5c22d8b547f2d3b8e42f55f1574027", "name": "Kitchen Sync", "place_id": "ChIJ8QzK1kx5hYARccG8T103NR4", "plus_code": {"compound_code": "VPR9+JX Berkeley, California, United States", "global_code": "849VVPR9+JX"}, "reference": "ChIJ8QzK1kx5hYARccG8T103NR4", "scope": "GOOGLE", "types": ["furniture_store", "home_goods_store", "store", "point_of_interest", "establishment"], "vicinity": "892 Colusa Avenue, Berkeley"}, "ChIJcyB-2kx5hYARvnxZuuvhWqs": {"geometry": {"location": {"lat": 37.8916704, "lng": -122.2800982}, "viewport": {"northeast": {"lat": 37.89303153029149, "lng": -122.2786570697085}, "southwest": {"lat": 37.8903335697085, "lng": -122.2813550302915}}}, "icon": "https://maps.gstatic.com/mapfiles/place_api/icons/generic_business-71.png", "id": "1d9a223127b87471fb874904483a4b47406acecc", "name": "MAISILK", "opening_hours": {"open_now": false}, "photos": [{"height": 4032, "html_attributions": ["<a href=\"https://maps.google.com/maps/contrib/109270054948675714391/photos\">MAISILK</a>"], "photo_reference": "CmRaAAAAzCssI_ytm8ZdH3gHpbNq-KhJNSMMfAMaBZyPaVQhoTDnsgWVK3DahI8GcGe2yis1-AzUR7FBqay41_hwxKDeEP113oQer4M9rY4gNy2hK2e2eTNWiSs_uMyp8LM0xoB-EhBGfCSDBgHMyx3fHopolpv1GhS4N7f3PnHX_uOeK0k1B9oCCA2bNw", "width": 3024}], "place_id": "ChIJcyB-2kx5hYARvnxZuuvhWqs", "plus_code": {"compound_code": "VPR9+MX Berkeley, California, United States", "global_code": "849VVPR9+MX"}, "rating": 5, "reference": "ChIJcyB-2kx5hYARvnxZuuvhWqs", "scope": "GOOGLE", "types": ["home_goods_store", "store", "point_of_interest", "establishment"], "vicinity": "886 Colusa Avenue, Berkeley"}, "ChIJFcmL2kx5hYARJ9Jh6YQoQaY": {"geometry": {"location": {"lat": 37.891712, "lng": -122.280111}, "viewport": {"northeast": {"lat": 37.89307343029149, "lng": -122.2786679697085}, "southwest": {"lat": 37.89037546970849, "lng": -122.2813659302915}}}, "icon": "https://maps.gstatic.com/mapfiles/place_api/icons/generic_business-71.png", "id": "21bca3e93e3e3ede07bee55224f53ad0cec2988f", "name": "Poe Brow + Skin Studio", "opening_hours": {"open_now": false}, "photos": [{"height": 505, "html_attributions": ["<a href=\"https://maps.google.com/maps/contrib/101531896617823140162/photos\">Poe Brow + Skin Studio</a>"], "photo_reference": "CmRaAAAA_XBCZCBJLgmvTsY4dBJGy3QXN-u5u2WroiECQgfxX-6TrQzD7jQ68pEXY1bTqVIPRL6IiIx6GikhT6Fj0Xr03r9CArZ1tTqB3djd-tP-Nx-o0G1T6ki2YnC0PNHeZnxGEhCxaSpBj5wX4nR-003rYfN2GhTfThwqDc8tH2Vw0QobWsXu439JpA", "width": 500}], "place_id": "ChIJFcmL2kx5hYARJ9Jh6YQoQaY", "plus_code": {"compound_code": "VPR9+MX Berkeley, California, United States", "global_code": "849VVPR9+MX"}, "rating": 4.9, "reference": "ChIJFcmL2kx5hYARJ9Jh6YQoQaY", "scope": "GOOGLE", "types": ["spa", "beauty_salon", "point_of_interest", "establishment"], "vicinity": "884 Colusa Avenue, Berkeley"}, "ChIJt4SJ0Ex5hYARTAZBt9mj9JY": {"geometry": {"location": {"lat": 37.8915235, "lng": -122.2800937}, "viewport": {"northeast": {"lat": 37.8927733302915, "lng": -122.2787361697085}, "southwest": {"lat": 37.8900753697085, "lng": -122.2814341302915}}}, "icon": "https://maps.gstatic.com/mapfiles/place_api/icons/shopping-71.png", "id": "ce49f5684510571b9cad30228c8b3c3a6e0cee0d", "name": "Lava 9", "photos": [{"height": 1800, "html_attributions": ["<a href=\"https://maps.google.com/maps/contrib/102688446897362622126/photos\">Bridget Canfield</a>"], "photo_reference": "CmRaAAAAbaeutdWjQ2gcWCawpJDMqFbj_tkmDPQSGLTYEK_D4hmxfwK-lXWISh7sbgyfD1WUp1aszaMJZQMiUmi011W_EVCVOaySUgFUOVb8C-ZbVni3kSyGUdxwlojl4PtaS5BaEhCfhV1aSQH4M_LyuwH_y0M5GhQRu_dJ743lmVdJwsNkgq8esGTDSg", "width": 2520}], "place_id": "ChIJt4SJ0Ex5hYARTAZBt9mj9JY", "plus_code": {"compound_code": "VPR9+JX Berkeley, California, United States", "global_code": "849VVPR9+JX"}, "rating": 5, "reference": "ChIJt4SJ0Ex5hYARTAZBt9mj9JY", "scope": "GOOGLE", "types": ["store", "point_of_interest", "establishment"], "vicinity": "1797 Solano Avenue, Berkeley"}, "ChIJmxyr0Ux5hYAR6Ze2YKkcv_4": {"geometry": {"location": {"lat": 37.8915232, "lng": -122.2801712}, "viewport": {"northeast": {"lat": 37.8927711802915, "lng": -122.2788155197085}, "southwest": {"lat": 37.8900732197085, "lng": -122.2815134802915}}}, "icon": "https://maps.gstatic.com/mapfiles/place_api/icons/generic_business-71.png", "id": "7cd7ea752bde6e57aa2fabf9be051387345d3fd3", "name": "F E Forbes Co Inc", "photos": [{"height": 3388, "html_attributions": ["<a href=\"https://maps.google.com/maps/contrib/102688446897362622126/photos\">Bridget Canfield</a>"], "photo_reference": "CmRaAAAAgor0LgMQ55FT2yHTd1ViFKzChqV7vzEf6nZ3xRJFJ9yFUNBuKcv5BIXErCkF5W0onQ5rNnfDQ_l6MJCR7eT9qz-vhNm_ZiXlMkO_kgJuB4RU_j-kcBfC4xpEAQx87XyLEhANbFzaM38Wgikb_E0Wid85GhR375A3THEIjdotHW9JLIa1IPL3Eg", "width": 2088}], "place_id": "ChIJmxyr0Ux5hYAR6Ze2YKkcv_4", "plus_code": {"compound_code": "VPR9+JW Berkeley, California, United States", "global_code": "849VVPR9+JW"}, "rating": 5, "reference": "ChIJmxyr0Ux5hYAR6Ze2YKkcv_4", "scope": "GOOGLE", "types": ["finance", "point_of_interest", "establishment"], "vicinity": "1795 Solano Avenue, Berkeley"}, "ChIJBUzN0Ex5hYAR44xkH-d2jeg": {"geometry": {"location": {"lat": 37.89163699999999, "lng": -122.2800907}, "viewport": {"northeast": {"lat": 37.8929981302915, "lng": -122.2786497697085}, "southwest": {"lat": 37.8903001697085, "lng": -122.2813477302915}}}, "icon": "https://maps.gstatic.com/mapfiles/place_api/icons/generic_business-71.png", "id": "f9c433c8a99092a1dee1b38514e4abd18d810d7e", "name": "Alves T Susan", "place_id": "ChIJBUzN0Ex5hYAR44xkH-d2jeg", "plus_code": {"compound_code": "VPR9+MX Berkeley, California, United States", "global_code": "849VVPR9+MX"}, "reference": "ChIJBUzN0Ex5hYAR44xkH-d2jeg", "scope": "GOOGLE", "types": ["beauty_salon", "point_of_interest", "establishment"], "vicinity": "888 Colusa Avenue, Berkeley"}, "ChIJ00mFOjZ5hYARk-l1ppUV6pQ": {"geometry": {"location": {"lat": 37.8715926, "lng": -122.272747}, "viewport": {"northeast": {"lat": 37.9058239, "lng": -122.234179}, "southwest": {"lat": 37.835727, "lng": -122.367781}}}, "icon": "https://maps.gstatic.com/mapfiles/place_api/icons/geocode-71.png", "id": "00741fe572fc4084428ab206e1a55830f6a1bf0a", "name": "Berkeley", "photos": [{"height": 1080, "html_attributions": ["<a href=\"https://maps.google.com/maps/contrib/110244590763501513798/photos\">miao hsin sun</a>"], "photo_reference": "CmRaAAAAZ46U2izeW8OO0pGohuvEC0QOUM7IRNo7fI7hZUL3CliVg3XYsnPiiA5CidyABpvGEhNBvvxDg-FgIZ8Wt3EZB5xLahuQwWt98bYSi6d7exaZ-s8EYmuYsUFScRtY01DmEhBmWgU03-bi--6f-B9Zj0rRGhTq4L7E5CtN0Gu61Ikk_jCC6nwyEA", "width": 1616}], "place_id": "ChIJ00mFOjZ5hYARk-l1ppUV6pQ", "reference": "ChIJ00mFOjZ5hYARk-l1ppUV6pQ", "scope": "GOOGLE", "types": ["locality", "political"], "vicinity": "Berkeley"}}