{"ChIJ00mFOjZ5hYARk-l1ppUV6pQ": {"geometry": {"location": {"lat": 37.8715926, "lng": -122.272747}, "viewport": {"northeast": {"lat": 37.9058239, "lng": -122.234179}, "southwest": {"lat": 37.835727, "lng": -122.367781}}}, "icon": "https://maps.gstatic.com/mapfiles/place_api/icons/geocode-71.png", "id": "00741fe572fc4084428ab206e1a55830f6a1bf0a", "name": "Berkeley", "photos": [{"height": 1080, "html_attributions": ["<a href=\"https://maps.google.com/maps/contrib/110244590763501513798/photos\">miao hsin sun</a>"], "photo_reference": "CmRaAAAAA5LL3skCu0Jlcs0qwIaIbF6NJHhAHGer3ro9akVorlQmhdcf1hC7Z65jSZmWjmTiGnZwsP8CFfXkiGP-jWPIGiqUgCs0fODeX1lK_bDiF5o9nKgr40RtG7Oytu05-Nu1EhAzyisP1Vnnc2vsv6YF6GTSGhQIYJvnU9n7en8IRkhJGjmZFNp8iQ", "width": 1616}], "place_id": "ChIJ00mFOjZ5hYARk-l1ppUV6pQ", "reference": "ChIJ00mFOjZ5hYARk-l1ppUV6pQ", "scope": "GOOGLE", "types": ["locality", "political"], "vicinity": "Berkeley"}, "ChIJjd_6RZl-hYARCIw_PBuKX7Y": {"geometry": {"location": {"lat": 37.87045990000001, "lng": -122.2717431}, "viewport": {"northeast": {"lat": 37.8719424302915, "lng": -122.2704205197085}, "southwest": {"lat": 37.8692444697085, "lng": -122.2731184802915}}}, "icon": "https://maps.gstatic.com/mapfiles/place_api/icons/generic_business-71.png", "id": "aada16096e55efb7eab69d52c5469594e2bf7462", "name": "Allan H Smith's Research", "place_id": "ChIJjd_6RZl-hYARCIw_PBuKX7Y", "plus_code": {"compound_code": "VPCH+58 Berkeley, California, United States", "global_code": "849VVPCH+58"}, "reference": "ChIJjd_6RZl-hYARCIw_PBuKX7Y", "scope": "GOOGLE", "types": ["point_of_interest", "establishment"], "vicinity": "1950 Addison Street # 204, Berkeley"}, "ChIJjd_6RZl-hYARrlCIG5bDtmo": {"geometry": {"location": {"lat": 37.87045990000001, "lng": -122.2717431}, "viewport": {"northeast": {"lat": 37.8719424302915, "lng": -122.2704205197085}, "southwest": {"lat": 37.8692444697085, "lng": -122.2731184802915}}}, "icon": "https://maps.gstatic.com/mapfiles/place_api/icons/generic_business-71.png", "id": "2d40f078331c08d1f6005f7fea5ec8328a0a6615", "name": "A T Merovich & Associates Inc", "place_id": "ChIJjd_6RZl-hYARrlCIG5bDtmo", "plus_code": {"compound_code": "VPCH+58 Berkeley, California, United States", "global_code": "849VVPCH+58"}, "reference": "ChIJjd_6RZl-hYARrlCIG5bDtmo", "scope": "GOOGLE", "types": ["point_of_interest", "establishment"], "vicinity": "1950 Addison Street, Berkeley"}, "ChIJsQzxRZl-hYARa7IMitPI7Qs": {"geometry": {"location": {"lat": 37.87047, "lng": -122.2717309}, "viewport": {"northeast": {"lat": 37.8719483302915, "lng": -122.2704074697085}, "southwest": {"lat": 37.8692503697085, "lng": -122.2731054302915}}}, "icon": "https://maps.gstatic.com/mapfiles/place_api/icons/generic_business-71.png", "id": "2ce5945deea795dcfa74feb9d57b5d6408b27ed4", "name": "AIA Resource Center", "place_id": "ChIJsQzxRZl-hYARa7IMitPI7Qs", "plus_code": {"compound_code": "VPCH+58 Berkeley, California, United States", "global_code": "849VVPCH+58"}, "reference": "ChIJsQzxRZl-hYARa7IMitPI7Qs", "scope": "GOOGLE", "types": ["point_of_interest", "establishment"], "vicinity": "1950 Addison Street, Berkeley"}, "ChIJjd_6RZl-hYARpMZkYklY9hQ": {"geometry": {"location": {"lat": 37.87045990000001, "lng": -122.2717431}, "viewport": {"northeast": {"lat": 37.8719424302915, "lng": -122.2704205197085}, "southwest": {"lat": 37.8692444697085, "lng": -122.2731184802915}}}, "icon": "https://maps.gstatic.com/mapfiles/place_api/icons/generic_business-71.png", "id": "5396a31e2889c4a802d68065e7a0fc1629511a06", "name": "Jay A Reamer & Associates", "place_id": "ChIJjd_6RZl-hYARpMZkYklY9hQ", "plus_code": {"compound_code": "VPCH+58 Berkeley, California, United States", "global_code": "849VVPCH+58"}, "reference": "ChIJjd_6RZl-hYARpMZkYklY9hQ", "scope": "GOOGLE", "types": ["point_of_interest", "establishment"], "vicinity": "1950 Addison Street # 200, Berkeley"}, "ChIJ00vwT5l-hYARWlEl7fTAvFI": {"geometry": {"location": {"lat": 37.8704447, "lng": -122.2717248}, "viewport": {"northeast": {"lat": 37.8719357302915, "lng": -122.2704039197085}, "southwest": {"lat": 37.8692377697085, "lng": -122.2731018802915}}}, "icon": "https://maps.gstatic.com/mapfiles/place_api/icons/generic_business-71.png", "id": "6da35c3b51c4b4d495fe3df13804d1d5ad2ac13f", "name": "Trial Craft", "place_id": "ChIJ00vwT5l-hYARWlEl7fTAvFI", "plus_code": {"compound_code": "VPCH+58 Berkeley, California, United States", "global_code": "849VVPCH+58"}, "reference": "ChIJ00vwT5l-hYARWlEl7fTAvFI", "scope": "GOOGLE", "types": ["point_of_interest", "establishment"], "vicinity": "1950 Addison Street, Berkeley"}, "ChIJjd_6RZl-hYAR6JmvQ0o8qVw": {"geometry": {"location": {"lat": 37.87045990000001, "lng": -122.2717431}, "viewport": {"northeast": {"lat": 37.8719424302915, "lng": -122.2704205197085}, "southwest": {"lat": 37.8692444697085, "lng": -122.2731184802915}}}, "icon": "https://maps.gstatic.com/mapfiles/place_api/icons/generic_business-71.png", "id": "2d1c6961ea03bd594b3c4b4b5cd4a5b54072d6e5", "name": "Baldwin Van", "place_id": "ChIJjd_6RZl-hYAR6JmvQ0o8qVw", "plus_code": {"compound_code": "VPCH+58 Berkeley, California, United States", "global_code": "849VVPCH+58"}, "reference": "ChIJjd_6RZl-hYAR6JmvQ0o8qVw", "scope": "GOOGLE", "types": ["lawyer", "accounting", "finance", "point_of_interest", "establishment"], "vicinity": "1950 Addison Street # 106, Berkeley"}, "ChIJt7aIRZl-hYARJWYATzYT-4g": {"geometry": {"location": {"lat": 37.8705773, "lng": -122.2717895}, "viewport": {"northeast": {"lat": 37.8719262802915, "lng": -122.2704405197085}, "southwest": {"lat": 37.8692283197085, "lng": -122.2731384802915}}}, "icon": "https://maps.gstatic.com/mapfiles/place_api/icons/generic_business-71.png", "id": "9c16c251aaeae6d0aabe3bcd66bf0a201023e1b0", "name": "Addison Court Building", "place_id": "ChIJt7aIRZl-hYARJWYATzYT-4g", "plus_code": {"compound_code": "VPCH+67 Berkeley, California, United States", "global_code": "849VVPCH+67"}, "reference": "ChIJt7aIRZl-hYARJWYATzYT-4g", "scope": "GOOGLE", "types": ["point_of_interest", "establishment"], "vicinity": "Berkeley"}, "ChIJD8moRJx-hYAR7BXWvEzpmu4": {"geometry": {"location": {"lat": 37.86925839999999, "lng": -122.2696423}, "viewport": {"northeast": {"lat": 37.8741589, "lng": -122.2652363}, "southwest": {"lat": 37.8633603, "lng": -122.2731972}}}, "icon": "https://maps.gstatic.com/mapfiles/place_api/icons/geocode-71.png", "id": "72a7e171648a38e6b00f53d19a3a99c70c740e6a", "name": "Downtown Berkeley", "photos": [{"height": 3036, "html_attributions": ["<a href=\"https://maps.google.com/maps/contrib/117309159571340926899/photos\">Ethan Cheng</a>"], "photo_reference": "CmRaAAAAWj0eIxE1ka1GnhM0memh9c4AHaa9Ro4XNnV0LiLyWM8m3qCIJb1riKK7ZDbFRxSPhT1WWHNf2rbL7FxdnSS4hE5gQ5jO70MIFNEYTZ1OC3Ypu5hxlvzwvddHjECcVZY3EhCDLdBRurPwQMZrDkguj_fZGhT_Ie_jww2xFkE2sJZdj8adQd9BFA", "width": 4048}], "place_id": "ChIJD8moRJx-hYAR7BXWvEzpmu4", "reference": "ChIJD8moRJx-hYAR7BXWvEzpmu4", "scope": "GOOGLE", "types": ["neighborhood", "political"], "vicinity": "Berkeley"}}