{"ChIJ2_bwb8V9hYARzfATWPJFtX0": {"geometry": {"location": {"lat": 37.8514068, "lng": -122.2519619}, "viewport": {"northeast": {"lat": 37.8527611302915, "lng": -122.2506152697085}, "southwest": {"lat": 37.8500631697085, "lng": -122.2533132302915}}}, "icon": "https://maps.gstatic.com/mapfiles/place_api/icons/geocode-71.png", "id": "af0600fe0517e05c6828b6549d3ffdbe94972f14", "name": "2725-2701 Alcatraz Ave", "place_id": "ChIJ2_bwb8V9hYARzfATWPJFtX0", "reference": "ChIJ2_bwb8V9hYARzfATWPJFtX0", "scope": "GOOGLE", "types": ["route"], "vicinity": "Berkeley"}, "ChIJ3w74b8V9hYARfYH1z7AGJ2A": {"geometry": {"location": {"lat": 37.85157179999999, "lng": -122.2521395}, "viewport": {"northeast": {"lat": 37.85282548029149, "lng": -122.2507423197085}, "southwest": {"lat": 37.85012751970849, "lng": -122.2534402802915}}}, "icon": "https://maps.gstatic.com/mapfiles/place_api/icons/generic_business-71.png", "id": "0f3cfb81976b910cf60632abf85f4d3c3d8f8d44", "name": "Ellen Case, MFT", "place_id": "ChIJ3w74b8V9hYARfYH1z7AGJ2A", "plus_code": {"compound_code": "VP2X+J4 Berkeley, California, United States", "global_code": "849VVP2X+J4"}, "reference": "ChIJ3w74b8V9hYARfYH1z7AGJ2A", "scope": "GOOGLE", "types": ["doctor", "health", "point_of_interest", "establishment"], "vicinity": "2711 Alcatraz Avenue, Berkeley"}, "ChIJK7_3ZMV9hYARgOo8JYHVky0": {"geometry": {"location": {"lat": 37.851593, "lng": -122.252089}, "viewport": {"northeast": {"lat": 37.8528444302915, "lng": -122.2506906697085}, "southwest": {"lat": 37.8501464697085, "lng": -122.2533886302915}}}, "icon": "https://maps.gstatic.com/mapfiles/place_api/icons/generic_business-71.png", "id": "77598f20a6d116ceb19fcb02361bb7a5ff7b1e6c", "name": "Megan Kelly Smith, Mft", "opening_hours": {"open_now": false}, "place_id": "ChIJK7_3ZMV9hYARgOo8JYHVky0", "plus_code": {"compound_code": "VP2X+J5 Berkeley, California, United States", "global_code": "849VVP2X+J5"}, "reference": "ChIJK7_3ZMV9hYARgOo8JYHVky0", "scope": "GOOGLE", "types": ["health", "point_of_interest", "establishment"], "vicinity": "2709 Alcatraz Avenue, Berkeley"}, "ChIJ7wj4b8V9hYARxC_VhItRR0Q": {"geometry": {"location": {"lat": 37.85157179999999, "lng": -122.2521395}, "viewport": {"northeast": {"lat": 37.85292078029149, "lng": -122.2507905197085}, "southwest": {"lat": 37.85022281970849, "lng": -122.2534884802915}}}, "icon": "https://maps.gstatic.com/mapfiles/place_api/icons/generic_business-71.png", "id": "f78c63b9aeb29703a47304f3009ab20f740d52af", "name": "Joel B. Goldstone, MA", "place_id": "ChIJ7wj4b8V9hYARxC_VhItRR0Q", "plus_code": {"compound_code": "VP2X+J4 Berkeley, California, United States", "global_code": "849VVP2X+J4"}, "reference": "ChIJ7wj4b8V9hYARxC_VhItRR0Q", "scope": "GOOGLE", "types": ["doctor", "health", "point_of_interest", "establishment"], "vicinity": "2711 Alcatraz Avenue Suite 5, Berkeley, CA 94705, Berkeley"}, "ChIJ7wj4b8V9hYARgffp5CYqIxk": {"geometry": {"location": {"lat": 37.85157179999999, "lng": -122.2521395}, "viewport": {"northeast": {"lat": 37.85282548029149, "lng": -122.2507423197085}, "southwest": {"lat": 37.85012751970849, "lng": -122.2534402802915}}}, "icon": "https://maps.gstatic.com/mapfiles/place_api/icons/generic_business-71.png", "id": "ccb898ed13acf62c9fb9e40202c474e71fc775da", "name": "Richard S Barth, Ph.D.", "opening_hours": {"open_now": false}, "photos": [{"height": 2048, "html_attributions": ["<a href=\"https://maps.google.com/maps/contrib/110766149610484620179/photos\">Richard S Barth, Ph.D.</a>"], "photo_reference": "CmRaAAAAZkaR0sKw_Xx8OHOVdiIVM74utn8IxiZBH9nVHBhzGjmlK52q7B2voy6Abtxl1nnTyhLuRAN-5U2cajw3SkP6mq5ZvepFDTVzCy69WaPI6AOCVtmMF5wcMdyPSyZD8VlKEhBGcrYpnwe_8cfpKzFIyxRGGhQp8CKn9I6fkUiR4-y3tKxR4arH8w", "width": 1763}], "place_id": "ChIJ7wj4b8V9hYARgffp5CYqIxk", "plus_code": {"compound_code": "VP2X+J4 Berkeley, California, United States", "global_code": "849VVP2X+J4"}, "reference": "ChIJ7wj4b8V9hYARgffp5CYqIxk", "scope": "GOOGLE", "types": ["health", "point_of_interest", "establishment"], "vicinity": "2711 Alcatraz Avenue, Berkeley"}, "ChIJK7_3ZMV9hYARwxY0W9WchJ0": {"geometry": {"location": {"lat": 37.85157179999999, "lng": -122.2521395}, "viewport": {"northeast": {"lat": 37.85292078029149, "lng": -122.2507905197085}, "southwest": {"lat": 37.85022281970849, "lng": -122.2534884802915}}}, "icon": "https://maps.gstatic.com/mapfiles/place_api/icons/generic_business-71.png", "id": "e27267103be2194555284726642d772e8b9075ea", "name": "Sarah C. Nelson, MA", "place_id": "ChIJK7_3ZMV9hYARwxY0W9WchJ0", "plus_code": {"compound_code": "VP2X+J4 Berkeley, California, United States", "global_code": "849VVP2X+J4"}, "reference": "ChIJK7_3ZMV9hYARwxY0W9WchJ0", "scope": "GOOGLE", "types": ["doctor", "health", "point_of_interest", "establishment"], "vicinity": "2709 Alcatraz Avenue, Berkeley, CA 94705, Berkeley"}, "ChIJK7_3ZMV9hYARiGs1b8uoFyE": {"geometry": {"location": {"lat": 37.8515728, "lng": -122.2521096}, "viewport": {"northeast": {"lat": 37.8528301302915, "lng": -122.2507142197085}, "southwest": {"lat": 37.8501321697085, "lng": -122.2534121802915}}}, "icon": "https://maps.gstatic.com/mapfiles/place_api/icons/generic_business-71.png", "id": "7a462c66d116cd1d47a34b982033d0254c1f27b4", "name": "Keith York, MFT", "place_id": "ChIJK7_3ZMV9hYARiGs1b8uoFyE", "plus_code": {"compound_code": "VP2X+J5 Berkeley, California, United States", "global_code": "849VVP2X+J5"}, "reference": "ChIJK7_3ZMV9hYARiGs1b8uoFyE", "scope": "GOOGLE", "types": ["health", "point_of_interest", "establishment"], "vicinity": "2709 Alcatraz Avenue, Berkeley"}, "ChIJK7_3ZMV9hYARb46vH5Uix3o": {"geometry": {"location": {"lat": 37.8515728, "lng": -122.2521096}, "viewport": {"northeast": {"lat": 37.8528301302915, "lng": -122.2507142197085}, "southwest": {"lat": 37.8501321697085, "lng": -122.2534121802915}}}, "icon": "https://maps.gstatic.com/mapfiles/place_api/icons/generic_business-71.png", "id": "f6db3e84f35c655bf4ae6ce369981e0929ad0a8c", "name": "Lindsey E. Antin, MFT", "place_id": "ChIJK7_3ZMV9hYARb46vH5Uix3o", "plus_code": {"compound_code": "VP2X+J5 Berkeley, California, United States", "global_code": "849VVP2X+J5"}, "reference": "ChIJK7_3ZMV9hYARb46vH5Uix3o", "scope": "GOOGLE", "types": ["health", "point_of_interest", "establishment"], "vicinity": "2709 Alcatraz Avenue, Berkeley"}, "ChIJY66uK9d9hYARlVApyK2Qur4": {"geometry": {"location": {"lat": 37.8515639, "lng": -122.2521138}, "viewport": {"northeast": {"lat": 37.8528244802915, "lng": -122.2507200697085}, "southwest": {"lat": 37.8501265197085, "lng": -122.2534180302915}}}, "icon": "https://maps.gstatic.com/mapfiles/place_api/icons/generic_business-71.png", "id": "e10b16e2ec5ad9bc28bc386d1f2e19342c36cdab", "name": "Kathy Grayson MFT", "place_id": "ChIJY66uK9d9hYARlVApyK2Qur4", "plus_code": {"compound_code": "VP2X+J5 Berkeley, California, United States", "global_code": "849VVP2X+J5"}, "reference": "ChIJY66uK9d9hYARlVApyK2Qur4", "scope": "GOOGLE", "types": ["health", "point_of_interest", "establishment"], "vicinity": "2711 Alcatraz Avenue, Berkeley"}, "ChIJy5Q4ZcV9hYARcibD0LYI2Ak": {"geometry": {"location": {"lat": 37.85157179999999, "lng": -122.2521395}, "viewport": {"northeast": {"lat": 37.85282548029149, "lng": -122.2507423197085}, "southwest": {"lat": 37.85012751970849, "lng": -122.2534402802915}}}, "icon": "https://maps.gstatic.com/mapfiles/place_api/icons/generic_business-71.png", "id": "6330d51a9654e908a1509ec83016640074f1fae9", "name": "Kelley Bryan Gin, PsyD", "opening_hours": {"open_now": false}, "photos": [{"height": 1200, "html_attributions": ["<a href=\"https://maps.google.com/maps/contrib/110500583687330049751/photos\">Kelley Bryan Gin, PsyD</a>"], "photo_reference": "CmRaAAAAZkLOah5xIQq5nFDdd-PsuEKslJVjckFUfwURmPZrjjJ-foEwROBfjoxXYcCm7VcBQwaJz_4Wt3-YXDkDSNUH6RD57dnmszM9g_c2dzgS9ztYghUlDIotvkxu_h-4Ew5BEhCUq1PWV0i3ok_Qht8SVkMhGhQ3R0HOXnTLNMHVTzxVpvzte_f-sg", "width": 752}], "place_id": "ChIJy5Q4ZcV9hYARcibD0LYI2Ak", "plus_code": {"compound_code": "VP2X+J4 Berkeley, California, United States", "global_code": "849VVP2X+J4"}, "rating": 5, "reference": "ChIJy5Q4ZcV9hYARcibD0LYI2Ak", "scope": "GOOGLE", "types": ["health", "point_of_interest", "establishment"], "vicinity": "2711 Alcatraz Avenue, Berkeley"}, "ChIJAbtWZMV9hYARichbLF1p0sI": {"geometry": {"location": {"lat": 37.8515639, "lng": -122.2521138}, "viewport": {"northeast": {"lat": 37.8528244802915, "lng": -122.2507200697085}, "southwest": {"lat": 37.8501265197085, "lng": -122.2534180302915}}}, "icon": "https://maps.gstatic.com/mapfiles/place_api/icons/generic_business-71.png", "id": "9397729d1ff46768c5276b933b225568b5e4d92b", "name": "Lauren Bloom Counseling and Mediation", "place_id": "ChIJAbtWZMV9hYARichbLF1p0sI", "plus_code": {"compound_code": "VP2X+J5 Berkeley, California, United States", "global_code": "849VVP2X+J5"}, "reference": "ChIJAbtWZMV9hYARichbLF1p0sI", "scope": "GOOGLE", "types": ["health", "point_of_interest", "establishment"], "vicinity": "2711 Alcatraz Avenue, Berkeley"}, "ChIJy5Q4ZcV9hYARojYrIDx-ikA": {"geometry": {"location": {"lat": 37.85157179999999, "lng": -122.2521395}, "viewport": {"northeast": {"lat": 37.85282548029149, "lng": -122.2507423197085}, "southwest": {"lat": 37.85012751970849, "lng": -122.2534402802915}}}, "icon": "https://maps.gstatic.com/mapfiles/place_api/icons/generic_business-71.png", "id": "fd753f4ca08a5a69124ae2a277a9a0032a188a1a", "name": "Ben Goldstone, MA, LMFT", "place_id": "ChIJy5Q4ZcV9hYARojYrIDx-ikA", "plus_code": {"compound_code": "VP2X+J4 Berkeley, California, United States", "global_code": "849VVP2X+J4"}, "reference": "ChIJy5Q4ZcV9hYARojYrIDx-ikA", "scope": "GOOGLE", "types": ["health", "point_of_interest", "establishment"], "vicinity": "2711 Alcatraz Avenue, Berkeley"}, "ChIJK7_3ZMV9hYARjdiveAHh3Zk": {"geometry": {"location": {"lat": 37.851593, "lng": -122.252089}, "viewport": {"northeast": {"lat": 37.8528444302915, "lng": -122.2506906697085}, "southwest": {"lat": 37.8501464697085, "lng": -122.2533886302915}}}, "icon": "https://maps.gstatic.com/mapfiles/place_api/icons/generic_business-71.png", "id": "9515ce0acba04c0d978c2f10f963764d72f8181f", "name": "Alexis Azzam, LMFT", "opening_hours": {"open_now": false}, "photos": [{"height": 2245, "html_attributions": ["<a href=\"https://maps.google.com/maps/contrib/104999688223844132894/photos\">Alexis Azzam, LMFT</a>"], "photo_reference": "CmRaAAAAk3ALsRWCudn2H7Ih_LQAl5wxhqTMNyYNmJhKvHgraPRwY4xiEntjeuEwHEcYTAejsKEyhzM3OEOfuXxkLKa5UpVYQ4TphoIkVMluFzqJMhhgGJa5oX60nj0rdqJU67ZHEhAWZDbZOAD3csh4T2T2p7D8GhQRdJ43mXISgALuno_rGJdvH1fHlA", "width": 3481}], "place_id": "ChIJK7_3ZMV9hYARjdiveAHh3Zk", "plus_code": {"compound_code": "VP2X+J5 Berkeley, California, United States", "global_code": "849VVP2X+J5"}, "reference": "ChIJK7_3ZMV9hYARjdiveAHh3Zk", "scope": "GOOGLE", "types": ["health", "point_of_interest", "establishment"], "vicinity": "2709 Alcatraz Avenue #2, Berkeley"}, "ChIJK7_3ZMV9hYARwufgtDsNmFs": {"geometry": {"location": {"lat": 37.851593, "lng": -122.252089}, "viewport": {"northeast": {"lat": 37.8528444302915, "lng": -122.2506906697085}, "southwest": {"lat": 37.8501464697085, "lng": -122.2533886302915}}}, "icon": "https://maps.gstatic.com/mapfiles/place_api/icons/generic_business-71.png", "id": "de02b5dea009c57bea08463a14f0cdc4294e90cc", "name": "Holistic Happiness Training", "opening_hours": {"open_now": false}, "photos": [{"height": 2044, "html_attributions": ["<a href=\"https://maps.google.com/maps/contrib/109627080280624372824/photos\">Holistic Happiness Training</a>"], "photo_reference": "CmRaAAAAGRA8IAbcHWwqs2doHPoQOZTus79HFW5Q2Z1RtyfxK3CfHAE1hK5z8BN4Ew0GVe_6Aekos2RsKOKJ4ZvUhV-agx-Bh9BiTaJcCbRUHjhK_xJINPV-n1VSQoI4JQsfZVV0EhDqM6ZyO8bVLxbmeDtG5I8_GhTlX7MxlBvTQAbBG1glUzfOEyeeow", "width": 2048}], "place_id": "ChIJK7_3ZMV9hYARwufgtDsNmFs", "plus_code": {"compound_code": "VP2X+J5 Berkeley, California, United States", "global_code": "849VVP2X+J5"}, "reference": "ChIJK7_3ZMV9hYARwufgtDsNmFs", "scope": "GOOGLE", "types": ["health", "point_of_interest", "establishment"], "vicinity": "2709 Alcatraz Avenue, Berkeley"}, "ChIJW_F_ZsV9hYAR0j7xsGW-r4I": {"geometry": {"location": {"lat": 37.85149000000001, "lng": -122.252274}, "viewport": {"northeast": {"lat": 37.8528305802915, "lng": -122.2510359697085}, "southwest": {"lat": 37.8501326197085, "lng": -122.2537339302915}}}, "icon": "https://maps.gstatic.com/mapfiles/place_api/icons/generic_business-71.png", "id": "cce620b3ddcccc79b90e4bb6bd6abef88297e482", "name": "Reeta Balwinder Hernes", "place_id": "ChIJW_F_ZsV9hYAR0j7xsGW-r4I", "plus_code": {"compound_code": "VP2X+H3 Berkeley, California, United States", "global_code": "849VVP2X+H3"}, "reference": "ChIJW_F_ZsV9hYAR0j7xsGW-r4I", "scope": "GOOGLE", "types": ["health", "point_of_interest", "establishment"], "vicinity": "3179 College Avenue, Berkeley"}, "ChIJQfF_ZsV9hYARQHKoaMwQ9Yk": {"geometry": {"location": {"lat": 37.85149009999999, "lng": -122.2522741}, "viewport": {"northeast": {"lat": 37.85283068029149, "lng": -122.2510360197085}, "southwest": {"lat": 37.8501327197085, "lng": -122.2537339802915}}}, "icon": "https://maps.gstatic.com/mapfiles/place_api/icons/generic_business-71.png", "id": "1f82956bda8cb18f10e7bd057ebcdcbaeac656ff", "name": "Dorota Orechwa, MFT", "place_id": "ChIJQfF_ZsV9hYARQHKoaMwQ9Yk", "plus_code": {"compound_code": "VP2X+H3 Berkeley, California, United States", "global_code": "849VVP2X+H3"}, "reference": "ChIJQfF_ZsV9hYARQHKoaMwQ9Yk", "scope": "GOOGLE", "types": ["health", "point_of_interest", "establishment"], "vicinity": "3179 College Avenue, Berkeley"}, "ChIJPRt-ZsV9hYARCEA_UVcNtLY": {"geometry": {"location": {"lat": 37.85149009999999, "lng": -122.2522741}, "viewport": {"northeast": {"lat": 37.85283068029149, "lng": -122.2510360197085}, "southwest": {"lat": 37.8501327197085, "lng": -122.2537339802915}}}, "icon": "https://maps.gstatic.com/mapfiles/place_api/icons/generic_business-71.png", "id": "5723d1624cda36411ed8b5f38bcb03a84cc323bd", "name": "Harkness Gardens Landscaping", "opening_hours": {"open_now": false}, "photos": [{"height": 667, "html_attributions": ["<a href=\"https://maps.google.com/maps/contrib/101626706665086344430/photos\">Harkness Gardens Landscaping - Servicing all of the Bay Area</a>"], "photo_reference": "CmRaAAAAymnqWGhJTIrUUVvxiHmPo5tKVEKFKKbeN10qUYnJAV_HD_0RBpFxRHZsBm48kH6bYUur01qJo8WUAoFqTKjD3E0lBGyuiIjgfACc0vse9XLFb_vI2beYZCS0PC7hcteZEhAZb21WzSdyzu2dTkc_5VC4GhTnVMFWfRu2cl4YK24Xela36TTBFw", "width": 1000}], "place_id": "ChIJPRt-ZsV9hYARCEA_UVcNtLY", "reference": "ChIJPRt-ZsV9hYARCEA_UVcNtLY", "scope": "GOOGLE", "types": ["general_contractor", "point_of_interest", "establishment"], "vicinity": "3179 College Avenue #5b, Berkeley"}, "ChIJnfNII6J-hYAR7gdZVjOrCu8": {"geometry": {"location": {"lat": 37.85149009999999, "lng": -122.2522741}, "viewport": {"northeast": {"lat": 37.85283068029149, "lng": -122.2510360197085}, "southwest": {"lat": 37.8501327197085, "lng": -122.2537339802915}}}, "icon": "https://maps.gstatic.com/mapfiles/place_api/icons/generic_business-71.png", "id": "74495278864fcda7bfe700f4265cf02f82a444af", "name": "Todd Harvey, MFT (Couples Counseling and EMDR, and Individual therapy).", "opening_hours": {"open_now": true}, "place_id": "ChIJnfNII6J-hYAR7gdZVjOrCu8", "plus_code": {"compound_code": "VP2X+H3 Berkeley, California, United States", "global_code": "849VVP2X+H3"}, "rating": 5, "reference": "ChIJnfNII6J-hYAR7gdZVjOrCu8", "scope": "GOOGLE", "types": ["health", "point_of_interest", "establishment"], "vicinity": "3179 College Avenue, Berkeley"}, "ChIJQfF_ZsV9hYAR1HiUBiS0TLs": {"geometry": {"location": {"lat": 37.85149009999999, "lng": -122.2522741}, "viewport": {"northeast": {"lat": 37.85283068029149, "lng": -122.2510360197085}, "southwest": {"lat": 37.8501327197085, "lng": -122.2537339802915}}}, "icon": "https://maps.gstatic.com/mapfiles/place_api/icons/generic_business-71.png", "id": "f55f4775365f0785036da515ef8c4a6eeca953de", "name": "Suzanne Berens", "opening_hours": {"open_now": true}, "photos": [{"height": 299, "html_attributions": ["<a href=\"https://maps.google.com/maps/contrib/106460600929094456280/photos\">Suzanne Berens</a>"], "photo_reference": "CmRaAAAAluT32vuBrEpdjHzdYjKb3cly1d4umjqe6QRJ_ZK_V2kXD-ZKuQPYGiKAlnLm7quvFeaf--YCQRQOZMXrk-mq6CiSLVHqWUGDFlmNZCRQGJV75p27b4dpZFV4SZH3XLXfEhCNYaCF_TSydbv6E3cSvHiGGhQXiHoQ_LQFRKxaZzYuCKJNDT6msw", "width": 299}], "place_id": "ChIJQfF_ZsV9hYAR1HiUBiS0TLs", "plus_code": {"compound_code": "VP2X+H3 Berkeley, California, United States", "global_code": "849VVP2X+H3"}, "reference": "ChIJQfF_ZsV9hYAR1HiUBiS0TLs", "scope": "GOOGLE", "types": ["health", "point_of_interest", "establishment"], "vicinity": "3179 College Avenue, Berkeley"}, "ChIJA-2qKIt9hYARZ5N1NdUVtHE": {"geometry": {"location": {"lat": 37.8043637, "lng": -122.2711137}, "viewport": {"northeast": {"lat": 37.88472489999999, "lng": -122.114775}, "southwest": {"lat": 37.6322259, "lng": -122.355881}}}, "icon": "https://maps.gstatic.com/mapfiles/place_api/icons/geocode-71.png", "id": "da4a4da21e013f9d3a24e8eee6d4f84de02148d3", "name": "Oakland", "photos": [{"height": 2848, "html_attributions": ["<a href=\"https://maps.google.com/maps/contrib/113300206259949994494/photos\">Cimino Alberto</a>"], "photo_reference": "CmRaAAAA3okxkBg2FZ71mvMCNqG86vaAE1hIxlTMC3ffDLhIModBy5FKTs4HdntfGMCNopuaMnlg9NIshMmzKKcG-bcjjoFBtyED4rKI0gXjf6uKTrCqw1Eu9AijcxtAay-70k1iEhB6pcVYrrFRjJJWrM28O8NJGhSg8aho57-2TVsSJ4UkgD0dNsaK0g", "width": 4256}], "place_id": "ChIJA-2qKIt9hYARZ5N1NdUVtHE", "reference": "ChIJA-2qKIt9hYARZ5N1NdUVtHE", "scope": "GOOGLE", "types": ["locality", "political"], "vicinity": "Oakland"}, "ChIJPRt-ZsV9hYAROK9kzTJfNKE": {"geometry": {"location": {"lat": 37.851487, "lng": -122.252292}, "viewport": {"northeast": {"lat": 37.85282823029149, "lng": -122.2510448697085}, "southwest": {"lat": 37.85013026970849, "lng": -122.2537428302915}}}, "icon": "https://maps.gstatic.com/mapfiles/place_api/icons/generic_business-71.png", "id": "8d9fd7d28211282457de8a0d1af34ce5bea374c4", "name": "Bay Area EMDR", "opening_hours": {"open_now": true}, "photos": [{"height": 900, "html_attributions": ["<a href=\"https://maps.google.com/maps/contrib/100322663317898661212/photos\">Bay Area EMDR</a>"], "photo_reference": "CmRaAAAAvL2XiSuORa3OQkix1xcpInLYVoa-uNLqJ5gRqUcuQfEPiA6ap892FEP8W-Cw_BbyZiEBikKVeASFsnwIDxZbxQBL9LBQsSnXEjx0pg5c31lxZCNPvCrPJh9L_hpINsHkEhCjdnO_uOhOjWk9pRpYo5VuGhTozwcd86NwQEGljdllpmbsthLyPQ", "width": 598}], "place_id": "ChIJPRt-ZsV9hYAROK9kzTJfNKE", "plus_code": {"compound_code": "VP2X+H3 Berkeley, California, United States", "global_code": "849VVP2X+H3"}, "reference": "ChIJPRt-ZsV9hYAROK9kzTJfNKE", "scope": "GOOGLE", "types": ["health", "point_of_interest", "establishment"], "vicinity": "3179 College Avenue, Berkeley"}, "ChIJFWXVZcV9hYAR39CfFIVVtxk": {"geometry": {"location": {"lat": 37.8515176, "lng": -122.2523167}, "viewport": {"northeast": {"lat": 37.8528596302915, "lng": -122.2510591697085}, "southwest": {"lat": 37.8501616697085, "lng": -122.2537571302915}}}, "icon": "https://maps.gstatic.com/mapfiles/place_api/icons/generic_business-71.png", "id": "f4a95a3da16dfb85c62ff917aba3d6b4ab40da1e", "name": "Massage By Antonio", "place_id": "ChIJFWXVZcV9hYAR39CfFIVVtxk", "plus_code": {"compound_code": "VP2X+J3 Berkeley, California, United States", "global_code": "849VVP2X+J3"}, "reference": "ChIJFWXVZcV9hYAR39CfFIVVtxk", "scope": "GOOGLE", "types": ["point_of_interest", "establishment"], "vicinity": "3179 College Avenue, Berkeley"}, "ChIJAQAk6Zh-hYARd5u9Ufk7Rqc": {"geometry": {"location": {"lat": 37.8515639, "lng": -122.2521138}, "viewport": {"northeast": {"lat": 37.8528244802915, "lng": -122.2507200697085}, "southwest": {"lat": 37.8501265197085, "lng": -122.2534180302915}}}, "icon": "https://maps.gstatic.com/mapfiles/place_api/icons/generic_business-71.png", "id": "e59e9c00b470f54e7aa306c007e944220edbe97e", "name": "Jonathan Willett, MFT", "place_id": "ChIJAQAk6Zh-hYARd5u9Ufk7Rqc", "plus_code": {"compound_code": "VP2X+J5 Berkeley, California, United States", "global_code": "849VVP2X+J5"}, "reference": "ChIJAQAk6Zh-hYARd5u9Ufk7Rqc", "scope": "GOOGLE", "types": ["health", "point_of_interest", "establishment"], "vicinity": "2711 Alcatraz Avenue, Berkeley"}, "ChIJezpWb8V9hYAROejO-uH8buE": {"geometry": {"location": {"lat": 37.85133829999999, "lng": -122.2522296}, "viewport": {"northeast": {"lat": 37.85268728029149, "lng": -122.2508806197085}, "southwest": {"lat": 37.84998931970849, "lng": -122.2535785802915}}}, "icon": "https://maps.gstatic.com/mapfiles/place_api/icons/generic_business-71.png", "id": "dfe4a14ecfb1122d09cf96facfb5434105efe916", "name": "Shari Hollander, RD", "place_id": "ChIJezpWb8V9hYAROejO-uH8buE", "plus_code": {"compound_code": "VP2X+G4 Berkeley, California, United States", "global_code": "849VVP2X+G4"}, "reference": "ChIJezpWb8V9hYAROejO-uH8buE", "scope": "GOOGLE", "types": ["doctor", "health", "point_of_interest", "establishment"], "vicinity": "2705 Alcatraz Avenue, Berkeley, CA 94705, Berkeley"}, "ChIJ7wj4b8V9hYARrNubaeNLiMA": {"geometry": {"location": {"lat": 37.85157179999999, "lng": -122.2521395}, "viewport": {"northeast": {"lat": 37.85292078029149, "lng": -122.2507905197085}, "southwest": {"lat": 37.85022281970849, "lng": -122.2534884802915}}}, "icon": "https://maps.gstatic.com/mapfiles/place_api/icons/generic_business-71.png", "id": "c3bbda02b45f5bb3fe5c282ea3cd950d6a9c8ade", "name": "Jean J. Kaufman, MA", "place_id": "ChIJ7wj4b8V9hYARrNubaeNLiMA", "plus_code": {"compound_code": "VP2X+J4 Berkeley, California, United States", "global_code": "849VVP2X+J4"}, "reference": "ChIJ7wj4b8V9hYARrNubaeNLiMA", "scope": "GOOGLE", "types": ["doctor", "health", "point_of_interest", "establishment"], "vicinity": "2711 Alcatraz Avenue Suite 3, Berkeley, CA 94705, Berkeley"}, "ChIJ7wj4b8V9hYARl0pIELO8hpk": {"geometry": {"location": {"lat": 37.85157179999999, "lng": -122.2521395}, "viewport": {"northeast": {"lat": 37.85292078029149, "lng": -122.2507905197085}, "southwest": {"lat": 37.85022281970849, "lng": -122.2534884802915}}}, "icon": "https://maps.gstatic.com/mapfiles/place_api/icons/generic_business-71.png", "id": "547ed20046fee4eb536c456b441bc8948d634e8f", "name": "Leslie K. Zuska, Leslie", "place_id": "ChIJ7wj4b8V9hYARl0pIELO8hpk", "plus_code": {"compound_code": "VP2X+J4 Berkeley, California, United States", "global_code": "849VVP2X+J4"}, "reference": "ChIJ7wj4b8V9hYARl0pIELO8hpk", "scope": "GOOGLE", "types": ["doctor", "health", "point_of_interest", "establishment"], "vicinity": "2711 Alcatraz Avenue Suite 3, Berkeley, CA 94705, Berkeley"}, "ChIJ7wj4b8V9hYARS2B3qQh7pL8": {"geometry": {"location": {"lat": 37.8515639, "lng": -122.2521138}, "viewport": {"northeast": {"lat": 37.8528244802915, "lng": -122.2507200697085}, "southwest": {"lat": 37.8501265197085, "lng": -122.2534180302915}}}, "icon": "https://maps.gstatic.com/mapfiles/place_api/icons/generic_business-71.png", "id": "a8614a9d4315141d907d98e1ccacb163cdb45a3f", "name": "Terri Rubinstein, PhD, LMFT", "place_id": "ChIJ7wj4b8V9hYARS2B3qQh7pL8", "plus_code": {"compound_code": "VP2X+J5 Berkeley, California, United States", "global_code": "849VVP2X+J5"}, "reference": "ChIJ7wj4b8V9hYARS2B3qQh7pL8", "scope": "GOOGLE", "types": ["doctor", "health", "point_of_interest", "establishment"], "vicinity": "2711 Alcatraz Avenue #3, Berkeley"}, "ChIJ7wj4b8V9hYARNh9I9-TC0KI": {"geometry": {"location": {"lat": 37.85157179999999, "lng": -122.2521395}, "viewport": {"northeast": {"lat": 37.85282548029149, "lng": -122.2507423197085}, "southwest": {"lat": 37.85012751970849, "lng": -122.2534402802915}}}, "icon": "https://maps.gstatic.com/mapfiles/place_api/icons/generic_business-71.png", "id": "084f216fb707a92c9db97a1f23073181beb7c125", "name": "Catherine Maggio, MFT", "place_id": "ChIJ7wj4b8V9hYARNh9I9-TC0KI", "plus_code": {"compound_code": "VP2X+J4 Berkeley, California, United States", "global_code": "849VVP2X+J4"}, "reference": "ChIJ7wj4b8V9hYARNh9I9-TC0KI", "scope": "GOOGLE", "types": ["doctor", "health", "point_of_interest", "establishment"], "vicinity": "2711 Alcatraz Avenue, Berkeley"}, "ChIJ7wj4b8V9hYAR803Rp4x5Ruw": {"geometry": {"location": {"lat": 37.8515639, "lng": -122.2521138}, "viewport": {"northeast": {"lat": 37.8528244802915, "lng": -122.2507200697085}, "southwest": {"lat": 37.8501265197085, "lng": -122.2534180302915}}}, "icon": "https://maps.gstatic.com/mapfiles/place_api/icons/generic_business-71.png", "id": "8cc35a1b8a2d9e22f212143597a6796af0339c81", "name": "Rubin Claire", "place_id": "ChIJ7wj4b8V9hYAR803Rp4x5Ruw", "plus_code": {"compound_code": "VP2X+J5 Berkeley, California, United States", "global_code": "849VVP2X+J5"}, "reference": "ChIJ7wj4b8V9hYAR803Rp4x5Ruw", "scope": "GOOGLE", "types": ["health", "point_of_interest", "establishment"], "vicinity": "2711 Alcatraz Avenue, Berkeley"}, "ChIJ7wj4b8V9hYARtk3brIEUOyU": {"geometry": {"location": {"lat": 37.8515639, "lng": -122.2521138}, "viewport": {"northeast": {"lat": 37.8528244802915, "lng": -122.2507200697085}, "southwest": {"lat": 37.8501265197085, "lng": -122.2534180302915}}}, "icon": "https://maps.gstatic.com/mapfiles/place_api/icons/generic_business-71.png", "id": "e424e8db0d9ff0823502707a444f4b9e8d7d9e9d", "name": "Purves Caroline PHD", "place_id": "ChIJ7wj4b8V9hYARtk3brIEUOyU", "plus_code": {"compound_code": "VP2X+J5 Berkeley, California, United States", "global_code": "849VVP2X+J5"}, "reference": "ChIJ7wj4b8V9hYARtk3brIEUOyU", "scope": "GOOGLE", "types": ["doctor", "health", "point_of_interest", "establishment"], "vicinity": "2711 Alcatraz Avenue, Berkeley"}, "ChIJ7wj4b8V9hYARHmMLtMGhm_M": {"geometry": {"location": {"lat": 37.8515639, "lng": -122.2521138}, "viewport": {"northeast": {"lat": 37.8528244802915, "lng": -122.2507200697085}, "southwest": {"lat": 37.8501265197085, "lng": -122.2534180302915}}}, "icon": "https://maps.gstatic.com/mapfiles/place_api/icons/generic_business-71.png", "id": "c0461306a4ba651ff956a01ae32189333346c7ef", "name": "Roth Robert", "place_id": "ChIJ7wj4b8V9hYARHmMLtMGhm_M", "plus_code": {"compound_code": "VP2X+J5 Berkeley, California, United States", "global_code": "849VVP2X+J5"}, "reference": "ChIJ7wj4b8V9hYARHmMLtMGhm_M", "scope": "GOOGLE", "types": ["lawyer", "point_of_interest", "establishment"], "vicinity": "2711 Alcatraz Avenue, Berkeley"}, "ChIJ7wj4b8V9hYAR31WtcaraaJQ": {"geometry": {"location": {"lat": 37.8515639, "lng": -122.2521138}, "viewport": {"northeast": {"lat": 37.8528244802915, "lng": -122.2507200697085}, "southwest": {"lat": 37.8501265197085, "lng": -122.2534180302915}}}, "icon": "https://maps.gstatic.com/mapfiles/place_api/icons/generic_business-71.png", "id": "94a4b33f0dc69eb6db6f9087c54fc8781778aed1", "name": "Fernando April", "place_id": "ChIJ7wj4b8V9hYAR31WtcaraaJQ", "plus_code": {"compound_code": "VP2X+J5 Berkeley, California, United States", "global_code": "849VVP2X+J5"}, "reference": "ChIJ7wj4b8V9hYAR31WtcaraaJQ", "scope": "GOOGLE", "types": ["health", "point_of_interest", "establishment"], "vicinity": "2711 Alcatraz Avenue, Berkeley"}, "ChIJEYL5b8V9hYARhXFh0Lt_n6Q": {"geometry": {"location": {"lat": 37.8515722, "lng": -122.2521115}, "viewport": {"northeast": {"lat": 37.85282953029149, "lng": -122.2507161197085}, "southwest": {"lat": 37.85013156970849, "lng": -122.2534140802915}}}, "icon": "https://maps.gstatic.com/mapfiles/place_api/icons/generic_business-71.png", "id": "d33bf2de866836f9a890c58bf59c022a48bb9e8d", "name": "Psychotherapy with Arman Mkrtchyan, LMFT 84791 at Healing, Peace, and Balance", "opening_hours": {"open_now": false}, "photos": [{"height": 456, "html_attributions": ["<a href=\"https://maps.google.com/maps/contrib/118085618173400701716/photos\">Psychotherapy with Arman Mkrtchyan, LMFT 84791 at Healing, Peace, and Balance</a>"], "photo_reference": "CmRaAAAAJYUvXoQDTbO2Vy2_LmY7CDnz4maiojZwQSHK4YOraBskvqMTwTeFvMknyRSRxG0rmukNRwNeVob_n4XPQYqu72kblJOKhlEcBBl0fZgffnWJe-le-556WrPvMpnWd8LsEhB8dmBRJlLWQC4YoIRFsnL-GhSzFXoAiHriQugPe2sEjicDjmJ04w", "width": 633}], "place_id": "ChIJEYL5b8V9hYARhXFh0Lt_n6Q", "plus_code": {"compound_code": "VP2X+J5 Berkeley, California, United States", "global_code": "849VVP2X+J5"}, "reference": "ChIJEYL5b8V9hYARhXFh0Lt_n6Q", "scope": "GOOGLE", "types": ["health", "point_of_interest", "establishment"], "vicinity": "2711 Alcatraz Avenue, Berkeley"}, "ChIJK7_3ZMV9hYARoGUv-XmoYz8": {"geometry": {"location": {"lat": 37.851593, "lng": -122.252089}, "viewport": {"northeast": {"lat": 37.8528444302915, "lng": -122.2506906697085}, "southwest": {"lat": 37.8501464697085, "lng": -122.2533886302915}}}, "icon": "https://maps.gstatic.com/mapfiles/place_api/icons/generic_business-71.png", "id": "f165dd58bbe46cdd66ce163bdb3d6ddea10dc7f2", "name": "Aglionl Gerard a PhD", "place_id": "ChIJK7_3ZMV9hYARoGUv-XmoYz8", "plus_code": {"compound_code": "VP2X+J5 Berkeley, California, United States", "global_code": "849VVP2X+J5"}, "reference": "ChIJK7_3ZMV9hYARoGUv-XmoYz8", "scope": "GOOGLE", "types": ["health", "point_of_interest", "establishment"], "vicinity": "2709 Alcatraz Avenue, Berkeley"}, "ChIJK7_3ZMV9hYARLj-pcLeMCVI": {"geometry": {"location": {"lat": 37.851593, "lng": -122.252089}, "viewport": {"northeast": {"lat": 37.8528444302915, "lng": -122.2506906697085}, "southwest": {"lat": 37.8501464697085, "lng": -122.2533886302915}}}, "icon": "https://maps.gstatic.com/mapfiles/place_api/icons/generic_business-71.png", "id": "a3bfaf0aad39667a6c0775149f1845a5f65f3649", "name": "Feng Shui Design Group", "place_id": "ChIJK7_3ZMV9hYARLj-pcLeMCVI", "plus_code": {"compound_code": "VP2X+J5 Berkeley, California, United States", "global_code": "849VVP2X+J5"}, "reference": "ChIJK7_3ZMV9hYARLj-pcLeMCVI", "scope": "GOOGLE", "types": ["general_contractor", "point_of_interest", "establishment"], "vicinity": "2709 Alcatraz Avenue, Berkeley"}, "ChIJK7_3ZMV9hYARcjh0oOfVV5o": {"geometry": {"location": {"lat": 37.851593, "lng": -122.252089}, "viewport": {"northeast": {"lat": 37.8528444302915, "lng": -122.2506906697085}, "southwest": {"lat": 37.8501464697085, "lng": -122.2533886302915}}}, "icon": "https://maps.gstatic.com/mapfiles/place_api/icons/generic_business-71.png", "id": "997561976de93a665538535c8842801bf2db87a3", "name": "Ohno Jennifer", "place_id": "ChIJK7_3ZMV9hYARcjh0oOfVV5o", "plus_code": {"compound_code": "VP2X+J5 Berkeley, California, United States", "global_code": "849VVP2X+J5"}, "reference": "ChIJK7_3ZMV9hYARcjh0oOfVV5o", "scope": "GOOGLE", "types": ["health", "point_of_interest", "establishment"], "vicinity": "2709 Alcatraz Avenue, Berkeley"}, "ChIJK7_3ZMV9hYARaFPREWazIks": {"geometry": {"location": {"lat": 37.851593, "lng": -122.252089}, "viewport": {"northeast": {"lat": 37.8528444302915, "lng": -122.2506906697085}, "southwest": {"lat": 37.8501464697085, "lng": -122.2533886302915}}}, "icon": "https://maps.gstatic.com/mapfiles/place_api/icons/generic_business-71.png", "id": "84188cf0ceed78a329417b3effa001d7c4067a58", "name": "Fisher Anna", "place_id": "ChIJK7_3ZMV9hYARaFPREWazIks", "plus_code": {"compound_code": "VP2X+J5 Berkeley, California, United States", "global_code": "849VVP2X+J5"}, "reference": "ChIJK7_3ZMV9hYARaFPREWazIks", "scope": "GOOGLE", "types": ["health", "point_of_interest", "establishment"], "vicinity": "2709 Alcatraz Avenue, Berkeley"}, "ChIJgUHR3-N9hYARDPJaJsD4c1U": {"geometry": {"location": {"lat": 37.85149009999999, "lng": -122.2522741}, "viewport": {"northeast": {"lat": 37.85283068029149, "lng": -122.2510360197085}, "southwest": {"lat": 37.8501327197085, "lng": -122.2537339802915}}}, "icon": "https://maps.gstatic.com/mapfiles/place_api/icons/generic_business-71.png", "id": "12be9836d9b10f14db55d68698b165495d348c60", "name": "Paz Vizcarra, L.Ac.", "opening_hours": {"open_now": false}, "photos": [{"height": 626, "html_attributions": ["<a href=\"https://maps.google.com/maps/contrib/112462538767699677170/photos\">Paz Vizcarra, L.Ac.</a>"], "photo_reference": "CmRaAAAAEZrCR3ljKdvxnnQsrNVV7Z8eoG2cHVgypNK-bUTm0ZLC9UB9K5-hQzlLT0EiS6Seb9iNUPk8kzGGlG0g15xiNF73pgW1NUSMO68exng1Lcj7B0_yv_Y-jrudQduZmUgPEhD_qtVaR1ze9w2XclspG7GaGhRJqM2iocZDUHb5eX9pG5kN9HCOWw", "width": 500}], "place_id": "ChIJgUHR3-N9hYARDPJaJsD4c1U", "plus_code": {"compound_code": "VP2X+H3 Berkeley, California, United States", "global_code": "849VVP2X+H3"}, "reference": "ChIJgUHR3-N9hYARDPJaJsD4c1U", "scope": "GOOGLE", "types": ["health", "point_of_interest", "establishment"], "vicinity": "3179 College Avenue #4, Berkeley"}, "ChIJFWXVZcV9hYARty6yi2vod1o": {"geometry": {"location": {"lat": 37.85149009999999, "lng": -122.2522741}, "viewport": {"northeast": {"lat": 37.85283068029149, "lng": -122.2510360197085}, "southwest": {"lat": 37.8501327197085, "lng": -122.2537339802915}}}, "icon": "https://maps.gstatic.com/mapfiles/place_api/icons/generic_business-71.png", "id": "f61fc3b32dc8e02e3eb647a6656b38d0757dc682", "name": "Eldridge Investment Management", "place_id": "ChIJFWXVZcV9hYARty6yi2vod1o", "plus_code": {"compound_code": "VP2X+H3 Berkeley, California, United States", "global_code": "849VVP2X+H3"}, "reference": "ChIJFWXVZcV9hYARty6yi2vod1o", "scope": "GOOGLE", "types": ["finance", "point_of_interest", "establishment"], "vicinity": "3179 College Avenue, Berkeley"}, "ChIJFWXVZcV9hYAR4Hh9YtyrHkQ": {"geometry": {"location": {"lat": 37.85149009999999, "lng": -122.2522741}, "viewport": {"northeast": {"lat": 37.85283068029149, "lng": -122.2510360197085}, "southwest": {"lat": 37.8501327197085, "lng": -122.2537339802915}}}, "icon": "https://maps.gstatic.com/mapfiles/place_api/icons/generic_business-71.png", "id": "0a4f988da33c9ebf5915145af4a3c95c83855efd", "name": "A Light Touch", "place_id": "ChIJFWXVZcV9hYAR4Hh9YtyrHkQ", "plus_code": {"compound_code": "VP2X+H3 Berkeley, California, United States", "global_code": "849VVP2X+H3"}, "reference": "ChIJFWXVZcV9hYAR4Hh9YtyrHkQ", "scope": "GOOGLE", "types": ["health", "point_of_interest", "establishment"], "vicinity": "3179 College Avenue # 2A, Berkeley"}, "ChIJS6zCzC59hYARw1MJ6xIXrO0": {"geometry": {"location": {"lat": 37.85149009999999, "lng": -122.2522741}, "viewport": {"northeast": {"lat": 37.85283068029149, "lng": -122.2510360197085}, "southwest": {"lat": 37.8501327197085, "lng": -122.2537339802915}}}, "icon": "https://maps.gstatic.com/mapfiles/place_api/icons/generic_business-71.png", "id": "43bf5bddcbde1950ad265445684ec7ddee5f6202", "name": "Donald Hughes LAC", "place_id": "ChIJS6zCzC59hYARw1MJ6xIXrO0", "plus_code": {"compound_code": "VP2X+H3 Berkeley, California, United States", "global_code": "849VVP2X+H3"}, "reference": "ChIJS6zCzC59hYARw1MJ6xIXrO0", "scope": "GOOGLE", "types": ["health", "point_of_interest", "establishment"], "vicinity": "3179 College Avenue, Berkeley"}, "ChIJPRt-ZsV9hYARp_FZexR3nvY": {"geometry": {"location": {"lat": 37.85149009999999, "lng": -122.2522741}, "viewport": {"northeast": {"lat": 37.85283068029149, "lng": -122.2510360197085}, "southwest": {"lat": 37.8501327197085, "lng": -122.2537339802915}}}, "icon": "https://maps.gstatic.com/mapfiles/place_api/icons/generic_business-71.png", "id": "38fc9d1d597d006fb4dea6e884fe831fd2715ab9", "name": "College Avenue Chiropractic", "place_id": "ChIJPRt-ZsV9hYARp_FZexR3nvY", "plus_code": {"compound_code": "VP2X+H3 Berkeley, California, United States", "global_code": "849VVP2X+H3"}, "reference": "ChIJPRt-ZsV9hYARp_FZexR3nvY", "scope": "GOOGLE", "types": ["health", "point_of_interest", "establishment"], "vicinity": "3179 College Avenue, Berkeley"}, "ChIJQfF_ZsV9hYARBLQ3NnQmTq0": {"geometry": {"location": {"lat": 37.85149009999999, "lng": -122.2522741}, "viewport": {"northeast": {"lat": 37.85283068029149, "lng": -122.2510360197085}, "southwest": {"lat": 37.8501327197085, "lng": -122.2537339802915}}}, "icon": "https://maps.gstatic.com/mapfiles/place_api/icons/generic_business-71.png", "id": "3411181b684fc99c2098e7114f49314682258962", "name": "Todd Harvey, MFT", "place_id": "ChIJQfF_ZsV9hYARBLQ3NnQmTq0", "plus_code": {"compound_code": "VP2X+H3 Berkeley, California, United States", "global_code": "849VVP2X+H3"}, "reference": "ChIJQfF_ZsV9hYARBLQ3NnQmTq0", "scope": "GOOGLE", "types": ["health", "point_of_interest", "establishment"], "vicinity": "3179 College Avenue, Berkeley"}, "ChIJv_s2aRV9hYARyjZXRMSc9aU": {"geometry": {"location": {"lat": 37.8515176, "lng": -122.2523167}, "viewport": {"northeast": {"lat": 37.8528596302915, "lng": -122.2510591697085}, "southwest": {"lat": 37.8501616697085, "lng": -122.2537571302915}}}, "icon": "https://maps.gstatic.com/mapfiles/place_api/icons/restaurant-71.png", "id": "4f793806e8cc81ef92a8f6164ce39710b83c404b", "name": "Cask Taproom", "opening_hours": {"open_now": true}, "photos": [{"height": 3807, "html_attributions": ["<a href=\"https://maps.google.com/maps/contrib/117137340402835971990/photos\">Cask Taproom</a>"], "photo_reference": "CmRaAAAACv8Eqc1Zd268ntCORc1tYSDYDfDFF8Mk7uwbZq5qyMC5gqSBgYU43p5kvGGLezF91-734qv0kyusPzztpu0lHRmxVSqT4ARxEd2gSSZEyWHSqFbAfLG6QksPbKuxf6ZuEhBFOXBXSdh3VZ6ZRWaKkW_dGhTfgYrhiG1TrDE0rH65XZrG1nDxEQ", "width": 4884}], "place_id": "ChIJv_s2aRV9hYARyjZXRMSc9aU", "plus_code": {"compound_code": "VP2X+J3 Berkeley, California, United States", "global_code": "849VVP2X+J3"}, "rating": 5, "reference": "ChIJv_s2aRV9hYARyjZXRMSc9aU", "scope": "GOOGLE", "types": ["bar", "restaurant", "point_of_interest", "food", "establishment"], "vicinity": "3185 B College Avenue, Berkeley"}}