{"ChIJ48uh9id8hYARa4Hlloo6H1E": {"geometry": {"location": {"lat": 37.8679526, "lng": -122.2651185}, "viewport": {"northeast": {"lat": 37.8693015802915, "lng": -122.2637695197085}, "southwest": {"lat": 37.8666036197085, "lng": -122.2664674802915}}}, "icon": "https://maps.gstatic.com/mapfiles/place_api/icons/geocode-71.png", "id": "252aec2dc0728fdb5411ea5b711bbad3369ddbab", "name": "2245-2227 Bancroft Way", "place_id": "ChIJ48uh9id8hYARa4Hlloo6H1E", "reference": "ChIJ48uh9id8hYARa4Hlloo6H1E", "scope": "GOOGLE", "types": ["route"], "vicinity": "Berkeley"}, "ChIJLYIwX51-hYARy6kFsUW6oGA": {"geometry": {"location": {"lat": 37.8678613, "lng": -122.2651731}, "viewport": {"northeast": {"lat": 37.8691973302915, "lng": -122.2637776197085}, "southwest": {"lat": 37.8664993697085, "lng": -122.2664755802915}}}, "icon": "https://maps.gstatic.com/mapfiles/place_api/icons/generic_business-71.png", "id": "f656e5b45c24b4c54df2c66b51e8ac349b2cebad", "name": "Legends Aquatic Center", "opening_hours": {"open_now": true}, "place_id": "ChIJLYIwX51-hYARy6kFsUW6oGA", "plus_code": {"compound_code": "VP9M+4W Berkeley, California, United States", "global_code": "849VVP9M+4W"}, "rating": 3, "reference": "ChIJLYIwX51-hYARy6kFsUW6oGA", "scope": "GOOGLE", "types": ["point_of_interest", "establishment"], "vicinity": "2214 Bancroft Way, Berkeley"}, "ChIJ2cLi9id8hYARQT7Ah_PqdUY": {"geometry": {"location": {"lat": 37.8678075, "lng": -122.2651623}, "viewport": {"northeast": {"lat": 37.8691624302915, "lng": -122.2637693197085}, "southwest": {"lat": 37.8664644697085, "lng": -122.2664672802915}}}, "icon": "https://maps.gstatic.com/mapfiles/place_api/icons/school-71.png", "id": "e1193a164f8a00514507a4b7f1e2739fa8347c14", "name": "UC Berkeley Swimming Pool", "photos": [{"height": 2554, "html_attributions": ["<a href=\"https://maps.google.com/maps/contrib/106171029891278216897/photos\">FOESAD 5150</a>"], "photo_reference": "CmRaAAAAI8vyFnjEZZOgPVAdcEQajhCNq2cxiC_zZDie4kWEKnTwdF_cIN7-SL0bcG9M-PnRhmCCRdUuUJ5nzO2JDosGDC3MMJfz0-En85hiMV9HUO8tqtnoBPyyI9eJWP0TT15REhCxf0afnWW-caYMgcVi7wpBGhTRR-ycSWuZjTmTJw84n_iDD_8gNg", "width": 2554}], "place_id": "ChIJ2cLi9id8hYARQT7Ah_PqdUY", "plus_code": {"compound_code": "VP9M+4W Berkeley, California, United States", "global_code": "849VVP9M+4W"}, "rating": 3, "reference": "ChIJ2cLi9id8hYARQT7Ah_PqdUY", "scope": "GOOGLE", "types": ["school", "point_of_interest", "establishment"], "vicinity": "2222 Bancroft Way, Berkeley"}, "ChIJ00mFOjZ5hYARk-l1ppUV6pQ": {"geometry": {"location": {"lat": 37.8715926, "lng": -122.272747}, "viewport": {"northeast": {"lat": 37.9058239, "lng": -122.234179}, "southwest": {"lat": 37.835727, "lng": -122.367781}}}, "icon": "https://maps.gstatic.com/mapfiles/place_api/icons/geocode-71.png", "id": "00741fe572fc4084428ab206e1a55830f6a1bf0a", "name": "Berkeley", "photos": [{"height": 1080, "html_attributions": ["<a href=\"https://maps.google.com/maps/contrib/110244590763501513798/photos\">miao hsin sun</a>"], "photo_reference": "CmRaAAAAen_xv5LVPEDp5iqaIlNMNEyvHMFL_6keldpXyEfJ11JFtJiif3daSTV5pf8wXrFuR15A1jXm9AJji5vaPe003MbyYzbgImyOVypJb_V66sQ8WBTNUvxq85mRMTCulHhSEhAvjgB9AfE4DxegKMxwWbohGhTTGpW20LH-8LtVUw57_Zo1hXYR1g", "width": 1616}], "place_id": "ChIJ00mFOjZ5hYARk-l1ppUV6pQ", "reference": "ChIJ00mFOjZ5hYARk-l1ppUV6pQ", "scope": "GOOGLE", "types": ["locality", "political"], "vicinity": "Berkeley"}}