{"ChIJYyjOA5x-hYARqxNzGiMF_2g": {"geometry": {"location": {"lat": 37.8699598, "lng": -122.2707396}, "viewport": {"northeast": {"lat": 37.87130878029149, "lng": -122.2693906197085}, "southwest": {"lat": 37.8686108197085, "lng": -122.2720885802915}}}, "icon": "https://maps.gstatic.com/mapfiles/place_api/icons/geocode-71.png", "id": "93a49bedb423b9fd7f4c3d68b762b8516cf7ede6", "name": "1999-1991 Center St", "place_id": "ChIJYyjOA5x-hYARqxNzGiMF_2g", "reference": "ChIJYyjOA5x-hYARqxNzGiMF_2g", "scope": "GOOGLE", "types": ["route"], "vicinity": "Berkeley"}, "ChIJ_7ekqZ5-hYARzBoJwgsO17o": {"geometry": {"location": {"lat": 37.87016690000001, "lng": -122.270798}, "viewport": {"northeast": {"lat": 37.8714114802915, "lng": -122.2694260697085}, "southwest": {"lat": 37.86871351970851, "lng": -122.2721240302915}}}, "icon": "https://maps.gstatic.com/mapfiles/place_api/icons/civic_building-71.png", "id": "00dfad6875a97977db6075a1b95fcc2cfa852f1a", "name": "Berkeley Zoning Department", "place_id": "ChIJ_7ekqZ5-hYARzBoJwgsO17o", "plus_code": {"compound_code": "VPCH+3M Berkeley, California, United States", "global_code": "849VVPCH+3M"}, "reference": "ChIJ_7ekqZ5-hYARzBoJwgsO17o", "scope": "GOOGLE", "types": ["local_government_office", "point_of_interest", "establishment"], "vicinity": "1947 Center Street, Berkeley"}, "ChIJ_7ekqZ5-hYAR8aflQVtGYGc": {"geometry": {"location": {"lat": 37.87016690000001, "lng": -122.270798}, "viewport": {"northeast": {"lat": 37.8715236802915, "lng": -122.2693403697085}, "southwest": {"lat": 37.8688257197085, "lng": -122.2720383302915}}}, "icon": "https://maps.gstatic.com/mapfiles/place_api/icons/civic_building-71.png", "id": "4bdebe7223efb055ff5ac808b443ee3970d19d3c", "name": "Berkeley Redevelopment Office", "place_id": "ChIJ_7ekqZ5-hYAR8aflQVtGYGc", "plus_code": {"compound_code": "VPCH+3M Berkeley, California, United States", "global_code": "849VVPCH+3M"}, "reference": "ChIJ_7ekqZ5-hYAR8aflQVtGYGc", "scope": "GOOGLE", "types": ["local_government_office", "point_of_interest", "establishment"], "vicinity": "2120 Milvia Street, Berkeley"}, "ChIJJampAZx-hYAReDWdQlNwU6U": {"geometry": {"location": {"lat": 37.8699387, "lng": -122.2708516}, "viewport": {"northeast": {"lat": 37.8712622302915, "lng": -122.2694970197085}, "southwest": {"lat": 37.8685642697085, "lng": -122.2721949802915}}}, "icon": "https://maps.gstatic.com/mapfiles/place_api/icons/restaurant-71.png", "id": "74ffb744a4bdfeb4f27626fe2ce0722af64d14b0", "name": "Mommy's Yammy's", "opening_hours": {"open_now": false}, "photos": [{"height": 4032, "html_attributions": ["<a href=\"https://maps.google.com/maps/contrib/107721404123505875377/photos\">Albert L.</a>"], "photo_reference": "CmRaAAAAi38bwH9iEdS0UUNqWgRv1hmRlrF1WqkNK-iGphryVJlAeF5P35Th_qHR3cLvP6HFvLkLFtBtXqoImfAZer6LXxqbHVzvgPLaJvraPyF9nrb4QUVlZq0-bWMZLUklEsZfEhB-jgake99CA1UBdDo4p9WaGhTKuVP2ETKExZVdVJof5eImOALwTQ", "width": 3024}], "place_id": "ChIJJampAZx-hYAReDWdQlNwU6U", "plus_code": {"compound_code": "VP9H+XM Berkeley, California, United States", "global_code": "849VVP9H+XM"}, "rating": 4.5, "reference": "ChIJJampAZx-hYAReDWdQlNwU6U", "scope": "GOOGLE", "types": ["restaurant", "point_of_interest", "food", "establishment"], "vicinity": "1972-1998 Center Street, Berkeley"}, "ChIJs3YRAZx-hYAR9VQYl1vU5Dw": {"geometry": {"location": {"lat": 37.86989229999999, "lng": -122.2708204}, "viewport": {"northeast": {"lat": 37.8712650302915, "lng": -122.2694766197085}, "southwest": {"lat": 37.8685670697085, "lng": -122.2721745802915}}}, "icon": "https://maps.gstatic.com/mapfiles/place_api/icons/restaurant-71.png", "id": "d3246c5afdd1736ec5dac099496cd042de5d27e3", "name": "Desta Ethiopian Food", "opening_hours": {"open_now": false}, "photos": [{"height": 2400, "html_attributions": ["<a href=\"https://maps.google.com/maps/contrib/114793967685216290949/photos\">Joe Gebis</a>"], "photo_reference": "CmRaAAAAT8MYZBLiOtRPhAyHfmP_QEp62cYc9UcOawITD3i25lBIiBnefrWTAJM2Tm9T-HvIfTzEutSpJ3S1k4nz-rdmQ61JqziRspt0a0ZOfjYIZqhrm9p22aLpObRIKreQE15yEhACQ_0p4zqwqLVQoN-RgEUjGhTRZxmwrxE_QV7PLFSWdGrtb5Wlng", "width": 3200}], "place_id": "ChIJs3YRAZx-hYAR9VQYl1vU5Dw", "plus_code": {"compound_code": "VP9H+XM Berkeley, California, United States", "global_code": "849VVP9H+XM"}, "rating": 5, "reference": "ChIJs3YRAZx-hYAR9VQYl1vU5Dw", "scope": "GOOGLE", "types": ["restaurant", "point_of_interest", "food", "establishment"], "vicinity": "1972-1998 Center Street, Berkeley"}, "ChIJ00mFOjZ5hYARk-l1ppUV6pQ": {"geometry": {"location": {"lat": 37.8715926, "lng": -122.272747}, "viewport": {"northeast": {"lat": 37.9058239, "lng": -122.234179}, "southwest": {"lat": 37.835727, "lng": -122.367781}}}, "icon": "https://maps.gstatic.com/mapfiles/place_api/icons/geocode-71.png", "id": "00741fe572fc4084428ab206e1a55830f6a1bf0a", "name": "Berkeley", "photos": [{"height": 1080, "html_attributions": ["<a href=\"https://maps.google.com/maps/contrib/110244590763501513798/photos\">miao hsin sun</a>"], "photo_reference": "CmRaAAAAinFPq-TwTjiGsHMJE_gVLGKAO--Sdtx18EmdeI5qC9EQgZ4aIYhYgCC1AeIWFsJv29SegByDOC-QevjlsqXkbULEWu6snNXY7YAd0egJZKBOmriWyoYbg7FGyOcjf2yJEhB_aniN-BA_C-vJhD5XLdEjGhRcireYGQoZUohSJSJ6OBz_vxb-zQ", "width": 1616}], "place_id": "ChIJ00mFOjZ5hYARk-l1ppUV6pQ", "reference": "ChIJ00mFOjZ5hYARk-l1ppUV6pQ", "scope": "GOOGLE", "types": ["locality", "political"], "vicinity": "Berkeley"}}