{"ChIJmdPVnbJ-hYARQ64d98Uts-4": {"geometry": {"location": {"lat": 37.89055460000001, "lng": -122.2768785}, "viewport": {"northeast": {"lat": 37.8919035302915, "lng": -122.2755295197085}, "southwest": {"lat": 37.8892055697085, "lng": -122.2782274802915}}}, "icon": "https://maps.gstatic.com/mapfiles/place_api/icons/geocode-71.png", "id": "3722dbcc446570e3dbca04f3b67676068b71a2de", "name": "914-938 The Alameda", "place_id": "ChIJmdPVnbJ-hYARQ64d98Uts-4", "reference": "ChIJmdPVnbJ-hYARQ64d98Uts-4", "scope": "GOOGLE", "types": ["route"], "vicinity": "Berkeley"}, "ChIJPRovpLJ-hYARG6FsKWIyiZc": {"geometry": {"location": {"lat": 37.8911672, "lng": -122.2771267}, "viewport": {"northeast": {"lat": 37.8925161802915, "lng": -122.2757777197085}, "southwest": {"lat": 37.8898182197085, "lng": -122.2784756802915}}}, "icon": "https://maps.gstatic.com/mapfiles/place_api/icons/bus-71.png", "id": "aa20e05bb2ddd068149b94ba0ba1c59a0c8ad847", "name": "The Alameda:Solano Av", "place_id": "ChIJPRovpLJ-hYARG6FsKWIyiZc", "plus_code": {"compound_code": "VPRF+F4 Berkeley, California, United States", "global_code": "849VVPRF+F4"}, "reference": "ChIJPRovpLJ-hYARG6FsKWIyiZc", "scope": "GOOGLE", "types": ["bus_station", "transit_station", "point_of_interest", "establishment"], "vicinity": "United States"}, "ChIJ00mFOjZ5hYARk-l1ppUV6pQ": {"geometry": {"location": {"lat": 37.8715926, "lng": -122.272747}, "viewport": {"northeast": {"lat": 37.9058239, "lng": -122.234179}, "southwest": {"lat": 37.835727, "lng": -122.367781}}}, "icon": "https://maps.gstatic.com/mapfiles/place_api/icons/geocode-71.png", "id": "00741fe572fc4084428ab206e1a55830f6a1bf0a", "name": "Berkeley", "photos": [{"height": 1080, "html_attributions": ["<a href=\"https://maps.google.com/maps/contrib/110244590763501513798/photos\">miao hsin sun</a>"], "photo_reference": "CmRaAAAA_3P5-YIiqTy5BOF8gUP0VA89fAfTOVhN8ovGnEvWJ7P8GjLYdpdDEjX8g2_CSpWQgp7UuTgd8d87Nmdk2XpkHhpwvIQgq1MfrBKa41F_9A6TcJsosGI4hkVv4cl1pfwYEhDkawGD1v_615KoMwduhZcrGhTFQxtOSGYtMqEaRA_ljV3ZxP6Xvg", "width": 1616}], "place_id": "ChIJ00mFOjZ5hYARk-l1ppUV6pQ", "reference": "ChIJ00mFOjZ5hYARk-l1ppUV6pQ", "scope": "GOOGLE", "types": ["locality", "political"], "vicinity": "Berkeley"}}