{"ChIJqWbnfNN9hYAR0b1b0fAnQ4U": {"geometry": {"location": {"lat": 37.8573962, "lng": -122.2594709}, "viewport": {"northeast": {"lat": 37.85874518029149, "lng": -122.2581219197085}, "southwest": {"lat": 37.8560472197085, "lng": -122.2608198802915}}}, "icon": "https://maps.gstatic.com/mapfiles/place_api/icons/geocode-71.png", "id": "c0f01744d16141cd0fe65da4661fb10944b90576", "name": "Telegraph Avenue", "place_id": "ChIJqWbnfNN9hYAR0b1b0fAnQ4U", "reference": "ChIJqWbnfNN9hYAR0b1b0fAnQ4U", "scope": "GOOGLE", "types": ["route"], "vicinity": "Berkeley"}, "ChIJ4-ZVetN9hYARoAeqErMH5KY": {"geometry": {"location": {"lat": 37.8573259, "lng": -122.2592145}, "viewport": {"northeast": {"lat": 37.8586852302915, "lng": -122.2579968697085}, "southwest": {"lat": 37.8559872697085, "lng": -122.2606948302915}}}, "icon": "https://maps.gstatic.com/mapfiles/place_api/icons/generic_business-71.png", "id": "148e96027a4cf1811aecb2b4735686c9394eab64", "name": "Tebben Josie A MD", "place_id": "ChIJ4-ZVetN9hYARoAeqErMH5KY", "plus_code": {"compound_code": "VP4R+W8 Berkeley, California, United States", "global_code": "849VVP4R+W8"}, "reference": "ChIJ4-ZVetN9hYARoAeqErMH5KY", "scope": "GOOGLE", "types": ["doctor", "health", "point_of_interest", "establishment"], "vicinity": "2905 Telegraph Avenue, Berkeley"}, "ChIJl5d3e9N9hYARYFMYfPLwnYA": {"geometry": {"location": {"lat": 37.8573582, "lng": -122.2592074}, "viewport": {"northeast": {"lat": 37.8587176302915, "lng": -122.2579912697085}, "southwest": {"lat": 37.8560196697085, "lng": -122.2606892302915}}}, "icon": "https://maps.gstatic.com/mapfiles/place_api/icons/generic_business-71.png", "id": "6988b180b9fb73623cb33b6117f2e929f97c41a3", "name": "East Bay Nephrology Medical: Manjunath Veena MD", "place_id": "ChIJl5d3e9N9hYARYFMYfPLwnYA", "plus_code": {"compound_code": "VP4R+W8 Berkeley, California, United States", "global_code": "849VVP4R+W8"}, "reference": "ChIJl5d3e9N9hYARYFMYfPLwnYA", "scope": "GOOGLE", "types": ["doctor", "health", "point_of_interest", "establishment"], "vicinity": "2905 Telegraph Avenue, Berkeley"}, "ChIJl5d3e9N9hYAR1pQ4gp46huM": {"geometry": {"location": {"lat": 37.8573582, "lng": -122.2592073}, "viewport": {"northeast": {"lat": 37.8587176302915, "lng": -122.2579912197085}, "southwest": {"lat": 37.8560196697085, "lng": -122.2606891802915}}}, "icon": "https://maps.gstatic.com/mapfiles/place_api/icons/generic_business-71.png", "id": "329c04a2fbba10067c8acd60ceeabd35ca2b3c0f", "name": "Swati Patel, MD", "place_id": "ChIJl5d3e9N9hYAR1pQ4gp46huM", "plus_code": {"compound_code": "VP4R+W8 Berkeley, California, United States", "global_code": "849VVP4R+W8"}, "reference": "ChIJl5d3e9N9hYAR1pQ4gp46huM", "scope": "GOOGLE", "types": ["doctor", "health", "point_of_interest", "establishment"], "vicinity": "2905 Telegraph Avenue, Berkeley"}, "ChIJ4-ZVetN9hYAR2DThs78wj_Q": {"geometry": {"location": {"lat": 37.8573259, "lng": -122.2592145}, "viewport": {"northeast": {"lat": 37.8586852302915, "lng": -122.2579968697085}, "southwest": {"lat": 37.8559872697085, "lng": -122.2606948302915}}}, "icon": "https://maps.gstatic.com/mapfiles/place_api/icons/generic_business-71.png", "id": "962816ae6c0c4b5b6eb5179725570d716ae3308e", "name": "Rausa Katherine MD", "place_id": "ChIJ4-ZVetN9hYAR2DThs78wj_Q", "plus_code": {"compound_code": "VP4R+W8 Berkeley, California, United States", "global_code": "849VVP4R+W8"}, "reference": "ChIJ4-ZVetN9hYAR2DThs78wj_Q", "scope": "GOOGLE", "types": ["doctor", "health", "point_of_interest", "establishment"], "vicinity": "2905 Telegraph Avenue, Berkeley"}, "ChIJl5d3e9N9hYARpL2XntIRXLE": {"geometry": {"location": {"lat": 37.8573582, "lng": -122.2592074}, "viewport": {"northeast": {"lat": 37.8587176302915, "lng": -122.2579912697085}, "southwest": {"lat": 37.8560196697085, "lng": -122.2606892302915}}}, "icon": "https://maps.gstatic.com/mapfiles/place_api/icons/generic_business-71.png", "id": "ae0a43b538e5ec40ab441c260c8a6ebde94717d2", "name": "East Bay Nephrology Medical: Wong Samuel J DO", "place_id": "ChIJl5d3e9N9hYARpL2XntIRXLE", "plus_code": {"compound_code": "VP4R+W8 Berkeley, California, United States", "global_code": "849VVP4R+W8"}, "reference": "ChIJl5d3e9N9hYARpL2XntIRXLE", "scope": "GOOGLE", "types": ["doctor", "health", "point_of_interest", "establishment"], "vicinity": "2905 Telegraph Avenue, Berkeley"}, "ChIJl5d3e9N9hYARHfQ_x-CSXxs": {"geometry": {"location": {"lat": 37.857345, "lng": -122.2591931}, "viewport": {"northeast": {"lat": 37.8587050302915, "lng": -122.2579848697085}, "southwest": {"lat": 37.8560070697085, "lng": -122.2606828302915}}}, "icon": "https://maps.gstatic.com/mapfiles/place_api/icons/generic_business-71.png", "id": "00ad731f9fc5a28f8670bc746089fba388eb0b6e", "name": "Mario Corona, M.D.", "place_id": "ChIJl5d3e9N9hYARHfQ_x-CSXxs", "plus_code": {"compound_code": "VP4R+W8 Berkeley, California, United States", "global_code": "849VVP4R+W8"}, "reference": "ChIJl5d3e9N9hYARHfQ_x-CSXxs", "scope": "GOOGLE", "types": ["doctor", "health", "point_of_interest", "establishment"], "vicinity": "2905 Telegraph Avenue, Berkeley"}, "ChIJl5d3e9N9hYARqMHNC3TNQgs": {"geometry": {"location": {"lat": 37.857345, "lng": -122.2591931}, "viewport": {"northeast": {"lat": 37.8587050302915, "lng": -122.2579848697085}, "southwest": {"lat": 37.8560070697085, "lng": -122.2606828302915}}}, "icon": "https://maps.gstatic.com/mapfiles/place_api/icons/generic_business-71.png", "id": "2dec8279e972b238692489f25dfebd05337485bf", "name": "Robert Doud, M.D.", "place_id": "ChIJl5d3e9N9hYARqMHNC3TNQgs", "plus_code": {"compound_code": "VP4R+W8 Berkeley, California, United States", "global_code": "849VVP4R+W8"}, "reference": "ChIJl5d3e9N9hYARqMHNC3TNQgs", "scope": "GOOGLE", "types": ["doctor", "health", "point_of_interest", "establishment"], "vicinity": "2905 Telegraph Avenue, Berkeley"}, "ChIJl5d3e9N9hYARKcL988XkSdY": {"geometry": {"location": {"lat": 37.8573451, "lng": -122.2591931}, "viewport": {"northeast": {"lat": 37.85870513029149, "lng": -122.2579848697085}, "southwest": {"lat": 37.85600716970849, "lng": -122.2606828302915}}}, "icon": "https://maps.gstatic.com/mapfiles/place_api/icons/generic_business-71.png", "id": "4b3f85c06d2171278691116c767ab01044c59bd8", "name": "East Bay Nephrology Medical", "opening_hours": {"open_now": true}, "place_id": "ChIJl5d3e9N9hYARKcL988XkSdY", "plus_code": {"compound_code": "VP4R+W8 Berkeley, California, United States", "global_code": "849VVP4R+W8"}, "reference": "ChIJl5d3e9N9hYARKcL988XkSdY", "scope": "GOOGLE", "types": ["doctor", "health", "point_of_interest", "establishment"], "vicinity": "2905 Telegraph Avenue, Berkeley"}, "ChIJP-TNfdN9hYARxkqLoe1Xb0s": {"geometry": {"location": {"lat": 37.8571896, "lng": -122.25946}, "viewport": {"northeast": {"lat": 37.85853833029149, "lng": -122.2581079197085}, "southwest": {"lat": 37.8558403697085, "lng": -122.2608058802915}}}, "icon": "https://maps.gstatic.com/mapfiles/place_api/icons/generic_business-71.png", "id": "dd56ad57702a98e2bf3f9aa1faf7a27174985c3f", "name": "Winterlink", "place_id": "ChIJP-TNfdN9hYARxkqLoe1Xb0s", "plus_code": {"compound_code": "VP4R+V6 Berkeley, California, United States", "global_code": "849VVP4R+V6"}, "reference": "ChIJP-TNfdN9hYARxkqLoe1Xb0s", "scope": "GOOGLE", "types": ["point_of_interest", "establishment"], "vicinity": "2910 Telegraph Avenue, Berkeley"}, "ChIJl5d3e9N9hYARUeufaM209AA": {"geometry": {"location": {"lat": 37.8573582, "lng": -122.2592074}, "viewport": {"northeast": {"lat": 37.8587176302915, "lng": -122.2579912697085}, "southwest": {"lat": 37.8560196697085, "lng": -122.2606892302915}}}, "icon": "https://maps.gstatic.com/mapfiles/place_api/icons/generic_business-71.png", "id": "e64764fe0787c66c3c088d414d072656a148f928", "name": "Oliver K. Khakmahd", "place_id": "ChIJl5d3e9N9hYARUeufaM209AA", "plus_code": {"compound_code": "VP4R+W8 Berkeley, California, United States", "global_code": "849VVP4R+W8"}, "reference": "ChIJl5d3e9N9hYARUeufaM209AA", "scope": "GOOGLE", "types": ["doctor", "health", "point_of_interest", "establishment"], "vicinity": "2905 Telegraph Avenue, Berkeley"}, "ChIJ4-ZVetN9hYARejAia91cWxk": {"geometry": {"location": {"lat": 37.8573259, "lng": -122.2592145}, "viewport": {"northeast": {"lat": 37.8586852302915, "lng": -122.2579968697085}, "southwest": {"lat": 37.8559872697085, "lng": -122.2606948302915}}}, "icon": "https://maps.gstatic.com/mapfiles/place_api/icons/generic_business-71.png", "id": "5cbc177550b30a1de1e3461fcb41e13e293cfe9e", "name": "Morrissey Ellen C MD", "place_id": "ChIJ4-ZVetN9hYARejAia91cWxk", "plus_code": {"compound_code": "VP4R+W8 Berkeley, California, United States", "global_code": "849VVP4R+W8"}, "reference": "ChIJ4-ZVetN9hYARejAia91cWxk", "scope": "GOOGLE", "types": ["doctor", "health", "point_of_interest", "establishment"], "vicinity": "2905 Telegraph Avenue, Berkeley"}, "ChIJ4-ZVetN9hYARjAZgMBmxs9w": {"geometry": {"location": {"lat": 37.8573259, "lng": -122.2592145}, "viewport": {"northeast": {"lat": 37.8586852302915, "lng": -122.2579968697085}, "southwest": {"lat": 37.8559872697085, "lng": -122.2606948302915}}}, "icon": "https://maps.gstatic.com/mapfiles/place_api/icons/generic_business-71.png", "id": "1d62b7065651beb16d61334c1034f38d137401ad", "name": "Ricker Denise M MD", "place_id": "ChIJ4-ZVetN9hYARjAZgMBmxs9w", "plus_code": {"compound_code": "VP4R+W8 Berkeley, California, United States", "global_code": "849VVP4R+W8"}, "reference": "ChIJ4-ZVetN9hYARjAZgMBmxs9w", "scope": "GOOGLE", "types": ["doctor", "health", "point_of_interest", "establishment"], "vicinity": "2905 Telegraph Avenue, Berkeley"}, "ChIJ4-ZVetN9hYARPW2PLAGjL6w": {"geometry": {"location": {"lat": 37.8573259, "lng": -122.2592145}, "viewport": {"northeast": {"lat": 37.8586852302915, "lng": -122.2579968697085}, "southwest": {"lat": 37.8559872697085, "lng": -122.2606948302915}}}, "icon": "https://maps.gstatic.com/mapfiles/place_api/icons/generic_business-71.png", "id": "e1a143905af88e0c78a829b75602cc78ce7075fd", "name": "Miller Terina M MD", "place_id": "ChIJ4-ZVetN9hYARPW2PLAGjL6w", "plus_code": {"compound_code": "VP4R+W8 Berkeley, California, United States", "global_code": "849VVP4R+W8"}, "reference": "ChIJ4-ZVetN9hYARPW2PLAGjL6w", "scope": "GOOGLE", "types": ["doctor", "health", "point_of_interest", "establishment"], "vicinity": "2905 Telegraph Avenue, Berkeley"}, "ChIJ4-ZVetN9hYARJFP14b9DL6s": {"geometry": {"location": {"lat": 37.8573259, "lng": -122.2592145}, "viewport": {"northeast": {"lat": 37.8586852302915, "lng": -122.2579968697085}, "southwest": {"lat": 37.8559872697085, "lng": -122.2606948302915}}}, "icon": "https://maps.gstatic.com/mapfiles/place_api/icons/generic_business-71.png", "id": "85f1f7b2c27277877a3b2ae302488c348c6f1ed7", "name": "Kohli Reebu MD", "place_id": "ChIJ4-ZVetN9hYARJFP14b9DL6s", "plus_code": {"compound_code": "VP4R+W8 Berkeley, California, United States", "global_code": "849VVP4R+W8"}, "reference": "ChIJ4-ZVetN9hYARJFP14b9DL6s", "scope": "GOOGLE", "types": ["doctor", "health", "point_of_interest", "establishment"], "vicinity": "2905 Telegraph Avenue, Berkeley"}, "ChIJ4-ZVetN9hYARTL3iaj_tBn8": {"geometry": {"location": {"lat": 37.8573259, "lng": -122.2592145}, "viewport": {"northeast": {"lat": 37.8586852302915, "lng": -122.2579968697085}, "southwest": {"lat": 37.8559872697085, "lng": -122.2606948302915}}}, "icon": "https://maps.gstatic.com/mapfiles/place_api/icons/generic_business-71.png", "id": "04debbcc72d79c232611020940ada52761329372", "name": "Wu Monte M MD", "place_id": "ChIJ4-ZVetN9hYARTL3iaj_tBn8", "plus_code": {"compound_code": "VP4R+W8 Berkeley, California, United States", "global_code": "849VVP4R+W8"}, "reference": "ChIJ4-ZVetN9hYARTL3iaj_tBn8", "scope": "GOOGLE", "types": ["doctor", "health", "point_of_interest", "establishment"], "vicinity": "2905 Telegraph Avenue, Berkeley"}, "ChIJ4-ZVetN9hYAR5YHnV9ue17U": {"geometry": {"location": {"lat": 37.8573259, "lng": -122.2592145}, "viewport": {"northeast": {"lat": 37.8586852302915, "lng": -122.2579968697085}, "southwest": {"lat": 37.8559872697085, "lng": -122.2606948302915}}}, "icon": "https://maps.gstatic.com/mapfiles/place_api/icons/generic_business-71.png", "id": "62c0a0822a5bdf4630e24c6d0d17f2d002fc4e64", "name": "Maher Terry M MD", "place_id": "ChIJ4-ZVetN9hYAR5YHnV9ue17U", "plus_code": {"compound_code": "VP4R+W8 Berkeley, California, United States", "global_code": "849VVP4R+W8"}, "reference": "ChIJ4-ZVetN9hYAR5YHnV9ue17U", "scope": "GOOGLE", "types": ["doctor", "health", "point_of_interest", "establishment"], "vicinity": "2905 Telegraph Avenue, Berkeley"}, "ChIJ4-ZVetN9hYARKBZdGgOJNyo": {"geometry": {"location": {"lat": 37.8573259, "lng": -122.2592145}, "viewport": {"northeast": {"lat": 37.8586852302915, "lng": -122.2579968697085}, "southwest": {"lat": 37.8559872697085, "lng": -122.2606948302915}}}, "icon": "https://maps.gstatic.com/mapfiles/place_api/icons/generic_business-71.png", "id": "efcf189908adf3261c97b6abadeac7237a7d496a", "name": "Mouratoff John G MD", "place_id": "ChIJ4-ZVetN9hYARKBZdGgOJNyo", "plus_code": {"compound_code": "VP4R+W8 Berkeley, California, United States", "global_code": "849VVP4R+W8"}, "reference": "ChIJ4-ZVetN9hYARKBZdGgOJNyo", "scope": "GOOGLE", "types": ["doctor", "health", "point_of_interest", "establishment"], "vicinity": "2905 Telegraph Avenue, Berkeley"}, "ChIJ4-ZVetN9hYARtLICQz5A7g4": {"geometry": {"location": {"lat": 37.8573259, "lng": -122.2592145}, "viewport": {"northeast": {"lat": 37.8586852302915, "lng": -122.2579968697085}, "southwest": {"lat": 37.8559872697085, "lng": -122.2606948302915}}}, "icon": "https://maps.gstatic.com/mapfiles/place_api/icons/generic_business-71.png", "id": "62afe849d3a47ab6af9845642fdb4e8a3a50dc0e", "name": "Pagtalunan Maria E MD", "place_id": "ChIJ4-ZVetN9hYARtLICQz5A7g4", "plus_code": {"compound_code": "VP4R+W8 Berkeley, California, United States", "global_code": "849VVP4R+W8"}, "reference": "ChIJ4-ZVetN9hYARtLICQz5A7g4", "scope": "GOOGLE", "types": ["doctor", "health", "point_of_interest", "establishment"], "vicinity": "2905 Telegraph Avenue, Berkeley"}, "ChIJ00mFOjZ5hYARk-l1ppUV6pQ": {"geometry": {"location": {"lat": 37.8715926, "lng": -122.272747}, "viewport": {"northeast": {"lat": 37.9058239, "lng": -122.234179}, "southwest": {"lat": 37.835727, "lng": -122.367781}}}, "icon": "https://maps.gstatic.com/mapfiles/place_api/icons/geocode-71.png", "id": "00741fe572fc4084428ab206e1a55830f6a1bf0a", "name": "Berkeley", "photos": [{"height": 1080, "html_attributions": ["<a href=\"https://maps.google.com/maps/contrib/110244590763501513798/photos\">miao hsin sun</a>"], "photo_reference": "CmRaAAAA2oTLxLSCEG0BXEgox6oGDwvHy3Gs1RHb4shVeYPyvFgNNuJzzP7Q63PawW5H8pHAXI9En1hXHzlCbjCTIW3sqJZUHdPNe6-lvqFfE9-r2_LcxI7FOQxn6AoXH6RdEUGtEhCckXMgNpI_Z_8r0HOcSo01GhRK1tMz9H63T62JzNmLo1uYSPXdYA", "width": 1616}], "place_id": "ChIJ00mFOjZ5hYARk-l1ppUV6pQ", "reference": "ChIJ00mFOjZ5hYARk-l1ppUV6pQ", "scope": "GOOGLE", "types": ["locality", "political"], "vicinity": "Berkeley"}, "ChIJl5d3e9N9hYARuuzfJTh5nqw": {"geometry": {"location": {"lat": 37.8573582, "lng": -122.2592074}, "viewport": {"northeast": {"lat": 37.8587176302915, "lng": -122.2579912697085}, "southwest": {"lat": 37.8560196697085, "lng": -122.2606892302915}}}, "icon": "https://maps.gstatic.com/mapfiles/place_api/icons/generic_business-71.png", "id": "b5464ef1a849e08729309a802cf033ec5b7e7a3c", "name": "Dr. Iota-Herbei I. Claudia, MD", "place_id": "ChIJl5d3e9N9hYARuuzfJTh5nqw", "plus_code": {"compound_code": "VP4R+W8 Berkeley, California, United States", "global_code": "849VVP4R+W8"}, "rating": 5, "reference": "ChIJl5d3e9N9hYARuuzfJTh5nqw", "scope": "GOOGLE", "types": ["doctor", "health", "point_of_interest", "establishment"], "vicinity": "2905 Telegraph Avenue, Berkeley"}, "ChIJl5d3e9N9hYARD7mGqOiK3RU": {"geometry": {"location": {"lat": 37.8573582, "lng": -122.2592074}, "viewport": {"northeast": {"lat": 37.8587176302915, "lng": -122.2579912697085}, "southwest": {"lat": 37.8560196697085, "lng": -122.2606892302915}}}, "icon": "https://maps.gstatic.com/mapfiles/place_api/icons/generic_business-71.png", "id": "d321f9934cca07ec70add95c3d06f62e239c8834", "name": "Rodney Faucett, Do", "place_id": "ChIJl5d3e9N9hYARD7mGqOiK3RU", "plus_code": {"compound_code": "VP4R+W8 Berkeley, California, United States", "global_code": "849VVP4R+W8"}, "reference": "ChIJl5d3e9N9hYARD7mGqOiK3RU", "scope": "GOOGLE", "types": ["doctor", "health", "point_of_interest", "establishment"], "vicinity": "2905 Telegraph Avenue, Berkeley"}, "ChIJl5d3e9N9hYARnBQr2POqB0s": {"geometry": {"location": {"lat": 37.8573582, "lng": -122.2592074}, "viewport": {"northeast": {"lat": 37.8587176302915, "lng": -122.2579912697085}, "southwest": {"lat": 37.8560196697085, "lng": -122.2606892302915}}}, "icon": "https://maps.gstatic.com/mapfiles/place_api/icons/generic_business-71.png", "id": "2e60f5ca99eab596444056504412a7727de00f68", "name": "Dr. Donald A. Block, MD", "place_id": "ChIJl5d3e9N9hYARnBQr2POqB0s", "plus_code": {"compound_code": "VP4R+W8 Berkeley, California, United States", "global_code": "849VVP4R+W8"}, "reference": "ChIJl5d3e9N9hYARnBQr2POqB0s", "scope": "GOOGLE", "types": ["doctor", "health", "point_of_interest", "establishment"], "vicinity": "2905 Telegraph Avenue, Berkeley"}, "ChIJl5d3e9N9hYARmKcD4b6B5FQ": {"geometry": {"location": {"lat": 37.8573582, "lng": -122.2592074}, "viewport": {"northeast": {"lat": 37.8587176302915, "lng": -122.2579912697085}, "southwest": {"lat": 37.8560196697085, "lng": -122.2606892302915}}}, "icon": "https://maps.gstatic.com/mapfiles/place_api/icons/generic_business-71.png", "id": "cc2a2e0af4cd8af0f7b8f011ac7810c057950256", "name": "Dr. Malcolm L. Karlinsky, MD", "place_id": "ChIJl5d3e9N9hYARmKcD4b6B5FQ", "plus_code": {"compound_code": "VP4R+W8 Berkeley, California, United States", "global_code": "849VVP4R+W8"}, "reference": "ChIJl5d3e9N9hYARmKcD4b6B5FQ", "scope": "GOOGLE", "types": ["doctor", "health", "point_of_interest", "establishment"], "vicinity": "2905 Telegraph Avenue, Berkeley"}, "ChIJl5d3e9N9hYARQaakxlvmeQ0": {"geometry": {"location": {"lat": 37.8573451, "lng": -122.2591931}, "viewport": {"northeast": {"lat": 37.85869408029149, "lng": -122.2578441197085}, "southwest": {"lat": 37.85599611970849, "lng": -122.2605420802915}}}, "icon": "https://maps.gstatic.com/mapfiles/place_api/icons/generic_business-71.png", "id": "43bf162bf9e463e265c11e2b4bfbde057f482453", "name": "Nadereh Sarnevesht, PA", "place_id": "ChIJl5d3e9N9hYARQaakxlvmeQ0", "plus_code": {"compound_code": "VP4R+W8 Berkeley, California, United States", "global_code": "849VVP4R+W8"}, "reference": "ChIJl5d3e9N9hYARQaakxlvmeQ0", "scope": "GOOGLE", "types": ["doctor", "health", "point_of_interest", "establishment"], "vicinity": "2905 Telegraph Avenue, Berkeley, CA 94705, Berkeley"}, "ChIJl5d3e9N9hYAR0FXr6phQAw0": {"geometry": {"location": {"lat": 37.8573451, "lng": -122.2591931}, "viewport": {"northeast": {"lat": 37.85870513029149, "lng": -122.2579848697085}, "southwest": {"lat": 37.85600716970849, "lng": -122.2606828302915}}}, "icon": "https://maps.gstatic.com/mapfiles/place_api/icons/generic_business-71.png", "id": "6a00dcc2095fae91e9c8aa6822a9e3e5b27ac1d6", "name": "Alexis R. Chettiar, NP", "place_id": "ChIJl5d3e9N9hYAR0FXr6phQAw0", "plus_code": {"compound_code": "VP4R+W8 Berkeley, California, United States", "global_code": "849VVP4R+W8"}, "reference": "ChIJl5d3e9N9hYAR0FXr6phQAw0", "scope": "GOOGLE", "types": ["doctor", "health", "point_of_interest", "establishment"], "vicinity": "2905 Telegraph Avenue, Berkeley"}}