{"ChIJs0gFxn9-hYARk0QVO88U8B0": {"geometry": {"location": {"lat": 37.8559007, "lng": -122.2674856}, "viewport": {"northeast": {"lat": 37.85734015000003, "lng": -122.2661366697085}, "southwest": {"lat": 37.85446114999996, "lng": -122.2688346302915}}}, "icon": "https://maps.gstatic.com/mapfiles/place_api/icons/geocode-71.png", "id": "5d493030aed95805fe375d5ab82411b92a1b643a", "name": "2999-2901 Newbury St", "place_id": "ChIJs0gFxn9-hYARk0QVO88U8B0", "reference": "ChIJs0gFxn9-hYARk0QVO88U8B0", "scope": "GOOGLE", "types": ["route"], "vicinity": "Berkeley"}, "ChIJYY_JuH9-hYARaDej3rnOQ7Q": {"geometry": {"location": {"lat": 37.8556478, "lng": -122.267294}, "viewport": {"northeast": {"lat": 37.8569898302915, "lng": -122.2660213197085}, "southwest": {"lat": 37.8542918697085, "lng": -122.2687192802915}}}, "icon": "https://maps.gstatic.com/mapfiles/place_api/icons/generic_business-71.png", "id": "4bd6d3718e7d60014965d86962e6c3d5b2973590", "name": "Charles McCulloch, Landscape Architect", "place_id": "ChIJYY_JuH9-hYARaDej3rnOQ7Q", "plus_code": {"compound_code": "VP4M+73 Berkeley, California, United States", "global_code": "849VVP4M+73"}, "reference": "ChIJYY_JuH9-hYARaDej3rnOQ7Q", "scope": "GOOGLE", "types": ["general_contractor", "point_of_interest", "establishment"], "vicinity": "2927 Newbury Street Suite B, Berkeley"}, "ChIJYY_JuH9-hYARrir8r4YuKw8": {"geometry": {"location": {"lat": 37.8556478, "lng": -122.267294}, "viewport": {"northeast": {"lat": 37.8569898302915, "lng": -122.2660213197085}, "southwest": {"lat": 37.8542918697085, "lng": -122.2687192802915}}}, "icon": "https://maps.gstatic.com/mapfiles/place_api/icons/generic_business-71.png", "id": "ac08dae5956597c4e55a94f8ba8bd65914e614fa", "name": "Mcculloch Dill C M", "place_id": "ChIJYY_JuH9-hYARrir8r4YuKw8", "plus_code": {"compound_code": "VP4M+73 Berkeley, California, United States", "global_code": "849VVP4M+73"}, "reference": "ChIJYY_JuH9-hYARrir8r4YuKw8", "scope": "GOOGLE", "types": ["general_contractor", "point_of_interest", "establishment"], "vicinity": "2927 Newbury Street, Berkeley"}, "ChIJ00mFOjZ5hYARk-l1ppUV6pQ": {"geometry": {"location": {"lat": 37.8715926, "lng": -122.272747}, "viewport": {"northeast": {"lat": 37.9058239, "lng": -122.234179}, "southwest": {"lat": 37.835727, "lng": -122.367781}}}, "icon": "https://maps.gstatic.com/mapfiles/place_api/icons/geocode-71.png", "id": "00741fe572fc4084428ab206e1a55830f6a1bf0a", "name": "Berkeley", "photos": [{"height": 1080, "html_attributions": ["<a href=\"https://maps.google.com/maps/contrib/110244590763501513798/photos\">miao hsin sun</a>"], "photo_reference": "CmRaAAAAkVV2kTpr9ouYQsHwqWN1lb2kSWzSaakPIBgAT3qC0lU3M_w7tJpSv44KFEekRcGbesx-4jhY63HDZkGDGb75kOIBzZyBCB8UyAvCjG6AhRjh6GCEnQ280Fr8EGu6IPiHEhA6xzQha2cIYIoimNN0T4J5GhSfdqwbFySXWdqQbVqCKa8d3e3Gdw", "width": 1616}], "place_id": "ChIJ00mFOjZ5hYARk-l1ppUV6pQ", "reference": "ChIJ00mFOjZ5hYARk-l1ppUV6pQ", "scope": "GOOGLE", "types": ["locality", "political"], "vicinity": "Berkeley"}}