{"ChIJIWuy2dN9hYARsXujreKJllo": {"geometry": {"location": {"lat": 37.8552404, "lng": -122.2576628}, "viewport": {"northeast": {"lat": 37.85655138029151, "lng": -122.2563676197085}, "southwest": {"lat": 37.85385341970851, "lng": -122.2590655802915}}}, "icon": "https://maps.gstatic.com/mapfiles/place_api/icons/geocode-71.png", "id": "147e7156814320dec5d07be03cc28fd8f8eb599e", "name": "3000-3030 Colby St", "place_id": "ChIJIWuy2dN9hYARsXujreKJllo", "reference": "ChIJIWuy2dN9hYARsXujreKJllo", "scope": "GOOGLE", "types": ["route"], "vicinity": "Berkeley"}, "ChIJ_QDAYdF9hYARf4Fm69GgRbQ": {"geometry": {"location": {"lat": 37.8552066, "lng": -122.2578923}, "viewport": {"northeast": {"lat": 37.85646663029149, "lng": -122.2564854197085}, "southwest": {"lat": 37.85376866970849, "lng": -122.2591833802915}}}, "icon": "https://maps.gstatic.com/mapfiles/place_api/icons/generic_business-71.png", "id": "d7cfb2419d7426fff24dc326de1809fafed6e60e", "name": "Selena Ellis, M.D.", "opening_hours": {"open_now": true}, "place_id": "ChIJ_QDAYdF9hYARf4Fm69GgRbQ", "plus_code": {"compound_code": "VP4R+3R Berkeley, California, United States", "global_code": "849VVP4R+3R"}, "rating": 5, "reference": "ChIJ_QDAYdF9hYARf4Fm69GgRbQ", "scope": "GOOGLE", "types": ["doctor", "health", "point_of_interest", "establishment"], "vicinity": "3000 Colby Street #101, Berkeley"}, "ChIJgx12QaPAD4gRczMNCXR-h9w": {"geometry": {"location": {"lat": 37.855284, "lng": -122.257924}, "viewport": {"northeast": {"lat": 37.85671898029149, "lng": -122.2565351697085}, "southwest": {"lat": 37.85402101970849, "lng": -122.2592331302915}}}, "icon": "https://maps.gstatic.com/mapfiles/place_api/icons/generic_business-71.png", "id": "0804cb2eaab63d942b5c6dea6eeaf7219644f598", "name": "Berkeley Dental Group", "opening_hours": {"open_now": true}, "photos": [{"height": 449, "html_attributions": ["<a href=\"https://maps.google.com/maps/contrib/108217532298158955664/photos\">Berkeley Dental Group</a>"], "photo_reference": "CmRaAAAAAh48RYH2wUijYMphC78MT5GOHf0_aw6wsGAEA1RZtequOZKg6FxpQdPFNMpsdBJ6he4iyrf1u31tBIqMRpUIPmnISySiqoFegAAWIgWMALjsSnPtS0kcXsTaOWyEICxwEhBHAP1vX4y2EXJUogWueWLsGhTxAZJFBGHgdeK8W3Od7yEqedcujw", "width": 449}], "place_id": "ChIJgx12QaPAD4gRczMNCXR-h9w", "plus_code": {"compound_code": "VP4R+4R Berkeley, California, United States", "global_code": "849VVP4R+4R"}, "rating": 5, "reference": "ChIJgx12QaPAD4gRczMNCXR-h9w", "scope": "GOOGLE", "types": ["dentist", "health", "point_of_interest", "establishment"], "vicinity": "3000 Colby Street #300, Berkeley"}, "ChIJD2WK2dN9hYARXNmU5mi5cWk": {"geometry": {"location": {"lat": 37.8553128, "lng": -122.257745}, "viewport": {"northeast": {"lat": 37.8566653302915, "lng": -122.2563736197085}, "southwest": {"lat": 37.8539673697085, "lng": -122.2590715802915}}}, "icon": "https://maps.gstatic.com/mapfiles/place_api/icons/generic_business-71.png", "id": "76e7238d46f47f522fc437ef9d977ff696ca1114", "name": "Hanchock Nicola MD", "place_id": "ChIJD2WK2dN9hYARXNmU5mi5cWk", "plus_code": {"compound_code": "VP4R+4W Berkeley, California, United States", "global_code": "849VVP4R+4W"}, "reference": "ChIJD2WK2dN9hYARXNmU5mi5cWk", "scope": "GOOGLE", "types": ["doctor", "health", "point_of_interest", "establishment"], "vicinity": "3010 Colby Street, Berkeley"}, "ChIJD2WK2dN9hYARPl_erfwCLRw": {"geometry": {"location": {"lat": 37.8553128, "lng": -122.257745}, "viewport": {"northeast": {"lat": 37.8566653302915, "lng": -122.2563736197085}, "southwest": {"lat": 37.8539673697085, "lng": -122.2590715802915}}}, "icon": "https://maps.gstatic.com/mapfiles/place_api/icons/generic_business-71.png", "id": "f6479992c6bf00988746adb952013a6b7438a3f2", "name": "Dr. John O. Debenham, MD", "place_id": "ChIJD2WK2dN9hYARPl_erfwCLRw", "plus_code": {"compound_code": "VP4R+4W Berkeley, California, United States", "global_code": "849VVP4R+4W"}, "reference": "ChIJD2WK2dN9hYARPl_erfwCLRw", "scope": "GOOGLE", "types": ["doctor", "health", "point_of_interest", "establishment"], "vicinity": "3010 Colby Street #118, Berkeley"}, "ChIJ44yqf4N-hYARef_aSU_krH0": {"geometry": {"location": {"lat": 37.8552066, "lng": -122.2578923}, "viewport": {"northeast": {"lat": 37.85646663029149, "lng": -122.2564854197085}, "southwest": {"lat": 37.85376866970849, "lng": -122.2591833802915}}}, "icon": "https://maps.gstatic.com/mapfiles/place_api/icons/generic_business-71.png", "id": "37cb80d7f89a4b6c54396f05e9e21b3fe362fd56", "name": "Mark E. Wolpa, DPM", "opening_hours": {"open_now": true}, "place_id": "ChIJ44yqf4N-hYARef_aSU_krH0", "plus_code": {"compound_code": "VP4R+3R Berkeley, California, United States", "global_code": "849VVP4R+3R"}, "rating": 3, "reference": "ChIJ44yqf4N-hYARef_aSU_krH0", "scope": "GOOGLE", "types": ["doctor", "health", "point_of_interest", "establishment"], "vicinity": "3000 Colby Street #104, Berkeley"}, "ChIJ44yqf4N-hYARIAJlWr-jMTw": {"geometry": {"location": {"lat": 37.8552066, "lng": -122.2578923}, "viewport": {"northeast": {"lat": 37.85646663029149, "lng": -122.2564854197085}, "southwest": {"lat": 37.85376866970849, "lng": -122.2591833802915}}}, "icon": "https://maps.gstatic.com/mapfiles/place_api/icons/generic_business-71.png", "id": "936e4a483239b029089b54461b5cda883388aecc", "name": "Bay Area Foot & Laser Podiatry", "opening_hours": {"open_now": true}, "place_id": "ChIJ44yqf4N-hYARIAJlWr-jMTw", "plus_code": {"compound_code": "VP4R+3R Berkeley, California, United States", "global_code": "849VVP4R+3R"}, "rating": 4.6, "reference": "ChIJ44yqf4N-hYARIAJlWr-jMTw", "scope": "GOOGLE", "types": ["doctor", "health", "point_of_interest", "establishment"], "vicinity": "3000 Colby Street #104, Berkeley"}, "ChIJcxb-2NN9hYAR7Rc157bGNos": {"geometry": {"location": {"lat": 37.8552066, "lng": -122.2578922}, "viewport": {"northeast": {"lat": 37.85646663029149, "lng": -122.2564853697085}, "southwest": {"lat": 37.85376866970849, "lng": -122.2591833302915}}}, "icon": "https://maps.gstatic.com/mapfiles/place_api/icons/generic_business-71.png", "id": "aec2df2362c235e56df816b6f6a631b17364e324", "name": "Bay Area Foot & Laser", "place_id": "ChIJcxb-2NN9hYAR7Rc157bGNos", "plus_code": {"compound_code": "VP4R+3R Berkeley, California, United States", "global_code": "849VVP4R+3R"}, "rating": 5, "reference": "ChIJcxb-2NN9hYAR7Rc157bGNos", "scope": "GOOGLE", "types": ["doctor", "health", "point_of_interest", "establishment"], "vicinity": "3000 Colby Street #104, Berkeley"}, "ChIJcxb-2NN9hYARglet5Y-ZpA4": {"geometry": {"location": {"lat": 37.8552066, "lng": -122.2578922}, "viewport": {"northeast": {"lat": 37.85646663029149, "lng": -122.2564853697085}, "southwest": {"lat": 37.85376866970849, "lng": -122.2591833302915}}}, "icon": "https://maps.gstatic.com/mapfiles/place_api/icons/generic_business-71.png", "id": "92b7a4d94ee93513c41c9fc4943f1c639e908dd5", "name": "Dr. Micah Wakamatsu", "place_id": "ChIJcxb-2NN9hYARglet5Y-ZpA4", "plus_code": {"compound_code": "VP4R+3R Berkeley, California, United States", "global_code": "849VVP4R+3R"}, "reference": "ChIJcxb-2NN9hYARglet5Y-ZpA4", "scope": "GOOGLE", "types": ["doctor", "health", "point_of_interest", "establishment"], "vicinity": "3000 Colby Street #205, Berkeley"}, "ChIJCZ6J2dN9hYARqf6_4uUzkZc": {"geometry": {"location": {"lat": 37.8553128, "lng": -122.257745}, "viewport": {"northeast": {"lat": 37.8566653302915, "lng": -122.2563736197085}, "southwest": {"lat": 37.8539673697085, "lng": -122.2590715802915}}}, "icon": "https://maps.gstatic.com/mapfiles/place_api/icons/generic_business-71.png", "id": "98f5b0dddf86c1d4a6d7c959c849bb7c57000121", "name": "Hanson Renee C OD", "place_id": "ChIJCZ6J2dN9hYARqf6_4uUzkZc", "plus_code": {"compound_code": "VP4R+4W Berkeley, California, United States", "global_code": "849VVP4R+4W"}, "reference": "ChIJCZ6J2dN9hYARqf6_4uUzkZc", "scope": "GOOGLE", "types": ["health", "point_of_interest", "establishment"], "vicinity": "3010 Colby Street # 217, Berkeley"}, "ChIJCZ6J2dN9hYAROvNdxGs6CVY": {"geometry": {"location": {"lat": 37.8553128, "lng": -122.257745}, "viewport": {"northeast": {"lat": 37.8566653302915, "lng": -122.2563736197085}, "southwest": {"lat": 37.8539673697085, "lng": -122.2590715802915}}}, "icon": "https://maps.gstatic.com/mapfiles/place_api/icons/generic_business-71.png", "id": "8e9c7554f2fe5242c5a0e78d520ab319c45160b2", "name": "Rovner Robert A MD", "place_id": "ChIJCZ6J2dN9hYAROvNdxGs6CVY", "plus_code": {"compound_code": "VP4R+4W Berkeley, California, United States", "global_code": "849VVP4R+4W"}, "reference": "ChIJCZ6J2dN9hYAROvNdxGs6CVY", "scope": "GOOGLE", "types": ["doctor", "health", "point_of_interest", "establishment"], "vicinity": "3010 Colby Street # 217, Berkeley"}, "ChIJD2WK2dN9hYARG59VdXlNK5c": {"geometry": {"location": {"lat": 37.8553128, "lng": -122.257745}, "viewport": {"northeast": {"lat": 37.8566653302915, "lng": -122.2563736197085}, "southwest": {"lat": 37.8539673697085, "lng": -122.2590715802915}}}, "icon": "https://maps.gstatic.com/mapfiles/place_api/icons/generic_business-71.png", "id": "22735966e9f7f9ccb0d99dde499cb804a0d29b41", "name": "Fowler Robert W MD", "place_id": "ChIJD2WK2dN9hYARG59VdXlNK5c", "plus_code": {"compound_code": "VP4R+4W Berkeley, California, United States", "global_code": "849VVP4R+4W"}, "reference": "ChIJD2WK2dN9hYARG59VdXlNK5c", "scope": "GOOGLE", "types": ["doctor", "health", "point_of_interest", "establishment"], "vicinity": "3010 Colby Street # 110, Berkeley"}, "ChIJCZ6J2dN9hYARnzHIu4fYYaM": {"geometry": {"location": {"lat": 37.8553128, "lng": -122.257745}, "viewport": {"northeast": {"lat": 37.8566653302915, "lng": -122.2563736197085}, "southwest": {"lat": 37.8539673697085, "lng": -122.2590715802915}}}, "icon": "https://maps.gstatic.com/mapfiles/place_api/icons/generic_business-71.png", "id": "b09b19877c8cc5cb3dc4bf20eff422f8c17bf084", "name": "Richards Joshua C MD", "place_id": "ChIJCZ6J2dN9hYARnzHIu4fYYaM", "plus_code": {"compound_code": "VP4R+4W Berkeley, California, United States", "global_code": "849VVP4R+4W"}, "reference": "ChIJCZ6J2dN9hYARnzHIu4fYYaM", "scope": "GOOGLE", "types": ["doctor", "health", "point_of_interest", "establishment"], "vicinity": "3010 Colby Street # 217, Berkeley"}, "ChIJ_QDAYdF9hYARsKPGtJluvKg": {"geometry": {"location": {"lat": 37.8552066, "lng": -122.2578923}, "viewport": {"northeast": {"lat": 37.85646663029149, "lng": -122.2564854197085}, "southwest": {"lat": 37.85376866970849, "lng": -122.2591833802915}}}, "icon": "https://maps.gstatic.com/mapfiles/place_api/icons/generic_business-71.png", "id": "2d03b7257ae878080d4cb75afb48bb1df6ed34f4", "name": "Jauregui Jon G MD", "place_id": "ChIJ_QDAYdF9hYARsKPGtJluvKg", "plus_code": {"compound_code": "VP4R+3R Berkeley, California, United States", "global_code": "849VVP4R+3R"}, "reference": "ChIJ_QDAYdF9hYARsKPGtJluvKg", "scope": "GOOGLE", "types": ["doctor", "health", "point_of_interest", "establishment"], "vicinity": "3000 Colby Street, Berkeley"}, "ChIJNRs9Qqd9hYARyr5_Irx-b8E": {"geometry": {"location": {"lat": 37.8554484, "lng": -122.2580735}, "viewport": {"northeast": {"lat": 37.85680653029149, "lng": -122.2567264697085}, "southwest": {"lat": 37.85410856970849, "lng": -122.2594244302915}}}, "icon": "https://maps.gstatic.com/mapfiles/place_api/icons/generic_business-71.png", "id": "c4ef6d0f43b964e39329f55fe44136c1ef750a67", "name": "Hospital", "place_id": "ChIJNRs9Qqd9hYARyr5_Irx-b8E", "plus_code": {"compound_code": "VP4R+5Q Berkeley, California, United States", "global_code": "849VVP4R+5Q"}, "reference": "ChIJNRs9Qqd9hYARyr5_Irx-b8E", "scope": "GOOGLE", "types": ["doctor", "health", "point_of_interest", "establishment"], "vicinity": "2499-2457 Webster Street, Berkeley"}, "ChIJ82g42dN9hYARAAp409TTIT4": {"geometry": {"location": {"lat": 37.8552066, "lng": -122.2578923}, "viewport": {"northeast": {"lat": 37.85646663029149, "lng": -122.2564854197085}, "southwest": {"lat": 37.85376866970849, "lng": -122.2591833802915}}}, "icon": "https://maps.gstatic.com/mapfiles/place_api/icons/generic_business-71.png", "id": "773c47b2a02e46fd82d6499b66fd2ea2fad5f0bf", "name": "Rebecca S. Yu, MD", "opening_hours": {"open_now": true}, "photos": [{"height": 1152, "html_attributions": ["<a href=\"https://maps.google.com/maps/contrib/109353466336707357317/photos\">Rebecca S. Yu, MD</a>"], "photo_reference": "CmRaAAAAKryHFc29L3Y6_HPt5hmQ2H-ozqB9twArd4SNwVlzmmyEREIbIQs88Y6B7AjcuN-A65vuNwa9T27hMkeKHTsqr3UxnldWL82-MVVPF2HppZE5Luf2Wh3DUAcq0e0CtHOqEhBwwOPgD53gDFpbm55WsbjQGhQc7RLcHxSdyS61Ogy-DaXkLKbIBw", "width": 2048}], "place_id": "ChIJ82g42dN9hYARAAp409TTIT4", "plus_code": {"compound_code": "VP4R+3R Berkeley, California, United States", "global_code": "849VVP4R+3R"}, "rating": 5, "reference": "ChIJ82g42dN9hYARAAp409TTIT4", "scope": "GOOGLE", "types": ["doctor", "health", "point_of_interest", "establishment"], "vicinity": "3000 Colby Street Suite 304, Berkeley"}, "ChIJ_QDAYdF9hYAROLlFu1opFqU": {"geometry": {"location": {"lat": 37.8552066, "lng": -122.2578923}, "viewport": {"northeast": {"lat": 37.85646663029149, "lng": -122.2564854197085}, "southwest": {"lat": 37.85376866970849, "lng": -122.2591833802915}}}, "icon": "https://maps.gstatic.com/mapfiles/place_api/icons/generic_business-71.png", "id": "9942200d8cff550b5f8a555bc312c228debd078b", "name": "Powell Elizabeth S MD", "place_id": "ChIJ_QDAYdF9hYAROLlFu1opFqU", "plus_code": {"compound_code": "VP4R+3R Berkeley, California, United States", "global_code": "849VVP4R+3R"}, "reference": "ChIJ_QDAYdF9hYAROLlFu1opFqU", "scope": "GOOGLE", "types": ["doctor", "health", "point_of_interest", "establishment"], "vicinity": "3000 Colby Street, Berkeley"}, "ChIJ_QDAYdF9hYARZSliHwtPvQc": {"geometry": {"location": {"lat": 37.8552066, "lng": -122.2578923}, "viewport": {"northeast": {"lat": 37.85646663029149, "lng": -122.2564854197085}, "southwest": {"lat": 37.85376866970849, "lng": -122.2591833802915}}}, "icon": "https://maps.gstatic.com/mapfiles/place_api/icons/generic_business-71.png", "id": "1c6f4a1edeb482dd32af5852733a32eb620326f9", "name": "Elmwood Village Medical Clinic", "opening_hours": {"open_now": true}, "place_id": "ChIJ_QDAYdF9hYARZSliHwtPvQc", "plus_code": {"compound_code": "VP4R+3R Berkeley, California, United States", "global_code": "849VVP4R+3R"}, "rating": 4, "reference": "ChIJ_QDAYdF9hYARZSliHwtPvQc", "scope": "GOOGLE", "types": ["health", "point_of_interest", "establishment"], "vicinity": "3000 Colby Street # 110, Berkeley"}, "ChIJ_QDAYdF9hYARsYwYPW46aiA": {"geometry": {"location": {"lat": 37.8552066, "lng": -122.2578923}, "viewport": {"northeast": {"lat": 37.85646663029149, "lng": -122.2564854197085}, "southwest": {"lat": 37.85376866970849, "lng": -122.2591833802915}}}, "icon": "https://maps.gstatic.com/mapfiles/place_api/icons/generic_business-71.png", "id": "583a5fa0c78e6a3d238c05d23f4ecc2091f06257", "name": "Elias Broheen J", "place_id": "ChIJ_QDAYdF9hYARsYwYPW46aiA", "plus_code": {"compound_code": "VP4R+3R Berkeley, California, United States", "global_code": "849VVP4R+3R"}, "reference": "ChIJ_QDAYdF9hYARsYwYPW46aiA", "scope": "GOOGLE", "types": ["health", "point_of_interest", "establishment"], "vicinity": "3000 Colby Street # 301, Berkeley"}, "ChIJ00mFOjZ5hYARk-l1ppUV6pQ": {"geometry": {"location": {"lat": 37.8715926, "lng": -122.272747}, "viewport": {"northeast": {"lat": 37.9058239, "lng": -122.234179}, "southwest": {"lat": 37.835727, "lng": -122.367781}}}, "icon": "https://maps.gstatic.com/mapfiles/place_api/icons/geocode-71.png", "id": "00741fe572fc4084428ab206e1a55830f6a1bf0a", "name": "Berkeley", "photos": [{"height": 1080, "html_attributions": ["<a href=\"https://maps.google.com/maps/contrib/110244590763501513798/photos\">miao hsin sun</a>"], "photo_reference": "CmRaAAAA8sRIDSGbSYZrcRd0tEws5mzmtRQs4NWdrkKDzrKLZgz5At02bvER59SEOJBmkNS16AJ1VkjFGkS0rMZhAPVY3f8qETR9QVOQFTEiEDR6I5Ku3v5gwMGVrOJXHaUgzSzNEhCdT0OByS5KZAIO3kpYW1l4GhRo8WGaiO4y2l2Cbv__2kLZ7m0fIw", "width": 1616}], "place_id": "ChIJ00mFOjZ5hYARk-l1ppUV6pQ", "reference": "ChIJ00mFOjZ5hYARk-l1ppUV6pQ", "scope": "GOOGLE", "types": ["locality", "political"], "vicinity": "Berkeley"}}