{"ChIJ41w8Ip1-hYAR3a1wBxgyqCs": {"geometry": {"location": {"lat": 37.8673454, "lng": -122.2678123}, "viewport": {"northeast": {"lat": 37.86869438029151, "lng": -122.2664633197085}, "southwest": {"lat": 37.86599641970851, "lng": -122.2691612802915}}}, "icon": "https://maps.gstatic.com/mapfiles/place_api/icons/geocode-71.png", "id": "0042633b11ba670264c3ec1c037cd06d21d6b7c8", "name": "Shattuck Avenue", "place_id": "ChIJ41w8Ip1-hYAR3a1wBxgyqCs", "reference": "ChIJ41w8Ip1-hYAR3a1wBxgyqCs", "scope": "GOOGLE", "types": ["route"], "vicinity": "Berkeley"}, "ChIJs9HaJp1-hYARUk0dyigI5-g": {"geometry": {"location": {"lat": 37.86711740000001, "lng": -122.2680606}, "viewport": {"northeast": {"lat": 37.8686121302915, "lng": -122.2665918197085}, "southwest": {"lat": 37.8659141697085, "lng": -122.2692897802915}}}, "icon": "https://maps.gstatic.com/mapfiles/place_api/icons/shopping-71.png", "id": "10a3d12f0bd27150a26cc4a3c73aa185d6af3f2d", "name": "Crossroads Trading", "opening_hours": {"open_now": true}, "photos": [{"height": 3024, "html_attributions": ["<a href=\"https://maps.google.com/maps/contrib/108882675701899782138/photos\">Diane LeVan</a>"], "photo_reference": "CmRaAAAAWWDz70JHTAGjbFGS5RAMz5y3B49p676KTf4pLi8Pyj5OUgCNbofRzt5QKpW9TjY8QfJWU_IZdPCTH6XyQLPVNvoQlBW-ws3Fq2lUBfo5CNrjwy-aQk_MShngsY0dngIbEhCscL-6jvwEvrHcLCw5T_QBGhTD7SxUv8m6UJgeqqKHdkuf_PSf0g", "width": 4032}], "place_id": "ChIJs9HaJp1-hYARUk0dyigI5-g", "plus_code": {"compound_code": "VP8J+RQ Berkeley, California, United States", "global_code": "849VVP8J+RQ"}, "rating": 3.9, "reference": "ChIJs9HaJp1-hYARUk0dyigI5-g", "scope": "GOOGLE", "types": ["clothing_store", "store", "point_of_interest", "establishment"], "vicinity": "2330-38 Shattuck Avenue, Berkeley"}, "ChIJ6W1735x-hYARa1rrxT_t8SI": {"geometry": {"location": {"lat": 37.8673194, "lng": -122.2681142}, "viewport": {"northeast": {"lat": 37.8686813302915, "lng": -122.2666142697085}, "southwest": {"lat": 37.8659833697085, "lng": -122.2693122302915}}}, "icon": "https://maps.gstatic.com/mapfiles/place_api/icons/atm-71.png", "id": "27c6fbb098eae893a7be35ddbcd865ecca1b7ce6", "name": "Cardtronics ATM", "opening_hours": {"open_now": true}, "place_id": "ChIJ6W1735x-hYARa1rrxT_t8SI", "plus_code": {"compound_code": "VP8J+WQ Berkeley, California, United States", "global_code": "849VVP8J+WQ"}, "rating": 3, "reference": "ChIJ6W1735x-hYARa1rrxT_t8SI", "scope": "GOOGLE", "types": ["atm", "finance", "point_of_interest", "establishment"], "vicinity": "2300 Shattuck Avenue, Berkeley"}, "ChIJJ2Exju1-hYARbVtHJxI958o": {"geometry": {"location": {"lat": 37.8671662, "lng": -122.2681172}, "viewport": {"northeast": {"lat": 37.86870073029149, "lng": -122.2668066197085}, "southwest": {"lat": 37.8660027697085, "lng": -122.2695045802915}}}, "icon": "https://maps.gstatic.com/mapfiles/place_api/icons/generic_business-71.png", "id": "13ed766c4e161d92e7c29f40b56afc0a1bc4cc3b", "name": "Informing Change", "opening_hours": {"open_now": true}, "place_id": "ChIJJ2Exju1-hYARbVtHJxI958o", "plus_code": {"compound_code": "VP8J+VQ Berkeley, California, United States", "global_code": "849VVP8J+VQ"}, "reference": "ChIJJ2Exju1-hYARbVtHJxI958o", "scope": "GOOGLE", "types": ["point_of_interest", "establishment"], "vicinity": "2040 Bancroft Way #400, Berkeley"}, "ChIJG1LgIJ1-hYAR-RB81yChvSc": {"geometry": {"location": {"lat": 37.867147, "lng": -122.2680558}, "viewport": {"northeast": {"lat": 37.86850748029151, "lng": -122.2665730197085}, "southwest": {"lat": 37.86580951970851, "lng": -122.2692709802915}}}, "icon": "https://maps.gstatic.com/mapfiles/place_api/icons/generic_business-71.png", "id": "291ea9f0a01002461644d566ef5a5a6af93b94b9", "name": "La Cle Agency", "opening_hours": {"open_now": true}, "place_id": "ChIJG1LgIJ1-hYAR-RB81yChvSc", "plus_code": {"compound_code": "VP8J+VQ Berkeley, California, United States", "global_code": "849VVP8J+VQ"}, "reference": "ChIJG1LgIJ1-hYAR-RB81yChvSc", "scope": "GOOGLE", "types": ["point_of_interest", "establishment"], "vicinity": "2322 Shattuck Avenue, Berkeley"}, "ChIJu4kjIJ1-hYARlB48iJVkGrY": {"geometry": {"location": {"lat": 37.8673194, "lng": -122.2681142}, "viewport": {"northeast": {"lat": 37.8686813302915, "lng": -122.2666142697085}, "southwest": {"lat": 37.8659833697085, "lng": -122.2693122302915}}}, "icon": "https://maps.gstatic.com/mapfiles/place_api/icons/shopping-71.png", "id": "60c8ba795cd4722ed4c6e4b5731641d85cb895b3", "name": "CVS Pharmacy", "opening_hours": {"open_now": true}, "photos": [{"height": 667, "html_attributions": ["<a href=\"https://maps.google.com/maps/contrib/110113640852632952192/photos\">CVS Pharmacy</a>"], "photo_reference": "CmRaAAAAc46pEN1xfj2kGOYzk0vb13MBfgWwHXNlPLrHS42zyJeF5Zai3agDjc6f8gSRgTDpHmwYKXsRzoUZ9xv-AhTPgoUQU0TaKyIqEzeWX2iPe5_698bQs3I5fQnUK268Spu7EhDFj_Fsdcy3iUBcLTeExAR8GhSLprHl85he88alvtYSnD-9tKaMJA", "width": 1000}], "place_id": "ChIJu4kjIJ1-hYARlB48iJVkGrY", "plus_code": {"compound_code": "VP8J+WQ Berkeley, California, United States", "global_code": "849VVP8J+WQ"}, "rating": 3, "reference": "ChIJu4kjIJ1-hYARlB48iJVkGrY", "scope": "GOOGLE", "types": ["pharmacy", "store", "health", "point_of_interest", "establishment"], "vicinity": "2300 Shattuck Avenue, Berkeley"}, "ChIJu4kjIJ1-hYARaT_csMAQfTY": {"geometry": {"location": {"lat": 37.8673194, "lng": -122.2681142}, "viewport": {"northeast": {"lat": 37.8686813302915, "lng": -122.2666142697085}, "southwest": {"lat": 37.8659833697085, "lng": -122.2693122302915}}}, "icon": "https://maps.gstatic.com/mapfiles/place_api/icons/generic_business-71.png", "id": "f94cc4c92d0475365e63fa702cde0915c4d32d1b", "name": "CVS Photo", "opening_hours": {"open_now": true}, "photos": [{"height": 666, "html_attributions": ["<a href=\"https://maps.google.com/maps/contrib/100696350625564253534/photos\">CVS Photo</a>"], "photo_reference": "CmRaAAAAvVj6cYbAuqYcIrichcSDin1oLTI1xmML33M2gBbEZ1A91--Rqy1JPs8rho3rzNPh-JQJKiuGWCuHNKcBSk7D6xHI3p-tRkcnlOhlbqg7pSiIhgvusjdaeNWWD_bqLJ1kEhD23qteEB0Dlz3vTE-1n9CTGhTwzqb4uFWA6l4B4Qzq6zU6qTpPQQ", "width": 1000}], "place_id": "ChIJu4kjIJ1-hYARaT_csMAQfTY", "plus_code": {"compound_code": "VP8J+WQ Berkeley, California, United States", "global_code": "849VVP8J+WQ"}, "reference": "ChIJu4kjIJ1-hYARaT_csMAQfTY", "scope": "GOOGLE", "types": ["electronics_store", "home_goods_store", "store", "point_of_interest", "establishment"], "vicinity": "2300 Shattuck Avenue, Berkeley"}, "ChIJ6W1735x-hYARzIQxA3RYtAE": {"geometry": {"location": {"lat": 37.8673625, "lng": -122.2681218}, "viewport": {"northeast": {"lat": 37.8687244802915, "lng": -122.2666210197085}, "southwest": {"lat": 37.8660265197085, "lng": -122.2693189802915}}}, "icon": "https://maps.gstatic.com/mapfiles/place_api/icons/generic_business-71.png", "id": "dab250849dd941705b83587b4812235af5ab46ca", "name": "MoneyGram", "opening_hours": {"open_now": true}, "photos": [{"height": 300, "html_attributions": ["<a href=\"https://maps.google.com/maps/contrib/108803938229888902620/photos\">MoneyGram</a>"], "photo_reference": "CmRaAAAAdux_4e5Vmm2f50QAoATcI6EpgauFjgq1dDnPfkRSfbyGaGSHAp5FlSBc-i-rPqJrHQCqbdTxIz-qtXsvhNBBkR8bJyVgsngsx5FsErxBWt13eAb04t06lLM15nTonrDlEhBMp_mNv3vNdn0n49VDLtpzGhSynhDsKgFuBKF9RgkNhLvmbPRhYw", "width": 300}], "place_id": "ChIJ6W1735x-hYARzIQxA3RYtAE", "plus_code": {"compound_code": "VP8J+WQ Berkeley, California, United States", "global_code": "849VVP8J+WQ"}, "rating": 1, "reference": "ChIJ6W1735x-hYARzIQxA3RYtAE", "scope": "GOOGLE", "types": ["finance", "point_of_interest", "establishment"], "vicinity": "2300 Shattuck Avenue, Berkeley"}, "ChIJ3S3PJp1-hYARss3amgi3Epg": {"geometry": {"location": {"lat": 37.8670567, "lng": -122.267987}, "viewport": {"northeast": {"lat": 37.86841253029149, "lng": -122.2665323697085}, "southwest": {"lat": 37.86571456970849, "lng": -122.2692303302915}}}, "icon": "https://maps.gstatic.com/mapfiles/place_api/icons/generic_business-71.png", "id": "8989b42e9b026044f1ccc021dfb2111bf9b74f66", "name": "Energx: Energy & Utilitiies Business Consulting Solutions", "photos": [{"height": 423, "html_attributions": ["<a href=\"https://maps.google.com/maps/contrib/115873916472953214110/photos\">Energx: Energy &amp; Utilitiies Business Consulting Solutions</a>"], "photo_reference": "CmRaAAAAdDA630iCphDsD1U21UoOgSKYfk475bwfG-8mZ4bNxKXEyOgQUHm9dV7oTOoeRk7lcgieB0vLeh17gWO8i8zHxXHJcLog7X90Gwree_VeRRrKuSft2tdL0kXu8jpHrfWqEhANAUNU4AuqrWxucgVnIL_fGhQOP35XlGDEqB4oj9P-1byAifx4jw", "width": 525}], "place_id": "ChIJ3S3PJp1-hYARss3amgi3Epg", "reference": "ChIJ3S3PJp1-hYARss3amgi3Epg", "scope": "GOOGLE", "types": ["point_of_interest", "establishment"], "vicinity": "2342 Shattuck Avenue, Berkeley"}, "ChIJ6W1735x-hYARexTzKPEhsSw": {"geometry": {"location": {"lat": 37.8673194, "lng": -122.2681142}, "viewport": {"northeast": {"lat": 37.8686813302915, "lng": -122.2666142697085}, "southwest": {"lat": 37.8659833697085, "lng": -122.2693122302915}}}, "icon": "https://maps.gstatic.com/mapfiles/place_api/icons/generic_business-71.png", "id": "52eed3ce9d0bfe813c196425bc480927c3233dbc", "name": "L B Reddy Estate", "place_id": "ChIJ6W1735x-hYARexTzKPEhsSw", "plus_code": {"compound_code": "VP8J+WQ Berkeley, California, United States", "global_code": "849VVP8J+WQ"}, "reference": "ChIJ6W1735x-hYARexTzKPEhsSw", "scope": "GOOGLE", "types": ["real_estate_agency", "point_of_interest", "establishment"], "vicinity": "2300 Shattuck Avenue, Berkeley"}, "ChIJG1LgIJ1-hYAR_TqY44TVNXY": {"geometry": {"location": {"lat": 37.867147, "lng": -122.2680558}, "viewport": {"northeast": {"lat": 37.86850748029151, "lng": -122.2665730197085}, "southwest": {"lat": 37.86580951970851, "lng": -122.2692709802915}}}, "icon": "https://maps.gstatic.com/mapfiles/place_api/icons/shopping-71.png", "id": "7f22b104747bb8d494f4d10c12181e110ed81887", "name": "One Eighty Brand", "place_id": "ChIJG1LgIJ1-hYAR_TqY44TVNXY", "plus_code": {"compound_code": "VP8J+VQ Berkeley, California, United States", "global_code": "849VVP8J+VQ"}, "reference": "ChIJG1LgIJ1-hYAR_TqY44TVNXY", "scope": "GOOGLE", "types": ["clothing_store", "store", "point_of_interest", "establishment"], "vicinity": "2322 Shattuck Avenue apt. #201, Berkeley"}, "ChIJu4kjIJ1-hYARFuDMgpS1Jow": {"geometry": {"location": {"lat": 37.8673194, "lng": -122.2681142}, "viewport": {"northeast": {"lat": 37.8686813302915, "lng": -122.2666142697085}, "southwest": {"lat": 37.8659833697085, "lng": -122.2693122302915}}}, "icon": "https://maps.gstatic.com/mapfiles/place_api/icons/atm-71.png", "id": "87c7defea6c698dd23bb511bee81574d8d6e6539", "name": "Citibank ATM", "opening_hours": {"open_now": true}, "place_id": "ChIJu4kjIJ1-hYARFuDMgpS1Jow", "plus_code": {"compound_code": "VP8J+WQ Berkeley, California, United States", "global_code": "849VVP8J+WQ"}, "reference": "ChIJu4kjIJ1-hYARFuDMgpS1Jow", "scope": "GOOGLE", "types": ["atm", "finance", "point_of_interest", "establishment"], "vicinity": "2300 Shattuck Avenue, Berkeley"}, "ChIJG1LgIJ1-hYARZe3YZZU4Ipg": {"geometry": {"location": {"lat": 37.8671149, "lng": -122.2681323}, "viewport": {"northeast": {"lat": 37.8684787802915, "lng": -122.2666095197085}, "southwest": {"lat": 37.8657808197085, "lng": -122.2693074802915}}}, "icon": "https://maps.gstatic.com/mapfiles/place_api/icons/shopping-71.png", "id": "41899e4b1a92a6541a7f3593112877be3e9385b3", "name": "Life On Mars Production", "place_id": "ChIJG1LgIJ1-hYARZe3YZZU4Ipg", "plus_code": {"compound_code": "VP8J+RP Berkeley, California, United States", "global_code": "849VVP8J+RP"}, "reference": "ChIJG1LgIJ1-hYARZe3YZZU4Ipg", "scope": "GOOGLE", "types": ["electronics_store", "home_goods_store", "store", "point_of_interest", "establishment"], "vicinity": "2322 Shattuck Avenue, Berkeley"}, "ChIJrR3AIJ1-hYARSvz6Dts_068": {"geometry": {"location": {"lat": 37.8671149, "lng": -122.2681323}, "viewport": {"northeast": {"lat": 37.8685993302915, "lng": -122.2666094697085}, "southwest": {"lat": 37.8659013697085, "lng": -122.2693074302915}}}, "icon": "https://maps.gstatic.com/mapfiles/place_api/icons/generic_business-71.png", "id": "2cfdfae62e0591dace2af4b6241217054a34d0fc", "name": "The Corder Building", "place_id": "ChIJrR3AIJ1-hYARSvz6Dts_068", "plus_code": {"compound_code": "VP8J+RP Berkeley, California, United States", "global_code": "849VVP8J+RP"}, "reference": "ChIJrR3AIJ1-hYARSvz6Dts_068", "scope": "GOOGLE", "types": ["point_of_interest", "establishment"], "vicinity": "2322 Shattuck Avenue, Berkeley"}, "ChIJ00mFOjZ5hYARk-l1ppUV6pQ": {"geometry": {"location": {"lat": 37.8715926, "lng": -122.272747}, "viewport": {"northeast": {"lat": 37.9058239, "lng": -122.234179}, "southwest": {"lat": 37.835727, "lng": -122.367781}}}, "icon": "https://maps.gstatic.com/mapfiles/place_api/icons/geocode-71.png", "id": "00741fe572fc4084428ab206e1a55830f6a1bf0a", "name": "Berkeley", "photos": [{"height": 1080, "html_attributions": ["<a href=\"https://maps.google.com/maps/contrib/110244590763501513798/photos\">miao hsin sun</a>"], "photo_reference": "CmRaAAAAc6lUiSB2IAUWoIlSZ0ps2ztSLH3xOQwN5F778WNW8T-EovmLAshKTDxXl7oycfvfo_rgMrC0wQ9RhQoIO6wbOTW2OA7-ufwkSL-idShhlCIHUGk9lXHFSpTGDHh4YkKYEhDHtC7L5WjLdi9swvUlc14BGhSxfaDvCjWe9fN9LctjZxTQd7BtlA", "width": 1616}], "place_id": "ChIJ00mFOjZ5hYARk-l1ppUV6pQ", "reference": "ChIJ00mFOjZ5hYARk-l1ppUV6pQ", "scope": "GOOGLE", "types": ["locality", "political"], "vicinity": "Berkeley"}}