{"ChIJA8YdKdJ9hYARHTFgHlnEFJA": {"geometry": {"location": {"lat": 37.8556641, "lng": -122.2563697}, "viewport": {"northeast": {"lat": 37.8570130302915, "lng": -122.2550206697085}, "southwest": {"lat": 37.85431506970851, "lng": -122.2577186302915}}}, "icon": "https://maps.gstatic.com/mapfiles/place_api/icons/geocode-71.png", "id": "11f6634c66028a87e7f7c59c98f8a83ccc5a0afa", "name": "2500-2514 Webster St", "place_id": "ChIJA8YdKdJ9hYARHTFgHlnEFJA", "reference": "ChIJA8YdKdJ9hYARHTFgHlnEFJA", "scope": "GOOGLE", "types": ["route"], "vicinity": "Berkeley"}, "ChIJZdbtK9J9hYARmJnjpIYYqkk": {"geometry": {"location": {"lat": 37.8559436, "lng": -122.2563715}, "viewport": {"northeast": {"lat": 37.8572721302915, "lng": -122.2551794697085}, "southwest": {"lat": 37.8545741697085, "lng": -122.2578774302915}}}, "icon": "https://maps.gstatic.com/mapfiles/place_api/icons/generic_business-71.png", "id": "139415df60a403ecac8d0af5087c90e96fa4bdbb", "name": "Andrew Pienkny, MD", "place_id": "ChIJZdbtK9J9hYARmJnjpIYYqkk", "plus_code": {"compound_code": "VP4V+9F Berkeley, California, United States", "global_code": "849VVP4V+9F"}, "reference": "ChIJZdbtK9J9hYARmJnjpIYYqkk", "scope": "GOOGLE", "types": ["doctor", "health", "point_of_interest", "establishment"], "vicinity": "2999 Regent Street #612, Berkeley"}, "ChIJ8YYcKtJ9hYAR6cSWJxsSVAc": {"geometry": {"location": {"lat": 37.8558922, "lng": -122.2563936}, "viewport": {"northeast": {"lat": 37.8572228302915, "lng": -122.2551855697085}, "southwest": {"lat": 37.8545248697085, "lng": -122.2578835302915}}}, "icon": "https://maps.gstatic.com/mapfiles/place_api/icons/generic_business-71.png", "id": "018ec4384a0c4de757a585a321d191455c22aaaf", "name": "Berkeley Periodontic & Dental Implants, Drs Horn, Hong, Moody and Maharathi", "opening_hours": {"open_now": false}, "photos": [{"height": 720, "html_attributions": ["<a href=\"https://maps.google.com/maps/contrib/100105279452595958276/photos\">Berkeley Periodontic &amp; Dental Implants, Drs Horn, Hong, Moody and Maharathi</a>"], "photo_reference": "CmRZAAAAKTb2M-LC6mg5BoehOPnyXw9iv9AaaZ5s8D_j910GwQ5rWgtwmONzuHE1KwaDKKFtL8kD2YCsxtlJn9BWtZFdX9WhX-P5sO3FIuGefsOQOMEQk4X9H0hQRDIKrDkvXsuwEhA471CxCClZz8wkhJaqU5YAGhRbOn07Jv1877HDNrTc7ianfllCzQ", "width": 1236}], "place_id": "ChIJ8YYcKtJ9hYAR6cSWJxsSVAc", "plus_code": {"compound_code": "VP4V+9C Berkeley, California, United States", "global_code": "849VVP4V+9C"}, "rating": 5, "reference": "ChIJ8YYcKtJ9hYAR6cSWJxsSVAc", "scope": "GOOGLE", "types": ["dentist", "doctor", "health", "point_of_interest", "establishment"], "vicinity": "2999 Regent Street # 403, Berkeley"}, "ChIJZdbtK9J9hYARyd5U-EuGShA": {"geometry": {"location": {"lat": 37.8558275, "lng": -122.2564867}, "viewport": {"northeast": {"lat": 37.85716488029149, "lng": -122.2552267697085}, "southwest": {"lat": 37.8544669197085, "lng": -122.2579247302915}}}, "icon": "https://maps.gstatic.com/mapfiles/place_api/icons/generic_business-71.png", "id": "85db487fd47cde815f1b171b9f076461b716f353", "name": "Northern California Gastroenter", "place_id": "ChIJZdbtK9J9hYARyd5U-EuGShA", "plus_code": {"compound_code": "VP4V+8C Berkeley, California, United States", "global_code": "849VVP4V+8C"}, "reference": "ChIJZdbtK9J9hYARyd5U-EuGShA", "scope": "GOOGLE", "types": ["doctor", "health", "point_of_interest", "establishment"], "vicinity": "2999 Regent Street, Berkeley"}, "ChIJ44yqf4N-hYARWKGyQly4GBc": {"geometry": {"location": {"lat": 37.8559236, "lng": -122.2562743}, "viewport": {"northeast": {"lat": 37.85724623029149, "lng": -122.2551275197085}, "southwest": {"lat": 37.85454826970849, "lng": -122.2578254802915}}}, "icon": "https://maps.gstatic.com/mapfiles/place_api/icons/generic_business-71.png", "id": "60b39eccd93dbe021a5659153a7eef027d117d73", "name": "Berkeley Ophthalmology Medical Group, Inc: Joshua Litwin, M.D.", "opening_hours": {"open_now": false}, "photos": [{"height": 1524, "html_attributions": ["<a href=\"https://maps.google.com/maps/contrib/101813819048654405128/photos\">Berkeley Ophthalmology Medical Group, Inc: Joshua Litwin, M.D.</a>"], "photo_reference": "CmRaAAAAMvl0Cc0gym-m1SjEAaIA6gBzX4gkLOqfMBwlJoyn4TIF0dDHxzyyUqg6OgYKa5rpLPtOKZWBZiie3Y4hOMYHLHoK4kajwVg_pkiS_RyGdWBMLnO8akSunZ0k4BiLlEFpEhDCjBsY6EM_LFx2Oj278ss0GhQPx-5CZvVB3ExOSJ1iYc-zWuEtHg", "width": 1514}], "place_id": "ChIJ44yqf4N-hYARWKGyQly4GBc", "plus_code": {"compound_code": "VP4V+9F Berkeley, California, United States", "global_code": "849VVP4V+9F"}, "rating": 5, "reference": "ChIJ44yqf4N-hYARWKGyQly4GBc", "scope": "GOOGLE", "types": ["doctor", "health", "point_of_interest", "establishment"], "vicinity": "2999 Regent Street #425, Berkeley"}, "ChIJZdbtK9J9hYARukpf2MwLPlI": {"geometry": {"location": {"lat": 37.8559436, "lng": -122.2563715}, "viewport": {"northeast": {"lat": 37.85733338029149, "lng": -122.2551911697085}, "southwest": {"lat": 37.85463541970849, "lng": -122.2578891302915}}}, "icon": "https://maps.gstatic.com/mapfiles/place_api/icons/generic_business-71.png", "id": "283bb0cd0d7d25262011482128aff4e46f7af09b", "name": "Unipark LLC", "place_id": "ChIJZdbtK9J9hYARukpf2MwLPlI", "plus_code": {"compound_code": "VP4V+9F Berkeley, California, United States", "global_code": "849VVP4V+9F"}, "rating": 1.7, "reference": "ChIJZdbtK9J9hYARukpf2MwLPlI", "scope": "GOOGLE", "types": ["point_of_interest", "establishment"], "vicinity": "2999 Regent Street, Berkeley"}, "ChIJZdbtK9J9hYARcUvJ1mljcQU": {"geometry": {"location": {"lat": 37.8559436, "lng": -122.2563715}, "viewport": {"northeast": {"lat": 37.8572721302915, "lng": -122.2551794697085}, "southwest": {"lat": 37.8545741697085, "lng": -122.2578774302915}}}, "icon": "https://maps.gstatic.com/mapfiles/place_api/icons/generic_business-71.png", "id": "c31bb18b17e2f800185057c4a13aa0607b694b5e", "name": "Dr. Robert H Iezman", "place_id": "ChIJZdbtK9J9hYARcUvJ1mljcQU", "plus_code": {"compound_code": "VP4V+9F Berkeley, California, United States", "global_code": "849VVP4V+9F"}, "reference": "ChIJZdbtK9J9hYARcUvJ1mljcQU", "scope": "GOOGLE", "types": ["dentist", "health", "point_of_interest", "establishment"], "vicinity": "2999 Regent Street #408, Berkeley"}, "ChIJZdbtK9J9hYARwpWUFYtcnCI": {"geometry": {"location": {"lat": 37.8559436, "lng": -122.2563715}, "viewport": {"northeast": {"lat": 37.8572721302915, "lng": -122.2551794697085}, "southwest": {"lat": 37.8545741697085, "lng": -122.2578774302915}}}, "icon": "https://maps.gstatic.com/mapfiles/place_api/icons/generic_business-71.png", "id": "2446b6c3e13d3bee86a9727f6308a38e4c27a68f", "name": "Dr. Carol Grimm", "opening_hours": {"open_now": false}, "place_id": "ChIJZdbtK9J9hYARwpWUFYtcnCI", "plus_code": {"compound_code": "VP4V+9F Berkeley, California, United States", "global_code": "849VVP4V+9F"}, "reference": "ChIJZdbtK9J9hYARwpWUFYtcnCI", "scope": "GOOGLE", "types": ["dentist", "health", "point_of_interest", "establishment"], "vicinity": "2999 Regent Street #403, Berkeley"}, "ChIJZdbtK9J9hYARnR7BZJlICAY": {"geometry": {"location": {"lat": 37.8559436, "lng": -122.2563715}, "viewport": {"northeast": {"lat": 37.85729543029149, "lng": -122.2551837197085}, "southwest": {"lat": 37.85459746970849, "lng": -122.2578816802915}}}, "icon": "https://maps.gstatic.com/mapfiles/place_api/icons/generic_business-71.png", "id": "ab7db74d1e53ef84e4d406ed7ca587cfdc5516f0", "name": "California Sports and Orthopedic", "place_id": "ChIJZdbtK9J9hYARnR7BZJlICAY", "plus_code": {"compound_code": "VP4V+9F Berkeley, California, United States", "global_code": "849VVP4V+9F"}, "rating": 3, "reference": "ChIJZdbtK9J9hYARnR7BZJlICAY", "scope": "GOOGLE", "types": ["physiotherapist", "doctor", "health", "point_of_interest", "establishment"], "vicinity": "2999 Regent Street, Berkeley"}, "ChIJZdbtK9J9hYARFm53pe4MTIg": {"geometry": {"location": {"lat": 37.8559437, "lng": -122.2563715}, "viewport": {"northeast": {"lat": 37.8572722302915, "lng": -122.2551794697085}, "southwest": {"lat": 37.8545742697085, "lng": -122.2578774302915}}}, "icon": "https://maps.gstatic.com/mapfiles/place_api/icons/generic_business-71.png", "id": "16ae4184db54a873edbf07c81805f7028691bbbf", "name": "Richard L. Oken, MD, FAAP", "place_id": "ChIJZdbtK9J9hYARFm53pe4MTIg", "plus_code": {"compound_code": "VP4V+9F Berkeley, California, United States", "global_code": "849VVP4V+9F"}, "reference": "ChIJZdbtK9J9hYARFm53pe4MTIg", "scope": "GOOGLE", "types": ["doctor", "health", "point_of_interest", "establishment"], "vicinity": "2999 Regent Street #325, Berkeley"}, "ChIJZdbtK9J9hYARQuzAb-eRXFw": {"geometry": {"location": {"lat": 37.8559436, "lng": -122.2563715}, "viewport": {"northeast": {"lat": 37.8572939302915, "lng": -122.2551835697085}, "southwest": {"lat": 37.85459596970851, "lng": -122.2578815302915}}}, "icon": "https://maps.gstatic.com/mapfiles/place_api/icons/generic_business-71.png", "id": "f1661f29b273bfdf9c43f924c05f9f986938267e", "name": "Anders Greenwood, Psy.D, Ph.D.", "place_id": "ChIJZdbtK9J9hYARQuzAb-eRXFw", "plus_code": {"compound_code": "VP4V+9F Berkeley, California, United States", "global_code": "849VVP4V+9F"}, "reference": "ChIJZdbtK9J9hYARQuzAb-eRXFw", "scope": "GOOGLE", "types": ["health", "point_of_interest", "establishment"], "vicinity": "2999 Regent Street, Berkeley"}, "ChIJZdbtK9J9hYAR7NAO0RIq0nQ": {"geometry": {"location": {"lat": 37.8559437, "lng": -122.2563715}, "viewport": {"northeast": {"lat": 37.8572722302915, "lng": -122.2551794697085}, "southwest": {"lat": 37.8545742697085, "lng": -122.2578774302915}}}, "icon": "https://maps.gstatic.com/mapfiles/place_api/icons/generic_business-71.png", "id": "4774b7e75cfbe68d6a94029c672c80d7d3a63eb4", "name": "Marcia Charles-Mo, MD, FAAP", "place_id": "ChIJZdbtK9J9hYAR7NAO0RIq0nQ", "plus_code": {"compound_code": "VP4V+9F Berkeley, California, United States", "global_code": "849VVP4V+9F"}, "reference": "ChIJZdbtK9J9hYAR7NAO0RIq0nQ", "scope": "GOOGLE", "types": ["doctor", "health", "point_of_interest", "establishment"], "vicinity": "East Bay Pediatrics, 2999 Regent Street #325, Berkeley"}, "ChIJZdbtK9J9hYARPayoW0nfQNo": {"geometry": {"location": {"lat": 37.855931, "lng": -122.2564707}, "viewport": {"northeast": {"lat": 37.8572659802915, "lng": -122.2552290697085}, "southwest": {"lat": 37.8545680197085, "lng": -122.2579270302915}}}, "icon": "https://maps.gstatic.com/mapfiles/place_api/icons/generic_business-71.png", "id": "b734dcbf76706ab02e67621b98bea47a921cf995", "name": "Steve Baskin, MD", "place_id": "ChIJZdbtK9J9hYARPayoW0nfQNo", "plus_code": {"compound_code": "VP4V+9C Berkeley, California, United States", "global_code": "849VVP4V+9C"}, "rating": 5, "reference": "ChIJZdbtK9J9hYARPayoW0nfQNo", "scope": "GOOGLE", "types": ["doctor", "health", "point_of_interest", "establishment"], "vicinity": "2999 Regent Street #422, Berkeley"}, "ChIJZdbtK9J9hYARrieRnJqg0Is": {"geometry": {"location": {"lat": 37.8559436, "lng": -122.2563715}, "viewport": {"northeast": {"lat": 37.8572473302915, "lng": -122.2551742697085}, "southwest": {"lat": 37.8545493697085, "lng": -122.2578722302915}}}, "icon": "https://maps.gstatic.com/mapfiles/place_api/icons/generic_business-71.png", "id": "4b5c3d2932130062dfb17b09df1c63970aa890ae", "name": "Dr. Richard Rudd, M.D.", "opening_hours": {"open_now": false}, "place_id": "ChIJZdbtK9J9hYARrieRnJqg0Is", "plus_code": {"compound_code": "VP4V+9F Berkeley, California, United States", "global_code": "849VVP4V+9F"}, "reference": "ChIJZdbtK9J9hYARrieRnJqg0Is", "scope": "GOOGLE", "types": ["doctor", "health", "point_of_interest", "establishment"], "vicinity": "2500 Milvia Street, Berkeley"}, "ChIJZdbtK9J9hYARIHu9KBAuuMs": {"geometry": {"location": {"lat": 37.8559437, "lng": -122.2563715}, "viewport": {"northeast": {"lat": 37.8572722302915, "lng": -122.2551794697085}, "southwest": {"lat": 37.8545742697085, "lng": -122.2578774302915}}}, "icon": "https://maps.gstatic.com/mapfiles/place_api/icons/generic_business-71.png", "id": "2e67c1f08d44bc07c317a47713abbf655fa36ef1", "name": "Tracy Evans-Ramsey, MD, FAAP", "place_id": "ChIJZdbtK9J9hYARIHu9KBAuuMs", "plus_code": {"compound_code": "VP4V+9F Berkeley, California, United States", "global_code": "849VVP4V+9F"}, "reference": "ChIJZdbtK9J9hYARIHu9KBAuuMs", "scope": "GOOGLE", "types": ["doctor", "health", "point_of_interest", "establishment"], "vicinity": "2999 Regent Street #325, Berkeley"}, "ChIJZdbtK9J9hYARXG3SwtU0zjo": {"geometry": {"location": {"lat": 37.8559436, "lng": -122.2563715}, "viewport": {"northeast": {"lat": 37.8572721302915, "lng": -122.2551794697085}, "southwest": {"lat": 37.8545741697085, "lng": -122.2578774302915}}}, "icon": "https://maps.gstatic.com/mapfiles/place_api/icons/generic_business-71.png", "id": "9ade3a8fae93a70368ce7958a3ae50a3eafc0892", "name": "Lee Chi MD", "place_id": "ChIJZdbtK9J9hYARXG3SwtU0zjo", "plus_code": {"compound_code": "VP4V+9F Berkeley, California, United States", "global_code": "849VVP4V+9F"}, "reference": "ChIJZdbtK9J9hYARXG3SwtU0zjo", "scope": "GOOGLE", "types": ["doctor", "health", "point_of_interest", "establishment"], "vicinity": "2999 Regent Street #612, Berkeley"}, "ChIJZdbtK9J9hYARCThGI9rmOhQ": {"geometry": {"location": {"lat": 37.8559436, "lng": -122.2563715}, "viewport": {"northeast": {"lat": 37.8572721302915, "lng": -122.2551794697085}, "southwest": {"lat": 37.8545741697085, "lng": -122.2578774302915}}}, "icon": "https://maps.gstatic.com/mapfiles/place_api/icons/generic_business-71.png", "id": "7c0d89f35011051fda31f29a924cfb626e3ebbde", "name": "Jeffrey Wieder, MD", "opening_hours": {"open_now": false}, "place_id": "ChIJZdbtK9J9hYARCThGI9rmOhQ", "plus_code": {"compound_code": "VP4V+9F Berkeley, California, United States", "global_code": "849VVP4V+9F"}, "reference": "ChIJZdbtK9J9hYARCThGI9rmOhQ", "scope": "GOOGLE", "types": ["doctor", "health", "point_of_interest", "establishment"], "vicinity": "2999 Regent Street #612, Berkeley"}, "ChIJ44yqf4N-hYARcDewkKsxfGk": {"geometry": {"location": {"lat": 37.85592750000001, "lng": -122.2563772}, "viewport": {"northeast": {"lat": 37.85725658029151, "lng": -122.2551807197085}, "southwest": {"lat": 37.85455861970851, "lng": -122.2578786802915}}}, "icon": "https://maps.gstatic.com/mapfiles/place_api/icons/generic_business-71.png", "id": "b925ac1227619a6a1e866a4518a6c071489d5cf5", "name": "Schiffman Karin MD", "opening_hours": {"open_now": false}, "place_id": "ChIJ44yqf4N-hYARcDewkKsxfGk", "plus_code": {"compound_code": "VP4V+9C Berkeley, California, United States", "global_code": "849VVP4V+9C"}, "rating": 5, "reference": "ChIJ44yqf4N-hYARcDewkKsxfGk", "scope": "GOOGLE", "types": ["doctor", "health", "point_of_interest", "establishment"], "vicinity": "2999 Regent Street Suite 524, Berkeley"}, "ChIJZdbtK9J9hYARfMSCj6ku9ro": {"geometry": {"location": {"lat": 37.8559436, "lng": -122.2563715}, "viewport": {"northeast": {"lat": 37.8572129802915, "lng": -122.2551670697085}, "southwest": {"lat": 37.8545150197085, "lng": -122.2578650302915}}}, "icon": "https://maps.gstatic.com/mapfiles/place_api/icons/generic_business-71.png", "id": "77d46780b4718eccbdeb575bae5295a905b9b844", "name": "Dotz Warren Dr", "opening_hours": {"open_now": false}, "place_id": "ChIJZdbtK9J9hYARfMSCj6ku9ro", "plus_code": {"compound_code": "VP4V+9F Berkeley, California, United States", "global_code": "849VVP4V+9F"}, "rating": 5, "reference": "ChIJZdbtK9J9hYARfMSCj6ku9ro", "scope": "GOOGLE", "types": ["doctor", "health", "point_of_interest", "establishment"], "vicinity": "2999 Regent Street #300, Berkeley"}, "ChIJ00mFOjZ5hYARk-l1ppUV6pQ": {"geometry": {"location": {"lat": 37.8715926, "lng": -122.272747}, "viewport": {"northeast": {"lat": 37.9058239, "lng": -122.234179}, "southwest": {"lat": 37.835727, "lng": -122.367781}}}, "icon": "https://maps.gstatic.com/mapfiles/place_api/icons/geocode-71.png", "id": "00741fe572fc4084428ab206e1a55830f6a1bf0a", "name": "Berkeley", "photos": [{"height": 1080, "html_attributions": ["<a href=\"https://maps.google.com/maps/contrib/110244590763501513798/photos\">miao hsin sun</a>"], "photo_reference": "CmRaAAAAwLxaJDtdQK59ixxh6ov1jux8VIXnewQz9BT5EUThoM3pYatgRysMeaZ0czDF0KynKEf_u0BzNURGdHe8uvWaOPsBNESDCiMQmXE8x2Qql9o-Qscw-S2AGuubjBhBouoQEhD074gfktjgTH_FxM42rrqkGhRCXzpmR5IzdGhXStKQ5xBSesI1LA", "width": 1616}], "place_id": "ChIJ00mFOjZ5hYARk-l1ppUV6pQ", "reference": "ChIJ00mFOjZ5hYARk-l1ppUV6pQ", "scope": "GOOGLE", "types": ["locality", "political"], "vicinity": "Berkeley"}, "ChIJZdbtK9J9hYARKTAS-R3EZnA": {"geometry": {"location": {"lat": 37.8559436, "lng": -122.2563715}, "viewport": {"northeast": {"lat": 37.8572721302915, "lng": -122.2551794697085}, "southwest": {"lat": 37.8545741697085, "lng": -122.2578774302915}}}, "icon": "https://maps.gstatic.com/mapfiles/place_api/icons/generic_business-71.png", "id": "c0c3a2e313772ba7cbdc60d98a7ece9f7d4ed129", "name": "Dr. Christine E. Brozowski, MD", "opening_hours": {"open_now": false}, "photos": [{"height": 576, "html_attributions": ["<a href=\"https://maps.google.com/maps/contrib/114667503296229954018/photos\">Christine Brozowski Cosmetic Derm</a>"], "photo_reference": "CmRaAAAAcoo6tCfpIaoMmEwTY1BFfkp9i1r5T_tO9DwJ6EAeFzRFi7Eu52F2e_lmaww5uTVNwL5tNM2qB4Pc77anwy7KY0sTnrz7cuQfhk0AxclAyoXKOB1BFmWK6PNisfJjojXzEhAZv_gagjud72Zm-W2M2BP5GhQCLtri6k16dHRrgQekE60f6K-BkQ", "width": 384}], "place_id": "ChIJZdbtK9J9hYARKTAS-R3EZnA", "plus_code": {"compound_code": "VP4V+9F Berkeley, California, United States", "global_code": "849VVP4V+9F"}, "reference": "ChIJZdbtK9J9hYARKTAS-R3EZnA", "scope": "GOOGLE", "types": ["doctor", "health", "point_of_interest", "establishment"], "vicinity": "2999 Regent Street, Berkeley"}, "ChIJZdbtK9J9hYARPtzUt_YwU38": {"geometry": {"location": {"lat": 37.8558275, "lng": -122.2564867}, "viewport": {"northeast": {"lat": 37.85716488029149, "lng": -122.2552267697085}, "southwest": {"lat": 37.8544669197085, "lng": -122.2579247302915}}}, "icon": "https://maps.gstatic.com/mapfiles/place_api/icons/generic_business-71.png", "id": "851ae3c9acd0dcd36f9d49c95a7171ab586a38f6", "name": "Dr. Mark G. Hodgson, MD", "place_id": "ChIJZdbtK9J9hYARPtzUt_YwU38", "plus_code": {"compound_code": "VP4V+8C Berkeley, California, United States", "global_code": "849VVP4V+8C"}, "reference": "ChIJZdbtK9J9hYARPtzUt_YwU38", "scope": "GOOGLE", "types": ["doctor", "health", "point_of_interest", "establishment"], "vicinity": "2999 Regent Street, Berkeley"}, "ChIJZdbtK9J9hYARIzoovBCme6U": {"geometry": {"location": {"lat": 37.8558275, "lng": -122.2564867}, "viewport": {"northeast": {"lat": 37.85716488029149, "lng": -122.2552267697085}, "southwest": {"lat": 37.8544669197085, "lng": -122.2579247302915}}}, "icon": "https://maps.gstatic.com/mapfiles/place_api/icons/generic_business-71.png", "id": "135d388931009fcd97c0f655bc8ae45ef74fcbe9", "name": "Northern Calif Gastro Cons Inc", "place_id": "ChIJZdbtK9J9hYARIzoovBCme6U", "plus_code": {"compound_code": "VP4V+8C Berkeley, California, United States", "global_code": "849VVP4V+8C"}, "reference": "ChIJZdbtK9J9hYARIzoovBCme6U", "scope": "GOOGLE", "types": ["doctor", "health", "point_of_interest", "establishment"], "vicinity": "2999 Regent Street, Berkeley"}, "ChIJZdbtK9J9hYARJzHxy2Elk1M": {"geometry": {"location": {"lat": 37.85586989999999, "lng": -122.256399}, "viewport": {"northeast": {"lat": 37.85720113029149, "lng": -122.2551860697085}, "southwest": {"lat": 37.85450316970849, "lng": -122.2578840302915}}}, "icon": "https://maps.gstatic.com/mapfiles/place_api/icons/generic_business-71.png", "id": "300835bf7d03dca1f03193fce8aa03bca8da3342", "name": "Dr. Tala Aziz, DDS", "opening_hours": {"open_now": false}, "photos": [{"height": 3036, "html_attributions": ["<a href=\"https://maps.google.com/maps/contrib/108367930861399915235/photos\">Jake Wasserman</a>"], "photo_reference": "CmRaAAAAA5wvZIokDJklhNcJyjdseRvZ3qsvuQG-MBwAMVZfPAouCOAJBgIqb0TUXGSoMruxbPNX_0luJ9YJFAlLEX4MRCUoAEzkqh4w6HupBuJVQ8HQGV0W-vU7XVk9desXXlWyEhA2wF7TZP35dfZJzfETG6lfGhTcjey6M3f55yI_KSVRizlUzwiVdA", "width": 4048}], "place_id": "ChIJZdbtK9J9hYARJzHxy2Elk1M", "plus_code": {"compound_code": "VP4V+8C Berkeley, California, United States", "global_code": "849VVP4V+8C"}, "rating": 4, "reference": "ChIJZdbtK9J9hYARJzHxy2Elk1M", "scope": "GOOGLE", "types": ["dentist", "health", "point_of_interest", "establishment"], "vicinity": "2999 Regent Street Suite 525, Berkeley"}, "ChIJZdbtK9J9hYARSoU_tZ1oW5o": {"geometry": {"location": {"lat": 37.8558275, "lng": -122.2564867}, "viewport": {"northeast": {"lat": 37.85708933029149, "lng": -122.2551183697085}, "southwest": {"lat": 37.8543913697085, "lng": -122.2578163302915}}}, "icon": "https://maps.gstatic.com/mapfiles/place_api/icons/generic_business-71.png", "id": "e34bc741a1b1a967e079408770a43e8b2a5b978e", "name": "Dr. Huilan J. Cheng, MD", "place_id": "ChIJZdbtK9J9hYARSoU_tZ1oW5o", "plus_code": {"compound_code": "VP4V+8C Berkeley, California, United States", "global_code": "849VVP4V+8C"}, "reference": "ChIJZdbtK9J9hYARSoU_tZ1oW5o", "scope": "GOOGLE", "types": ["doctor", "health", "point_of_interest", "establishment"], "vicinity": "2510 Webster Street, Berkeley"}, "ChIJZdbtK9J9hYARUC3NQPBXYXY": {"geometry": {"location": {"lat": 37.8559436, "lng": -122.2563715}, "viewport": {"northeast": {"lat": 37.8572487302915, "lng": -122.2551745697085}, "southwest": {"lat": 37.8545507697085, "lng": -122.2578725302915}}}, "icon": "https://maps.gstatic.com/mapfiles/place_api/icons/generic_business-71.png", "id": "f1ff160d7a6a5ae2c4fa2aca7bc688f41bb13ab7", "name": "Lodberg Grimm & Rech: Lodberg Pia DDS", "opening_hours": {"open_now": false}, "place_id": "ChIJZdbtK9J9hYARUC3NQPBXYXY", "plus_code": {"compound_code": "VP4V+9F Berkeley, California, United States", "global_code": "849VVP4V+9F"}, "reference": "ChIJZdbtK9J9hYARUC3NQPBXYXY", "scope": "GOOGLE", "types": ["dentist", "health", "point_of_interest", "establishment"], "vicinity": "2999 Regent Street, Berkeley"}, "ChIJIfap9JWPj4ARxXuJWAYfXt8": {"geometry": {"location": {"lat": 37.855833, "lng": -122.2564584}, "viewport": {"northeast": {"lat": 37.8571684802915, "lng": -122.2552128197085}, "southwest": {"lat": 37.8544705197085, "lng": -122.2579107802915}}}, "icon": "https://maps.gstatic.com/mapfiles/place_api/icons/generic_business-71.png", "id": "34235d4ff0b54ebff9eee158da4a66359c26a10b", "name": "Hong Barron K DMD, MS", "opening_hours": {"open_now": false}, "photos": [{"height": 720, "html_attributions": ["<a href=\"https://maps.google.com/maps/contrib/106587252348910257126/photos\">Hong Barron K DMD, MS</a>"], "photo_reference": "CmRaAAAA_4O9f7eU4BzYzHB1r7IUC_0PgK1ghRNuGpQCL7UNd3tK9hxaOEGV7_qZxZP19IL9WVtkN9sfGUSBVpleJs65YGKeXGZakzpj48mXZz-X6fzVp63EKS8i1Y186zRC3yNuEhDqZL2BtT2vvnAIs4vIzXHSGhTQMwZzylbtKCgGBpN7AqDQp0-kRw", "width": 1236}], "place_id": "ChIJIfap9JWPj4ARxXuJWAYfXt8", "plus_code": {"compound_code": "VP4V+8C Berkeley, California, United States", "global_code": "849VVP4V+8C"}, "reference": "ChIJIfap9JWPj4ARxXuJWAYfXt8", "scope": "GOOGLE", "types": ["dentist", "health", "point_of_interest", "establishment"], "vicinity": "2999 Regent Street #403, Berkeley"}, "ChIJZdbtK9J9hYARayGz2_Q8Fhc": {"geometry": {"location": {"lat": 37.8559436, "lng": -122.2563715}, "viewport": {"northeast": {"lat": 37.8572963802915, "lng": -122.2551839197085}, "southwest": {"lat": 37.8545984197085, "lng": -122.2578818802915}}}, "icon": "https://maps.gstatic.com/mapfiles/place_api/icons/generic_business-71.png", "id": "a3edf670493ca7b3eaad55309ef8057354270d05", "name": "Berkeley Dental Center", "opening_hours": {"open_now": false}, "photos": [{"height": 480, "html_attributions": ["<a href=\"https://maps.google.com/maps/contrib/107530124907480091523/photos\">Berkeley Dental Center</a>"], "photo_reference": "CmRaAAAAl90B0kzUgUxdi4diKGB3aIG0HenHKchRzs3RHHbZC2k_SqEu10rUmmJZwhO3v6yqZj223HCsOEIw4_aynxx-ieITaI3XJwV7r2g4P81_F3QC6FfQ9db9lxNocHmvLkKJEhA4cGz7W3cbQ8AW_23Wz3jtGhQmVT3hHneSFfcE7MijQMZNS0F05A", "width": 720}], "place_id": "ChIJZdbtK9J9hYARayGz2_Q8Fhc", "plus_code": {"compound_code": "VP4V+9F Berkeley, California, United States", "global_code": "849VVP4V+9F"}, "rating": 3.7, "reference": "ChIJZdbtK9J9hYARayGz2_Q8Fhc", "scope": "GOOGLE", "types": ["dentist", "health", "point_of_interest", "establishment"], "vicinity": "2999 Regent Street #714, Berkeley"}, "ChIJZdbtK9J9hYARBH24eE-2fPE": {"geometry": {"location": {"lat": 37.8559436, "lng": -122.2563715}, "viewport": {"northeast": {"lat": 37.8572237802915, "lng": -122.2551693697085}, "southwest": {"lat": 37.8545258197085, "lng": -122.2578673302915}}}, "icon": "https://maps.gstatic.com/mapfiles/place_api/icons/generic_business-71.png", "id": "6835d0134f131d502a4304301f2ace676f99d8a6", "name": "Dr. Angelyn Thomas, M.D.", "opening_hours": {"open_now": false}, "place_id": "ChIJZdbtK9J9hYARBH24eE-2fPE", "plus_code": {"compound_code": "VP4V+9F Berkeley, California, United States", "global_code": "849VVP4V+9F"}, "rating": 5, "reference": "ChIJZdbtK9J9hYARBH24eE-2fPE", "scope": "GOOGLE", "types": ["doctor", "health", "point_of_interest", "establishment"], "vicinity": "2999 Regent Street, Berkeley"}, "ChIJy6McKtJ9hYARTmFLmv5H1FY": {"geometry": {"location": {"lat": 37.8559436, "lng": -122.2563715}, "viewport": {"northeast": {"lat": 37.8572721302915, "lng": -122.2551794697085}, "southwest": {"lat": 37.8545741697085, "lng": -122.2578774302915}}}, "icon": "https://maps.gstatic.com/mapfiles/place_api/icons/generic_business-71.png", "id": "c0245f5e7053aa358bf0932d0c33fd8504606dde", "name": "South Berkeley Orthodontics", "opening_hours": {"open_now": false}, "photos": [{"height": 1527, "html_attributions": ["<a href=\"https://maps.google.com/maps/contrib/108663446302736176885/photos\">Iezman and Osterman Orthodontics</a>"], "photo_reference": "CmRaAAAAQUlqN4Yv_7LcV0wVDa3bSjVtWFKpy7YQVlb5EtZ1kmYunwyZGj4lspu_19_uu86YAGL2L2cRWFNbe0bAS0ols6KYfLgu1htsENtbhrYSKN4WnUGscI9qtk1iK7-qdrCUEhBdZ0pbZoLyhJOXYak3VwWCGhSwob6pbyNSQ7e5hePS_C7k0dp8dQ", "width": 1522}], "place_id": "ChIJy6McKtJ9hYARTmFLmv5H1FY", "plus_code": {"compound_code": "VP4V+9F Berkeley, California, United States", "global_code": "849VVP4V+9F"}, "rating": 5, "reference": "ChIJy6McKtJ9hYARTmFLmv5H1FY", "scope": "GOOGLE", "types": ["dentist", "health", "point_of_interest", "establishment"], "vicinity": "2999 Regent Street Suite 408, Berkeley"}, "ChIJZdbtK9J9hYARqXhwP-o8ewM": {"geometry": {"location": {"lat": 37.8559437, "lng": -122.2563715}, "viewport": {"northeast": {"lat": 37.8572722302915, "lng": -122.2551794697085}, "southwest": {"lat": 37.8545742697085, "lng": -122.2578774302915}}}, "icon": "https://maps.gstatic.com/mapfiles/place_api/icons/generic_business-71.png", "id": "ca31186a176d5428ba3d726f945181df700e0d34", "name": "Vo Christina S MD", "place_id": "ChIJZdbtK9J9hYARqXhwP-o8ewM", "plus_code": {"compound_code": "VP4V+9F Berkeley, California, United States", "global_code": "849VVP4V+9F"}, "reference": "ChIJZdbtK9J9hYARqXhwP-o8ewM", "scope": "GOOGLE", "types": ["doctor", "health", "point_of_interest", "establishment"], "vicinity": "2999 Regent Street #325, Berkeley"}, "ChIJZdbtK9J9hYARh0zVgrqnW-8": {"geometry": {"location": {"lat": 37.8559436, "lng": -122.2563715}, "viewport": {"northeast": {"lat": 37.8572721302915, "lng": -122.2551794697085}, "southwest": {"lat": 37.8545741697085, "lng": -122.2578774302915}}}, "icon": "https://maps.gstatic.com/mapfiles/place_api/icons/generic_business-71.png", "id": "18e262d3ddc76e6a617fedec57fcdfc98a3325f0", "name": "Hart Stephen MD", "place_id": "ChIJZdbtK9J9hYARh0zVgrqnW-8", "plus_code": {"compound_code": "VP4V+9F Berkeley, California, United States", "global_code": "849VVP4V+9F"}, "rating": 2.6, "reference": "ChIJZdbtK9J9hYARh0zVgrqnW-8", "scope": "GOOGLE", "types": ["doctor", "health", "point_of_interest", "establishment"], "vicinity": "2999 Regent Street #622, Berkeley"}, "ChIJd3hOLtJ9hYARa_1dh3Bq-bc": {"geometry": {"location": {"lat": 37.8559436, "lng": -122.2563715}, "viewport": {"northeast": {"lat": 37.8572721302915, "lng": -122.2551794697085}, "southwest": {"lat": 37.8545741697085, "lng": -122.2578774302915}}}, "icon": "https://maps.gstatic.com/mapfiles/place_api/icons/generic_business-71.png", "id": "8adb000478db55e474801f9fe70f45da9ad1d695", "name": "Whitney R Johnson DDS", "opening_hours": {"open_now": false}, "place_id": "ChIJd3hOLtJ9hYARa_1dh3Bq-bc", "plus_code": {"compound_code": "VP4V+9F Berkeley, California, United States", "global_code": "849VVP4V+9F"}, "rating": 5, "reference": "ChIJd3hOLtJ9hYARa_1dh3Bq-bc", "scope": "GOOGLE", "types": ["dentist", "health", "point_of_interest", "establishment"], "vicinity": "2999 Regent Street #727, Berkeley"}, "ChIJtwSSLtJ9hYARcNd0hJx7nc8": {"geometry": {"location": {"lat": 37.8559436, "lng": -122.2563715}, "viewport": {"northeast": {"lat": 37.85725808029149, "lng": -122.2551765197085}, "southwest": {"lat": 37.85456011970849, "lng": -122.2578744802915}}}, "icon": "https://maps.gstatic.com/mapfiles/place_api/icons/generic_business-71.png", "id": "25ba23da66e49640add7ca8fe182209222bf40c6", "name": "Osterman Seth DDS", "place_id": "ChIJtwSSLtJ9hYARcNd0hJx7nc8", "plus_code": {"compound_code": "VP4V+9F Berkeley, California, United States", "global_code": "849VVP4V+9F"}, "reference": "ChIJtwSSLtJ9hYARcNd0hJx7nc8", "scope": "GOOGLE", "types": ["dentist", "health", "point_of_interest", "establishment"], "vicinity": "2999 Regent Street # 408, Berkeley"}, "ChIJZdbtK9J9hYARHdN2Ltm5-EM": {"geometry": {"location": {"lat": 37.8559436, "lng": -122.2563715}, "viewport": {"northeast": {"lat": 37.8572721302915, "lng": -122.2551794697085}, "southwest": {"lat": 37.8545741697085, "lng": -122.2578774302915}}}, "icon": "https://maps.gstatic.com/mapfiles/place_api/icons/generic_business-71.png", "id": "61793e25a0234ea0dc8b5af6b0a03fc41a4d85c5", "name": "Huibonhoa Amy M MD", "place_id": "ChIJZdbtK9J9hYARHdN2Ltm5-EM", "plus_code": {"compound_code": "VP4V+9F Berkeley, California, United States", "global_code": "849VVP4V+9F"}, "reference": "ChIJZdbtK9J9hYARHdN2Ltm5-EM", "scope": "GOOGLE", "types": ["doctor", "health", "point_of_interest", "establishment"], "vicinity": "2999 Regent Street # 201, Berkeley"}, "ChIJy6McKtJ9hYAR34TohEifKmc": {"geometry": {"location": {"lat": 37.8559436, "lng": -122.2563715}, "viewport": {"northeast": {"lat": 37.85724578029149, "lng": -122.2551739697085}, "southwest": {"lat": 37.85454781970849, "lng": -122.2578719302915}}}, "icon": "https://maps.gstatic.com/mapfiles/place_api/icons/generic_business-71.png", "id": "9894f1518f5636c018895f8eaa42a81d0826d9c2", "name": "Wright Frederick S MD", "place_id": "ChIJy6McKtJ9hYAR34TohEifKmc", "plus_code": {"compound_code": "VP4V+9F Berkeley, California, United States", "global_code": "849VVP4V+9F"}, "reference": "ChIJy6McKtJ9hYAR34TohEifKmc", "scope": "GOOGLE", "types": ["doctor", "health", "point_of_interest", "establishment"], "vicinity": "2999 Regent Street, Berkeley"}, "ChIJd3hOLtJ9hYARucuiiW4_5HQ": {"geometry": {"location": {"lat": 37.8559521, "lng": -122.2564466}, "viewport": {"northeast": {"lat": 37.8572852802915, "lng": -122.2552188697085}, "southwest": {"lat": 37.8545873197085, "lng": -122.2579168302915}}}, "icon": "https://maps.gstatic.com/mapfiles/place_api/icons/generic_business-71.png", "id": "ebbc1a05dca09b36b33e91951c7fb8560538f0b0", "name": "Alta Bates IVF", "place_id": "ChIJd3hOLtJ9hYARucuiiW4_5HQ", "plus_code": {"compound_code": "VP4V+9C Berkeley, California, United States", "global_code": "849VVP4V+9C"}, "rating": 5, "reference": "ChIJd3hOLtJ9hYARucuiiW4_5HQ", "scope": "GOOGLE", "types": ["health", "point_of_interest", "establishment"], "vicinity": "2999 Regent Street #101a, Berkeley"}, "ChIJXx6Y99N9hYARCdXpY-BZt5k": {"geometry": {"location": {"lat": 37.8558275, "lng": -122.2564867}, "viewport": {"northeast": {"lat": 37.85716488029149, "lng": -122.2552267697085}, "southwest": {"lat": 37.8544669197085, "lng": -122.2579247302915}}}, "icon": "https://maps.gstatic.com/mapfiles/place_api/icons/generic_business-71.png", "id": "52fa8a29519f244f391e0d85eec2952eaecfeb5d", "name": "Chi Guiang & Lee: Guiang Sixto F MD", "place_id": "ChIJXx6Y99N9hYARCdXpY-BZt5k", "plus_code": {"compound_code": "VP4V+8C Berkeley, California, United States", "global_code": "849VVP4V+8C"}, "reference": "ChIJXx6Y99N9hYARCdXpY-BZt5k", "scope": "GOOGLE", "types": ["doctor", "health", "point_of_interest", "establishment"], "vicinity": "2999 Regent Street, Berkeley"}, "ChIJtwSSLtJ9hYARXNxlfuZMNck": {"geometry": {"location": {"lat": 37.8559436, "lng": -122.2563715}, "viewport": {"northeast": {"lat": 37.85725808029149, "lng": -122.2551765197085}, "southwest": {"lat": 37.85456011970849, "lng": -122.2578744802915}}}, "icon": "https://maps.gstatic.com/mapfiles/place_api/icons/generic_business-71.png", "id": "36a6e1b73d22684917ffbc073a6e41dd8b92fe84", "name": "Grausz Investment Co", "place_id": "ChIJtwSSLtJ9hYARXNxlfuZMNck", "plus_code": {"compound_code": "VP4V+9F Berkeley, California, United States", "global_code": "849VVP4V+9F"}, "reference": "ChIJtwSSLtJ9hYARXNxlfuZMNck", "scope": "GOOGLE", "types": ["point_of_interest", "establishment"], "vicinity": "2999 Regent Street, Berkeley"}, "ChIJtwSSLtJ9hYARCNhxGhHgV6o": {"geometry": {"location": {"lat": 37.8559436, "lng": -122.2563715}, "viewport": {"northeast": {"lat": 37.85725808029149, "lng": -122.2551765197085}, "southwest": {"lat": 37.85456011970849, "lng": -122.2578744802915}}}, "icon": "https://maps.gstatic.com/mapfiles/place_api/icons/generic_business-71.png", "id": "692830250427a0b719de0397527275cea21217dc", "name": "Starr Tara MD", "place_id": "ChIJtwSSLtJ9hYARCNhxGhHgV6o", "plus_code": {"compound_code": "VP4V+9F Berkeley, California, United States", "global_code": "849VVP4V+9F"}, "rating": 5, "reference": "ChIJtwSSLtJ9hYARCNhxGhHgV6o", "scope": "GOOGLE", "types": ["doctor", "health", "point_of_interest", "establishment"], "vicinity": "2900 Telegraph Avenue, Berkeley"}, "ChIJtwSSLtJ9hYARhBM7jqrFEDs": {"geometry": {"location": {"lat": 37.8559436, "lng": -122.2563715}, "viewport": {"northeast": {"lat": 37.85725808029149, "lng": -122.2551765197085}, "southwest": {"lat": 37.85456011970849, "lng": -122.2578744802915}}}, "icon": "https://maps.gstatic.com/mapfiles/place_api/icons/generic_business-71.png", "id": "493820ed5d6de2bf56bfd363f01d5bb262d1378d", "name": "East Bay Obstetrics", "place_id": "ChIJtwSSLtJ9hYARhBM7jqrFEDs", "plus_code": {"compound_code": "VP4V+9F Berkeley, California, United States", "global_code": "849VVP4V+9F"}, "reference": "ChIJtwSSLtJ9hYARhBM7jqrFEDs", "scope": "GOOGLE", "types": ["doctor", "health", "point_of_interest", "establishment"], "vicinity": "2999 Regent Street, Berkeley"}, "ChIJtwSSLtJ9hYARVMVLOq4pQXE": {"geometry": {"location": {"lat": 37.8559436, "lng": -122.2563715}, "viewport": {"northeast": {"lat": 37.85725808029149, "lng": -122.2551765197085}, "southwest": {"lat": 37.85456011970849, "lng": -122.2578744802915}}}, "icon": "https://maps.gstatic.com/mapfiles/place_api/icons/generic_business-71.png", "id": "26e07ffc9472e3d115214cc8f1e132fee8e4f0f5", "name": "Bernstein Ralph B MD", "place_id": "ChIJtwSSLtJ9hYARVMVLOq4pQXE", "plus_code": {"compound_code": "VP4V+9F Berkeley, California, United States", "global_code": "849VVP4V+9F"}, "reference": "ChIJtwSSLtJ9hYARVMVLOq4pQXE", "scope": "GOOGLE", "types": ["doctor", "health", "point_of_interest", "establishment"], "vicinity": "2999 Regent Street # 425, Berkeley"}, "ChIJtwSSLtJ9hYARt8mfvU4Jo74": {"geometry": {"location": {"lat": 37.8559436, "lng": -122.2563715}, "viewport": {"northeast": {"lat": 37.85725808029149, "lng": -122.2551765197085}, "southwest": {"lat": 37.85456011970849, "lng": -122.2578744802915}}}, "icon": "https://maps.gstatic.com/mapfiles/place_api/icons/generic_business-71.png", "id": "4096340fdea8c484d712ae37191100c5b600431a", "name": "Hand Carolyn", "place_id": "ChIJtwSSLtJ9hYARt8mfvU4Jo74", "plus_code": {"compound_code": "VP4V+9F Berkeley, California, United States", "global_code": "849VVP4V+9F"}, "reference": "ChIJtwSSLtJ9hYARt8mfvU4Jo74", "scope": "GOOGLE", "types": ["doctor", "health", "point_of_interest", "establishment"], "vicinity": "2999 Regent Street # 301, Berkeley"}, "ChIJZdbtK9J9hYARH77uYsreDPE": {"geometry": {"location": {"lat": 37.8559437, "lng": -122.2563715}, "viewport": {"northeast": {"lat": 37.8572722302915, "lng": -122.2551794697085}, "southwest": {"lat": 37.8545742697085, "lng": -122.2578774302915}}}, "icon": "https://maps.gstatic.com/mapfiles/place_api/icons/generic_business-71.png", "id": "d7759d55d101530b39c2b38c2a12f351d5d50dc0", "name": "David A. Benson, DDS", "place_id": "ChIJZdbtK9J9hYARH77uYsreDPE", "plus_code": {"compound_code": "VP4V+9F Berkeley, California, United States", "global_code": "849VVP4V+9F"}, "rating": 3, "reference": "ChIJZdbtK9J9hYARH77uYsreDPE", "scope": "GOOGLE", "types": ["dentist", "health", "point_of_interest", "establishment"], "vicinity": "2999 Regent Street #502, Berkeley"}}