{"ChIJFQ7qQ9d9hYARd492Csj4RDU": {"geometry": {"location": {"lat": 37.850144, "lng": -122.2608804}, "viewport": {"northeast": {"lat": 37.8514929802915, "lng": -122.2595314197085}, "southwest": {"lat": 37.8487950197085, "lng": -122.2622293802915}}}, "icon": "https://maps.gstatic.com/mapfiles/place_api/icons/geocode-71.png", "id": "817c6e303fd734888b0419bd6f3f483bcf97874b", "name": "500-518 Alcatraz Ave", "place_id": "ChIJFQ7qQ9d9hYARd492Csj4RDU", "reference": "ChIJFQ7qQ9d9hYARd492Csj4RDU", "scope": "GOOGLE", "types": ["route"], "vicinity": "Oakland"}, "ChIJOwXxXNd9hYARSCfMao35Pm0": {"geometry": {"location": {"lat": 37.849792, "lng": -122.260905}, "viewport": {"northeast": {"lat": 37.85112588029151, "lng": -122.2593931197085}, "southwest": {"lat": 37.84842791970851, "lng": -122.2620910802915}}}, "icon": "https://maps.gstatic.com/mapfiles/place_api/icons/generic_business-71.png", "id": "9ced31c5be92774f8f15500898fbede48cc5a9e6", "name": "Total Estate Liquidation", "opening_hours": {"open_now": false}, "place_id": "ChIJOwXxXNd9hYARSCfMao35Pm0", "rating": 5, "reference": "ChIJOwXxXNd9hYARSCfMao35Pm0", "scope": "GOOGLE", "types": ["finance", "clothing_store", "home_goods_store", "store", "point_of_interest", "establishment"], "vicinity": "6371 Telegraph Avenue, Oakland"}, "ChIJx6cjQ9d9hYARxJ98tnKGGt8": {"geometry": {"location": {"lat": 37.849953, "lng": -122.260925}, "viewport": {"northeast": {"lat": 37.85139178029149, "lng": -122.2595955697085}, "southwest": {"lat": 37.84869381970849, "lng": -122.2622935302915}}}, "icon": "https://maps.gstatic.com/mapfiles/place_api/icons/generic_business-71.png", "id": "b1b08c284a1240a9f820cdaa994e0478b96633ea", "name": "Bay Pet Sitting", "opening_hours": {"open_now": true}, "photos": [{"height": 1360, "html_attributions": ["<a href=\"https://maps.google.com/maps/contrib/103050617713730863808/photos\">Bay Pet Sitting</a>"], "photo_reference": "CmRaAAAAuevVAzUU9OvkTLAlwGdIOevvQMWHV-i9FeOkb2ydnftOyDghe9pWOSUXbVFsz0fML4OTIVHIV7bEgc5CfBC5RnxY_Olc6brVZpXyyCrgtMDJEXh_X8M6dkt5eM4E4PnrEhDxFKmIMN32iY1XHa7PXFktGhR-9wU4wOKwD0z3rONhVwE8J4dvtw", "width": 2048}], "place_id": "ChIJx6cjQ9d9hYARxJ98tnKGGt8", "reference": "ChIJx6cjQ9d9hYARxJ98tnKGGt8", "scope": "GOOGLE", "types": ["point_of_interest", "establishment"], "vicinity": "505 Alcatraz Avenue, Oakland"}, "ChIJjXmjRdd9hYARMloCBr8nS-4": {"geometry": {"location": {"lat": 37.8500175, "lng": -122.2609356}, "viewport": {"northeast": {"lat": 37.85134843029149, "lng": -122.2593920697085}, "southwest": {"lat": 37.8486504697085, "lng": -122.2620900302915}}}, "icon": "https://maps.gstatic.com/mapfiles/place_api/icons/generic_business-71.png", "id": "29447d4c20b42c332ac3c7c48b8039207dd4a1dc", "name": "Glama-Rama Salon", "opening_hours": {"open_now": false}, "photos": [{"height": 678, "html_attributions": ["<a href=\"https://maps.google.com/maps/contrib/103648665829625968558/photos\">Glama-Rama Salon</a>"], "photo_reference": "CmRaAAAAotflnRwfZ3UfzldkJXjMsgqSunrqCFT3qH8-fszCQDK_S_Ek5jD-Ds8z2AXl_HPq2Me31oeQUca8TI6PSy4ciT5aup-AITed3cjKuC2fyAvovMU9jiBQG_GTSq5p62tkEhCakbshtoDyXvi6hGkDTvopGhTjvaz-SPBRvvtUeUkI36HQAvrafw", "width": 678}], "place_id": "ChIJjXmjRdd9hYARMloCBr8nS-4", "plus_code": {"compound_code": "VP2Q+2J Oakland, California, United States", "global_code": "849VVP2Q+2J"}, "rating": 4.4, "reference": "ChIJjXmjRdd9hYARMloCBr8nS-4", "scope": "GOOGLE", "types": ["hair_care", "point_of_interest", "establishment"], "vicinity": "6399 Telegraph Avenue, Oakland"}, "ChIJVU8G2tZ9hYAR6J5KPJ-g_8Y": {"geometry": {"location": {"lat": 37.8500145, "lng": -122.2609089}, "viewport": {"northeast": {"lat": 37.85134668029149, "lng": -122.2593787697085}, "southwest": {"lat": 37.84864871970849, "lng": -122.2620767302915}}}, "icon": "https://maps.gstatic.com/mapfiles/place_api/icons/generic_business-71.png", "id": "a3f2da59bd73143a270f50488191f8de66ff935d", "name": "Nick Meinzer, hairdresser", "opening_hours": {"open_now": false}, "photos": [{"height": 717, "html_attributions": ["<a href=\"https://maps.google.com/maps/contrib/113986797669050633391/photos\">Nick Meinzer, hairdresser</a>"], "photo_reference": "CmRaAAAAJUXnMt5riiYVM1Rcvj47KPQXcSZAgWvLeUJlTUCuBUFrMh_E3QrNBQaDhWVXjofOFwpuqwxXNJJMW9bz48HRskVf6aLM-OhgiEtiIEr_lAQ8fPxQI1YCUeZdbsqxilnCEhCPXsymtXP48IYXLdLfxPwSGhTbrwpiJozJ_UtA_tS8axzJmqN5bg", "width": 960}], "place_id": "ChIJVU8G2tZ9hYAR6J5KPJ-g_8Y", "plus_code": {"compound_code": "VP2Q+2J Oakland, California, United States", "global_code": "849VVP2Q+2J"}, "rating": 5, "reference": "ChIJVU8G2tZ9hYAR6J5KPJ-g_8Y", "scope": "GOOGLE", "types": ["beauty_salon", "hair_care", "health", "point_of_interest", "establishment"], "vicinity": "6399 Telegraph Avenue, Oakland"}, "ChIJAyIGQ9d9hYARsP6nnkPuL3o": {"geometry": {"location": {"lat": 37.850114, "lng": -122.260991}, "viewport": {"northeast": {"lat": 37.8514465302915, "lng": -122.2596384697085}, "southwest": {"lat": 37.8487485697085, "lng": -122.2623364302915}}}, "icon": "https://maps.gstatic.com/mapfiles/place_api/icons/generic_business-71.png", "id": "2afc4a7146d6f6c190f0ce86bb8718e36770496d", "name": "Glama-Rama Salon", "opening_hours": {"open_now": false}, "photos": [{"height": 2448, "html_attributions": ["<a href=\"https://maps.google.com/maps/contrib/114445015861189237017/photos\">Glama-Rama Salon</a>"], "photo_reference": "CmRaAAAAyyby8A5dbgw4eRiPxbiTkIX6RUN-U5zDb9k3lqDv1PHMup7W7TtCBtuY5SIimEfb6zpV_1VBNI-ZLXK0qp_k-QEBHUyza3Y5dHBUN7-osrui6u_7SVNgTzr7JwqAI9CaEhBkWuhR-JCYZoThnp3VgWCOGhSYgDR-gL4c-B5Ewafv32PwrVBalg", "width": 3264}], "place_id": "ChIJAyIGQ9d9hYARsP6nnkPuL3o", "plus_code": {"compound_code": "VP2Q+2J Oakland, California, United States", "global_code": "849VVP2Q+2J"}, "rating": 5, "reference": "ChIJAyIGQ9d9hYARsP6nnkPuL3o", "scope": "GOOGLE", "types": ["hair_care", "health", "point_of_interest", "establishment"], "vicinity": "507 Alcatraz Avenue, Oakland"}, "ChIJswRxXNd9hYARcog-MSv75Rs": {"geometry": {"location": {"lat": 37.8498165, "lng": -122.2608868}, "viewport": {"northeast": {"lat": 37.8511510302915, "lng": -122.2593821197085}, "southwest": {"lat": 37.8484530697085, "lng": -122.2620800802915}}}, "icon": "https://maps.gstatic.com/mapfiles/place_api/icons/atm-71.png", "id": "6aa7f6ef955cf55db42faa0d122fca152667f0f2", "name": "Access ATM, Inc.", "place_id": "ChIJswRxXNd9hYARcog-MSv75Rs", "plus_code": {"compound_code": "RPXQ+WJ Oakland, California, United States", "global_code": "849VRPXQ+WJ"}, "reference": "ChIJswRxXNd9hYARcog-MSv75Rs", "scope": "GOOGLE", "types": ["atm", "finance", "point_of_interest", "establishment"], "vicinity": "6363 Telegraph Avenue, Oakland"}, "ChIJA-2qKIt9hYARZ5N1NdUVtHE": {"geometry": {"location": {"lat": 37.8043637, "lng": -122.2711137}, "viewport": {"northeast": {"lat": 37.88472489999999, "lng": -122.114775}, "southwest": {"lat": 37.6322259, "lng": -122.355881}}}, "icon": "https://maps.gstatic.com/mapfiles/place_api/icons/geocode-71.png", "id": "da4a4da21e013f9d3a24e8eee6d4f84de02148d3", "name": "Oakland", "photos": [{"height": 2848, "html_attributions": ["<a href=\"https://maps.google.com/maps/contrib/113300206259949994494/photos\">Cimino Alberto</a>"], "photo_reference": "CmRaAAAAAlOkbfQ6kazJTyXG_m8LzzoYwOR10tg8YdD7O6Fyd40WBun6vxRMN0ljNZc3LqaZ6p8pCF9C-QssGp9Nhv4Uhvzpk2h5wZ309iMbejByMI2jnaepnpCp8rg9dHH4E_SNEhC1uGV15adXvwBLD30-oNpVGhStM-3iFGhPirhD78vAVqvJzi41lA", "width": 4256}], "place_id": "ChIJA-2qKIt9hYARZ5N1NdUVtHE", "reference": "ChIJA-2qKIt9hYARZ5N1NdUVtHE", "scope": "GOOGLE", "types": ["locality", "political"], "vicinity": "Oakland"}}