{"ChIJvRy9LQt-hYARD9WB26BV6eI": {"geometry": {"location": {"lat": 37.8371787, "lng": -122.2688345}, "viewport": {"northeast": {"lat": 37.83852763029149, "lng": -122.2674854697085}, "southwest": {"lat": 37.8358296697085, "lng": -122.2701834302915}}}, "icon": "https://maps.gstatic.com/mapfiles/place_api/icons/geocode-71.png", "id": "d978c342a2cb42afefe9323b90649c20a35fb40a", "name": "800 52nd St", "place_id": "ChIJvRy9LQt-hYARD9WB26BV6eI", "reference": "ChIJvRy9LQt-hYARD9WB26BV6eI", "scope": "GOOGLE", "types": ["route"], "vicinity": "Oakland"}, "ChIJM4-iMQt-hYARtfR2kdrdY0k": {"geometry": {"location": {"lat": 37.8371491, "lng": -122.2688581}, "viewport": {"northeast": {"lat": 37.83849808029149, "lng": -122.2675091197085}, "southwest": {"lat": 37.83580011970849, "lng": -122.2702070802915}}}, "icon": "https://maps.gstatic.com/mapfiles/place_api/icons/worship_general-71.png", "id": "88436c00e35560c04be6a8b0f39a3a77b90ab90d", "name": "International Apostolic Church of Bay Area", "opening_hours": {"open_now": false}, "photos": [{"height": 357, "html_attributions": ["<a href=\"https://maps.google.com/maps/contrib/115880032693944710724/photos\">International Apostolic Church of Bay Area</a>"], "photo_reference": "CmRaAAAA2hHfEQNU1DkcyAgPamDJQ_OrUZk09EpwNdmO6zELTvfpF3hCx7PUFFRoYA6OJlLDkqqgtPk2AOn6iAOS6Ewgm9EkifB7qVWTwbTQ_pnSmnkehP4zW8mq_PGgJYdyWFyjEhB-jrvzlv6zr4lEWZiF_vYwGhR23Ua2uXljmTW6F1McJ5C2tLRQlg", "width": 357}], "place_id": "ChIJM4-iMQt-hYARtfR2kdrdY0k", "plus_code": {"compound_code": "RPPJ+VF Oakland, California, United States", "global_code": "849VRPPJ+VF"}, "rating": 5, "reference": "ChIJM4-iMQt-hYARtfR2kdrdY0k", "scope": "GOOGLE", "types": ["church", "place_of_worship", "point_of_interest", "establishment"], "vicinity": "4101 Park Boulevard, Oakland"}, "ChIJycml0nR-hYARyZf0_gGY4hY": {"geometry": {"location": {"lat": 37.837309, "lng": -122.268881}, "viewport": {"northeast": {"lat": 37.83865798029149, "lng": -122.2675320197085}, "southwest": {"lat": 37.83596001970849, "lng": -122.2702299802915}}}, "icon": "https://maps.gstatic.com/mapfiles/place_api/icons/bus-71.png", "id": "c7a3915dd4c49c390ac184d67468c060dbd843dc", "name": "Martin Luther King Jr Way:52nd St(Childrens Hosp.)", "place_id": "ChIJycml0nR-hYARyZf0_gGY4hY", "plus_code": {"compound_code": "RPPJ+WC Oakland, California, United States", "global_code": "849VRPPJ+WC"}, "reference": "ChIJycml0nR-hYARyZf0_gGY4hY", "scope": "GOOGLE", "types": ["bus_station", "transit_station", "point_of_interest", "establishment"], "vicinity": "United States"}, "ChIJA-2qKIt9hYARZ5N1NdUVtHE": {"geometry": {"location": {"lat": 37.8043637, "lng": -122.2711137}, "viewport": {"northeast": {"lat": 37.88472489999999, "lng": -122.114775}, "southwest": {"lat": 37.6322259, "lng": -122.355881}}}, "icon": "https://maps.gstatic.com/mapfiles/place_api/icons/geocode-71.png", "id": "da4a4da21e013f9d3a24e8eee6d4f84de02148d3", "name": "Oakland", "photos": [{"height": 2848, "html_attributions": ["<a href=\"https://maps.google.com/maps/contrib/113300206259949994494/photos\">Cimino Alberto</a>"], "photo_reference": "CmRaAAAAOt5q8LjabiI56tOpKHcn8-Up2tywYxqLBi4i6NVzjoJg8QXFFCsn3gMQj4j6FBW_Sy1Wm-iyGPg8udeqWtWJvIiru5cdejbwI5oTRWZSieLvXEjzrNBqBNYOQS_Uc2lGEhDGtY8Z9UISVu6qJIcm4IVDGhT_QkVUYC23_72OeQnUgs75eq6gIg", "width": 4256}], "place_id": "ChIJA-2qKIt9hYARZ5N1NdUVtHE", "reference": "ChIJA-2qKIt9hYARZ5N1NdUVtHE", "scope": "GOOGLE", "types": ["locality", "political"], "vicinity": "Oakland"}}