{"ChIJ00mFOjZ5hYARk-l1ppUV6pQ": {"geometry": {"location": {"lat": 37.8715926, "lng": -122.272747}, "viewport": {"northeast": {"lat": 37.9058239, "lng": -122.234179}, "southwest": {"lat": 37.835727, "lng": -122.367781}}}, "icon": "https://maps.gstatic.com/mapfiles/place_api/icons/geocode-71.png", "id": "00741fe572fc4084428ab206e1a55830f6a1bf0a", "name": "Berkeley", "photos": [{"height": 1080, "html_attributions": ["<a href=\"https://maps.google.com/maps/contrib/110244590763501513798/photos\">miao hsin sun</a>"], "photo_reference": "CmRaAAAAXlr7LmS5DEh4gQUfRxpP6879aErL1fWBR4-gYYGZi6-M8NEMFL9DB-GtALYBA3DvD3hKOQCIUkIK4bBHvemDntelnQO0LeR1bljPYLFsbmcwWypZy4qQxok8LObpg6ZcEhALb2rvDbvDd55d3s8WgfYNGhRYO7JBu5n5fPWBE9o39-BQjf_MaA", "width": 1616}], "place_id": "ChIJ00mFOjZ5hYARk-l1ppUV6pQ", "reference": "ChIJ00mFOjZ5hYARk-l1ppUV6pQ", "scope": "GOOGLE", "types": ["locality", "political"], "vicinity": "Berkeley"}, "ChIJYR7MLJx-hYAR4fDdofEjjEk": {"geometry": {"location": {"lat": 37.870482, "lng": -122.268246}, "viewport": {"northeast": {"lat": 37.87183098029149, "lng": -122.2668970197085}, "southwest": {"lat": 37.8691330197085, "lng": -122.2695949802915}}}, "icon": "https://maps.gstatic.com/mapfiles/place_api/icons/bus-71.png", "id": "5d83b0a0e8d58b11fac041451e96f9b220591b83", "name": "Shattuck Av:Center St", "place_id": "ChIJYR7MLJx-hYAR4fDdofEjjEk", "plus_code": {"compound_code": "VPCJ+5P Berkeley, California, United States", "global_code": "849VVPCJ+5P"}, "reference": "ChIJYR7MLJx-hYAR4fDdofEjjEk", "scope": "GOOGLE", "types": ["bus_station", "transit_station", "point_of_interest", "establishment"], "vicinity": "United States"}, "ChIJD8moRJx-hYAR7BXWvEzpmu4": {"geometry": {"location": {"lat": 37.86925839999999, "lng": -122.2696423}, "viewport": {"northeast": {"lat": 37.8741589, "lng": -122.2652363}, "southwest": {"lat": 37.8633603, "lng": -122.2731972}}}, "icon": "https://maps.gstatic.com/mapfiles/place_api/icons/geocode-71.png", "id": "72a7e171648a38e6b00f53d19a3a99c70c740e6a", "name": "Downtown Berkeley", "photos": [{"height": 3036, "html_attributions": ["<a href=\"https://maps.google.com/maps/contrib/117309159571340926899/photos\">Ethan Cheng</a>"], "photo_reference": "CmRaAAAAjJJo1V0E23XWMfiMr_H9KACtEiiQ92F1dHVBD_4l-Ny6dfhxQqCdSKbkDqbl5WNyy60_bVVwRtoDSoRauK_vRlo5j9xwDt163cWMBv9-ZjbEdGbYi8jAXJiILVNL8xeYEhC1AIC6LX70lQLdpiBd-BARGhSPwt3uDMTMKk8vCGEGYC8mpAEQFQ", "width": 4048}], "place_id": "ChIJD8moRJx-hYAR7BXWvEzpmu4", "reference": "ChIJD8moRJx-hYAR7BXWvEzpmu4", "scope": "GOOGLE", "types": ["neighborhood", "political"], "vicinity": "Berkeley"}}